[{"id": "yZs_A8r0qDz7Z5bR0C-aiQ", "alias": "black-tap-midtown-new-york-3", "name": "Black Tap - Midtown", "image_url": "https://s3-media3.fl.yelpcdn.com/bphoto/5H74j5vO3EKgHTBUqne3cQ/o.jpg", "is_closed": false, "url": "https://www.yelp.com/biz/black-tap-midtown-new-york-3?adjust_creative=h5HwbyQ0TYvQjBo6Ys5Bgw&utm_campaign=yelp_api_v3&utm_medium=api_v3_business_search&utm_source=h5HwbyQ0TYvQjBo6Ys5Bgw", "review_count": 1185, "categories": [{"alias": "burgers", "title": "Burgers"}, {"alias": "bars", "title": "Bars"}], "rating": 4.0, "coordinates": {"latitude": 40.76347, "longitude": -73.97978}, "transactions": ["delivery", "pickup"], "price": "$$", "location": {"address1": "136 W 55th St", "address2": "", "address3": null, "city": "New York", "zip_code": "10019", "country": "US", "state": "NY", "display_address": ["136 W 55th St", "New York, NY 10019"]}, "phone": "+12123154356", "display_phone": "(212) 315-4356", "distance": 20.388123075543955}, {"id": "43r4ynjeIZeQI1w7SWARuQ", "alias": "topaz-noodle-bar-new-york", "name": "Topaz Noodle Bar", "image_url": "https://s3-media3.fl.yelpcdn.com/bphoto/fH4T7mjC4PGAuMxv0NdkSQ/o.jpg", "is_closed": false, "url": "https://www.yelp.com/biz/topaz-noodle-bar-new-york?adjust_creative=h5HwbyQ0TYvQjBo6Ys5Bgw&utm_campaign=yelp_api_v3&utm_medium=api_v3_business_search&utm_source=h5HwbyQ0TYvQjBo6Ys5Bgw", "review_count": 657, "categories": [{"alias": "thai", "title": "Thai"}, {"alias": "noodles", "title": "Noodles"}], "rating": 4.0, "coordinates": {"latitude": 40.7644424438477, "longitude": -73.9789733886719}, "transactions": ["restaurant_reservation", "delivery", "pickup"], "price": "$$", "location": {"address1": "129 W 56th St", "address2": "", "address3": "", "city": "New York", "zip_code": "10019", "country": "US", "state": "NY", "display_address": ["129 W 56th St", "New York, NY 10019"]}, "phone": "+12122472277", "display_phone": "(212) 247-2277", "distance": 142.27292480191693}, {"id": "tmzWZtu9Nimn7Hfas9XmcA", "alias": "quality-bistro-new-york-3", "name": "Quality Bistro", "image_url": "https://s3-media3.fl.yelpcdn.com/bphoto/vhQmUEenntGSEg977G6oBA/o.jpg", "is_closed": false, "url": "https://www.yelp.com/biz/quality-bistro-new-york-3?adjust_creative=h5HwbyQ0TYvQjBo6Ys5Bgw&utm_campaign=yelp_api_v3&utm_medium=api_v3_business_search&utm_source=h5HwbyQ0TYvQjBo6Ys5Bgw", "review_count": 27, "categories": [{"alias": "french", "title": "French"}], "rating": 4.5, "coordinates": {"latitude": 40.76306, "longitude": -73.9786}, "transactions": [], "price": "$$$", "location": {"address1": "120 W 55th St", "address2": null, "address3": null, "city": "New York", "zip_code": "10019", "country": "US", "state": "NY", "display_address": ["120 W 55th St", "New York, NY 10019"]}, "phone": "+12124333330", "display_phone": "(212) 433-3330", "distance": 44.83388375531456}, {"id": "fAe8n5o-haxmSvEaHSQ9wQ", "alias": "copper-john-s-pub-kitchen-new-york", "name": "Copper John\u2019s Pub + Kitchen", "image_url": "https://s3-media3.fl.yelpcdn.com/bphoto/vWMryb0Yy-XDk-gapGsxFg/o.jpg", "is_closed": false, "url": "https://www.yelp.com/biz/copper-john-s-pub-kitchen-new-york?adjust_creative=h5HwbyQ0TYvQjBo6Ys5Bgw&utm_campaign=yelp_api_v3&utm_medium=api_v3_business_search&utm_source=h5HwbyQ0TYvQjBo6Ys5Bgw", "review_count": 71, "categories": [{"alias": "pubs", "title": "Pubs"}, {"alias": "burgers", "title": "Burgers"}, {"alias": "sportsbars", "title": "Sports Bars"}], "rating": 4.0, "coordinates": {"latitude": 40.763298545058, "longitude": -73.9810534410626}, "transactions": ["restaurant_reservation"], "price": "$$", "location": {"address1": "160 W 54th St", "address2": "", "address3": null, "city": "New York", "zip_code": "10019", "country": "US", "state": "NY", "display_address": ["160 W 54th St", "New York, NY 10019"]}, "phone": "+12124714860", "display_phone": "(212) 471-4860", "distance": 106.59585834670439}, {"id": "mhhTORjUdXj-UIDjyGmhBg", "alias": "estiatorio-milos-midtown-new-york-new-york", "name": "Estiatorio Milos - Midtown New York", "image_url": "https://s3-media1.fl.yelpcdn.com/bphoto/MHD33qCbDYiAqSjW592B6g/o.jpg", "is_closed": false, "url": "https://www.yelp.com/biz/estiatorio-milos-midtown-new-york-new-york?adjust_creative=h5HwbyQ0TYvQjBo6Ys5Bgw&utm_campaign=yelp_api_v3&utm_medium=api_v3_business_search&utm_source=h5HwbyQ0TYvQjBo6Ys5Bgw", "review_count": 895, "categories": [{"alias": "seafood", "title": "Seafood"}, {"alias": "greek", "title": "Greek"}, {"alias": "mediterranean", "title": "Mediterranean"}], "rating": 4.0, "coordinates": {"latitude": 40.76368, "longitude": -73.97922}, "transactions": ["delivery", "pickup"], "price": "$$$$", "location": {"address1": "125 W 55th St", "address2": "", "address3": "", "city": "New York", "zip_code": "10019", "country": "US", "state": "NY", "display_address": ["125 W 55th St", "New York, NY 10019"]}, "phone": "+12122457400", "display_phone": "(212) 245-7400", "distance": 69.26628457871043}, {"id": "wyjtGsW5NeVDknGQWnIPAQ", "alias": "wagamama-midtown-new-york", "name": "wagamama - midtown", "image_url": "https://s3-media2.fl.yelpcdn.com/bphoto/FiLA9SXWXwWn5HSKjVkn6w/o.jpg", "is_closed": false, "url": "https://www.yelp.com/biz/wagamama-midtown-new-york?adjust_creative=h5HwbyQ0TYvQjBo6Ys5Bgw&utm_campaign=yelp_api_v3&utm_medium=api_v3_business_search&utm_source=h5HwbyQ0TYvQjBo6Ys5Bgw", "review_count": 18, "categories": [{"alias": "asianfusion", "title": "Asian Fusion"}], "rating": 4.0, "coordinates": {"latitude": 40.7629, "longitude": -73.9781574}, "transactions": ["delivery", "pickup"], "price": "$$", "location": {"address1": "100 W 55th St", "address2": null, "address3": "", "city": "New York", "zip_code": "10019", "country": "US", "state": "NY", "display_address": ["100 W 55th St", "New York, NY 10019"]}, "phone": "+13329006111", "display_phone": "(332) 900-6111", "distance": 127.76593360258785}, {"id": "neQM053ovAOrf1sVSAPI9w", "alias": "radiance-tea-house-and-books-new-york-2", "name": "Radiance Tea House and Books", "image_url": "https://s3-media2.fl.yelpcdn.com/bphoto/anVDDCm1UhTogH1V8kbTpg/o.jpg", "is_closed": false, "url": "https://www.yelp.com/biz/radiance-tea-house-and-books-new-york-2?adjust_creative=h5HwbyQ0TYvQjBo6Ys5Bgw&utm_campaign=yelp_api_v3&utm_medium=api_v3_business_search&utm_source=h5HwbyQ0TYvQjBo6Ys5Bgw", "review_count": 850, "categories": [{"alias": "asianfusion", "title": "Asian Fusion"}, {"alias": "tea", "title": "Tea Rooms"}, {"alias": "chinese", "title": "Chinese"}], "rating": 4.0, "coordinates": {"latitude": 40.7639799, "longitude": -73.98065}, "transactions": [], "price": "$$", "location": {"address1": "158 W 55th St", "address2": "", "address3": "", "city": "New York", "zip_code": "10019", "country": "US", "state": "NY", "display_address": ["158 W 55th St", "New York, NY 10019"]}, "phone": "+12122170442", "display_phone": "(212) 217-0442", "distance": 86.99133448614845}, {"id": "XxLGYdB0s8IkZ9QZtGKBZA", "alias": "burger-joint-new-york", "name": "Burger Joint", "image_url": "https://s3-media4.fl.yelpcdn.com/bphoto/l6V8FttRctV4SmzvaiyMvw/o.jpg", "is_closed": false, "url": "https://www.yelp.com/biz/burger-joint-new-york?adjust_creative=h5HwbyQ0TYvQjBo6Ys5Bgw&utm_campaign=yelp_api_v3&utm_medium=api_v3_business_search&utm_source=h5HwbyQ0TYvQjBo6Ys5Bgw", "review_count": 2312, "categories": [{"alias": "tradamerican", "title": "American (Traditional)"}, {"alias": "burgers", "title": "Burgers"}], "rating": 3.5, "coordinates": {"latitude": 40.7642604687359, "longitude": -73.978533363932}, "transactions": ["delivery", "pickup"], "price": "$$", "location": {"address1": "119 W 56th St", "address2": "", "address3": "", "city": "New York", "zip_code": "10019", "country": "US", "state": "NY", "display_address": ["119 W 56th St", "New York, NY 10019"]}, "phone": "+12127087414", "display_phone": "(212) 708-7414", "distance": 149.59084257377648}, {"id": "QCpJlezYJnkZYNat-XYXYw", "alias": "topaz-thai-authentic-new-york", "name": "Topaz Thai Authentic", "image_url": "https://s3-media4.fl.yelpcdn.com/bphoto/BPIgAhdQzSFsLrUY8DUARw/o.jpg", "is_closed": false, "url": "https://www.yelp.com/biz/topaz-thai-authentic-new-york?adjust_creative=h5HwbyQ0TYvQjBo6Ys5Bgw&utm_campaign=yelp_api_v3&utm_medium=api_v3_business_search&utm_source=h5HwbyQ0TYvQjBo6Ys5Bgw", "review_count": 813, "categories": [{"alias": "thai", "title": "Thai"}], "rating": 3.5, "coordinates": {"latitude": 40.7644157409668, "longitude": -73.9789047241211}, "transactions": ["delivery", "pickup"], "price": "$$", "location": {"address1": "127 W 56th St", "address2": "", "address3": "", "city": "New York", "zip_code": "10019", "country": "US", "state": "NY", "display_address": ["127 W 56th St", "New York, NY 10019"]}, "phone": "+12129578020", "display_phone": "(212) 957-8020", "distance": 144.11112902622253}, {"id": "9J2enP8kZHSEhCMbRaR_Wg", "alias": "the-irish-pub-new-york", "name": "The Irish Pub", "image_url": "https://s3-media3.fl.yelpcdn.com/bphoto/3kzvqUkBOYgeBrChZRPNOw/o.jpg", "is_closed": false, "url": "https://www.yelp.com/biz/the-irish-pub-new-york?adjust_creative=h5HwbyQ0TYvQjBo6Ys5Bgw&utm_campaign=yelp_api_v3&utm_medium=api_v3_business_search&utm_source=h5HwbyQ0TYvQjBo6Ys5Bgw", "review_count": 206, "categories": [{"alias": "sportsbars", "title": "Sports Bars"}, {"alias": "newamerican", "title": "American (New)"}, {"alias": "irish_pubs", "title": "Irish Pub"}], "rating": 3.5, "coordinates": {"latitude": 40.763281, "longitude": -73.981343}, "transactions": ["delivery", "pickup"], "price": "$$", "location": {"address1": "837 7th Ave", "address2": "", "address3": "", "city": "New York", "zip_code": "10019", "country": "US", "state": "NY", "display_address": ["837 7th Ave", "New York, NY 10019"]}, "phone": "+12126649364", "display_phone": "(212) 664-9364", "distance": 132.21494093889658}, {"id": "1_pK5aQ47atF50oAKHADhA", "alias": "indian-accent-new-york", "name": "Indian Accent", "image_url": "https://s3-media2.fl.yelpcdn.com/bphoto/QJrR6LJt07yYb9lNLLbLVQ/o.jpg", "is_closed": false, "url": "https://www.yelp.com/biz/indian-accent-new-york?adjust_creative=h5HwbyQ0TYvQjBo6Ys5Bgw&utm_campaign=yelp_api_v3&utm_medium=api_v3_business_search&utm_source=h5HwbyQ0TYvQjBo6Ys5Bgw", "review_count": 571, "categories": [{"alias": "indpak", "title": "Indian"}], "rating": 4.5, "coordinates": {"latitude": 40.7643344624229, "longitude": -73.9787312885132}, "transactions": [], "price": "$$$$", "location": {"address1": "123 W 56th St", "address2": "", "address3": "", "city": "New York", "zip_code": "10019", "country": "US", "state": "NY", "display_address": ["123 W 56th St", "New York, NY 10019"]}, "phone": "+12128428070", "display_phone": "(212) 842-8070", "distance": 144.7184295776464}, {"id": "HjOhS41Eny0TEoCSpPVgGA", "alias": "dabble-new-york", "name": "Dabble", "image_url": "https://s3-media2.fl.yelpcdn.com/bphoto/gSrxcf-7fbBeWAH3RrztAA/o.jpg", "is_closed": false, "url": "https://www.yelp.com/biz/dabble-new-york?adjust_creative=h5HwbyQ0TYvQjBo6Ys5Bgw&utm_campaign=yelp_api_v3&utm_medium=api_v3_business_search&utm_source=h5HwbyQ0TYvQjBo6Ys5Bgw", "review_count": 11, "categories": [{"alias": "bars", "title": "Bars"}, {"alias": "breakfast_brunch", "title": "Breakfast & Brunch"}, {"alias": "newamerican", "title": "American (New)"}], "rating": 3.5, "coordinates": {"latitude": 40.763451, "longitude": -73.9805361}, "transactions": [], "location": {"address1": "151 W 54th St", "address2": "", "address3": null, "city": "New York", "zip_code": "10019", "country": "US", "state": "NY", "display_address": ["151 W 54th St", "New York, NY 10019"]}, "phone": "+12124688898", "display_phone": "(212) 468-8898", "distance": 64.99320797041807}, {"id": "PK-ohmmqEQXipgm_U8JjrA", "alias": "tisserie-new-york-2", "name": "Tisserie", "image_url": "https://s3-media1.fl.yelpcdn.com/bphoto/96P_0o2Oa38bnCG-KeLRBQ/o.jpg", "is_closed": false, "url": "https://www.yelp.com/biz/tisserie-new-york-2?adjust_creative=h5HwbyQ0TYvQjBo6Ys5Bgw&utm_campaign=yelp_api_v3&utm_medium=api_v3_business_search&utm_source=h5HwbyQ0TYvQjBo6Ys5Bgw", "review_count": 358, "categories": [{"alias": "cafes", "title": "Cafes"}, {"alias": "bakeries", "title": "Bakeries"}, {"alias": "coffee", "title": "Coffee & Tea"}], "rating": 4.0, "coordinates": {"latitude": 40.7643662648707, "longitude": -73.9810570774322}, "transactions": ["delivery", "pickup"], "price": "$", "location": {"address1": "870 7th Ave", "address2": "", "address3": "", "city": "New York", "zip_code": "10019", "country": "US", "state": "NY", "display_address": ["870 7th Ave", "New York, NY 10019"]}, "phone": "+19174092891", "display_phone": "(917) 409-2891", "distance": 158.97228063620054}, {"id": "7dYie1rBWQVxfcGbYYTYCw", "alias": "mondani-manhattan", "name": "Mondani", "image_url": "", "is_closed": false, "url": "https://www.yelp.com/biz/mondani-manhattan?adjust_creative=h5HwbyQ0TYvQjBo6Ys5Bgw&utm_campaign=yelp_api_v3&utm_medium=api_v3_business_search&utm_source=h5HwbyQ0TYvQjBo6Ys5Bgw", "review_count": 1, "categories": [{"alias": "italian", "title": "Italian"}], "rating": 5.0, "coordinates": {"latitude": 40.7622838521832, "longitude": -73.9810564676794}, "transactions": [], "location": {"address1": "7TH Ave", "address2": "", "address3": "", "city": "Manhattan", "zip_code": "10019", "country": "US", "state": "NY", "display_address": ["7TH Ave", "Manhattan, NY 10019"]}, "phone": "", "display_phone": "", "distance": 156.16130775684687}, {"id": "_B7pTmtDkPE7F1dNR_DGRA", "alias": "stage-star-deli-new-york", "name": "Stage Star Deli", "image_url": "https://s3-media1.fl.yelpcdn.com/bphoto/HYNukzay21281iFVouSIzw/o.jpg", "is_closed": false, "url": "https://www.yelp.com/biz/stage-star-deli-new-york?adjust_creative=h5HwbyQ0TYvQjBo6Ys5Bgw&utm_campaign=yelp_api_v3&utm_medium=api_v3_business_search&utm_source=h5HwbyQ0TYvQjBo6Ys5Bgw", "review_count": 67, "categories": [{"alias": "delis", "title": "Delis"}, {"alias": "sandwiches", "title": "Sandwiches"}, {"alias": "salad", "title": "Salad"}], "rating": 3.0, "coordinates": {"latitude": 40.7634735107422, "longitude": -73.9785995483398}, "transactions": ["delivery", "pickup"], "price": "$", "location": {"address1": "105 W 55th St", "address2": "", "address3": "", "city": "New York", "zip_code": "10019", "country": "US", "state": "NY", "display_address": ["105 W 55th St", "New York, NY 10019"]}, "phone": "+12125414650", "display_phone": "(212) 541-4650", "distance": 99.80167834471715}, {"id": "CvMdavuVISeWABITeNKfLg", "alias": "the-shack-manhattan", "name": "The shack", "image_url": "", "is_closed": false, "url": "https://www.yelp.com/biz/the-shack-manhattan?adjust_creative=h5HwbyQ0TYvQjBo6Ys5Bgw&utm_campaign=yelp_api_v3&utm_medium=api_v3_business_search&utm_source=h5HwbyQ0TYvQjBo6Ys5Bgw", "review_count": 1, "categories": [{"alias": "restaurants", "title": "Restaurants"}], "rating": 5.0, "coordinates": {"latitude": 40.764136, "longitude": -73.9784908}, "transactions": [], "location": {"address1": "119 W 56th St", "address2": "", "address3": "", "city": "Manhattan", "zip_code": "10019", "country": "US", "state": "NY", "display_address": ["119 W 56th St", "Manhattan, NY 10019"]}, "phone": "+12122455000", "display_phone": "(212) 245-5000", "distance": 145.8420563294616}, {"id": "Lb-MDJdlFal0HKBQDAzH3Q", "alias": "premier-deli-cafe-new-york-2", "name": "Premier Deli Cafe", "image_url": "https://s3-media4.fl.yelpcdn.com/bphoto/VoZEMd5jb1vdpafr-ZaBiA/o.jpg", "is_closed": false, "url": "https://www.yelp.com/biz/premier-deli-cafe-new-york-2?adjust_creative=h5HwbyQ0TYvQjBo6Ys5Bgw&utm_campaign=yelp_api_v3&utm_medium=api_v3_business_search&utm_source=h5HwbyQ0TYvQjBo6Ys5Bgw", "review_count": 162, "categories": [{"alias": "delis", "title": "Delis"}], "rating": 3.5, "coordinates": {"latitude": 40.764255, "longitude": -73.981369}, "transactions": ["delivery", "pickup"], "price": "$$", "location": {"address1": "856 7th Ave", "address2": "", "address3": "", "city": "New York", "zip_code": "10019", "country": "US", "state": "NY", "display_address": ["856 7th Ave", "New York, NY 10019"]}, "phone": "+12127574477", "display_phone": "(212) 757-4477", "distance": 158.31468533160253}, {"id": "HLvLgKNWjrTVvlK4iyZ9Vg", "alias": "famous-original-rays-pizza-new-york-14", "name": "Famous Original Ray's Pizza", "image_url": "https://s3-media1.fl.yelpcdn.com/bphoto/_D9ToaTlbO2TUI1iUrhhEQ/o.jpg", "is_closed": false, "url": "https://www.yelp.com/biz/famous-original-rays-pizza-new-york-14?adjust_creative=h5HwbyQ0TYvQjBo6Ys5Bgw&utm_campaign=yelp_api_v3&utm_medium=api_v3_business_search&utm_source=h5HwbyQ0TYvQjBo6Ys5Bgw", "review_count": 367, "categories": [{"alias": "italian", "title": "Italian"}, {"alias": "pizza", "title": "Pizza"}], "rating": 2.5, "coordinates": {"latitude": 40.7631751, "longitude": -73.9815334}, "transactions": ["delivery", "pickup"], "price": "$", "location": {"address1": "831 7th Ave", "address2": "", "address3": "", "city": "New York", "zip_code": "10019", "country": "US", "state": "NY", "display_address": ["831 7th Ave", "New York, NY 10019"]}, "phone": "+12129749381", "display_phone": "(212) 974-9381", "distance": 133.52868280898522}, {"id": "pDJtnhToQIcG8Tctyt6AbA", "alias": "gyros-stand-new-york", "name": "Gyros Stand", "image_url": "", "is_closed": false, "url": "https://www.yelp.com/biz/gyros-stand-new-york?adjust_creative=h5HwbyQ0TYvQjBo6Ys5Bgw&utm_campaign=yelp_api_v3&utm_medium=api_v3_business_search&utm_source=h5HwbyQ0TYvQjBo6Ys5Bgw", "review_count": 3, "categories": [{"alias": "greek", "title": "Greek"}, {"alias": "foodstands", "title": "Food Stands"}, {"alias": "mediterranean", "title": "Mediterranean"}], "rating": 5.0, "coordinates": {"latitude": 40.762363, "longitude": -73.979016}, "transactions": [], "price": "$", "location": {"address1": "Avenue Of Americas And 6th", "address2": "", "address3": "Outside Hilton New York", "city": "New York", "zip_code": "10184", "country": "US", "state": "NY", "display_address": ["Avenue Of Americas And 6th", "Outside Hilton New York", "New York, NY 10184"]}, "phone": "", "display_phone": "", "distance": 123.56616834255513}, {"id": "tD1pDzU-x8gGodC4nGnY9g", "alias": "normas-new-york", "name": "NORMA'S", "image_url": "https://s3-media1.fl.yelpcdn.com/bphoto/CDzcIW9Y1MmtCP-cI7GAHQ/o.jpg", "is_closed": false, "url": "https://www.yelp.com/biz/normas-new-york?adjust_creative=h5HwbyQ0TYvQjBo6Ys5Bgw&utm_campaign=yelp_api_v3&utm_medium=api_v3_business_search&utm_source=h5HwbyQ0TYvQjBo6Ys5Bgw", "review_count": 1717, "categories": [{"alias": "breakfast_brunch", "title": "Breakfast & Brunch"}, {"alias": "newamerican", "title": "American (New)"}], "rating": 3.5, "coordinates": {"latitude": 40.7641277134065, "longitude": -73.9783795227192}, "transactions": ["restaurant_reservation"], "price": "$$$", "location": {"address1": "119 W 56th St", "address2": "", "address3": "", "city": "New York", "zip_code": "10019", "country": "US", "state": "NY", "display_address": ["119 W 56th St", "New York, NY 10019"]}, "phone": "+12127087460", "display_phone": "(212) 708-7460", "distance": 149.58054895182158}, {"id": "iT_AIzQVbshA9WjW_vM9_g", "alias": "astro-restaurant-new-york", "name": "Astro Restaurant", "image_url": "https://s3-media3.fl.yelpcdn.com/bphoto/h6v-e9A21FtPFX9ofK8LdQ/o.jpg", "is_closed": false, "url": "https://www.yelp.com/biz/astro-restaurant-new-york?adjust_creative=h5HwbyQ0TYvQjBo6Ys5Bgw&utm_campaign=yelp_api_v3&utm_medium=api_v3_business_search&utm_source=h5HwbyQ0TYvQjBo6Ys5Bgw", "review_count": 256, "categories": [{"alias": "diners", "title": "Diners"}, {"alias": "tradamerican", "title": "American (Traditional)"}], "rating": 3.0, "coordinates": {"latitude": 40.7631986422363, "longitude": -73.9782536245195}, "transactions": ["delivery", "pickup"], "price": "$$", "location": {"address1": "1361 6th Ave", "address2": "", "address3": "", "city": "New York", "zip_code": "10019", "country": "US", "state": "NY", "display_address": ["1361 6th Ave", "New York, NY 10019"]}, "phone": "+12124896284", "display_phone": "(212) 489-6284", "distance": 129.78283391715644}, {"id": "7R9PhpkZHAryCAVctq6bSw", "alias": "markato-new-york-2", "name": "Markato", "image_url": "https://s3-media3.fl.yelpcdn.com/bphoto/2THW_ddktJ9Ae1O9RUpaBQ/o.jpg", "is_closed": false, "url": "https://www.yelp.com/biz/markato-new-york-2?adjust_creative=h5HwbyQ0TYvQjBo6Ys5Bgw&utm_campaign=yelp_api_v3&utm_medium=api_v3_business_search&utm_source=h5HwbyQ0TYvQjBo6Ys5Bgw", "review_count": 9, "categories": [{"alias": "catering", "title": "Caterers"}, {"alias": "gourmet", "title": "Specialty Food"}, {"alias": "mediterranean", "title": "Mediterranean"}], "rating": 3.0, "coordinates": {"latitude": 40.763639, "longitude": -73.978951}, "transactions": [], "location": {"address1": "125 W 55th St", "address2": "", "address3": null, "city": "New York", "zip_code": "10019", "country": "US", "state": "NY", "display_address": ["125 W 55th St", "New York, NY 10019"]}, "phone": "+12122470500", "display_phone": "(212) 247-0500", "distance": 79.50622761902825}, {"id": "eZvDr6twAgxx2CjfXV87Xw", "alias": "between-the-bread-new-york-5", "name": "Between the Bread", "image_url": "https://s3-media4.fl.yelpcdn.com/bphoto/HnXtxYohezJlotpY8ksK7g/o.jpg", "is_closed": false, "url": "https://www.yelp.com/biz/between-the-bread-new-york-5?adjust_creative=h5HwbyQ0TYvQjBo6Ys5Bgw&utm_campaign=yelp_api_v3&utm_medium=api_v3_business_search&utm_source=h5HwbyQ0TYvQjBo6Ys5Bgw", "review_count": 84, "categories": [{"alias": "newamerican", "title": "American (New)"}, {"alias": "salad", "title": "Salad"}, {"alias": "gluten_free", "title": "Gluten-Free"}], "rating": 4.0, "coordinates": {"latitude": 40.76394, "longitude": -73.98005}, "transactions": ["delivery", "pickup"], "price": "$$", "location": {"address1": "145 West 55th St", "address2": "", "address3": "", "city": "New York", "zip_code": "10019", "country": "US", "state": "NY", "display_address": ["145 West 55th St", "New York, NY 10019"]}, "phone": "+12127651840", "display_phone": "(212) 765-1840", "distance": 77.83162673862672}, {"id": "dNFsMw-z3Vsa5TbJd9Q4Ew", "alias": "faces-and-names-new-york", "name": "Faces & Names", "image_url": "https://s3-media4.fl.yelpcdn.com/bphoto/JCWWRZF8ljxC6nSQdpxgsQ/o.jpg", "is_closed": false, "url": "https://www.yelp.com/biz/faces-and-names-new-york?adjust_creative=h5HwbyQ0TYvQjBo6Ys5Bgw&utm_campaign=yelp_api_v3&utm_medium=api_v3_business_search&utm_source=h5HwbyQ0TYvQjBo6Ys5Bgw", "review_count": 365, "categories": [{"alias": "bars", "title": "Bars"}, {"alias": "tradamerican", "title": "American (Traditional)"}], "rating": 3.5, "coordinates": {"latitude": 40.763608, "longitude": -73.980928}, "transactions": [], "price": "$$", "location": {"address1": "159 W 54th St", "address2": "", "address3": "", "city": "New York", "zip_code": "10019", "country": "US", "state": "NY", "display_address": ["159 W 54th St", "New York, NY 10019"]}, "phone": "+12125869311", "display_phone": "(212) 586-9311", "distance": 101.65261196000549}, {"id": "-rcnTrCXznx3prVpqwHrhA", "alias": "herb-n-kitchen-new-york", "name": "Herb N' Kitchen", "image_url": "https://s3-media3.fl.yelpcdn.com/bphoto/cmCA50pB3k6qCzLHi7CPVg/o.jpg", "is_closed": false, "url": "https://www.yelp.com/biz/herb-n-kitchen-new-york?adjust_creative=h5HwbyQ0TYvQjBo6Ys5Bgw&utm_campaign=yelp_api_v3&utm_medium=api_v3_business_search&utm_source=h5HwbyQ0TYvQjBo6Ys5Bgw", "review_count": 47, "categories": [{"alias": "breakfast_brunch", "title": "Breakfast & Brunch"}, {"alias": "tradamerican", "title": "American (Traditional)"}], "rating": 2.5, "coordinates": {"latitude": 40.76244, "longitude": -73.9797}, "transactions": [], "price": "$$", "location": {"address1": "1335 Ave Of The Americas", "address2": "", "address3": "", "city": "New York", "zip_code": "10019", "country": "US", "state": "NY", "display_address": ["1335 Ave Of The Americas", "New York, NY 10019"]}, "phone": "+12125867000", "display_phone": "(212) 586-7000", "distance": 113.49347770141833}, {"id": "ijj-Ggsw4zbY-WtdGJZG_A", "alias": "kaffe-a-kaffe-new-york-2", "name": "Kaffe A Kaffe", "image_url": "https://s3-media2.fl.yelpcdn.com/bphoto/6z8o0xyyJMTn8IRf9kt0HA/o.jpg", "is_closed": false, "url": "https://www.yelp.com/biz/kaffe-a-kaffe-new-york-2?adjust_creative=h5HwbyQ0TYvQjBo6Ys5Bgw&utm_campaign=yelp_api_v3&utm_medium=api_v3_business_search&utm_source=h5HwbyQ0TYvQjBo6Ys5Bgw", "review_count": 11, "categories": [{"alias": "coffee", "title": "Coffee & Tea"}, {"alias": "bakeries", "title": "Bakeries"}, {"alias": "cafes", "title": "Cafes"}], "rating": 3.5, "coordinates": {"latitude": 40.76362, "longitude": -73.9812}, "transactions": [], "location": {"address1": "845 7th Ave 54th St", "address2": null, "address3": "", "city": "New York", "zip_code": "10019", "country": "US", "state": "NY", "display_address": ["845 7th Ave 54th St", "New York, NY 10019"]}, "phone": "", "display_phone": "", "distance": 121.18171085533716}, {"id": "aP3Z0DXzwzM8lZWg3YX9KQ", "alias": "molyvos-new-york", "name": "Molyvos", "image_url": "https://s3-media4.fl.yelpcdn.com/bphoto/I205VMe0ypHPt1uDFlsUag/o.jpg", "is_closed": false, "url": "https://www.yelp.com/biz/molyvos-new-york?adjust_creative=h5HwbyQ0TYvQjBo6Ys5Bgw&utm_campaign=yelp_api_v3&utm_medium=api_v3_business_search&utm_source=h5HwbyQ0TYvQjBo6Ys5Bgw", "review_count": 488, "categories": [{"alias": "greek", "title": "Greek"}, {"alias": "mediterranean", "title": "Mediterranean"}], "rating": 3.5, "coordinates": {"latitude": 40.7644338, "longitude": -73.9806394}, "transactions": ["delivery", "pickup"], "price": "$$$", "location": {"address1": "871 7th Ave", "address2": "", "address3": "", "city": "New York", "zip_code": "10019", "country": "US", "state": "NY", "display_address": ["871 7th Ave", "New York, NY 10019"]}, "phone": "+12125827500", "display_phone": "(212) 582-7500", "distance": 144.2661641905854}, {"id": "bR3JoqFVpu00BecQocApVw", "alias": "park-cafe-new-york", "name": "Park Cafe", "image_url": "https://s3-media3.fl.yelpcdn.com/bphoto/dW8TLCKd9CqIJNagM9cuZQ/o.jpg", "is_closed": false, "url": "https://www.yelp.com/biz/park-cafe-new-york?adjust_creative=h5HwbyQ0TYvQjBo6Ys5Bgw&utm_campaign=yelp_api_v3&utm_medium=api_v3_business_search&utm_source=h5HwbyQ0TYvQjBo6Ys5Bgw", "review_count": 242, "categories": [{"alias": "breakfast_brunch", "title": "Breakfast & Brunch"}, {"alias": "cafes", "title": "Cafes"}, {"alias": "tradamerican", "title": "American (Traditional)"}], "rating": 2.5, "coordinates": {"latitude": 40.7642688962233, "longitude": -73.9807616659745}, "transactions": ["delivery", "pickup"], "price": "$$", "location": {"address1": "861 7th Ave", "address2": "", "address3": "", "city": "New York", "zip_code": "10019", "country": "US", "state": "NY", "display_address": ["861 7th Ave", "New York, NY 10019"]}, "phone": "+12123154567", "display_phone": "(212) 315-4567", "distance": 134.6901832043209}, {"id": "3N8nJq75hPaeJn8JfXxouw", "alias": "caf\u00e9-oliviero-new-york", "name": "Caf\u00e9 Oliviero", "image_url": "https://s3-media1.fl.yelpcdn.com/bphoto/Kh6ITlBcyeQnKOAo3GulLA/o.jpg", "is_closed": false, "url": "https://www.yelp.com/biz/caf%C3%A9-oliviero-new-york?adjust_creative=h5HwbyQ0TYvQjBo6Ys5Bgw&utm_campaign=yelp_api_v3&utm_medium=api_v3_business_search&utm_source=h5HwbyQ0TYvQjBo6Ys5Bgw", "review_count": 87, "categories": [{"alias": "delis", "title": "Delis"}, {"alias": "tradamerican", "title": "American (Traditional)"}, {"alias": "breakfast_brunch", "title": "Breakfast & Brunch"}], "rating": 3.0, "coordinates": {"latitude": 40.7638995487735, "longitude": -73.9812975012325}, "transactions": ["delivery", "pickup"], "price": "$$", "location": {"address1": "850 7th Ave", "address2": "", "address3": "", "city": "New York", "zip_code": "10019", "country": "US", "state": "NY", "display_address": ["850 7th Ave", "New York, NY 10019"]}, "phone": "+12125821902", "display_phone": "(212) 582-1902", "distance": 143.14866754770574}, {"id": "kr9FFwsZ0uNxNEJTfHu3_g", "alias": "murals-on-54-new-york-2", "name": "Murals On 54", "image_url": "https://s3-media1.fl.yelpcdn.com/bphoto/5Uog4XDLgy6jtxELGwWzyw/o.jpg", "is_closed": false, "url": "https://www.yelp.com/biz/murals-on-54-new-york-2?adjust_creative=h5HwbyQ0TYvQjBo6Ys5Bgw&utm_campaign=yelp_api_v3&utm_medium=api_v3_business_search&utm_source=h5HwbyQ0TYvQjBo6Ys5Bgw", "review_count": 19, "categories": [{"alias": "breakfast_brunch", "title": "Breakfast & Brunch"}], "rating": 2.0, "coordinates": {"latitude": 40.7624022, "longitude": -73.9782725}, "transactions": [], "price": "$$", "location": {"address1": "65 W 54th St", "address2": null, "address3": "", "city": "New York", "zip_code": "10019", "country": "US", "state": "NY", "display_address": ["65 W 54th St", "New York, NY 10019"]}, "phone": "+12123147700", "display_phone": "(212) 314-7700", "distance": 162.58359430259543}, {"id": "MNhPfiAWSi5yHH4ips95rg", "alias": "hudson-market-manhattan", "name": "Hudson Market", "image_url": "https://s3-media2.fl.yelpcdn.com/bphoto/JbJpddFow_qHXwTH5f460w/o.jpg", "is_closed": false, "url": "https://www.yelp.com/biz/hudson-market-manhattan?adjust_creative=h5HwbyQ0TYvQjBo6Ys5Bgw&utm_campaign=yelp_api_v3&utm_medium=api_v3_business_search&utm_source=h5HwbyQ0TYvQjBo6Ys5Bgw", "review_count": 22, "categories": [{"alias": "burgers", "title": "Burgers"}, {"alias": "newamerican", "title": "American (New)"}, {"alias": "breakfast_brunch", "title": "Breakfast & Brunch"}], "rating": 2.5, "coordinates": {"latitude": 40.76256, "longitude": -73.98185}, "transactions": [], "price": "$$", "location": {"address1": "811 7th Avenue 53rd Street", "address2": "", "address3": "", "city": "Manhattan", "zip_code": "10019", "country": "US", "state": "NY", "display_address": ["811 7th Avenue 53rd Street", "Manhattan, NY 10019"]}, "phone": "+12128416551", "display_phone": "(212) 841-6551", "distance": 153.59596937576876}, {"id": "vyRuXNXrKQBP834kGzcm3Q", "alias": "chopt-creative-salad-co-new-york-34", "name": "Chopt Creative Salad Co.", "image_url": "https://s3-media1.fl.yelpcdn.com/bphoto/7LBOQqzjtAJ9oemYN5azGA/o.jpg", "is_closed": false, "url": "https://www.yelp.com/biz/chopt-creative-salad-co-new-york-34?adjust_creative=h5HwbyQ0TYvQjBo6Ys5Bgw&utm_campaign=yelp_api_v3&utm_medium=api_v3_business_search&utm_source=h5HwbyQ0TYvQjBo6Ys5Bgw", "review_count": 126, "categories": [{"alias": "salad", "title": "Salad"}, {"alias": "vegetarian", "title": "Vegetarian"}], "rating": 3.5, "coordinates": {"latitude": 40.7639947309263, "longitude": -73.9786452054977}, "transactions": ["delivery", "pickup"], "price": "$$", "location": {"address1": "120 West 56th St", "address2": "", "address3": "", "city": "New York", "zip_code": "10019", "country": "US", "state": "NY", "display_address": ["120 West 56th St", "New York, NY 10019"]}, "phone": "+16467831600", "display_phone": "(646) 783-1600", "distance": 122.84313723678376}, {"id": "v7WAnwdGxuy5pMDLJrex-Q", "alias": "fresh-and-co-new-york-55", "name": "fresh&co", "image_url": "https://s3-media1.fl.yelpcdn.com/bphoto/S0gKQH0v9uxw_xls0jeM4A/o.jpg", "is_closed": false, "url": "https://www.yelp.com/biz/fresh-and-co-new-york-55?adjust_creative=h5HwbyQ0TYvQjBo6Ys5Bgw&utm_campaign=yelp_api_v3&utm_medium=api_v3_business_search&utm_source=h5HwbyQ0TYvQjBo6Ys5Bgw", "review_count": 9, "categories": [{"alias": "salad", "title": "Salad"}, {"alias": "sandwiches", "title": "Sandwiches"}, {"alias": "soup", "title": "Soup"}], "rating": 3.5, "coordinates": {"latitude": 40.7634055875398, "longitude": -73.9812268316746}, "transactions": [], "price": "$$", "location": {"address1": "839 7th Ave", "address2": "", "address3": null, "city": "New York", "zip_code": "10019", "country": "US", "state": "NY", "display_address": ["839 7th Ave", "New York, NY 10019"]}, "phone": "+12129837474", "display_phone": "(212) 983-7474", "distance": 121.67774054910834}, {"id": "I0xrIkmqBt-UnhiglpkMsw", "alias": "petit-blue-dog-cafe-new-york", "name": "Petit Blue Dog Cafe", "image_url": "https://s3-media3.fl.yelpcdn.com/bphoto/OEjT1q3DGs5d2KQQyHEn3A/o.jpg", "is_closed": false, "url": "https://www.yelp.com/biz/petit-blue-dog-cafe-new-york?adjust_creative=h5HwbyQ0TYvQjBo6Ys5Bgw&utm_campaign=yelp_api_v3&utm_medium=api_v3_business_search&utm_source=h5HwbyQ0TYvQjBo6Ys5Bgw", "review_count": 11, "categories": [{"alias": "juicebars", "title": "Juice Bars & Smoothies"}, {"alias": "cafes", "title": "Cafes"}], "rating": 2.5, "coordinates": {"latitude": 40.7641335, "longitude": -73.9784927}, "transactions": ["delivery", "pickup"], "price": "$", "location": {"address1": "119 W 56th St", "address2": "", "address3": "", "city": "New York", "zip_code": "10019", "country": "US", "state": "NY", "display_address": ["119 W 56th St", "New York, NY 10019"]}, "phone": "+12124591240", "display_phone": "(212) 459-1240", "distance": 145.8420563294616}, {"id": "Ue9zGenIOzlBQY_FC2fXaw", "alias": "milos-caf\u00e9-and-yogurt-bar-new-york", "name": "Milos Caf\u00e9 & Yogurt Bar", "image_url": "", "is_closed": false, "url": "https://www.yelp.com/biz/milos-caf%C3%A9-and-yogurt-bar-new-york?adjust_creative=h5HwbyQ0TYvQjBo6Ys5Bgw&utm_campaign=yelp_api_v3&utm_medium=api_v3_business_search&utm_source=h5HwbyQ0TYvQjBo6Ys5Bgw", "review_count": 1, "categories": [{"alias": "greek", "title": "Greek"}], "rating": 1.0, "coordinates": {"latitude": 40.76368, "longitude": -73.97922}, "transactions": [], "location": {"address1": "125 W 55th St", "address2": "", "address3": null, "city": "New York", "zip_code": "10022", "country": "US", "state": "NY", "display_address": ["125 W 55th St", "New York, NY 10022"]}, "phone": "+19177175802", "display_phone": "(917) 717-5802", "distance": 69.26628457871043}]