[{"id": "7AknGS1qVEyq_pHfmjkZtg", "alias": "wolf-new-york", "name": "Wolf", "image_url": "https://s3-media2.fl.yelpcdn.com/bphoto/NNUA7aSMhZzgbl14lTaHQQ/o.jpg", "is_closed": false, "url": "https://www.yelp.com/biz/wolf-new-york?adjust_creative=h5HwbyQ0TYvQjBo6Ys5Bgw&utm_campaign=yelp_api_v3&utm_medium=api_v3_business_search&utm_source=h5HwbyQ0TYvQjBo6Ys5Bgw", "review_count": 43, "categories": [{"alias": "italian", "title": "Italian"}], "rating": 4.5, "coordinates": {"latitude": 40.7661522, "longitude": -73.9811393}, "transactions": [], "location": {"address1": "225 W 57th St", "address2": "", "address3": null, "city": "New York", "zip_code": "10019", "country": "US", "state": "NY", "display_address": ["225 W 57th St", "New York, NY 10019"]}, "phone": "+12122952184", "display_phone": "(212) 295-2184", "distance": 122.9961079170216}, {"id": "yuHfjyCzU46N36llhnsAbg", "alias": "bar-culaccino-new-york", "name": "Bar Culaccino", "image_url": "https://s3-media1.fl.yelpcdn.com/bphoto/6jHmkANGZer7wSu_6OMtjQ/o.jpg", "is_closed": false, "url": "https://www.yelp.com/biz/bar-culaccino-new-york?adjust_creative=h5HwbyQ0TYvQjBo6Ys5Bgw&utm_campaign=yelp_api_v3&utm_medium=api_v3_business_search&utm_source=h5HwbyQ0TYvQjBo6Ys5Bgw", "review_count": 13, "categories": [{"alias": "cocktailbars", "title": "Cocktail Bars"}, {"alias": "wine_bars", "title": "Wine Bars"}, {"alias": "tapasmallplates", "title": "Tapas/Small Plates"}], "rating": 4.5, "coordinates": {"latitude": 40.76583, "longitude": -73.9826}, "transactions": [], "location": {"address1": "235 W 56th St", "address2": null, "address3": "", "city": "New York", "zip_code": "10019", "country": "US", "state": "NY", "display_address": ["235 W 56th St", "New York, NY 10019"]}, "phone": "+12125108356", "display_phone": "(212) 510-8356", "distance": 21.404873721075997}, {"id": "ugIv_ylUdqRIlx6AD8lTJA", "alias": "basso56-new-york", "name": "Basso56", "image_url": "https://s3-media4.fl.yelpcdn.com/bphoto/zSJjAU5tswPUxqLB6JJJYg/o.jpg", "is_closed": false, "url": "https://www.yelp.com/biz/basso56-new-york?adjust_creative=h5HwbyQ0TYvQjBo6Ys5Bgw&utm_campaign=yelp_api_v3&utm_medium=api_v3_business_search&utm_source=h5HwbyQ0TYvQjBo6Ys5Bgw", "review_count": 622, "categories": [{"alias": "italian", "title": "Italian"}], "rating": 4.5, "coordinates": {"latitude": 40.7655, "longitude": -73.98267}, "transactions": ["pickup", "delivery"], "price": "$$$", "location": {"address1": "234 W 56th St", "address2": null, "address3": "", "city": "New York", "zip_code": "10019", "country": "US", "state": "NY", "display_address": ["234 W 56th St", "New York, NY 10019"]}, "phone": "+12122652610", "display_phone": "(212) 265-2610", "distance": 64.08776371427517}, {"id": "YC-wGlO0oOkEIaCEDZv-ag", "alias": "yakitori-totto-new-york", "name": "Yakitori Totto", "image_url": "https://s3-media2.fl.yelpcdn.com/bphoto/pahS2pdvpTdXRka6CaBFBw/o.jpg", "is_closed": false, "url": "https://www.yelp.com/biz/yakitori-totto-new-york?adjust_creative=h5HwbyQ0TYvQjBo6Ys5Bgw&utm_campaign=yelp_api_v3&utm_medium=api_v3_business_search&utm_source=h5HwbyQ0TYvQjBo6Ys5Bgw", "review_count": 1308, "categories": [{"alias": "japanese", "title": "Japanese"}], "rating": 4.0, "coordinates": {"latitude": 40.765375, "longitude": -73.983114}, "transactions": [], "price": "$$$", "location": {"address1": "251 W 55th St", "address2": "Fl 2", "address3": "", "city": "New York", "zip_code": "10019", "country": "US", "state": "NY", "display_address": ["251 W 55th St", "Fl 2", "New York, NY 10019"]}, "phone": "+12122454555", "display_phone": "(212) 245-4555", "distance": 92.68252034435723}, {"id": "gvWzAiMrFm9AgfSN2I8Miw", "alias": "ivy-new-york-4", "name": "Ivy", "image_url": "https://s3-media1.fl.yelpcdn.com/bphoto/Tdi7_ya8qULzZ4gfhE6Pyg/o.jpg", "is_closed": false, "url": "https://www.yelp.com/biz/ivy-new-york-4?adjust_creative=h5HwbyQ0TYvQjBo6Ys5Bgw&utm_campaign=yelp_api_v3&utm_medium=api_v3_business_search&utm_source=h5HwbyQ0TYvQjBo6Ys5Bgw", "review_count": 407, "categories": [{"alias": "newamerican", "title": "American (New)"}, {"alias": "lounges", "title": "Lounges"}, {"alias": "cocktailbars", "title": "Cocktail Bars"}], "rating": 4.0, "coordinates": {"latitude": 40.765751, "longitude": -73.983167}, "transactions": ["pickup", "delivery"], "price": "$$", "location": {"address1": "944 8th Ave", "address2": "", "address3": "", "city": "New York", "zip_code": "10019", "country": "US", "state": "NY", "display_address": ["944 8th Ave", "New York, NY 10019"]}, "phone": "+12124599444", "display_phone": "(212) 459-9444", "distance": 62.42682605017362}, {"id": "VzstANC68PM1BbyOcDXEtw", "alias": "donburiya-new-york-2", "name": "Donburiya", "image_url": "https://s3-media2.fl.yelpcdn.com/bphoto/Wo5gAjQYbVOhs5CtLZ6Scw/o.jpg", "is_closed": false, "url": "https://www.yelp.com/biz/donburiya-new-york-2?adjust_creative=h5HwbyQ0TYvQjBo6Ys5Bgw&utm_campaign=yelp_api_v3&utm_medium=api_v3_business_search&utm_source=h5HwbyQ0TYvQjBo6Ys5Bgw", "review_count": 347, "categories": [{"alias": "japanese", "title": "Japanese"}, {"alias": "seafood", "title": "Seafood"}, {"alias": "desserts", "title": "Desserts"}], "rating": 4.0, "coordinates": {"latitude": 40.76528, "longitude": -73.98326}, "transactions": ["pickup", "delivery"], "price": "$$", "location": {"address1": "253 W 55th St", "address2": "", "address3": "", "city": "New York", "zip_code": "10019", "country": "US", "state": "NY", "display_address": ["253 W 55th St", "New York, NY 10019"]}, "phone": "+12129807909", "display_phone": "(212) 980-7909", "distance": 103.5496902982792}, {"id": "DNSFvZtdsqkaidmFSpm-Jw", "alias": "soba-azuma-new-york", "name": "SOBA AZUMA", "image_url": "https://s3-media1.fl.yelpcdn.com/bphoto/2fVfYfCsqPgu5pvjcMLWBw/o.jpg", "is_closed": false, "url": "https://www.yelp.com/biz/soba-azuma-new-york?adjust_creative=h5HwbyQ0TYvQjBo6Ys5Bgw&utm_campaign=yelp_api_v3&utm_medium=api_v3_business_search&utm_source=h5HwbyQ0TYvQjBo6Ys5Bgw", "review_count": 279, "categories": [{"alias": "japanese", "title": "Japanese"}, {"alias": "noodles", "title": "Noodles"}, {"alias": "beer_and_wine", "title": "Beer, Wine & Spirits"}], "rating": 4.0, "coordinates": {"latitude": 40.76526, "longitude": -73.9832}, "transactions": ["pickup", "delivery"], "price": "$$", "location": {"address1": "251 W 55th St", "address2": null, "address3": "", "city": "New York", "zip_code": "10019", "country": "US", "state": "NY", "display_address": ["251 W 55th St", "New York, NY 10019"]}, "phone": "+19172620540", "display_phone": "(917) 262-0540", "distance": 101.24249182645111}, {"id": "M9ocxj9j91I1Av32UKSeYA", "alias": "yakiniku-tohbay-new-york", "name": "Yakiniku Tohbay", "image_url": "https://s3-media2.fl.yelpcdn.com/bphoto/waQ9O-98d6VPAmaMeRlRfA/o.jpg", "is_closed": false, "url": "https://www.yelp.com/biz/yakiniku-tohbay-new-york?adjust_creative=h5HwbyQ0TYvQjBo6Ys5Bgw&utm_campaign=yelp_api_v3&utm_medium=api_v3_business_search&utm_source=h5HwbyQ0TYvQjBo6Ys5Bgw", "review_count": 18, "categories": [{"alias": "japanese", "title": "Japanese"}, {"alias": "bbq", "title": "Barbeque"}], "rating": 4.5, "coordinates": {"latitude": 40.76528, "longitude": -73.98326}, "transactions": ["pickup", "delivery"], "location": {"address1": "253 West 55th St", "address2": "Fl 2", "address3": "", "city": "New York", "zip_code": "10019", "country": "US", "state": "NY", "display_address": ["253 West 55th St", "Fl 2", "New York, NY 10019"]}, "phone": "+19172612165", "display_phone": "(917) 261-2165", "distance": 103.5496902982792}, {"id": "goqTQ4tOD-asC_ZJBW9l7w", "alias": "patsys-italian-restaurant-new-york", "name": "Patsy's Italian Restaurant", "image_url": "https://s3-media3.fl.yelpcdn.com/bphoto/ly6yNuocUoJM_wpci1-vlw/o.jpg", "is_closed": false, "url": "https://www.yelp.com/biz/patsys-italian-restaurant-new-york?adjust_creative=h5HwbyQ0TYvQjBo6Ys5Bgw&utm_campaign=yelp_api_v3&utm_medium=api_v3_business_search&utm_source=h5HwbyQ0TYvQjBo6Ys5Bgw", "review_count": 913, "categories": [{"alias": "italian", "title": "Italian"}, {"alias": "southern", "title": "Southern"}, {"alias": "wine_bars", "title": "Wine Bars"}], "rating": 4.0, "coordinates": {"latitude": 40.76553, "longitude": -73.98274}, "transactions": [], "price": "$$$", "location": {"address1": "236 W 56th St", "address2": "", "address3": "", "city": "New York", "zip_code": "10019", "country": "US", "state": "NY", "display_address": ["236 W 56th St", "New York, NY 10019"]}, "phone": "+12122473491", "display_phone": "(212) 247-3491", "distance": 56.54967936489014}, {"id": "xXZjekBXs6wFFpK1exZJnw", "alias": "pasta-by-hudson-new-york-3", "name": "Pasta by Hudson", "image_url": "https://s3-media3.fl.yelpcdn.com/bphoto/qMXz1vdM8hBlZ47TyKubfA/o.jpg", "is_closed": false, "url": "https://www.yelp.com/biz/pasta-by-hudson-new-york-3?adjust_creative=h5HwbyQ0TYvQjBo6Ys5Bgw&utm_campaign=yelp_api_v3&utm_medium=api_v3_business_search&utm_source=h5HwbyQ0TYvQjBo6Ys5Bgw", "review_count": 103, "categories": [{"alias": "italian", "title": "Italian"}, {"alias": "pastashops", "title": "Pasta Shops"}], "rating": 4.0, "coordinates": {"latitude": 40.7670079145424, "longitude": -73.9826598018408}, "transactions": ["pickup", "delivery"], "price": "$$", "location": {"address1": "1000 S 8th Ave", "address2": "", "address3": null, "city": "New York", "zip_code": "10019", "country": "US", "state": "NY", "display_address": ["1000 S 8th Ave", "New York, NY 10019"]}, "phone": "", "display_phone": "", "distance": 99.80571187984495}, {"id": "xlr1KcIeILEZXSRy3OycDw", "alias": "clubhouse-temporarily-closed-new-york", "name": "Clubhouse - Temporarily Closed", "image_url": "https://s3-media1.fl.yelpcdn.com/bphoto/Pp9lykMpBx6ImnOPiohllQ/o.jpg", "is_closed": false, "url": "https://www.yelp.com/biz/clubhouse-temporarily-closed-new-york?adjust_creative=h5HwbyQ0TYvQjBo6Ys5Bgw&utm_campaign=yelp_api_v3&utm_medium=api_v3_business_search&utm_source=h5HwbyQ0TYvQjBo6Ys5Bgw", "review_count": 7, "categories": [{"alias": "newamerican", "title": "American (New)"}, {"alias": "cocktailbars", "title": "Cocktail Bars"}], "rating": 5.0, "coordinates": {"latitude": 40.7667047232494, "longitude": -73.9820542931557}, "transactions": [], "location": {"address1": "235 W 57th St", "address2": "", "address3": null, "city": "New York", "zip_code": "10019", "country": "US", "state": "NY", "display_address": ["235 W 57th St", "New York, NY 10019"]}, "phone": "+12128435100", "display_phone": "(212) 843-5100", "distance": 80.33304564002391}, {"id": "vx2JV9juVzSBRGWHOZCTAQ", "alias": "aba-turkish-restaurant-new-york", "name": "ABA Turkish Restaurant", "image_url": "https://s3-media1.fl.yelpcdn.com/bphoto/WP-MZj-ukZTMb_4kQ1DtJw/o.jpg", "is_closed": false, "url": "https://www.yelp.com/biz/aba-turkish-restaurant-new-york?adjust_creative=h5HwbyQ0TYvQjBo6Ys5Bgw&utm_campaign=yelp_api_v3&utm_medium=api_v3_business_search&utm_source=h5HwbyQ0TYvQjBo6Ys5Bgw", "review_count": 507, "categories": [{"alias": "turkish", "title": "Turkish"}, {"alias": "mediterranean", "title": "Mediterranean"}, {"alias": "halal", "title": "Halal"}], "rating": 4.0, "coordinates": {"latitude": 40.7672794037324, "longitude": -73.9838727571167}, "transactions": ["pickup", "delivery"], "price": "$$", "location": {"address1": "325 W 57th St", "address2": "", "address3": "", "city": "New York", "zip_code": "10019", "country": "US", "state": "NY", "display_address": ["325 W 57th St", "New York, NY 10019"]}, "phone": "+12126559368", "display_phone": "(212) 655-9368", "distance": 168.44882171794268}, {"id": "wm10mMj_41_-l_gRhRH3TA", "alias": "deep-indian-kitchen-indikitch-new-york-21", "name": "deep indian kitchen - indikitch", "image_url": "https://s3-media3.fl.yelpcdn.com/bphoto/KS_SpsfU93DLDs-8_obrmA/o.jpg", "is_closed": false, "url": "https://www.yelp.com/biz/deep-indian-kitchen-indikitch-new-york-21?adjust_creative=h5HwbyQ0TYvQjBo6Ys5Bgw&utm_campaign=yelp_api_v3&utm_medium=api_v3_business_search&utm_source=h5HwbyQ0TYvQjBo6Ys5Bgw", "review_count": 445, "categories": [{"alias": "indpak", "title": "Indian"}], "rating": 4.0, "coordinates": {"latitude": 40.76573, "longitude": -73.98338}, "transactions": ["pickup", "delivery"], "price": "$$", "location": {"address1": "940 8th Ave", "address2": "", "address3": "", "city": "New York", "zip_code": "10019", "country": "US", "state": "NY", "display_address": ["940 8th Ave", "New York, NY 10019"]}, "phone": "+16469187778", "display_phone": "(646) 918-7778", "distance": 72.87966584087974}, {"id": "Zs-IWJ6vpGK3GcmFrBecXQ", "alias": "aroma-trattoria-new-york", "name": "Aroma Trattoria", "image_url": "https://s3-media3.fl.yelpcdn.com/bphoto/Yk15jf3dyWkjrDSJzs3NpA/o.jpg", "is_closed": false, "url": "https://www.yelp.com/biz/aroma-trattoria-new-york?adjust_creative=h5HwbyQ0TYvQjBo6Ys5Bgw&utm_campaign=yelp_api_v3&utm_medium=api_v3_business_search&utm_source=h5HwbyQ0TYvQjBo6Ys5Bgw", "review_count": 61, "categories": [{"alias": "italian", "title": "Italian"}, {"alias": "wine_bars", "title": "Wine Bars"}, {"alias": "pastashops", "title": "Pasta Shops"}], "rating": 4.5, "coordinates": {"latitude": 40.76549, "longitude": -73.98355}, "transactions": ["pickup", "delivery"], "price": "$$", "location": {"address1": "932 8th Ave", "address2": null, "address3": "", "city": "New York", "zip_code": "10019", "country": "US", "state": "NY", "display_address": ["932 8th Ave", "New York, NY 10019"]}, "phone": "+12127813008", "display_phone": "(212) 781-3008", "distance": 103.45382542956735}, {"id": "q0HBfS9eJ9AeuaWQ3Ronqw", "alias": "joe-g-pizza-and-restaurant-new-york", "name": "Joe G Pizza & Restaurant", "image_url": "https://s3-media2.fl.yelpcdn.com/bphoto/mmTQ9N6E1Q1BnMOD5dIrsQ/o.jpg", "is_closed": false, "url": "https://www.yelp.com/biz/joe-g-pizza-and-restaurant-new-york?adjust_creative=h5HwbyQ0TYvQjBo6Ys5Bgw&utm_campaign=yelp_api_v3&utm_medium=api_v3_business_search&utm_source=h5HwbyQ0TYvQjBo6Ys5Bgw", "review_count": 138, "categories": [{"alias": "pizza", "title": "Pizza"}, {"alias": "italian", "title": "Italian"}], "rating": 4.0, "coordinates": {"latitude": 40.76564, "longitude": -73.9830099}, "transactions": ["pickup", "delivery"], "price": "$$", "location": {"address1": "244 W 56th St", "address2": "", "address3": "", "city": "New York", "zip_code": "10019", "country": "US", "state": "NY", "display_address": ["244 W 56th St", "New York, NY 10019"]}, "phone": "+12127653160", "display_phone": "(212) 765-3160", "distance": 65.74641910899227}, {"id": "HuSaFUqMDLbovpU-XbR9UA", "alias": "the-original-soupman-new-york-7", "name": "The Original Soupman", "image_url": "https://s3-media1.fl.yelpcdn.com/bphoto/_xT6tSRilqKloOryNZgMhw/o.jpg", "is_closed": false, "url": "https://www.yelp.com/biz/the-original-soupman-new-york-7?adjust_creative=h5HwbyQ0TYvQjBo6Ys5Bgw&utm_campaign=yelp_api_v3&utm_medium=api_v3_business_search&utm_source=h5HwbyQ0TYvQjBo6Ys5Bgw", "review_count": 478, "categories": [{"alias": "soup", "title": "Soup"}, {"alias": "seafood", "title": "Seafood"}], "rating": 4.0, "coordinates": {"latitude": 40.7653611721499, "longitude": -73.9834392665359}, "transactions": [], "price": "$", "location": {"address1": "259A W 55th St", "address2": "", "address3": "", "city": "New York", "zip_code": "10019", "country": "US", "state": "NY", "display_address": ["259A W 55th St", "New York, NY 10019"]}, "phone": "+12129560900", "display_phone": "(212) 956-0900", "distance": 109.41588805039515}, {"id": "HApdNNztx8Q7VF_9vkoAUA", "alias": "guantanamera-new-york", "name": "Guantanamera", "image_url": "https://s3-media4.fl.yelpcdn.com/bphoto/lzazvoCwrGhRFZOCHLZPTA/o.jpg", "is_closed": false, "url": "https://www.yelp.com/biz/guantanamera-new-york?adjust_creative=h5HwbyQ0TYvQjBo6Ys5Bgw&utm_campaign=yelp_api_v3&utm_medium=api_v3_business_search&utm_source=h5HwbyQ0TYvQjBo6Ys5Bgw", "review_count": 913, "categories": [{"alias": "cuban", "title": "Cuban"}], "rating": 3.5, "coordinates": {"latitude": 40.7658919619653, "longitude": -73.9837475423279}, "transactions": ["pickup", "delivery"], "price": "$$", "location": {"address1": "939 8th Ave", "address2": "", "address3": "", "city": "New York", "zip_code": "10019", "country": "US", "state": "NY", "display_address": ["939 8th Ave", "New York, NY 10019"]}, "phone": "+12122625354", "display_phone": "(212) 262-5354", "distance": 99.77833609235745}, {"id": "yrXECkTezsI0Twgalc7M-A", "alias": "bolivian-llama-party-new-york-7", "name": "Bolivian Llama Party", "image_url": "https://s3-media1.fl.yelpcdn.com/bphoto/o2sE74s9ReUDUWgQ4k8tTw/o.jpg", "is_closed": false, "url": "https://www.yelp.com/biz/bolivian-llama-party-new-york-7?adjust_creative=h5HwbyQ0TYvQjBo6Ys5Bgw&utm_campaign=yelp_api_v3&utm_medium=api_v3_business_search&utm_source=h5HwbyQ0TYvQjBo6Ys5Bgw", "review_count": 348, "categories": [{"alias": "foodstands", "title": "Food Stands"}, {"alias": "latin", "title": "Latin American"}], "rating": 4.5, "coordinates": {"latitude": 40.694983, "longitude": -73.991036}, "transactions": ["pickup", "delivery"], "price": "$", "location": {"address1": "1000 S 8th Ave", "address2": "Ste 5", "address3": null, "city": "New York", "zip_code": "10019", "country": "US", "state": "NY", "display_address": ["1000 S 8th Ave", "Ste 5", "New York, NY 10019"]}, "phone": "+13473955481", "display_phone": "(347) 395-5481", "distance": 99.72152133986013}, {"id": "_wsPfnUO-pRrvh54c1M2qw", "alias": "mcgees-pub-new-york-2", "name": "McGee's Pub", "image_url": "https://s3-media2.fl.yelpcdn.com/bphoto/IL81baqrIQj5EI2EiIAfoQ/o.jpg", "is_closed": false, "url": "https://www.yelp.com/biz/mcgees-pub-new-york-2?adjust_creative=h5HwbyQ0TYvQjBo6Ys5Bgw&utm_campaign=yelp_api_v3&utm_medium=api_v3_business_search&utm_source=h5HwbyQ0TYvQjBo6Ys5Bgw", "review_count": 629, "categories": [{"alias": "pubs", "title": "Pubs"}, {"alias": "irish", "title": "Irish"}], "rating": 3.5, "coordinates": {"latitude": 40.7648124694824, "longitude": -73.9829788208008}, "transactions": ["pickup", "restaurant_reservation", "delivery"], "price": "$$", "location": {"address1": "240 W 55th St", "address2": "", "address3": "", "city": "New York", "zip_code": "10019", "country": "US", "state": "NY", "display_address": ["240 W 55th St", "New York, NY 10019"]}, "phone": "+12129573536", "display_phone": "(212) 957-3536", "distance": 130.26085414307795}, {"id": "Vz1At3Ku-vStSy4dFt145Q", "alias": "bistro-verde-temporarily-closed-new-york", "name": "Bistro Verde - Temporarily Closed", "image_url": "https://s3-media2.fl.yelpcdn.com/bphoto/NThqCKNuI6fS3l7Qo1DPWw/o.jpg", "is_closed": false, "url": "https://www.yelp.com/biz/bistro-verde-temporarily-closed-new-york?adjust_creative=h5HwbyQ0TYvQjBo6Ys5Bgw&utm_campaign=yelp_api_v3&utm_medium=api_v3_business_search&utm_source=h5HwbyQ0TYvQjBo6Ys5Bgw", "review_count": 28, "categories": [{"alias": "tradamerican", "title": "American (Traditional)"}], "rating": 4.0, "coordinates": {"latitude": 40.7662427, "longitude": -73.9812435}, "transactions": [], "location": {"address1": "225 W 57th St", "address2": null, "address3": null, "city": "New York", "zip_code": "10019", "country": "US", "state": "NY", "display_address": ["225 W 57th St", "New York, NY 10019"]}, "phone": "+12122952187", "display_phone": "(212) 295-2187", "distance": 115.06561975099743}, {"id": "FWjl6BrMie6H78OSWJG5Pg", "alias": "bareburger-new-york-22", "name": "Bareburger", "image_url": "https://s3-media2.fl.yelpcdn.com/bphoto/JLK7QHRxUl4xzZuK4lXSUg/o.jpg", "is_closed": false, "url": "https://www.yelp.com/biz/bareburger-new-york-22?adjust_creative=h5HwbyQ0TYvQjBo6Ys5Bgw&utm_campaign=yelp_api_v3&utm_medium=api_v3_business_search&utm_source=h5HwbyQ0TYvQjBo6Ys5Bgw", "review_count": 391, "categories": [{"alias": "burgers", "title": "Burgers"}, {"alias": "salad", "title": "Salad"}, {"alias": "tradamerican", "title": "American (Traditional)"}], "rating": 4.0, "coordinates": {"latitude": 40.76726, "longitude": -73.98346}, "transactions": ["pickup", "delivery"], "price": "$$", "location": {"address1": "313 W 57th St", "address2": "", "address3": "", "city": "New York", "zip_code": "10019", "country": "US", "state": "NY", "display_address": ["313 W 57th St", "New York, NY 10019"]}, "phone": "+12126852273", "display_phone": "(212) 685-2273", "distance": 149.50567799990822}, {"id": "dnfe-i6xEdvRqGuqbXk3HA", "alias": "taheni-mediterranean-grill-new-york", "name": "Taheni Mediterranean Grill", "image_url": "https://s3-media4.fl.yelpcdn.com/bphoto/oqVwyySGe1w3kExhpQV7JA/o.jpg", "is_closed": false, "url": "https://www.yelp.com/biz/taheni-mediterranean-grill-new-york?adjust_creative=h5HwbyQ0TYvQjBo6Ys5Bgw&utm_campaign=yelp_api_v3&utm_medium=api_v3_business_search&utm_source=h5HwbyQ0TYvQjBo6Ys5Bgw", "review_count": 15, "categories": [{"alias": "mideastern", "title": "Middle Eastern"}, {"alias": "falafel", "title": "Falafel"}], "rating": 4.0, "coordinates": {"latitude": 40.6650377515107, "longitude": -73.9798863371133}, "transactions": ["pickup", "delivery"], "location": {"address1": "1000 8th Ave", "address2": "", "address3": null, "city": "New York", "zip_code": "10019", "country": "US", "state": "NY", "display_address": ["1000 8th Ave", "New York, NY 10019"]}, "phone": "+12123154509", "display_phone": "(212) 315-4509", "distance": 99.72152133986013}, {"id": "PkbV26BGarsKLkJCYNPEGQ", "alias": "turnstyle-underground-market-new-york", "name": "Turnstyle Underground Market", "image_url": "https://s3-media3.fl.yelpcdn.com/bphoto/h59tt0iaWMVJcRMxrLnnkw/o.jpg", "is_closed": false, "url": "https://www.yelp.com/biz/turnstyle-underground-market-new-york?adjust_creative=h5HwbyQ0TYvQjBo6Ys5Bgw&utm_campaign=yelp_api_v3&utm_medium=api_v3_business_search&utm_source=h5HwbyQ0TYvQjBo6Ys5Bgw", "review_count": 96, "categories": [{"alias": "shoppingcenters", "title": "Shopping Centers"}, {"alias": "food_court", "title": "Food Court"}], "rating": 4.0, "coordinates": {"latitude": 40.76671, "longitude": -73.98282}, "transactions": [], "price": "$$", "location": {"address1": "57th St & 8th Ave", "address2": "", "address3": "Under Columbus Cir", "city": "New York", "zip_code": "10019", "country": "US", "state": "NY", "display_address": ["57th St & 8th Ave", "Under Columbus Cir", "New York, NY 10019"]}, "phone": "+16467689224", "display_phone": "(646) 768-9224", "distance": 73.08755105294877}, {"id": "yQiII2hHgV5aEMtIA2VG0Q", "alias": "chai-thai-kitchen-midtown-new-york", "name": "Chai Thai Kitchen - Midtown", "image_url": "https://s3-media4.fl.yelpcdn.com/bphoto/sxe2YvqlMbbLnWg6DZse-g/o.jpg", "is_closed": false, "url": "https://www.yelp.com/biz/chai-thai-kitchen-midtown-new-york?adjust_creative=h5HwbyQ0TYvQjBo6Ys5Bgw&utm_campaign=yelp_api_v3&utm_medium=api_v3_business_search&utm_source=h5HwbyQ0TYvQjBo6Ys5Bgw", "review_count": 568, "categories": [{"alias": "thai", "title": "Thai"}], "rating": 3.5, "coordinates": {"latitude": 40.76541, "longitude": -73.98352}, "transactions": ["pickup", "delivery"], "price": "$$", "location": {"address1": "930 8th Ave", "address2": "", "address3": "", "city": "New York", "zip_code": "10019", "country": "US", "state": "NY", "display_address": ["930 8th Ave", "New York, NY 10019"]}, "phone": "+12127078778", "display_phone": "(212) 707-8778", "distance": 107.25520563827718}, {"id": "kpd0fbuscKhbebjK0jBNjQ", "alias": "cafe-57-new-york-2", "name": "Cafe 57", "image_url": "https://s3-media3.fl.yelpcdn.com/bphoto/kVM7ExpotoIEswi8CLlx6Q/o.jpg", "is_closed": false, "url": "https://www.yelp.com/biz/cafe-57-new-york-2?adjust_creative=h5HwbyQ0TYvQjBo6Ys5Bgw&utm_campaign=yelp_api_v3&utm_medium=api_v3_business_search&utm_source=h5HwbyQ0TYvQjBo6Ys5Bgw", "review_count": 1, "categories": [{"alias": "cafes", "title": "Cafes"}, {"alias": "breakfast_brunch", "title": "Breakfast & Brunch"}], "rating": 4.0, "coordinates": {"latitude": 40.76644, "longitude": -73.98333}, "transactions": [], "location": {"address1": "300 W 57th St", "address2": "", "address3": null, "city": "New York", "zip_code": "10019", "country": "US", "state": "NY", "display_address": ["300 W 57th St", "New York, NY 10019"]}, "phone": "", "display_phone": "", "distance": 96.04731884066136}, {"id": "Pf1gdUngOSo75T0qdf-fMg", "alias": "oh-mochi-new-york", "name": "Oh Mochi", "image_url": "https://s3-media1.fl.yelpcdn.com/bphoto/zrfM29D5O363BMsJoJ0EtA/o.jpg", "is_closed": false, "url": "https://www.yelp.com/biz/oh-mochi-new-york?adjust_creative=h5HwbyQ0TYvQjBo6Ys5Bgw&utm_campaign=yelp_api_v3&utm_medium=api_v3_business_search&utm_source=h5HwbyQ0TYvQjBo6Ys5Bgw", "review_count": 34, "categories": [{"alias": "desserts", "title": "Desserts"}, {"alias": "donuts", "title": "Donuts"}, {"alias": "pizza", "title": "Pizza"}], "rating": 4.0, "coordinates": {"latitude": 40.7662428236374, "longitude": -73.9812435954809}, "transactions": [], "price": "$", "location": {"address1": "225 W 57th St", "address2": "", "address3": null, "city": "New York", "zip_code": "10019", "country": "US", "state": "NY", "display_address": ["225 W 57th St", "New York, NY 10019"]}, "phone": "", "display_phone": "", "distance": 115.05938698877262}, {"id": "NaHrYSAalDJrvRWeA-NXvA", "alias": "champion-pizza-new-york-10", "name": "Champion Pizza", "image_url": "https://s3-media1.fl.yelpcdn.com/bphoto/zSrtaXc-NYlMeVCW_YO7wA/o.jpg", "is_closed": false, "url": "https://www.yelp.com/biz/champion-pizza-new-york-10?adjust_creative=h5HwbyQ0TYvQjBo6Ys5Bgw&utm_campaign=yelp_api_v3&utm_medium=api_v3_business_search&utm_source=h5HwbyQ0TYvQjBo6Ys5Bgw", "review_count": 70, "categories": [{"alias": "pizza", "title": "Pizza"}], "rating": 4.0, "coordinates": {"latitude": 40.766983, "longitude": -73.98292}, "transactions": ["pickup", "delivery"], "price": "$", "location": {"address1": "1000 8th Ave", "address2": "", "address3": null, "city": "New York", "zip_code": "10019", "country": "US", "state": "NY", "display_address": ["1000 8th Ave", "New York, NY 10019"]}, "phone": "+12123153335", "display_phone": "(212) 315-3335", "distance": 100.60807605266709}, {"id": "GgdR6L49eKH5drPaOYOOPQ", "alias": "pops-pizzas-new-york", "name": "Pop's Pizzas", "image_url": "https://s3-media2.fl.yelpcdn.com/bphoto/k2k1MDv8aV22YaodVj28kQ/o.jpg", "is_closed": false, "url": "https://www.yelp.com/biz/pops-pizzas-new-york?adjust_creative=h5HwbyQ0TYvQjBo6Ys5Bgw&utm_campaign=yelp_api_v3&utm_medium=api_v3_business_search&utm_source=h5HwbyQ0TYvQjBo6Ys5Bgw", "review_count": 36, "categories": [{"alias": "pizza", "title": "Pizza"}], "rating": 5.0, "coordinates": {"latitude": 40.76699, "longitude": -73.98309}, "transactions": ["pickup", "delivery"], "location": {"address1": "301 West 57th St", "address2": null, "address3": "", "city": "New York", "zip_code": "10019", "country": "US", "state": "NY", "display_address": ["301 West 57th St", "New York, NY 10019"]}, "phone": "+12127848863", "display_phone": "(212) 784-8863", "distance": 112.89863652779066}, {"id": "vo1Vw6i0-zJ6fpe1M3zqjA", "alias": "arepa-factory-new-york-7", "name": "Arepa Factory", "image_url": "https://s3-media3.fl.yelpcdn.com/bphoto/cOwhOWqB_xp_biQr_1zr_g/o.jpg", "is_closed": false, "url": "https://www.yelp.com/biz/arepa-factory-new-york-7?adjust_creative=h5HwbyQ0TYvQjBo6Ys5Bgw&utm_campaign=yelp_api_v3&utm_medium=api_v3_business_search&utm_source=h5HwbyQ0TYvQjBo6Ys5Bgw", "review_count": 53, "categories": [{"alias": "venezuelan", "title": "Venezuelan"}], "rating": 3.5, "coordinates": {"latitude": 40.7671243, "longitude": -73.9830144}, "transactions": ["delivery"], "price": "$$", "location": {"address1": "1000 S 8th Ave", "address2": null, "address3": null, "city": "New York", "zip_code": "10019", "country": "US", "state": "NY", "display_address": ["1000 S 8th Ave", "New York, NY 10019"]}, "phone": "+12127650760", "display_phone": "(212) 765-0760", "distance": 117.92886298170693}, {"id": "9OUXhF3r1CVF8jahUanMbg", "alias": "cancun-new-york", "name": "Cancun", "image_url": "https://s3-media3.fl.yelpcdn.com/bphoto/FNa1tc6BewKDnYJWLEy_xQ/o.jpg", "is_closed": false, "url": "https://www.yelp.com/biz/cancun-new-york?adjust_creative=h5HwbyQ0TYvQjBo6Ys5Bgw&utm_campaign=yelp_api_v3&utm_medium=api_v3_business_search&utm_source=h5HwbyQ0TYvQjBo6Ys5Bgw", "review_count": 374, "categories": [{"alias": "mexican", "title": "Mexican"}], "rating": 3.0, "coordinates": {"latitude": 40.76578, "longitude": -73.98379}, "transactions": [], "price": "$$", "location": {"address1": "937 8th Ave", "address2": "", "address3": "", "city": "New York", "zip_code": "10019", "country": "US", "state": "NY", "display_address": ["937 8th Ave", "New York, NY 10019"]}, "phone": "+12123077307", "display_phone": "(212) 307-7307", "distance": 110.72715841018687}, {"id": "r1JdJ_LF2S2iBZ-r1g5yzg", "alias": "panda-bubble-tea-new-york", "name": "Panda Bubble Tea", "image_url": "https://s3-media2.fl.yelpcdn.com/bphoto/Hf7rTeYk5UXellXrty88TQ/o.jpg", "is_closed": false, "url": "https://www.yelp.com/biz/panda-bubble-tea-new-york?adjust_creative=h5HwbyQ0TYvQjBo6Ys5Bgw&utm_campaign=yelp_api_v3&utm_medium=api_v3_business_search&utm_source=h5HwbyQ0TYvQjBo6Ys5Bgw", "review_count": 122, "categories": [{"alias": "bubbletea", "title": "Bubble Tea"}, {"alias": "waffles", "title": "Waffles"}, {"alias": "creperies", "title": "Creperies"}], "rating": 4.0, "coordinates": {"latitude": 40.766984, "longitude": -73.982994}, "transactions": ["pickup", "delivery"], "price": "$", "location": {"address1": "1000 S 8th Ave", "address2": "", "address3": "", "city": "New York", "zip_code": "10019", "country": "US", "state": "NY", "display_address": ["1000 S 8th Ave", "New York, NY 10019"]}, "phone": "+12129699688", "display_phone": "(212) 969-9688", "distance": 99.72152133986013}, {"id": "HRwLdsd_debjXbB9bP1SFA", "alias": "chick-fil-a-new-york-22", "name": "Chick-fil-A", "image_url": "https://s3-media1.fl.yelpcdn.com/bphoto/1azgyAVZlxvuX4L5itqENg/o.jpg", "is_closed": false, "url": "https://www.yelp.com/biz/chick-fil-a-new-york-22?adjust_creative=h5HwbyQ0TYvQjBo6Ys5Bgw&utm_campaign=yelp_api_v3&utm_medium=api_v3_business_search&utm_source=h5HwbyQ0TYvQjBo6Ys5Bgw", "review_count": 68, "categories": [{"alias": "hotdogs", "title": "Fast Food"}], "rating": 3.5, "coordinates": {"latitude": 40.76496, "longitude": -73.98374}, "transactions": ["delivery"], "price": "$", "location": {"address1": "918 8th Ave", "address2": "", "address3": null, "city": "New York", "zip_code": "10019", "country": "US", "state": "NY", "display_address": ["918 8th Ave", "New York, NY 10019"]}, "phone": "+12122452325", "display_phone": "(212) 245-2325", "distance": 160.72307731446884}, {"id": "Xjswj531-FkRZPpcccU6kQ", "alias": "vida-verde-new-york", "name": "Vida Verde", "image_url": "https://s3-media4.fl.yelpcdn.com/bphoto/4VtXhki9jwY7yDXXA1p2eA/o.jpg", "is_closed": false, "url": "https://www.yelp.com/biz/vida-verde-new-york?adjust_creative=h5HwbyQ0TYvQjBo6Ys5Bgw&utm_campaign=yelp_api_v3&utm_medium=api_v3_business_search&utm_source=h5HwbyQ0TYvQjBo6Ys5Bgw", "review_count": 1130, "categories": [{"alias": "cocktailbars", "title": "Cocktail Bars"}, {"alias": "mexican", "title": "Mexican"}, {"alias": "venues", "title": "Venues & Event Spaces"}], "rating": 4.5, "coordinates": {"latitude": 40.7650089, "longitude": -73.983215}, "transactions": ["pickup"], "price": "$$", "location": {"address1": "248 W 55th St", "address2": "", "address3": null, "city": "New York", "zip_code": "10019", "country": "US", "state": "NY", "display_address": ["248 W 55th St", "New York, NY 10019"]}, "phone": "+16466570565", "display_phone": "(646) 657-0565", "distance": 139.9461421617251}, {"id": "dgVmfjh7sNV--UMV09DaMw", "alias": "lahavash-new-york", "name": "Lahavash", "image_url": "", "is_closed": false, "url": "https://www.yelp.com/biz/lahavash-new-york?adjust_creative=h5HwbyQ0TYvQjBo6Ys5Bgw&utm_campaign=yelp_api_v3&utm_medium=api_v3_business_search&utm_source=h5HwbyQ0TYvQjBo6Ys5Bgw", "review_count": 1, "categories": [{"alias": "mideastern", "title": "Middle Eastern"}], "rating": 5.0, "coordinates": {"latitude": 40.76703, "longitude": -73.98288}, "transactions": [], "location": {"address1": "973 8th Ave", "address2": null, "address3": "", "city": "New York", "zip_code": "10019", "country": "US", "state": "NY", "display_address": ["973 8th Ave", "New York, NY 10019"]}, "phone": "", "display_phone": "", "distance": 103.44988772106576}, {"id": "505bv6h3VnN6SekdHCr8Sw", "alias": "nocello-new-york", "name": "Nocello", "image_url": "https://s3-media3.fl.yelpcdn.com/bphoto/Doa0Bh3VHYvg20H-ZnhHqA/o.jpg", "is_closed": false, "url": "https://www.yelp.com/biz/nocello-new-york?adjust_creative=h5HwbyQ0TYvQjBo6Ys5Bgw&utm_campaign=yelp_api_v3&utm_medium=api_v3_business_search&utm_source=h5HwbyQ0TYvQjBo6Ys5Bgw", "review_count": 154, "categories": [{"alias": "italian", "title": "Italian"}], "rating": 3.5, "coordinates": {"latitude": 40.7654190063477, "longitude": -73.9833374023438}, "transactions": ["pickup", "delivery"], "price": "$$$", "location": {"address1": "257 W 55th St", "address2": "", "address3": "", "city": "New York", "zip_code": "10019", "country": "US", "state": "NY", "display_address": ["257 W 55th St", "New York, NY 10019"]}, "phone": "+12127130224", "display_phone": "(212) 713-0224", "distance": 101.87061392181792}, {"id": "cGQZOrC0Dn_-E2a8CGhh0A", "alias": "chipotle-mexican-grill-new-york-71", "name": "Chipotle Mexican Grill", "image_url": "https://s3-media3.fl.yelpcdn.com/bphoto/RyHhQW1eRz-cE5DiaxcyKQ/o.jpg", "is_closed": false, "url": "https://www.yelp.com/biz/chipotle-mexican-grill-new-york-71?adjust_creative=h5HwbyQ0TYvQjBo6Ys5Bgw&utm_campaign=yelp_api_v3&utm_medium=api_v3_business_search&utm_source=h5HwbyQ0TYvQjBo6Ys5Bgw", "review_count": 131, "categories": [{"alias": "mexican", "title": "Mexican"}, {"alias": "hotdogs", "title": "Fast Food"}], "rating": 2.5, "coordinates": {"latitude": 40.7660636560522, "longitude": -73.9828994245716}, "transactions": [], "price": "$", "location": {"address1": "235 W 56th St", "address2": "", "address3": "", "city": "New York", "zip_code": "10019", "country": "US", "state": "NY", "display_address": ["235 W 56th St", "New York, NY 10019"]}, "phone": "+16466266520", "display_phone": "(646) 626-6520", "distance": 25.872778225908316}, {"id": "tV5NNPI9f-BAB6FSl96CdQ", "alias": "luigis-gourmet-pizza-new-york", "name": "Luigi's Gourmet Grill", "image_url": "https://s3-media2.fl.yelpcdn.com/bphoto/RAepoWDzG-9fddEBcHO1TA/o.jpg", "is_closed": false, "url": "https://www.yelp.com/biz/luigis-gourmet-pizza-new-york?adjust_creative=h5HwbyQ0TYvQjBo6Ys5Bgw&utm_campaign=yelp_api_v3&utm_medium=api_v3_business_search&utm_source=h5HwbyQ0TYvQjBo6Ys5Bgw", "review_count": 193, "categories": [{"alias": "pizza", "title": "Pizza"}, {"alias": "italian", "title": "Italian"}], "rating": 3.5, "coordinates": {"latitude": 40.76555, "longitude": -73.98342}, "transactions": ["pickup", "delivery"], "price": "$", "location": {"address1": "936 8th Ave", "address2": null, "address3": "", "city": "New York", "zip_code": "10019", "country": "US", "state": "NY", "display_address": ["936 8th Ave", "New York, NY 10019"]}, "phone": "+12122657159", "display_phone": "(212) 265-7159", "distance": 90.61833534724884}, {"id": "17tSQ4G1R2U63ahAcl3j9w", "alias": "sophies-cuban-cuisine-new-york-18", "name": "Sophie's Cuban Cuisine", "image_url": "https://s3-media2.fl.yelpcdn.com/bphoto/zqLecaKMdrEYNW27DWp0WQ/o.jpg", "is_closed": false, "url": "https://www.yelp.com/biz/sophies-cuban-cuisine-new-york-18?adjust_creative=h5HwbyQ0TYvQjBo6Ys5Bgw&utm_campaign=yelp_api_v3&utm_medium=api_v3_business_search&utm_source=h5HwbyQ0TYvQjBo6Ys5Bgw", "review_count": 75, "categories": [{"alias": "cuban", "title": "Cuban"}], "rating": 3.5, "coordinates": {"latitude": 40.76602, "longitude": -73.98362}, "transactions": ["pickup", "delivery"], "price": "$$", "location": {"address1": "947 8th Ave", "address2": null, "address3": "", "city": "New York", "zip_code": "10019", "country": "US", "state": "NY", "display_address": ["947 8th Ave", "New York, NY 10019"]}, "phone": "+12129565719", "display_phone": "(212) 956-5719", "distance": 94.78392814796916}, {"id": "Y92VtOkTZ6BirkJbUKCMOw", "alias": "rong-cheng-house-temporarily-closed-new-york-2", "name": "Rong Cheng House - Temporarily Closed", "image_url": "https://s3-media3.fl.yelpcdn.com/bphoto/IkOyOC7Fs_MuNeYDCZ76SQ/o.jpg", "is_closed": false, "url": "https://www.yelp.com/biz/rong-cheng-house-temporarily-closed-new-york-2?adjust_creative=h5HwbyQ0TYvQjBo6Ys5Bgw&utm_campaign=yelp_api_v3&utm_medium=api_v3_business_search&utm_source=h5HwbyQ0TYvQjBo6Ys5Bgw", "review_count": 61, "categories": [{"alias": "szechuan", "title": "Szechuan"}], "rating": 4.0, "coordinates": {"latitude": 40.76572, "longitude": -73.98286}, "transactions": ["pickup", "delivery"], "price": "$$", "location": {"address1": "242 W 56th St", "address2": "", "address3": null, "city": "New York", "zip_code": "10019", "country": "US", "state": "NY", "display_address": ["242 W 56th St", "New York, NY 10019"]}, "phone": "+12122652226", "display_phone": "(212) 265-2226", "distance": 65.74641910899227}, {"id": "oFBgvlELwMtvqA0gcGr96g", "alias": "yong-kang-street-new-york-2", "name": "Yong Kang Street", "image_url": "https://s3-media4.fl.yelpcdn.com/bphoto/X4NcCiHKmHoW_SLKIqxmAg/o.jpg", "is_closed": false, "url": "https://www.yelp.com/biz/yong-kang-street-new-york-2?adjust_creative=h5HwbyQ0TYvQjBo6Ys5Bgw&utm_campaign=yelp_api_v3&utm_medium=api_v3_business_search&utm_source=h5HwbyQ0TYvQjBo6Ys5Bgw", "review_count": 74, "categories": [{"alias": "asianfusion", "title": "Asian Fusion"}, {"alias": "poke", "title": "Poke"}, {"alias": "sushi", "title": "Sushi Bars"}], "rating": 3.5, "coordinates": {"latitude": 40.767124, "longitude": -73.983013}, "transactions": ["pickup", "delivery"], "price": "$$", "location": {"address1": "1000 8th Ave", "address2": "", "address3": "", "city": "New York", "zip_code": "10019", "country": "US", "state": "NY", "display_address": ["1000 8th Ave", "New York, NY 10019"]}, "phone": "+12127658777", "display_phone": "(212) 765-8777", "distance": 117.8620584278148}, {"id": "RffIwNrMmEf5auDVP1eURA", "alias": "zai-lai-homestyle-taiwanese-new-york", "name": "Zai Lai: Homestyle Taiwanese", "image_url": "https://s3-media2.fl.yelpcdn.com/bphoto/siWeNqL9OWrnm59FVUyCtA/o.jpg", "is_closed": false, "url": "https://www.yelp.com/biz/zai-lai-homestyle-taiwanese-new-york?adjust_creative=h5HwbyQ0TYvQjBo6Ys5Bgw&utm_campaign=yelp_api_v3&utm_medium=api_v3_business_search&utm_source=h5HwbyQ0TYvQjBo6Ys5Bgw", "review_count": 134, "categories": [{"alias": "taiwanese", "title": "Taiwanese"}, {"alias": "chinese", "title": "Chinese"}, {"alias": "breakfast_brunch", "title": "Breakfast & Brunch"}], "rating": 3.5, "coordinates": {"latitude": 40.767127, "longitude": -73.983016}, "transactions": ["pickup", "delivery"], "price": "$$", "location": {"address1": "1000 S 8th Ave", "address2": null, "address3": null, "city": "New York", "zip_code": "10019", "country": "US", "state": "NY", "display_address": ["1000 S 8th Ave", "New York, NY 10019"]}, "phone": "+12122455410", "display_phone": "(212) 245-5410", "distance": 118.25555986661665}, {"id": "f-WgMe3tJWlawXNDQOR11g", "alias": "boil-boil-ramen-new-york-2", "name": "Boil Boil Ramen", "image_url": "https://s3-media1.fl.yelpcdn.com/bphoto/2jpfcIoF__a8rn81B27ngw/o.jpg", "is_closed": false, "url": "https://www.yelp.com/biz/boil-boil-ramen-new-york-2?adjust_creative=h5HwbyQ0TYvQjBo6Ys5Bgw&utm_campaign=yelp_api_v3&utm_medium=api_v3_business_search&utm_source=h5HwbyQ0TYvQjBo6Ys5Bgw", "review_count": 36, "categories": [{"alias": "ramen", "title": "Ramen"}], "rating": 3.0, "coordinates": {"latitude": 40.7669606838289, "longitude": -73.9829799905419}, "transactions": ["pickup", "delivery"], "location": {"address1": "1000 8th Ave", "address2": "", "address3": null, "city": "New York", "zip_code": "10019", "country": "US", "state": "NY", "display_address": ["1000 8th Ave", "New York, NY 10019"]}, "phone": "+18475279730", "display_phone": "(847) 527-9730", "distance": 99.73009002277661}, {"id": "Qdu19GXomCIavmOqL_DMLA", "alias": "rumours-new-york-3", "name": "Rumours", "image_url": "https://s3-media3.fl.yelpcdn.com/bphoto/fzMDL59rYAB3qj7UPqA2xQ/o.jpg", "is_closed": false, "url": "https://www.yelp.com/biz/rumours-new-york-3?adjust_creative=h5HwbyQ0TYvQjBo6Ys5Bgw&utm_campaign=yelp_api_v3&utm_medium=api_v3_business_search&utm_source=h5HwbyQ0TYvQjBo6Ys5Bgw", "review_count": 125, "categories": [{"alias": "irish", "title": "Irish"}, {"alias": "sportsbars", "title": "Sports Bars"}], "rating": 3.0, "coordinates": {"latitude": 40.76571, "longitude": -73.984}, "transactions": [], "price": "$$", "location": {"address1": "933 8th Ave", "address2": "", "address3": "", "city": "New York", "zip_code": "10019", "country": "US", "state": "NY", "display_address": ["933 8th Ave", "New York, NY 10019"]}, "phone": "+12127572373", "display_phone": "(212) 757-2373", "distance": 125.19809956321411}, {"id": "mCorwiRo8rYJO5jGTFPzZQ", "alias": "fuji-sushi-new-york-4", "name": "Fuji Sushi", "image_url": "https://s3-media2.fl.yelpcdn.com/bphoto/mtVRtqPG7Sz-XRt7BVdllw/o.jpg", "is_closed": false, "url": "https://www.yelp.com/biz/fuji-sushi-new-york-4?adjust_creative=h5HwbyQ0TYvQjBo6Ys5Bgw&utm_campaign=yelp_api_v3&utm_medium=api_v3_business_search&utm_source=h5HwbyQ0TYvQjBo6Ys5Bgw", "review_count": 203, "categories": [{"alias": "japanese", "title": "Japanese"}, {"alias": "sushi", "title": "Sushi Bars"}], "rating": 3.0, "coordinates": {"latitude": 40.76566, "longitude": -73.98273}, "transactions": ["pickup", "delivery"], "price": "$$", "location": {"address1": "238 W 56th St", "address2": "", "address3": "", "city": "New York", "zip_code": "10019", "country": "US", "state": "NY", "display_address": ["238 W 56th St", "New York, NY 10019"]}, "phone": "+12125869888", "display_phone": "(212) 586-9888", "distance": 55.62268500356782}, {"id": "k-ljVS3yrPl2XTqH4S72rQ", "alias": "shoe-bar-new-york-3", "name": "Shoe Bar", "image_url": "https://s3-media2.fl.yelpcdn.com/bphoto/R89wirtaF_Hwjghz4QPAjQ/o.jpg", "is_closed": false, "url": "https://www.yelp.com/biz/shoe-bar-new-york-3?adjust_creative=h5HwbyQ0TYvQjBo6Ys5Bgw&utm_campaign=yelp_api_v3&utm_medium=api_v3_business_search&utm_source=h5HwbyQ0TYvQjBo6Ys5Bgw", "review_count": 3, "categories": [{"alias": "tapasmallplates", "title": "Tapas/Small Plates"}, {"alias": "coffee", "title": "Coffee & Tea"}, {"alias": "cocktailbars", "title": "Cocktail Bars"}], "rating": 5.0, "coordinates": {"latitude": 40.7662427, "longitude": -73.9812435}, "transactions": [], "location": {"address1": "225 W 57th St", "address2": null, "address3": "Nordstrom", "city": "New York", "zip_code": "10019", "country": "US", "state": "NY", "display_address": ["225 W 57th St", "Nordstrom", "New York, NY 10019"]}, "phone": "+12122952182", "display_phone": "(212) 295-2182", "distance": 115.06561975099743}, {"id": "9HTfXrF9S01-Tmth7WAk-Q", "alias": "bread-factory-cafe-gios-pizza-new-york", "name": "Bread Factory Cafe - Gio's Pizza", "image_url": "https://s3-media4.fl.yelpcdn.com/bphoto/HkaUSeUv0naW3H7LZUjb5g/o.jpg", "is_closed": false, "url": "https://www.yelp.com/biz/bread-factory-cafe-gios-pizza-new-york?adjust_creative=h5HwbyQ0TYvQjBo6Ys5Bgw&utm_campaign=yelp_api_v3&utm_medium=api_v3_business_search&utm_source=h5HwbyQ0TYvQjBo6Ys5Bgw", "review_count": 118, "categories": [{"alias": "bakeries", "title": "Bakeries"}, {"alias": "delis", "title": "Delis"}], "rating": 3.0, "coordinates": {"latitude": 40.76577, "longitude": -73.98395}, "transactions": ["pickup", "delivery"], "price": "$", "location": {"address1": "935 8th Ave", "address2": "", "address3": "", "city": "New York", "zip_code": "10019", "country": "US", "state": "NY", "display_address": ["935 8th Ave", "New York, NY 10019"]}, "phone": "+12125862221", "display_phone": "(212) 586-2221", "distance": 116.95581583462655}, {"id": "U1zTQPZEI84Bz6CHYUZs5g", "alias": "broadway-bar-temporarily-closed-new-york", "name": "Broadway Bar - Temporarily Closed", "image_url": "https://s3-media3.fl.yelpcdn.com/bphoto/-ACUDXdJ8BlnZ5Y0DfIKQQ/o.jpg", "is_closed": false, "url": "https://www.yelp.com/biz/broadway-bar-temporarily-closed-new-york?adjust_creative=h5HwbyQ0TYvQjBo6Ys5Bgw&utm_campaign=yelp_api_v3&utm_medium=api_v3_business_search&utm_source=h5HwbyQ0TYvQjBo6Ys5Bgw", "review_count": 2, "categories": [{"alias": "tapasmallplates", "title": "Tapas/Small Plates"}, {"alias": "cocktailbars", "title": "Cocktail Bars"}], "rating": 5.0, "coordinates": {"latitude": 40.7662427, "longitude": -73.9812435}, "transactions": [], "location": {"address1": "225 W 57th St", "address2": null, "address3": "", "city": "New York", "zip_code": "10019", "country": "US", "state": "NY", "display_address": ["225 W 57th St", "New York, NY 10019"]}, "phone": "+12122952183", "display_phone": "(212) 295-2183", "distance": 115.06561975099743}, {"id": "t6c5g_h018XNqTNWEbdE_A", "alias": "pressed-juicery-new-york-9", "name": "Pressed Juicery", "image_url": "https://s3-media2.fl.yelpcdn.com/bphoto/Ln8jPSYNgb8l9X1m2HK7ww/o.jpg", "is_closed": false, "url": "https://www.yelp.com/biz/pressed-juicery-new-york-9?adjust_creative=h5HwbyQ0TYvQjBo6Ys5Bgw&utm_campaign=yelp_api_v3&utm_medium=api_v3_business_search&utm_source=h5HwbyQ0TYvQjBo6Ys5Bgw", "review_count": 25, "categories": [{"alias": "convenience", "title": "Convenience Stores"}, {"alias": "vegan", "title": "Vegan"}, {"alias": "healthmarkets", "title": "Health Markets"}], "rating": 4.0, "coordinates": {"latitude": 40.766984, "longitude": -73.982994}, "transactions": ["pickup", "delivery"], "price": "$$", "location": {"address1": "1000 8th Ave S", "address2": "", "address3": null, "city": "New York", "zip_code": "10019", "country": "US", "state": "NY", "display_address": ["1000 8th Ave S", "New York, NY 10019"]}, "phone": "+12129777707", "display_phone": "(212) 977-7707", "distance": 99.72152133986013}, {"id": "29Y6YWJ7SEMJJqEuK9WKKg", "alias": "hot-dog-cart-new-york-3", "name": "Hot Dog Cart", "image_url": "https://s3-media2.fl.yelpcdn.com/bphoto/tFe_YI_RLgzBGo1PYIGxZQ/o.jpg", "is_closed": false, "url": "https://www.yelp.com/biz/hot-dog-cart-new-york-3?adjust_creative=h5HwbyQ0TYvQjBo6Ys5Bgw&utm_campaign=yelp_api_v3&utm_medium=api_v3_business_search&utm_source=h5HwbyQ0TYvQjBo6Ys5Bgw", "review_count": 1, "categories": [{"alias": "foodstands", "title": "Food Stands"}], "rating": 4.0, "coordinates": {"latitude": 40.7663205, "longitude": -73.981912}, "transactions": [], "location": {"address1": "West 57 St", "address2": "", "address3": "", "city": "New York", "zip_code": "10019", "country": "US", "state": "NY", "display_address": ["West 57 St", "New York, NY 10019"]}, "phone": "", "display_phone": "", "distance": 62.33156008124178}, {"id": "w78kRzU4TVY8Bk8HPQngww", "alias": "wendys-new-york-13", "name": "Wendy's", "image_url": "https://s3-media2.fl.yelpcdn.com/bphoto/7WpcB0_59HFFjy7I76M42Q/o.jpg", "is_closed": false, "url": "https://www.yelp.com/biz/wendys-new-york-13?adjust_creative=h5HwbyQ0TYvQjBo6Ys5Bgw&utm_campaign=yelp_api_v3&utm_medium=api_v3_business_search&utm_source=h5HwbyQ0TYvQjBo6Ys5Bgw", "review_count": 58, "categories": [{"alias": "burgers", "title": "Burgers"}, {"alias": "hotdogs", "title": "Fast Food"}], "rating": 3.0, "coordinates": {"latitude": 40.76563, "longitude": -73.98345}, "transactions": ["delivery"], "price": "$", "location": {"address1": "938 Eighth Avenue", "address2": "", "address3": "", "city": "New York", "zip_code": "10019", "country": "US", "state": "NY", "display_address": ["938 Eighth Avenue", "New York, NY 10019"]}, "phone": "+12129774785", "display_phone": "(212) 977-4785", "distance": 83.75167065074072}, {"id": "kjmpK3LsCJp2qGukcV_0aQ", "alias": "daa-dumplings-new-york-4", "name": "Daa! Dumplings", "image_url": "https://s3-media2.fl.yelpcdn.com/bphoto/e1BnkF2wUqDLiJJkbDhnyA/o.jpg", "is_closed": false, "url": "https://www.yelp.com/biz/daa-dumplings-new-york-4?adjust_creative=h5HwbyQ0TYvQjBo6Ys5Bgw&utm_campaign=yelp_api_v3&utm_medium=api_v3_business_search&utm_source=h5HwbyQ0TYvQjBo6Ys5Bgw", "review_count": 117, "categories": [{"alias": "russian", "title": "Russian"}], "rating": 4.5, "coordinates": {"latitude": 40.6650377515107, "longitude": -73.9798863371133}, "transactions": ["pickup", "delivery"], "price": "$$", "location": {"address1": "1000 S 8th Ave", "address2": "", "address3": "", "city": "New York", "zip_code": "10019", "country": "US", "state": "NY", "display_address": ["1000 S 8th Ave", "New York, NY 10019"]}, "phone": "+12127576207", "display_phone": "(212) 757-6207", "distance": 99.72152133986013}, {"id": "ECUTH1VOWxZ9GwfzblMKzA", "alias": "mughlai-indian-cuisine-new-york-8", "name": "Mughlai Indian Cuisine", "image_url": "https://s3-media4.fl.yelpcdn.com/bphoto/OeaZj-kqO_moK50Wcs1HcQ/o.jpg", "is_closed": false, "url": "https://www.yelp.com/biz/mughlai-indian-cuisine-new-york-8?adjust_creative=h5HwbyQ0TYvQjBo6Ys5Bgw&utm_campaign=yelp_api_v3&utm_medium=api_v3_business_search&utm_source=h5HwbyQ0TYvQjBo6Ys5Bgw", "review_count": 67, "categories": [{"alias": "indpak", "title": "Indian"}], "rating": 4.5, "coordinates": {"latitude": 40.765394, "longitude": -73.983272}, "transactions": ["pickup", "delivery"], "price": "$$", "location": {"address1": "255 W 55th St", "address2": null, "address3": "", "city": "New York", "zip_code": "10019", "country": "US", "state": "NY", "display_address": ["255 W 55th St", "New York, NY 10019"]}, "phone": "+16468700555", "display_phone": "(646) 870-0555", "distance": 97.1145613240394}, {"id": "mekpRq6Iak0kuUUNWxcC3A", "alias": "balduccis-gourmet-on-the-go-new-york-2", "name": "Balducci's Gourmet On The Go", "image_url": "https://s3-media3.fl.yelpcdn.com/bphoto/2tGthlYlekrWQkki4T_Z1g/o.jpg", "is_closed": false, "url": "https://www.yelp.com/biz/balduccis-gourmet-on-the-go-new-york-2?adjust_creative=h5HwbyQ0TYvQjBo6Ys5Bgw&utm_campaign=yelp_api_v3&utm_medium=api_v3_business_search&utm_source=h5HwbyQ0TYvQjBo6Ys5Bgw", "review_count": 98, "categories": [{"alias": "cafes", "title": "Cafes"}], "rating": 3.5, "coordinates": {"latitude": 40.766453, "longitude": -73.983439}, "transactions": [], "price": "$$", "location": {"address1": "301 W 56th St", "address2": "", "address3": "", "city": "New York", "zip_code": "10019", "country": "US", "state": "NY", "display_address": ["301 W 56th St", "New York, NY 10019"]}, "phone": "+16463504194", "display_phone": "(646) 350-4194", "distance": 80.3039945682249}, {"id": "sP9tN0_6_AYIbhzi_PIjrQ", "alias": "black-iron-burger-new-york-11", "name": "Black Iron Burger", "image_url": "https://s3-media4.fl.yelpcdn.com/bphoto/Z8ZDSkRHZCr0xUGHoeQiqw/o.jpg", "is_closed": false, "url": "https://www.yelp.com/biz/black-iron-burger-new-york-11?adjust_creative=h5HwbyQ0TYvQjBo6Ys5Bgw&utm_campaign=yelp_api_v3&utm_medium=api_v3_business_search&utm_source=h5HwbyQ0TYvQjBo6Ys5Bgw", "review_count": 8, "categories": [{"alias": "burgers", "title": "Burgers"}, {"alias": "newamerican", "title": "American (New)"}, {"alias": "breakfast_brunch", "title": "Breakfast & Brunch"}], "rating": 3.5, "coordinates": {"latitude": 40.659734249381, "longitude": -73.9844201440116}, "transactions": ["pickup", "delivery"], "price": "$$", "location": {"address1": "1000S 8th Ave", "address2": "", "address3": "Turnstyle Underground Market", "city": "New York", "zip_code": "10019", "country": "US", "state": "NY", "display_address": ["1000S 8th Ave", "Turnstyle Underground Market", "New York, NY 10019"]}, "phone": "+16465636801", "display_phone": "(646) 563-6801", "distance": 99.72152133986013}, {"id": "6_qAmt-rUH2tk2HqA5i5Cg", "alias": "hani-pacific-new-york-2", "name": "Hani Pacific", "image_url": "https://s3-media1.fl.yelpcdn.com/bphoto/J97S0BzaHGsnS5b62v_eGg/o.jpg", "is_closed": false, "url": "https://www.yelp.com/biz/hani-pacific-new-york-2?adjust_creative=h5HwbyQ0TYvQjBo6Ys5Bgw&utm_campaign=yelp_api_v3&utm_medium=api_v3_business_search&utm_source=h5HwbyQ0TYvQjBo6Ys5Bgw", "review_count": 10, "categories": [{"alias": "panasian", "title": "Pan Asian"}, {"alias": "cocktailbars", "title": "Cocktail Bars"}], "rating": 3.0, "coordinates": {"latitude": 40.7662427, "longitude": -73.9812435}, "transactions": [], "location": {"address1": "225 W 57th St", "address2": null, "address3": "Nordstrom", "city": "New York", "zip_code": "10019", "country": "US", "state": "NY", "display_address": ["225 W 57th St", "Nordstrom", "New York, NY 10019"]}, "phone": "+12122952186", "display_phone": "(212) 295-2186", "distance": 115.06561975099743}, {"id": "3_r3cHgCvW4fwD3T-uVW1A", "alias": "1-vizio-new-york", "name": "1 Vizio", "image_url": "https://s3-media2.fl.yelpcdn.com/bphoto/axR8uwRAQo_KDAC_n5Mxaw/o.jpg", "is_closed": false, "url": "https://www.yelp.com/biz/1-vizio-new-york?adjust_creative=h5HwbyQ0TYvQjBo6Ys5Bgw&utm_campaign=yelp_api_v3&utm_medium=api_v3_business_search&utm_source=h5HwbyQ0TYvQjBo6Ys5Bgw", "review_count": 80, "categories": [{"alias": "burgers", "title": "Burgers"}, {"alias": "tradamerican", "title": "American (Traditional)"}], "rating": 3.0, "coordinates": {"latitude": 40.76539, "longitude": -73.98327}, "transactions": ["pickup", "delivery"], "price": "$$", "location": {"address1": "255 W 55th St", "address2": "", "address3": "", "city": "New York", "zip_code": "10019", "country": "US", "state": "NY", "display_address": ["255 W 55th St", "New York, NY 10019"]}, "phone": "+19177915808", "display_phone": "(917) 791-5808", "distance": 97.31781372506043}, {"id": "wlbd1wWGulrh1NEYvLBDjA", "alias": "joe-and-the-juice-new-york-25", "name": "Joe & The Juice", "image_url": "https://s3-media2.fl.yelpcdn.com/bphoto/eYJ5NqfRNkBnlQJO1bbZog/o.jpg", "is_closed": false, "url": "https://www.yelp.com/biz/joe-and-the-juice-new-york-25?adjust_creative=h5HwbyQ0TYvQjBo6Ys5Bgw&utm_campaign=yelp_api_v3&utm_medium=api_v3_business_search&utm_source=h5HwbyQ0TYvQjBo6Ys5Bgw", "review_count": 72, "categories": [{"alias": "juicebars", "title": "Juice Bars & Smoothies"}, {"alias": "coffee", "title": "Coffee & Tea"}, {"alias": "cafes", "title": "Cafes"}], "rating": 2.5, "coordinates": {"latitude": 40.76582, "longitude": -73.98154}, "transactions": ["pickup", "delivery"], "price": "$$", "location": {"address1": "1758 Broadway", "address2": "", "address3": null, "city": "New York", "zip_code": "10019", "country": "US", "state": "NY", "display_address": ["1758 Broadway", "New York, NY 10019"]}, "phone": "", "display_phone": "", "distance": 110.45360470599712}, {"id": "wEGU5E5rm2PjZjkoTEmFGg", "alias": "bon-app\u00e9tit-supper-club-and-caf\u00e9-new-york-2", "name": "Bon App\u00e9tit Supper Club & Caf\u00e9", "image_url": "https://s3-media4.fl.yelpcdn.com/bphoto/sTlOUaCj1ciRimO9-RIswg/o.jpg", "is_closed": false, "url": "https://www.yelp.com/biz/bon-app%C3%A9tit-supper-club-and-caf%C3%A9-new-york-2?adjust_creative=h5HwbyQ0TYvQjBo6Ys5Bgw&utm_campaign=yelp_api_v3&utm_medium=api_v3_business_search&utm_source=h5HwbyQ0TYvQjBo6Ys5Bgw", "review_count": 10, "categories": [{"alias": "sandwiches", "title": "Sandwiches"}], "rating": 3.0, "coordinates": {"latitude": 40.7661059, "longitude": -73.9810332}, "transactions": [], "price": "$$", "location": {"address1": "221 W 57th St", "address2": "", "address3": "", "city": "New York", "zip_code": "10019", "country": "US", "state": "NY", "display_address": ["221 W 57th St", "New York, NY 10019"]}, "phone": "", "display_phone": "", "distance": 133.32388789946896}, {"id": "yaDp_eIhkgfT3SIn0tRsRw", "alias": "mcdonalds-new-york-151", "name": "McDonald's", "image_url": "https://s3-media2.fl.yelpcdn.com/bphoto/j-PMe-25fTY2yqt7kBf4qw/o.jpg", "is_closed": false, "url": "https://www.yelp.com/biz/mcdonalds-new-york-151?adjust_creative=h5HwbyQ0TYvQjBo6Ys5Bgw&utm_campaign=yelp_api_v3&utm_medium=api_v3_business_search&utm_source=h5HwbyQ0TYvQjBo6Ys5Bgw", "review_count": 70, "categories": [{"alias": "hotdogs", "title": "Fast Food"}, {"alias": "burgers", "title": "Burgers"}, {"alias": "coffee", "title": "Coffee & Tea"}], "rating": 2.5, "coordinates": {"latitude": 40.76589, "longitude": -73.983273}, "transactions": ["delivery"], "price": "$", "location": {"address1": "946 8th Ave", "address2": "", "address3": "", "city": "New York", "zip_code": "10019", "country": "US", "state": "NY", "display_address": ["946 8th Ave", "New York, NY 10019"]}, "phone": "+12125866676", "display_phone": "(212) 586-6676", "distance": 61.89367104896081}, {"id": "wbdL_gDZSKMR6kwRTBwx4g", "alias": "pret-a-manger-new-york-87", "name": "Pret A Manger", "image_url": "https://s3-media1.fl.yelpcdn.com/bphoto/TH-KstbVRFcI3tzMJihKTg/o.jpg", "is_closed": false, "url": "https://www.yelp.com/biz/pret-a-manger-new-york-87?adjust_creative=h5HwbyQ0TYvQjBo6Ys5Bgw&utm_campaign=yelp_api_v3&utm_medium=api_v3_business_search&utm_source=h5HwbyQ0TYvQjBo6Ys5Bgw", "review_count": 16, "categories": [{"alias": "breakfast_brunch", "title": "Breakfast & Brunch"}, {"alias": "coffee", "title": "Coffee & Tea"}, {"alias": "sandwiches", "title": "Sandwiches"}], "rating": 3.0, "coordinates": {"latitude": 40.765655, "longitude": -73.9816624}, "transactions": [], "price": "$", "location": {"address1": "1756 Broadway", "address2": "", "address3": null, "city": "New York", "zip_code": "10019", "country": "US", "state": "NY", "display_address": ["1756 Broadway", "New York, NY 10019"]}, "phone": "+16469644302", "display_phone": "(646) 964-4302", "distance": 93.78572784184713}, {"id": "_vV3nIYnFo2IdYgU3AmbWw", "alias": "lenwich-new-york-14", "name": "Lenwich", "image_url": "https://s3-media3.fl.yelpcdn.com/bphoto/M6xHFUoDczzIxUp0S2qd4A/o.jpg", "is_closed": false, "url": "https://www.yelp.com/biz/lenwich-new-york-14?adjust_creative=h5HwbyQ0TYvQjBo6Ys5Bgw&utm_campaign=yelp_api_v3&utm_medium=api_v3_business_search&utm_source=h5HwbyQ0TYvQjBo6Ys5Bgw", "review_count": 79, "categories": [{"alias": "salad", "title": "Salad"}, {"alias": "sandwiches", "title": "Sandwiches"}, {"alias": "breakfast_brunch", "title": "Breakfast & Brunch"}], "rating": 3.0, "coordinates": {"latitude": 40.76573, "longitude": -73.98338}, "transactions": ["delivery"], "price": "$", "location": {"address1": "940 8th Ave", "address2": "", "address3": "", "city": "New York", "zip_code": "10019", "country": "US", "state": "NY", "display_address": ["940 8th Ave", "New York, NY 10019"]}, "phone": "+12129561080", "display_phone": "(212) 956-1080", "distance": 72.99694593049128}, {"id": "10BR62OFcL6IlljyYiIWbg", "alias": "le-pain-quotidien-new-york-141", "name": "Le Pain Quotidien", "image_url": "https://s3-media2.fl.yelpcdn.com/bphoto/YFKEeoUHrtEM127yLOuRyg/o.jpg", "is_closed": false, "url": "https://www.yelp.com/biz/le-pain-quotidien-new-york-141?adjust_creative=h5HwbyQ0TYvQjBo6Ys5Bgw&utm_campaign=yelp_api_v3&utm_medium=api_v3_business_search&utm_source=h5HwbyQ0TYvQjBo6Ys5Bgw", "review_count": 102, "categories": [{"alias": "coffee", "title": "Coffee & Tea"}, {"alias": "breakfast_brunch", "title": "Breakfast & Brunch"}, {"alias": "bakeries", "title": "Bakeries"}], "rating": 3.0, "coordinates": {"latitude": 40.764919, "longitude": -73.983442}, "transactions": ["pickup", "delivery"], "price": "$$", "location": {"address1": "250 W 55th St", "address2": "", "address3": "", "city": "New York", "zip_code": "10019", "country": "US", "state": "NY", "display_address": ["250 W 55th St", "New York, NY 10019"]}, "phone": "+16467798387", "display_phone": "(646) 779-8387", "distance": 150.4212563777386}, {"id": "Ram7hCUEeNK7cvs8r6l76Q", "alias": "1-minute-cafe-new-york-2", "name": "1 Minute Cafe", "image_url": "", "is_closed": false, "url": "https://www.yelp.com/biz/1-minute-cafe-new-york-2?adjust_creative=h5HwbyQ0TYvQjBo6Ys5Bgw&utm_campaign=yelp_api_v3&utm_medium=api_v3_business_search&utm_source=h5HwbyQ0TYvQjBo6Ys5Bgw", "review_count": 1, "categories": [{"alias": "delis", "title": "Delis"}, {"alias": "sandwiches", "title": "Sandwiches"}], "rating": 2.0, "coordinates": {"latitude": 40.7670699, "longitude": -73.98285}, "transactions": ["pickup", "delivery"], "location": {"address1": "975 8th Ave", "address2": null, "address3": null, "city": "New York", "zip_code": "10019", "country": "US", "state": "NY", "display_address": ["975 8th Ave", "New York, NY 10019"]}, "phone": "+12122479600", "display_phone": "(212) 247-9600", "distance": 111.66014289459844}, {"id": "IOavnBVmCbaR7Kkna9dNIg", "alias": "nespresso-boutique-at-sur-la-table-new-york", "name": "Nespresso Boutique at Sur la table", "image_url": "https://s3-media4.fl.yelpcdn.com/bphoto/hUCFi-FM5K-RoH_TYcprQg/o.jpg", "is_closed": false, "url": "https://www.yelp.com/biz/nespresso-boutique-at-sur-la-table-new-york?adjust_creative=h5HwbyQ0TYvQjBo6Ys5Bgw&utm_campaign=yelp_api_v3&utm_medium=api_v3_business_search&utm_source=h5HwbyQ0TYvQjBo6Ys5Bgw", "review_count": 10, "categories": [{"alias": "cafes", "title": "Cafes"}, {"alias": "coffee", "title": "Coffee & Tea"}, {"alias": "coffeeroasteries", "title": "Coffee Roasteries"}], "rating": 4.0, "coordinates": {"latitude": 40.76667, "longitude": -73.98351}, "transactions": [], "price": "$$", "location": {"address1": "306 West 57th St", "address2": "", "address3": "Hearst Tower, Ground Level", "city": "New York", "zip_code": "10019", "country": "US", "state": "NY", "display_address": ["306 West 57th St", "Hearst Tower, Ground Level", "New York, NY 10019"]}, "phone": "+18005621465", "display_phone": "(800) 562-1465", "distance": 104.36684360663727}]