[{"id": "nMWqlWid2YfDeutioit_0w", "alias": "bills-bar-and-burger-new-york-2", "name": "Bill's Bar & Burger", "image_url": "https://s3-media1.fl.yelpcdn.com/bphoto/u_q_wEfPzIEPBgs1_8w7aw/o.jpg", "is_closed": false, "url": "https://www.yelp.com/biz/bills-bar-and-burger-new-york-2?adjust_creative=ywY5UnLZrNrRl2b93Ruy_g&utm_campaign=yelp_api_v3&utm_medium=api_v3_business_search&utm_source=ywY5UnLZrNrRl2b93Ruy_g", "review_count": 1254, "categories": [{"alias": "burgers", "title": "Burgers"}, {"alias": "newamerican", "title": "American (New)"}, {"alias": "bars", "title": "Bars"}], "rating": 3.5, "coordinates": {"latitude": 40.7594983, "longitude": -73.977956}, "transactions": ["delivery", "pickup"], "price": "$$", "location": {"address1": "16 W 51st St", "address2": "", "address3": "", "city": "New York", "zip_code": "10019", "country": "US", "state": "NY", "display_address": ["16 W 51st St", "New York, NY 10019"]}, "phone": "+12127058510", "display_phone": "(212) 705-8510", "distance": 49.10109825641592}, {"id": "oSAiyZF-xTqdRkwN5KrV_Q", "alias": "del-friscos-grille-new-york", "name": "Del Frisco's Grille", "image_url": "https://s3-media1.fl.yelpcdn.com/bphoto/rTZtu1TRN-6wPeKYxG_fSg/o.jpg", "is_closed": false, "url": "https://www.yelp.com/biz/del-friscos-grille-new-york?adjust_creative=ywY5UnLZrNrRl2b93Ruy_g&utm_campaign=yelp_api_v3&utm_medium=api_v3_business_search&utm_source=ywY5UnLZrNrRl2b93Ruy_g", "review_count": 696, "categories": [{"alias": "steak", "title": "Steakhouses"}, {"alias": "newamerican", "title": "American (New)"}, {"alias": "seafood", "title": "Seafood"}], "rating": 3.5, "coordinates": {"latitude": 40.7596566, "longitude": -73.9783161}, "transactions": ["delivery", "pickup"], "price": "$$$", "location": {"address1": "50 Rockefeller Plz", "address2": "", "address3": "", "city": "New York", "zip_code": "10020", "country": "US", "state": "NY", "display_address": ["50 Rockefeller Plz", "New York, NY 10020"]}, "phone": "+12127670371", "display_phone": "(212) 767-0371", "distance": 108.05716960474446}, {"id": "_IkMfWpOkQXRZtJAYJUJIw", "alias": "hama-japanese-cuisine-new-york", "name": "Hama Japanese Cuisine", "image_url": "https://s3-media4.fl.yelpcdn.com/bphoto/R6pDrpuZdRXr88Iv-YGtIw/o.jpg", "is_closed": false, "url": "https://www.yelp.com/biz/hama-japanese-cuisine-new-york?adjust_creative=ywY5UnLZrNrRl2b93Ruy_g&utm_campaign=yelp_api_v3&utm_medium=api_v3_business_search&utm_source=ywY5UnLZrNrRl2b93Ruy_g", "review_count": 369, "categories": [{"alias": "sushi", "title": "Sushi Bars"}, {"alias": "japanese", "title": "Japanese"}], "rating": 4.0, "coordinates": {"latitude": 40.7597846984863, "longitude": -73.9776382446289}, "transactions": ["delivery", "pickup"], "price": "$$", "location": {"address1": "11 W 51st St", "address2": "", "address3": "", "city": "New York", "zip_code": "10019", "country": "US", "state": "NY", "display_address": ["11 W 51st St", "New York, NY 10019"]}, "phone": "+12127577103", "display_phone": "(212) 757-7103", "distance": 104.04968406515448}, {"id": "Ci8ZAbhfNc0sj3kwj6XRmw", "alias": "by-chloe-new-york-33", "name": "by CHLOE", "image_url": "https://s3-media4.fl.yelpcdn.com/bphoto/nwt8an_TIa2dw0wj9Nhrxw/o.jpg", "is_closed": false, "url": "https://www.yelp.com/biz/by-chloe-new-york-33?adjust_creative=ywY5UnLZrNrRl2b93Ruy_g&utm_campaign=yelp_api_v3&utm_medium=api_v3_business_search&utm_source=ywY5UnLZrNrRl2b93Ruy_g", "review_count": 433, "categories": [{"alias": "salad", "title": "Salad"}, {"alias": "vegan", "title": "Vegan"}, {"alias": "gluten_free", "title": "Gluten-Free"}], "rating": 4.0, "coordinates": {"latitude": 40.757733, "longitude": -73.97889}, "transactions": ["delivery", "pickup"], "price": "$$", "location": {"address1": "1 Rockefeller Plz", "address2": null, "address3": null, "city": "New York", "zip_code": "10020", "country": "US", "state": "NY", "display_address": ["1 Rockefeller Plz", "New York, NY 10020"]}, "phone": "+16464537181", "display_phone": "(646) 453-7181", "distance": 165.12947423495507}, {"id": "CsdS-L70jLn-exz34j8h5Q", "alias": "l-avenue-at-saks-new-york", "name": "L'avenue at Saks", "image_url": "https://s3-media1.fl.yelpcdn.com/bphoto/mfwlkjXaEKSROBmrztNlow/o.jpg", "is_closed": false, "url": "https://www.yelp.com/biz/l-avenue-at-saks-new-york?adjust_creative=ywY5UnLZrNrRl2b93Ruy_g&utm_campaign=yelp_api_v3&utm_medium=api_v3_business_search&utm_source=ywY5UnLZrNrRl2b93Ruy_g", "review_count": 76, "categories": [{"alias": "french", "title": "French"}], "rating": 3.5, "coordinates": {"latitude": 40.7581416, "longitude": -73.9766257}, "transactions": [], "price": "$$$", "location": {"address1": "8 East 50th St", "address2": "", "address3": null, "city": "New York", "zip_code": "10022", "country": "US", "state": "NY", "display_address": ["8 East 50th St", "New York, NY 10022"]}, "phone": "+12129404099", "display_phone": "(212) 940-4099", "distance": 92.363936362853}, {"id": "nm8VHIbe3rEzD4We7LQ3dA", "alias": "city-winery-new-york-6", "name": "City Winery", "image_url": "https://s3-media4.fl.yelpcdn.com/bphoto/DUn1PqG0e_qzBwTf33ACpQ/o.jpg", "is_closed": false, "url": "https://www.yelp.com/biz/city-winery-new-york-6?adjust_creative=ywY5UnLZrNrRl2b93Ruy_g&utm_campaign=yelp_api_v3&utm_medium=api_v3_business_search&utm_source=ywY5UnLZrNrRl2b93Ruy_g", "review_count": 1, "categories": [{"alias": "wine_bars", "title": "Wine Bars"}, {"alias": "newamerican", "title": "American (New)"}, {"alias": "venues", "title": "Venues & Event Spaces"}], "rating": 5.0, "coordinates": {"latitude": 40.759408, "longitude": -73.977738}, "transactions": [], "location": {"address1": "45 Rockefeller Plz", "address2": "", "address3": null, "city": "New York", "zip_code": "10111", "country": "US", "state": "NY", "display_address": ["45 Rockefeller Plz", "New York, NY 10111"]}, "phone": "", "display_phone": "", "distance": 63.060561470622396}, {"id": "7ZecxKox2SiVtsNDWphJZQ", "alias": "limani-new-york", "name": "Limani", "image_url": "https://s3-media2.fl.yelpcdn.com/bphoto/aze6h3EA7UpphVHAVzBpkg/o.jpg", "is_closed": false, "url": "https://www.yelp.com/biz/limani-new-york?adjust_creative=ywY5UnLZrNrRl2b93Ruy_g&utm_campaign=yelp_api_v3&utm_medium=api_v3_business_search&utm_source=ywY5UnLZrNrRl2b93Ruy_g", "review_count": 438, "categories": [{"alias": "mediterranean", "title": "Mediterranean"}, {"alias": "seafood", "title": "Seafood"}], "rating": 4.0, "coordinates": {"latitude": 40.7593809598193, "longitude": -73.9778140767212}, "transactions": [], "price": "$$$", "location": {"address1": "45 Rockerfeller Plz", "address2": "", "address3": "", "city": "New York", "zip_code": "10111", "country": "US", "state": "NY", "display_address": ["45 Rockerfeller Plz", "New York, NY 10111"]}, "phone": "+12128589200", "display_phone": "(212) 858-9200", "distance": 61.67638669168742}, {"id": "frjMUU8VpT6Ou0y7TWEgYw", "alias": "hana-new-york-4", "name": "Hana", "image_url": "https://s3-media4.fl.yelpcdn.com/bphoto/U4_GTO3TAJRgv2iRS2VXhQ/o.jpg", "is_closed": false, "url": "https://www.yelp.com/biz/hana-new-york-4?adjust_creative=ywY5UnLZrNrRl2b93Ruy_g&utm_campaign=yelp_api_v3&utm_medium=api_v3_business_search&utm_source=ywY5UnLZrNrRl2b93Ruy_g", "review_count": 3, "categories": [{"alias": "sushi", "title": "Sushi Bars"}, {"alias": "japanese", "title": "Japanese"}], "rating": 3.5, "coordinates": {"latitude": 40.7595357525026, "longitude": -73.9776032938552}, "transactions": [], "price": "$$$", "location": {"address1": "10-12 W 51st St", "address2": "", "address3": "", "city": "New York", "zip_code": "10111", "country": "US", "state": "NY", "display_address": ["10-12 W 51st St", "New York, NY 10111"]}, "phone": "", "display_phone": "", "distance": 76.17278452187223}, {"id": "zwFS-FcGe062to_rWWkLCw", "alias": "bouchon-bakery-new-york-2", "name": "Bouchon Bakery", "image_url": "https://s3-media1.fl.yelpcdn.com/bphoto/TN7OzQ1CRw5iXz253amt3Q/o.jpg", "is_closed": false, "url": "https://www.yelp.com/biz/bouchon-bakery-new-york-2?adjust_creative=ywY5UnLZrNrRl2b93Ruy_g&utm_campaign=yelp_api_v3&utm_medium=api_v3_business_search&utm_source=ywY5UnLZrNrRl2b93Ruy_g", "review_count": 792, "categories": [{"alias": "bakeries", "title": "Bakeries"}, {"alias": "sandwiches", "title": "Sandwiches"}, {"alias": "french", "title": "French"}], "rating": 4.0, "coordinates": {"latitude": 40.7582232250109, "longitude": -73.9788105906568}, "transactions": ["delivery", "pickup"], "price": "$$", "location": {"address1": "1 Rockefeller Plaza", "address2": "", "address3": "", "city": "New York", "zip_code": "10111", "country": "US", "state": "NY", "display_address": ["1 Rockefeller Plaza", "New York, NY 10111"]}, "phone": "+12127823890", "display_phone": "(212) 782-3890", "distance": 123.61135703394112}, {"id": "0v0uYzYlIbxD0lGTiXhG-g", "alias": "morrell-wine-bar-and-cafe-new-york", "name": "Morrell Wine Bar & Cafe", "image_url": "https://s3-media1.fl.yelpcdn.com/bphoto/sAIvGtqDodtsHTubLFzZJw/o.jpg", "is_closed": false, "url": "https://www.yelp.com/biz/morrell-wine-bar-and-cafe-new-york?adjust_creative=ywY5UnLZrNrRl2b93Ruy_g&utm_campaign=yelp_api_v3&utm_medium=api_v3_business_search&utm_source=ywY5UnLZrNrRl2b93Ruy_g", "review_count": 241, "categories": [{"alias": "wine_bars", "title": "Wine Bars"}, {"alias": "newamerican", "title": "American (New)"}, {"alias": "cafes", "title": "Cafes"}], "rating": 3.5, "coordinates": {"latitude": 40.75809, "longitude": -73.97901}, "transactions": [], "price": "$$$", "location": {"address1": "1 Rockefeller Plz 49th St", "address2": "", "address3": "", "city": "New York", "zip_code": "10020", "country": "US", "state": "NY", "display_address": ["1 Rockefeller Plz 49th St", "New York, NY 10020"]}, "phone": "+12122627700", "display_phone": "(212) 262-7700", "distance": 137.28962499923503}, {"id": "1gTFlS3hMmZTdp-GDsX3_A", "alias": "tgi-fridays-new-york-21", "name": "TGI Fridays", "image_url": "https://s3-media3.fl.yelpcdn.com/bphoto/nNwa3XeUumQeeJKrArbzjg/o.jpg", "is_closed": false, "url": "https://www.yelp.com/biz/tgi-fridays-new-york-21?adjust_creative=ywY5UnLZrNrRl2b93Ruy_g&utm_campaign=yelp_api_v3&utm_medium=api_v3_business_search&utm_source=ywY5UnLZrNrRl2b93Ruy_g", "review_count": 257, "categories": [{"alias": "tradamerican", "title": "American (Traditional)"}], "rating": 1.5, "coordinates": {"latitude": 40.75777, "longitude": -73.97817}, "transactions": [], "price": "$$", "location": {"address1": "604 5th Ave", "address2": "", "address3": "", "city": "New York", "zip_code": "10020", "country": "US", "state": "NY", "display_address": ["604 5th Ave", "New York, NY 10020"]}, "phone": "+12127678335", "display_phone": "(212) 767-8335", "distance": 130.63327472032}, {"id": "mS9FXq6HvnWDVbwsp7ooSg", "alias": "harrys-italian-pizza-bar-new-york-4", "name": "Harry's Italian Pizza Bar", "image_url": "https://s3-media1.fl.yelpcdn.com/bphoto/ZCvuGKx0a1nTb6AnSh3N4A/o.jpg", "is_closed": false, "url": "https://www.yelp.com/biz/harrys-italian-pizza-bar-new-york-4?adjust_creative=ywY5UnLZrNrRl2b93Ruy_g&utm_campaign=yelp_api_v3&utm_medium=api_v3_business_search&utm_source=ywY5UnLZrNrRl2b93Ruy_g", "review_count": 136, "categories": [{"alias": "pizza", "title": "Pizza"}, {"alias": "italian", "title": "Italian"}, {"alias": "sandwiches", "title": "Sandwiches"}], "rating": 3.5, "coordinates": {"latitude": 40.7590970070704, "longitude": -73.978991619574}, "transactions": ["delivery", "pickup"], "price": "$", "location": {"address1": "30 Rockefeller Plz", "address2": "", "address3": "", "city": "New York", "zip_code": "10112", "country": "US", "state": "NY", "display_address": ["30 Rockefeller Plz", "New York, NY 10112"]}, "phone": "+12122181450", "display_phone": "(212) 218-1450", "distance": 120.43742835259897}, {"id": "hqVvrxDVNKj36-ENaJCvZA", "alias": "sweetgreen-new-york-36", "name": "sweetgreen", "image_url": "https://s3-media4.fl.yelpcdn.com/bphoto/QJ2by9JAZQnqU26M6vxepQ/o.jpg", "is_closed": false, "url": "https://www.yelp.com/biz/sweetgreen-new-york-36?adjust_creative=ywY5UnLZrNrRl2b93Ruy_g&utm_campaign=yelp_api_v3&utm_medium=api_v3_business_search&utm_source=ywY5UnLZrNrRl2b93Ruy_g", "review_count": 13, "categories": [{"alias": "salad", "title": "Salad"}, {"alias": "vegetarian", "title": "Vegetarian"}], "rating": 2.0, "coordinates": {"latitude": 40.759003, "longitude": -73.979061}, "transactions": ["delivery", "pickup"], "price": "$$", "location": {"address1": "30 Rockefeller Plz", "address2": null, "address3": null, "city": "New York", "zip_code": "10112", "country": "US", "state": "NY", "display_address": ["30 Rockefeller Plz", "New York, NY 10112"]}, "phone": "+16468914200", "display_phone": "(646) 891-4200", "distance": 124.28511636034833}, {"id": "L7meLea5RPy1G_TYCbEsew", "alias": "simply-foods-new-york-2", "name": "Simply Foods", "image_url": "https://s3-media2.fl.yelpcdn.com/bphoto/MK3m5282MeTaq7cNrPn1MA/o.jpg", "is_closed": false, "url": "https://www.yelp.com/biz/simply-foods-new-york-2?adjust_creative=ywY5UnLZrNrRl2b93Ruy_g&utm_campaign=yelp_api_v3&utm_medium=api_v3_business_search&utm_source=ywY5UnLZrNrRl2b93Ruy_g", "review_count": 52, "categories": [{"alias": "sandwiches", "title": "Sandwiches"}], "rating": 3.0, "coordinates": {"latitude": 40.7594414, "longitude": -73.9770813}, "transactions": ["delivery", "pickup"], "price": "$", "location": {"address1": "5 W 51st St", "address2": "", "address3": "Btwn 5th & 6th Ave", "city": "New York", "zip_code": "10019", "country": "US", "state": "NY", "display_address": ["5 W 51st St", "Btwn 5th & 6th Ave", "New York, NY 10019"]}, "phone": "+12129776641", "display_phone": "(212) 977-6641", "distance": 84.72474314627938}, {"id": "dwq7d6w1DD_D5jjPWQo-XA", "alias": "johnny-utahs-new-york", "name": "Johnny Utah's", "image_url": "https://s3-media1.fl.yelpcdn.com/bphoto/1Hj4Iblrfit8YYqApXVbvQ/o.jpg", "is_closed": false, "url": "https://www.yelp.com/biz/johnny-utahs-new-york?adjust_creative=ywY5UnLZrNrRl2b93Ruy_g&utm_campaign=yelp_api_v3&utm_medium=api_v3_business_search&utm_source=ywY5UnLZrNrRl2b93Ruy_g", "review_count": 775, "categories": [{"alias": "tex-mex", "title": "Tex-Mex"}, {"alias": "newamerican", "title": "American (New)"}], "rating": 2.5, "coordinates": {"latitude": 40.7600021362305, "longitude": -73.978157043457}, "transactions": ["delivery", "pickup"], "price": "$$", "location": {"address1": "25 W 51st St", "address2": "", "address3": "", "city": "New York", "zip_code": "10019", "country": "US", "state": "NY", "display_address": ["25 W 51st St", "New York, NY 10019"]}, "phone": "+12122658824", "display_phone": "(212) 265-8824", "distance": 140.85062601305904}, {"id": "qcFu-koJV6hCLKK7F6Acug", "alias": "american-festival-cafe-new-york", "name": "American Festival Cafe", "image_url": "https://s3-media2.fl.yelpcdn.com/bphoto/sIf2vAIFmiPfSXbnws2mNg/o.jpg", "is_closed": false, "url": "https://www.yelp.com/biz/american-festival-cafe-new-york?adjust_creative=ywY5UnLZrNrRl2b93Ruy_g&utm_campaign=yelp_api_v3&utm_medium=api_v3_business_search&utm_source=ywY5UnLZrNrRl2b93Ruy_g", "review_count": 1, "categories": [{"alias": "newamerican", "title": "American (New)"}], "rating": 3.0, "coordinates": {"latitude": 40.7586514, "longitude": -73.97841235}, "transactions": [], "location": {"address1": "20 W 50th St", "address2": "", "address3": "Rockefeller Plaza", "city": "New York", "zip_code": "10020", "country": "US", "state": "NY", "display_address": ["20 W 50th St", "Rockefeller Plaza", "New York, NY 10020"]}, "phone": "+12122466699", "display_phone": "(212) 246-6699", "distance": 71.98988209719208}, {"id": "PqN64CZdkLSRQIjhZP5DFw", "alias": "grano-new-york", "name": "Grano", "image_url": "https://s3-media2.fl.yelpcdn.com/bphoto/wRKzia0g6Vn6Rt0j2wzdrw/o.jpg", "is_closed": false, "url": "https://www.yelp.com/biz/grano-new-york?adjust_creative=ywY5UnLZrNrRl2b93Ruy_g&utm_campaign=yelp_api_v3&utm_medium=api_v3_business_search&utm_source=ywY5UnLZrNrRl2b93Ruy_g", "review_count": 26, "categories": [{"alias": "cafes", "title": "Cafes"}, {"alias": "breakfast_brunch", "title": "Breakfast & Brunch"}, {"alias": "sandwiches", "title": "Sandwiches"}], "rating": 4.0, "coordinates": {"latitude": 40.7593101, "longitude": -73.9764347}, "transactions": ["delivery", "pickup"], "price": "$$", "location": {"address1": "645 5th Ave", "address2": null, "address3": "", "city": "New York", "zip_code": "10022", "country": "US", "state": "NY", "display_address": ["645 5th Ave", "New York, NY 10022"]}, "phone": "+12126994097", "display_phone": "(212) 699-4097", "distance": 119.55450899498312}, {"id": "WiA49QkWqqrdtBhEwmnwyA", "alias": "the-atrium-cafe-new-york", "name": "The Atrium Cafe", "image_url": "https://s3-media2.fl.yelpcdn.com/bphoto/hPAg-QFQoF6Nv5xNocOoJg/o.jpg", "is_closed": false, "url": "https://www.yelp.com/biz/the-atrium-cafe-new-york?adjust_creative=ywY5UnLZrNrRl2b93Ruy_g&utm_campaign=yelp_api_v3&utm_medium=api_v3_business_search&utm_source=ywY5UnLZrNrRl2b93Ruy_g", "review_count": 6, "categories": [{"alias": "cafes", "title": "Cafes"}], "rating": 2.5, "coordinates": {"latitude": 40.75913, "longitude": -73.97641}, "transactions": ["delivery", "pickup"], "price": "$$", "location": {"address1": "645 5th Ave", "address2": "", "address3": "", "city": "New York", "zip_code": "10022", "country": "US", "state": "NY", "display_address": ["645 5th Ave", "New York, NY 10022"]}, "phone": "+12128389113", "display_phone": "(212) 838-9113", "distance": 119.55450899498312}, {"id": "cwOZnBiQ7nKNyJFhqUIrqA", "alias": "coco-gourmet-deli-new-york-2", "name": "Coco Gourmet Deli", "image_url": "", "is_closed": false, "url": "https://www.yelp.com/biz/coco-gourmet-deli-new-york-2?adjust_creative=ywY5UnLZrNrRl2b93Ruy_g&utm_campaign=yelp_api_v3&utm_medium=api_v3_business_search&utm_source=ywY5UnLZrNrRl2b93Ruy_g", "review_count": 2, "categories": [{"alias": "delis", "title": "Delis"}], "rating": 2.0, "coordinates": {"latitude": 40.7594845, "longitude": -73.9772001}, "transactions": [], "location": {"address1": "5 W 51st St", "address2": "", "address3": "", "city": "New York", "zip_code": "10019", "country": "US", "state": "NY", "display_address": ["5 W 51st St", "New York, NY 10019"]}, "phone": "+12129776641", "display_phone": "(212) 977-6641", "distance": 84.72474314627938}, {"id": "ftVW4vG7LJRbZdaTwPhlag", "alias": "simply-food-new-york-2", "name": "Simply Food", "image_url": "", "is_closed": false, "url": "https://www.yelp.com/biz/simply-food-new-york-2?adjust_creative=ywY5UnLZrNrRl2b93Ruy_g&utm_campaign=yelp_api_v3&utm_medium=api_v3_business_search&utm_source=ywY5UnLZrNrRl2b93Ruy_g", "review_count": 1, "categories": [{"alias": "cafes", "title": "Cafes"}], "rating": 2.0, "coordinates": {"latitude": 40.75959, "longitude": -73.9775}, "transactions": ["delivery", "pickup"], "location": {"address1": "5 W 51st St", "address2": "", "address3": "", "city": "New York", "zip_code": "10020", "country": "US", "state": "NY", "display_address": ["5 W 51st St", "New York, NY 10020"]}, "phone": "+12129776641", "display_phone": "(212) 977-6641", "distance": 84.72474314627938}]