[{"id": "_LJFf9YqpYxvExTvVxb7Rw", "alias": "the-modern-new-york-3", "name": "The Modern", "image_url": "https://s3-media3.fl.yelpcdn.com/bphoto/__is97xsPSkTBpivq7IWMQ/o.jpg", "is_closed": false, "url": "https://www.yelp.com/biz/the-modern-new-york-3?adjust_creative=h5HwbyQ0TYvQjBo6Ys5Bgw&utm_campaign=yelp_api_v3&utm_medium=api_v3_business_search&utm_source=h5HwbyQ0TYvQjBo6Ys5Bgw", "review_count": 1013, "categories": [{"alias": "newamerican", "title": "American (New)"}], "rating": 4.5, "coordinates": {"latitude": 40.7610699, "longitude": -73.97709}, "transactions": [], "price": "$$$$", "location": {"address1": "9 W 53rd St", "address2": "", "address3": "", "city": "New York", "zip_code": "10019", "country": "US", "state": "NY", "display_address": ["9 W 53rd St", "New York, NY 10019"]}, "phone": "+12123331220", "display_phone": "(212) 333-1220", "distance": 140.7941127238499}, {"id": "7CfaiHE11MO2zAiu3w6bsw", "alias": "taco-dumbo-new-york-3", "name": "Taco Dumbo", "image_url": "https://s3-media1.fl.yelpcdn.com/bphoto/PO7O9_T7AUrVItPgVMP1AQ/o.jpg", "is_closed": false, "url": "https://www.yelp.com/biz/taco-dumbo-new-york-3?adjust_creative=h5HwbyQ0TYvQjBo6Ys5Bgw&utm_campaign=yelp_api_v3&utm_medium=api_v3_business_search&utm_source=h5HwbyQ0TYvQjBo6Ys5Bgw", "review_count": 298, "categories": [{"alias": "latin", "title": "Latin American"}, {"alias": "tacos", "title": "Tacos"}], "rating": 4.0, "coordinates": {"latitude": 40.760941, "longitude": -73.978049}, "transactions": ["pickup", "delivery"], "price": "$$", "location": {"address1": "31W 52nd", "address2": null, "address3": "", "city": "New York", "zip_code": "10103", "country": "US", "state": "NY", "display_address": ["31W 52nd", "New York, NY 10103"]}, "phone": "+19172616283", "display_phone": "(917) 261-6283", "distance": 85.24245474402903}, {"id": "oSAiyZF-xTqdRkwN5KrV_Q", "alias": "del-friscos-grille-new-york", "name": "Del Frisco's Grille", "image_url": "https://s3-media1.fl.yelpcdn.com/bphoto/rTZtu1TRN-6wPeKYxG_fSg/o.jpg", "is_closed": false, "url": "https://www.yelp.com/biz/del-friscos-grille-new-york?adjust_creative=h5HwbyQ0TYvQjBo6Ys5Bgw&utm_campaign=yelp_api_v3&utm_medium=api_v3_business_search&utm_source=h5HwbyQ0TYvQjBo6Ys5Bgw", "review_count": 696, "categories": [{"alias": "steak", "title": "Steakhouses"}, {"alias": "newamerican", "title": "American (New)"}, {"alias": "seafood", "title": "Seafood"}], "rating": 3.5, "coordinates": {"latitude": 40.7596566, "longitude": -73.9783161}, "transactions": ["pickup", "delivery"], "price": "$$$", "location": {"address1": "50 Rockefeller Plz", "address2": "", "address3": "", "city": "New York", "zip_code": "10020", "country": "US", "state": "NY", "display_address": ["50 Rockefeller Plz", "New York, NY 10020"]}, "phone": "+12127670371", "display_phone": "(212) 767-0371", "distance": 57.471039405347824}, {"id": "_IkMfWpOkQXRZtJAYJUJIw", "alias": "hama-japanese-cuisine-new-york", "name": "Hama Japanese Cuisine", "image_url": "https://s3-media4.fl.yelpcdn.com/bphoto/R6pDrpuZdRXr88Iv-YGtIw/o.jpg", "is_closed": false, "url": "https://www.yelp.com/biz/hama-japanese-cuisine-new-york?adjust_creative=h5HwbyQ0TYvQjBo6Ys5Bgw&utm_campaign=yelp_api_v3&utm_medium=api_v3_business_search&utm_source=h5HwbyQ0TYvQjBo6Ys5Bgw", "review_count": 369, "categories": [{"alias": "sushi", "title": "Sushi Bars"}, {"alias": "japanese", "title": "Japanese"}], "rating": 4.0, "coordinates": {"latitude": 40.7597846984863, "longitude": -73.9776382446289}, "transactions": ["pickup", "delivery"], "price": "$$", "location": {"address1": "11 W 51st St", "address2": "", "address3": "", "city": "New York", "zip_code": "10019", "country": "US", "state": "NY", "display_address": ["11 W 51st St", "New York, NY 10019"]}, "phone": "+12127577103", "display_phone": "(212) 757-7103", "distance": 58.65345023536443}, {"id": "nMWqlWid2YfDeutioit_0w", "alias": "bills-bar-and-burger-new-york-2", "name": "Bill's Bar & Burger", "image_url": "https://s3-media1.fl.yelpcdn.com/bphoto/u_q_wEfPzIEPBgs1_8w7aw/o.jpg", "is_closed": false, "url": "https://www.yelp.com/biz/bills-bar-and-burger-new-york-2?adjust_creative=h5HwbyQ0TYvQjBo6Ys5Bgw&utm_campaign=yelp_api_v3&utm_medium=api_v3_business_search&utm_source=h5HwbyQ0TYvQjBo6Ys5Bgw", "review_count": 1254, "categories": [{"alias": "burgers", "title": "Burgers"}, {"alias": "newamerican", "title": "American (New)"}, {"alias": "bars", "title": "Bars"}], "rating": 3.5, "coordinates": {"latitude": 40.7594983, "longitude": -73.977956}, "transactions": ["pickup", "delivery"], "price": "$$", "location": {"address1": "16 W 51st St", "address2": "", "address3": "", "city": "New York", "zip_code": "10019", "country": "US", "state": "NY", "display_address": ["16 W 51st St", "New York, NY 10019"]}, "phone": "+12127058510", "display_phone": "(212) 705-8510", "distance": 108.72477743944474}, {"id": "wFjELmsEYh972BG79HwMqA", "alias": "upstairs-at-21-new-york", "name": "Upstairs at 21", "image_url": "https://s3-media1.fl.yelpcdn.com/bphoto/NuYnK16OlEPAR-sF_xjOKg/o.jpg", "is_closed": false, "url": "https://www.yelp.com/biz/upstairs-at-21-new-york?adjust_creative=h5HwbyQ0TYvQjBo6Ys5Bgw&utm_campaign=yelp_api_v3&utm_medium=api_v3_business_search&utm_source=h5HwbyQ0TYvQjBo6Ys5Bgw", "review_count": 11, "categories": [{"alias": "newamerican", "title": "American (New)"}], "rating": 4.5, "coordinates": {"latitude": 40.76037, "longitude": -73.97741}, "transactions": [], "price": "$$$$", "location": {"address1": "21 W 52nd St", "address2": "", "address3": "", "city": "New York", "zip_code": "10019", "country": "US", "state": "NY", "display_address": ["21 W 52nd St", "New York, NY 10019"]}, "phone": "+12125827200", "display_phone": "(212) 582-7200", "distance": 75.07332548650051}, {"id": "kC6VZfrwFvav9PryA3eRCA", "alias": "bar-sixtyfive-new-york-2", "name": "Bar SixtyFive", "image_url": "https://s3-media2.fl.yelpcdn.com/bphoto/D9jnViuM85Fgp_nglAAWYQ/o.jpg", "is_closed": false, "url": "https://www.yelp.com/biz/bar-sixtyfive-new-york-2?adjust_creative=h5HwbyQ0TYvQjBo6Ys5Bgw&utm_campaign=yelp_api_v3&utm_medium=api_v3_business_search&utm_source=h5HwbyQ0TYvQjBo6Ys5Bgw", "review_count": 343, "categories": [{"alias": "cocktailbars", "title": "Cocktail Bars"}, {"alias": "venues", "title": "Venues & Event Spaces"}, {"alias": "newamerican", "title": "American (New)"}], "rating": 4.0, "coordinates": {"latitude": 40.7591284113218, "longitude": -73.9796703204086}, "transactions": [], "price": "$$$", "location": {"address1": "30 Rockefeller Plz", "address2": "Fl 65", "address3": "", "city": "New York", "zip_code": "10112", "country": "US", "state": "NY", "display_address": ["30 Rockefeller Plz", "Fl 65", "New York, NY 10112"]}, "phone": "+12126325000", "display_phone": "(212) 632-5000", "distance": 172.4540597558465}, {"id": "844H9r0tRQZmxiEtjeTW0A", "alias": "the-bar-room-new-york-5", "name": "The Bar Room", "image_url": "https://s3-media4.fl.yelpcdn.com/bphoto/dD_aq3RI1L5JhdbLLoKbUQ/o.jpg", "is_closed": false, "url": "https://www.yelp.com/biz/the-bar-room-new-york-5?adjust_creative=h5HwbyQ0TYvQjBo6Ys5Bgw&utm_campaign=yelp_api_v3&utm_medium=api_v3_business_search&utm_source=h5HwbyQ0TYvQjBo6Ys5Bgw", "review_count": 497, "categories": [{"alias": "lounges", "title": "Lounges"}, {"alias": "french", "title": "French"}, {"alias": "newamerican", "title": "American (New)"}], "rating": 4.0, "coordinates": {"latitude": 40.7610309319265, "longitude": -73.9765593703613}, "transactions": [], "price": "$$$", "location": {"address1": "9 W 53rd St", "address2": "", "address3": "", "city": "New York", "zip_code": "10019", "country": "US", "state": "NY", "display_address": ["9 W 53rd St", "New York, NY 10019"]}, "phone": "+12123331220", "display_phone": "(212) 333-1220", "distance": 164.6501626721173}, {"id": "RSGqAGFmgfoVssOBfkldXA", "alias": "21-club-new-york", "name": "21 Club", "image_url": "https://s3-media2.fl.yelpcdn.com/bphoto/ZVUicCEhf-vI_9eZG3UPHw/o.jpg", "is_closed": false, "url": "https://www.yelp.com/biz/21-club-new-york?adjust_creative=h5HwbyQ0TYvQjBo6Ys5Bgw&utm_campaign=yelp_api_v3&utm_medium=api_v3_business_search&utm_source=h5HwbyQ0TYvQjBo6Ys5Bgw", "review_count": 630, "categories": [{"alias": "tradamerican", "title": "American (Traditional)"}, {"alias": "venues", "title": "Venues & Event Spaces"}], "rating": 3.5, "coordinates": {"latitude": 40.76037, "longitude": -73.97741}, "transactions": [], "price": "$$$$", "location": {"address1": "21 W 52nd St", "address2": "", "address3": "", "city": "New York", "zip_code": "10019", "country": "US", "state": "NY", "display_address": ["21 W 52nd St", "New York, NY 10019"]}, "phone": "+12125827200", "display_phone": "(212) 582-7200", "distance": 75.07332548650051}, {"id": "oBORgWrnY4rRVyhPsYaTWw", "alias": "nusr-et-steakhouse-new-york-4", "name": "Nusr-Et Steakhouse", "image_url": "https://s3-media1.fl.yelpcdn.com/bphoto/PpAy466RGrnsf_8ckppw2w/o.jpg", "is_closed": false, "url": "https://www.yelp.com/biz/nusr-et-steakhouse-new-york-4?adjust_creative=h5HwbyQ0TYvQjBo6Ys5Bgw&utm_campaign=yelp_api_v3&utm_medium=api_v3_business_search&utm_source=h5HwbyQ0TYvQjBo6Ys5Bgw", "review_count": 523, "categories": [{"alias": "steak", "title": "Steakhouses"}, {"alias": "turkish", "title": "Turkish"}], "rating": 3.5, "coordinates": {"latitude": 40.761343, "longitude": -73.978529}, "transactions": [], "price": "$$$$", "location": {"address1": "60 W 53rd St", "address2": null, "address3": "", "city": "New York", "zip_code": "10019", "country": "US", "state": "NY", "display_address": ["60 W 53rd St", "New York, NY 10019"]}, "phone": "+12123153660", "display_phone": "(212) 315-3660", "distance": 136.18777266053092}, {"id": "AUm7If5Cbvy20AnmyxE-xA", "alias": "dos-toros-taqueria-new-york-21", "name": "Dos Toros Taqueria", "image_url": "https://s3-media2.fl.yelpcdn.com/bphoto/yP_tVk9iSAyReZkyyYfOPg/o.jpg", "is_closed": false, "url": "https://www.yelp.com/biz/dos-toros-taqueria-new-york-21?adjust_creative=h5HwbyQ0TYvQjBo6Ys5Bgw&utm_campaign=yelp_api_v3&utm_medium=api_v3_business_search&utm_source=h5HwbyQ0TYvQjBo6Ys5Bgw", "review_count": 82, "categories": [{"alias": "mexican", "title": "Mexican"}], "rating": 4.0, "coordinates": {"latitude": 40.7607084122727, "longitude": -73.9784675091505}, "transactions": ["pickup", "delivery"], "price": "$$", "location": {"address1": "52 W 52nd St", "address2": "", "address3": null, "city": "New York", "zip_code": "10019", "country": "US", "state": "NY", "display_address": ["52 W 52nd St", "New York, NY 10019"]}, "phone": "+13473057765", "display_phone": "(347) 305-7765", "distance": 67.5854159601541}, {"id": "nm8VHIbe3rEzD4We7LQ3dA", "alias": "city-winery-new-york-6", "name": "City Winery", "image_url": "https://s3-media4.fl.yelpcdn.com/bphoto/DUn1PqG0e_qzBwTf33ACpQ/o.jpg", "is_closed": false, "url": "https://www.yelp.com/biz/city-winery-new-york-6?adjust_creative=h5HwbyQ0TYvQjBo6Ys5Bgw&utm_campaign=yelp_api_v3&utm_medium=api_v3_business_search&utm_source=h5HwbyQ0TYvQjBo6Ys5Bgw", "review_count": 1, "categories": [{"alias": "wine_bars", "title": "Wine Bars"}, {"alias": "newamerican", "title": "American (New)"}, {"alias": "venues", "title": "Venues & Event Spaces"}], "rating": 5.0, "coordinates": {"latitude": 40.759408, "longitude": -73.977738}, "transactions": [], "location": {"address1": "45 Rockefeller Plz", "address2": "", "address3": null, "city": "New York", "zip_code": "10111", "country": "US", "state": "NY", "display_address": ["45 Rockefeller Plz", "New York, NY 10111"]}, "phone": "", "display_phone": "", "distance": 89.56229311754889}, {"id": "jGIryz7dwFkb8NRIFxHofw", "alias": "tri-tip-grill-new-york", "name": "Tri Tip Grill", "image_url": "https://s3-media2.fl.yelpcdn.com/bphoto/GTR8R4Ci-sJYzQoT1IPDVw/o.jpg", "is_closed": false, "url": "https://www.yelp.com/biz/tri-tip-grill-new-york?adjust_creative=h5HwbyQ0TYvQjBo6Ys5Bgw&utm_campaign=yelp_api_v3&utm_medium=api_v3_business_search&utm_source=h5HwbyQ0TYvQjBo6Ys5Bgw", "review_count": 327, "categories": [{"alias": "tradamerican", "title": "American (Traditional)"}], "rating": 3.5, "coordinates": {"latitude": 40.759286, "longitude": -73.979341}, "transactions": ["pickup", "delivery"], "price": "$$", "location": {"address1": "30 Rockefeller Plz", "address2": "", "address3": "", "city": "New York", "zip_code": "10112", "country": "US", "state": "NY", "display_address": ["30 Rockefeller Plz", "New York, NY 10112"]}, "phone": "+12126641030", "display_phone": "(212) 664-1030", "distance": 140.1617918869241}, {"id": "laQ3UStO-W9fkSaM2Y4eLw", "alias": "casa-barilla-new-york", "name": "Casa Barilla", "image_url": "https://s3-media2.fl.yelpcdn.com/bphoto/tpYhM0R6stvXx4MZn5PYFQ/o.jpg", "is_closed": false, "url": "https://www.yelp.com/biz/casa-barilla-new-york?adjust_creative=h5HwbyQ0TYvQjBo6Ys5Bgw&utm_campaign=yelp_api_v3&utm_medium=api_v3_business_search&utm_source=h5HwbyQ0TYvQjBo6Ys5Bgw", "review_count": 286, "categories": [{"alias": "italian", "title": "Italian"}, {"alias": "pizza", "title": "Pizza"}, {"alias": "mediterranean", "title": "Mediterranean"}], "rating": 3.0, "coordinates": {"latitude": 40.7608455063764, "longitude": -73.9793730976227}, "transactions": ["pickup", "delivery"], "price": "$$", "location": {"address1": "1290 6th Ave", "address2": null, "address3": "", "city": "New York", "zip_code": "10019", "country": "US", "state": "NY", "display_address": ["1290 6th Ave", "New York, NY 10019"]}, "phone": "+16465592206", "display_phone": "(646) 559-2206", "distance": 129.4533681370451}, {"id": "VSfYR6MriVSQDAmO0gPFPQ", "alias": "just-salad-new-york-47", "name": "Just Salad", "image_url": "https://s3-media4.fl.yelpcdn.com/bphoto/8xBIYXOTgi0asQYmtSsjaA/o.jpg", "is_closed": false, "url": "https://www.yelp.com/biz/just-salad-new-york-47?adjust_creative=h5HwbyQ0TYvQjBo6Ys5Bgw&utm_campaign=yelp_api_v3&utm_medium=api_v3_business_search&utm_source=h5HwbyQ0TYvQjBo6Ys5Bgw", "review_count": 16, "categories": [{"alias": "salad", "title": "Salad"}, {"alias": "wraps", "title": "Wraps"}, {"alias": "vegetarian", "title": "Vegetarian"}], "rating": 4.0, "coordinates": {"latitude": 40.760473, "longitude": -73.978881}, "transactions": ["pickup", "delivery"], "location": {"address1": "1290 6th Ave", "address2": "", "address3": "", "city": "New York", "zip_code": "10104", "country": "US", "state": "NY", "display_address": ["1290 6th Ave", "New York, NY 10104"]}, "phone": "+18666733757", "display_phone": "(866) 673-3757", "distance": 71.73607989588551}, {"id": "7ZecxKox2SiVtsNDWphJZQ", "alias": "limani-new-york", "name": "Limani", "image_url": "https://s3-media2.fl.yelpcdn.com/bphoto/aze6h3EA7UpphVHAVzBpkg/o.jpg", "is_closed": false, "url": "https://www.yelp.com/biz/limani-new-york?adjust_creative=h5HwbyQ0TYvQjBo6Ys5Bgw&utm_campaign=yelp_api_v3&utm_medium=api_v3_business_search&utm_source=h5HwbyQ0TYvQjBo6Ys5Bgw", "review_count": 438, "categories": [{"alias": "mediterranean", "title": "Mediterranean"}, {"alias": "seafood", "title": "Seafood"}], "rating": 4.0, "coordinates": {"latitude": 40.7593809598193, "longitude": -73.9778140767212}, "transactions": [], "price": "$$$", "location": {"address1": "45 Rockerfeller Plz", "address2": "", "address3": "", "city": "New York", "zip_code": "10111", "country": "US", "state": "NY", "display_address": ["45 Rockerfeller Plz", "New York, NY 10111"]}, "phone": "+12128589200", "display_phone": "(212) 858-9200", "distance": 90.23238920458236}, {"id": "frjMUU8VpT6Ou0y7TWEgYw", "alias": "hana-new-york-4", "name": "Hana", "image_url": "https://s3-media4.fl.yelpcdn.com/bphoto/U4_GTO3TAJRgv2iRS2VXhQ/o.jpg", "is_closed": false, "url": "https://www.yelp.com/biz/hana-new-york-4?adjust_creative=h5HwbyQ0TYvQjBo6Ys5Bgw&utm_campaign=yelp_api_v3&utm_medium=api_v3_business_search&utm_source=h5HwbyQ0TYvQjBo6Ys5Bgw", "review_count": 3, "categories": [{"alias": "sushi", "title": "Sushi Bars"}, {"alias": "japanese", "title": "Japanese"}], "rating": 3.5, "coordinates": {"latitude": 40.7595357525026, "longitude": -73.9776032938552}, "transactions": [], "price": "$$$", "location": {"address1": "10-12 W 51st St", "address2": "", "address3": "", "city": "New York", "zip_code": "10111", "country": "US", "state": "NY", "display_address": ["10-12 W 51st St", "New York, NY 10111"]}, "phone": "", "display_phone": "", "distance": 82.1692170397664}, {"id": "qoVVQZpwXPxX_wL5qKzy0g", "alias": "moma-caf\u00e9-2-new-york-5", "name": "MoMA Caf\u00e9 2", "image_url": "https://s3-media3.fl.yelpcdn.com/bphoto/Mn1cPIxqGRDdlvrjbUdWBA/o.jpg", "is_closed": false, "url": "https://www.yelp.com/biz/moma-caf%C3%A9-2-new-york-5?adjust_creative=h5HwbyQ0TYvQjBo6Ys5Bgw&utm_campaign=yelp_api_v3&utm_medium=api_v3_business_search&utm_source=h5HwbyQ0TYvQjBo6Ys5Bgw", "review_count": 227, "categories": [{"alias": "italian", "title": "Italian"}], "rating": 3.5, "coordinates": {"latitude": 40.7611218647439, "longitude": -73.9769403189103}, "transactions": [], "price": "$$", "location": {"address1": "11 W 53rd St", "address2": "Fl 2", "address3": "The Museum of Modern Art", "city": "New York", "zip_code": "10019", "country": "US", "state": "NY", "display_address": ["11 W 53rd St", "Fl 2", "The Museum of Modern Art", "New York, NY 10019"]}, "phone": "+12127089700", "display_phone": "(212) 708-9700", "distance": 147.28218442297208}, {"id": "aDsUZs-esGEJVBFgAatucQ", "alias": "terrace-cafe-new-york", "name": "Terrace Cafe", "image_url": "https://s3-media3.fl.yelpcdn.com/bphoto/vwB_CQVtR3Hnlrh3x5VMPw/o.jpg", "is_closed": false, "url": "https://www.yelp.com/biz/terrace-cafe-new-york?adjust_creative=h5HwbyQ0TYvQjBo6Ys5Bgw&utm_campaign=yelp_api_v3&utm_medium=api_v3_business_search&utm_source=h5HwbyQ0TYvQjBo6Ys5Bgw", "review_count": 74, "categories": [{"alias": "newamerican", "title": "American (New)"}, {"alias": "italian", "title": "Italian"}], "rating": 3.5, "coordinates": {"latitude": 40.76146, "longitude": -73.97736}, "transactions": [], "price": "$$", "location": {"address1": "11 W 53rd St", "address2": "", "address3": "", "city": "New York", "zip_code": "10019", "country": "US", "state": "NY", "display_address": ["11 W 53rd St", "New York, NY 10019"]}, "phone": "+12123331299", "display_phone": "(212) 333-1299", "distance": 144.12232506422723}, {"id": "7B2XMvV5uGuKyl19-HTSvg", "alias": "fogo-de-chao-brazilian-steakhouse-new-york-6", "name": "Fogo De Chao Brazilian Steakhouse", "image_url": "https://s3-media2.fl.yelpcdn.com/bphoto/IcEOfdd4OS-lTrLLPigq9A/o.jpg", "is_closed": false, "url": "https://www.yelp.com/biz/fogo-de-chao-brazilian-steakhouse-new-york-6?adjust_creative=h5HwbyQ0TYvQjBo6Ys5Bgw&utm_campaign=yelp_api_v3&utm_medium=api_v3_business_search&utm_source=h5HwbyQ0TYvQjBo6Ys5Bgw", "review_count": 1197, "categories": [{"alias": "brazilian", "title": "Brazilian"}, {"alias": "steak", "title": "Steakhouses"}], "rating": 4.0, "coordinates": {"latitude": 40.7610765, "longitude": -73.9777711}, "transactions": [], "price": "$$$", "location": {"address1": "40 W 53rd St", "address2": "", "address3": "", "city": "New York", "zip_code": "10019", "country": "US", "state": "NY", "display_address": ["40 W 53rd St", "New York, NY 10019"]}, "phone": "+12129699980", "display_phone": "(212) 969-9980", "distance": 106.96190909436356}, {"id": "9JrOZDknW8Yx3TK2MSShwA", "alias": "earl-of-sandwich-new-york", "name": "Earl of Sandwich", "image_url": "https://s3-media4.fl.yelpcdn.com/bphoto/2edDacOj9Am7am9Jc6QFKA/o.jpg", "is_closed": false, "url": "https://www.yelp.com/biz/earl-of-sandwich-new-york?adjust_creative=h5HwbyQ0TYvQjBo6Ys5Bgw&utm_campaign=yelp_api_v3&utm_medium=api_v3_business_search&utm_source=h5HwbyQ0TYvQjBo6Ys5Bgw", "review_count": 158, "categories": [{"alias": "sandwiches", "title": "Sandwiches"}, {"alias": "salad", "title": "Salad"}, {"alias": "wraps", "title": "Wraps"}], "rating": 3.5, "coordinates": {"latitude": 40.7604516657528, "longitude": -73.978870511055}, "transactions": ["pickup", "delivery"], "price": "$", "location": {"address1": "1290 6th Ave", "address2": "", "address3": "", "city": "New York", "zip_code": "10104", "country": "US", "state": "NY", "display_address": ["1290 6th Ave", "New York, NY 10104"]}, "phone": "+12122479246", "display_phone": "(212) 247-9246", "distance": 70.13806989311108}, {"id": "mS9FXq6HvnWDVbwsp7ooSg", "alias": "harrys-italian-pizza-bar-new-york-4", "name": "Harry's Italian Pizza Bar", "image_url": "https://s3-media1.fl.yelpcdn.com/bphoto/ZCvuGKx0a1nTb6AnSh3N4A/o.jpg", "is_closed": false, "url": "https://www.yelp.com/biz/harrys-italian-pizza-bar-new-york-4?adjust_creative=h5HwbyQ0TYvQjBo6Ys5Bgw&utm_campaign=yelp_api_v3&utm_medium=api_v3_business_search&utm_source=h5HwbyQ0TYvQjBo6Ys5Bgw", "review_count": 136, "categories": [{"alias": "pizza", "title": "Pizza"}, {"alias": "italian", "title": "Italian"}, {"alias": "sandwiches", "title": "Sandwiches"}], "rating": 3.5, "coordinates": {"latitude": 40.7590970070704, "longitude": -73.978991619574}, "transactions": ["pickup", "delivery"], "price": "$", "location": {"address1": "30 Rockefeller Plz", "address2": "", "address3": "", "city": "New York", "zip_code": "10112", "country": "US", "state": "NY", "display_address": ["30 Rockefeller Plz", "New York, NY 10112"]}, "phone": "+12122181450", "display_phone": "(212) 218-1450", "distance": 137.98274662003212}, {"id": "1y30xnQQi_s1Xe4vXVUdjA", "alias": "taste-of-korea-truck-manhattan", "name": "Taste of Korea Truck", "image_url": "https://s3-media1.fl.yelpcdn.com/bphoto/29cItQHFrajdrx-vIw75cA/o.jpg", "is_closed": false, "url": "https://www.yelp.com/biz/taste-of-korea-truck-manhattan?adjust_creative=h5HwbyQ0TYvQjBo6Ys5Bgw&utm_campaign=yelp_api_v3&utm_medium=api_v3_business_search&utm_source=h5HwbyQ0TYvQjBo6Ys5Bgw", "review_count": 3, "categories": [{"alias": "foodstands", "title": "Food Stands"}], "rating": 4.5, "coordinates": {"latitude": 40.76116, "longitude": -73.97948}, "transactions": [], "location": {"address1": "52ND And 6th", "address2": "", "address3": "", "city": "Manhattan", "zip_code": "10019", "country": "US", "state": "NY", "display_address": ["52ND And 6th", "Manhattan, NY 10019"]}, "phone": "", "display_phone": "", "distance": 159.75465977871747}, {"id": "9jgsbS0rvsKT-d1V8Fg8tA", "alias": "bibigo-new-york", "name": "Bibigo", "image_url": "https://s3-media2.fl.yelpcdn.com/bphoto/2jzo7L5-K6H2PeNuHbgiNQ/o.jpg", "is_closed": false, "url": "https://www.yelp.com/biz/bibigo-new-york?adjust_creative=h5HwbyQ0TYvQjBo6Ys5Bgw&utm_campaign=yelp_api_v3&utm_medium=api_v3_business_search&utm_source=h5HwbyQ0TYvQjBo6Ys5Bgw", "review_count": 7, "categories": [{"alias": "korean", "title": "Korean"}], "rating": 2.5, "coordinates": {"latitude": 40.759003, "longitude": -73.979061}, "transactions": [], "location": {"address1": "30 Rockefeller Plz", "address2": "Concourse", "address3": null, "city": "New York", "zip_code": "10112", "country": "US", "state": "NY", "display_address": ["30 Rockefeller Plz", "Concourse", "New York, NY 10112"]}, "phone": "", "display_phone": "", "distance": 166.76101910526762}, {"id": "I9nt0X_e_MlOz_rUwFt_Fg", "alias": "global-kitchen-new-york", "name": "Global Kitchen", "image_url": "https://s3-media1.fl.yelpcdn.com/bphoto/mGNGfjW6lAwtd2X8yWzhvw/o.jpg", "is_closed": false, "url": "https://www.yelp.com/biz/global-kitchen-new-york?adjust_creative=h5HwbyQ0TYvQjBo6Ys5Bgw&utm_campaign=yelp_api_v3&utm_medium=api_v3_business_search&utm_source=h5HwbyQ0TYvQjBo6Ys5Bgw", "review_count": 112, "categories": [{"alias": "japanese", "title": "Japanese"}, {"alias": "delis", "title": "Delis"}, {"alias": "catering", "title": "Caterers"}], "rating": 3.0, "coordinates": {"latitude": 40.7606671573033, "longitude": -73.9788367502624}, "transactions": ["pickup", "delivery"], "price": "$", "location": {"address1": "1290 Ave Of Americas", "address2": "", "address3": "", "city": "New York", "zip_code": "10019", "country": "US", "state": "NY", "display_address": ["1290 Ave Of Americas", "New York, NY 10019"]}, "phone": "+12125813200", "display_phone": "(212) 581-3200", "distance": 82.03805933690856}, {"id": "59ywZS7aLBZUk_f5r8NQGQ", "alias": "big-portion-new-york", "name": "Big Portion", "image_url": "https://s3-media4.fl.yelpcdn.com/bphoto/EBSDYXgTRAwbzkwd7sO6gA/o.jpg", "is_closed": false, "url": "https://www.yelp.com/biz/big-portion-new-york?adjust_creative=h5HwbyQ0TYvQjBo6Ys5Bgw&utm_campaign=yelp_api_v3&utm_medium=api_v3_business_search&utm_source=h5HwbyQ0TYvQjBo6Ys5Bgw", "review_count": 1, "categories": [{"alias": "foodtrucks", "title": "Food Trucks"}, {"alias": "burgers", "title": "Burgers"}, {"alias": "halal", "title": "Halal"}], "rating": 5.0, "coordinates": {"latitude": 40.761167, "longitude": -73.979497}, "transactions": [], "location": {"address1": "6th Ave & W 52nd St", "address2": "", "address3": null, "city": "New York", "zip_code": "10022", "country": "US", "state": "NY", "display_address": ["6th Ave & W 52nd St", "New York, NY 10022"]}, "phone": "+17734497771", "display_phone": "(773) 449-7771", "distance": 160.65369470326328}, {"id": "Rw2j7gCaWuSUMBvlK3CA7Q", "alias": "teresas-brick-oven-pizza-and-cafe-new-york-3", "name": "Teresa's Brick Oven Pizza & Cafe", "image_url": "https://s3-media2.fl.yelpcdn.com/bphoto/w0rmvkNlABT4BjLOIxG2OQ/o.jpg", "is_closed": false, "url": "https://www.yelp.com/biz/teresas-brick-oven-pizza-and-cafe-new-york-3?adjust_creative=h5HwbyQ0TYvQjBo6Ys5Bgw&utm_campaign=yelp_api_v3&utm_medium=api_v3_business_search&utm_source=h5HwbyQ0TYvQjBo6Ys5Bgw", "review_count": 108, "categories": [{"alias": "sandwiches", "title": "Sandwiches"}, {"alias": "pizza", "title": "Pizza"}, {"alias": "cafes", "title": "Cafes"}], "rating": 3.0, "coordinates": {"latitude": 40.76013, "longitude": -73.97879}, "transactions": ["pickup", "delivery"], "price": "$", "location": {"address1": "51 W 51st St", "address2": null, "address3": null, "city": "New York", "zip_code": "10019", "country": "US", "state": "NY", "display_address": ["51 W 51st St", "New York, NY 10019"]}, "phone": "+12122657988", "display_phone": "(212) 265-7988", "distance": 37.939189180422424}, {"id": "dwq7d6w1DD_D5jjPWQo-XA", "alias": "johnny-utahs-new-york", "name": "Johnny Utah's", "image_url": "https://s3-media1.fl.yelpcdn.com/bphoto/1Hj4Iblrfit8YYqApXVbvQ/o.jpg", "is_closed": false, "url": "https://www.yelp.com/biz/johnny-utahs-new-york?adjust_creative=h5HwbyQ0TYvQjBo6Ys5Bgw&utm_campaign=yelp_api_v3&utm_medium=api_v3_business_search&utm_source=h5HwbyQ0TYvQjBo6Ys5Bgw", "review_count": 775, "categories": [{"alias": "tex-mex", "title": "Tex-Mex"}, {"alias": "newamerican", "title": "American (New)"}], "rating": 2.5, "coordinates": {"latitude": 40.7600021362305, "longitude": -73.978157043457}, "transactions": ["pickup", "delivery"], "price": "$$", "location": {"address1": "25 W 51st St", "address2": "", "address3": "", "city": "New York", "zip_code": "10019", "country": "US", "state": "NY", "display_address": ["25 W 51st St", "New York, NY 10019"]}, "phone": "+12122658824", "display_phone": "(212) 265-8824", "distance": 14.935897701353474}, {"id": "2cS0i9qHFVcBFGUktUU7LA", "alias": "potbelly-sandwich-shop-new-york-3", "name": "Potbelly Sandwich Shop", "image_url": "https://s3-media1.fl.yelpcdn.com/bphoto/4VHMy5_TXzjAsMnUikXNyQ/o.jpg", "is_closed": false, "url": "https://www.yelp.com/biz/potbelly-sandwich-shop-new-york-3?adjust_creative=h5HwbyQ0TYvQjBo6Ys5Bgw&utm_campaign=yelp_api_v3&utm_medium=api_v3_business_search&utm_source=h5HwbyQ0TYvQjBo6Ys5Bgw", "review_count": 111, "categories": [{"alias": "sandwiches", "title": "Sandwiches"}, {"alias": "hotdogs", "title": "Fast Food"}, {"alias": "salad", "title": "Salad"}], "rating": 3.5, "coordinates": {"latitude": 40.759003, "longitude": -73.979061}, "transactions": ["pickup", "delivery"], "price": "$", "location": {"address1": "30 Rockefeller Plz", "address2": "Ste L3", "address3": "", "city": "New York", "zip_code": "10112", "country": "US", "state": "NY", "display_address": ["30 Rockefeller Plz", "Ste L3", "New York, NY 10112"]}, "phone": "+16462894203", "display_phone": "(646) 289-4203", "distance": 166.76101910526762}, {"id": "GLcrOZhVkSKevVIn-KeD1g", "alias": "rainbow-room-new-york-2", "name": "Rainbow Room", "image_url": "https://s3-media3.fl.yelpcdn.com/bphoto/XqifHxIVAqMWi2EvJCjyUQ/o.jpg", "is_closed": false, "url": "https://www.yelp.com/biz/rainbow-room-new-york-2?adjust_creative=h5HwbyQ0TYvQjBo6Ys5Bgw&utm_campaign=yelp_api_v3&utm_medium=api_v3_business_search&utm_source=h5HwbyQ0TYvQjBo6Ys5Bgw", "review_count": 255, "categories": [{"alias": "newamerican", "title": "American (New)"}, {"alias": "venues", "title": "Venues & Event Spaces"}], "rating": 3.5, "coordinates": {"latitude": 40.7589632, "longitude": -73.9793374}, "transactions": [], "price": "$$$$", "location": {"address1": "30 Rockefeller Plz", "address2": "Fl 65", "address3": "", "city": "New York", "zip_code": "10112", "country": "US", "state": "NY", "display_address": ["30 Rockefeller Plz", "Fl 65", "New York, NY 10112"]}, "phone": "+12126325000", "display_phone": "(212) 632-5000", "distance": 166.76101910526762}, {"id": "hqVvrxDVNKj36-ENaJCvZA", "alias": "sweetgreen-new-york-36", "name": "sweetgreen", "image_url": "https://s3-media4.fl.yelpcdn.com/bphoto/QJ2by9JAZQnqU26M6vxepQ/o.jpg", "is_closed": false, "url": "https://www.yelp.com/biz/sweetgreen-new-york-36?adjust_creative=h5HwbyQ0TYvQjBo6Ys5Bgw&utm_campaign=yelp_api_v3&utm_medium=api_v3_business_search&utm_source=h5HwbyQ0TYvQjBo6Ys5Bgw", "review_count": 13, "categories": [{"alias": "salad", "title": "Salad"}, {"alias": "vegetarian", "title": "Vegetarian"}], "rating": 2.0, "coordinates": {"latitude": 40.759003, "longitude": -73.979061}, "transactions": ["pickup", "delivery"], "price": "$$", "location": {"address1": "30 Rockefeller Plz", "address2": null, "address3": null, "city": "New York", "zip_code": "10112", "country": "US", "state": "NY", "display_address": ["30 Rockefeller Plz", "New York, NY 10112"]}, "phone": "+16468914200", "display_phone": "(646) 891-4200", "distance": 149.94951654190615}, {"id": "L7meLea5RPy1G_TYCbEsew", "alias": "simply-foods-new-york-2", "name": "Simply Foods", "image_url": "https://s3-media2.fl.yelpcdn.com/bphoto/MK3m5282MeTaq7cNrPn1MA/o.jpg", "is_closed": false, "url": "https://www.yelp.com/biz/simply-foods-new-york-2?adjust_creative=h5HwbyQ0TYvQjBo6Ys5Bgw&utm_campaign=yelp_api_v3&utm_medium=api_v3_business_search&utm_source=h5HwbyQ0TYvQjBo6Ys5Bgw", "review_count": 52, "categories": [{"alias": "sandwiches", "title": "Sandwiches"}], "rating": 3.0, "coordinates": {"latitude": 40.7594414, "longitude": -73.9770813}, "transactions": ["pickup", "delivery"], "price": "$", "location": {"address1": "5 W 51st St", "address2": "", "address3": "Btwn 5th & 6th Ave", "city": "New York", "zip_code": "10019", "country": "US", "state": "NY", "display_address": ["5 W 51st St", "Btwn 5th & 6th Ave", "New York, NY 10019"]}, "phone": "+12129776641", "display_phone": "(212) 977-6641", "distance": 81.99792495577285}, {"id": "n1KP9xA13k97DelFyByrbg", "alias": "macchiato-espresso-bar-new-york-4", "name": "Macchiato Espresso Bar", "image_url": "https://s3-media1.fl.yelpcdn.com/bphoto/UegkNxFG2pPBfAyEdAlF8Q/o.jpg", "is_closed": false, "url": "https://www.yelp.com/biz/macchiato-espresso-bar-new-york-4?adjust_creative=h5HwbyQ0TYvQjBo6Ys5Bgw&utm_campaign=yelp_api_v3&utm_medium=api_v3_business_search&utm_source=h5HwbyQ0TYvQjBo6Ys5Bgw", "review_count": 89, "categories": [{"alias": "cafes", "title": "Cafes"}], "rating": 3.5, "coordinates": {"latitude": 40.760190629332, "longitude": -73.976823216597}, "transactions": ["pickup", "delivery"], "price": "$", "location": {"address1": "666 5th Ave", "address2": null, "address3": "", "city": "New York", "zip_code": "10103", "country": "US", "state": "NY", "display_address": ["666 5th Ave", "New York, NY 10103"]}, "phone": "+12122626600", "display_phone": "(212) 262-6600", "distance": 110.60434214076898}, {"id": "zmlv5rKABFN9vd6pyK-SuA", "alias": "juice-press-new-york-52", "name": "Juice Press", "image_url": "https://s3-media1.fl.yelpcdn.com/bphoto/981AZ8NQibpzpVOiCAGYdw/o.jpg", "is_closed": false, "url": "https://www.yelp.com/biz/juice-press-new-york-52?adjust_creative=h5HwbyQ0TYvQjBo6Ys5Bgw&utm_campaign=yelp_api_v3&utm_medium=api_v3_business_search&utm_source=h5HwbyQ0TYvQjBo6Ys5Bgw", "review_count": 13, "categories": [{"alias": "juicebars", "title": "Juice Bars & Smoothies"}, {"alias": "vegan", "title": "Vegan"}, {"alias": "organic_stores", "title": "Organic Stores"}], "rating": 2.0, "coordinates": {"latitude": 40.75884, "longitude": -73.97881}, "transactions": ["delivery"], "price": "$$", "location": {"address1": "30 Rockefeller Plz", "address2": "", "address3": "", "city": "New York", "zip_code": "10112", "country": "US", "state": "NY", "display_address": ["30 Rockefeller Plz", "New York, NY 10112"]}, "phone": "+12127770034", "display_phone": "(212) 777-0034", "distance": 166.76101910526762}, {"id": "TxH1oliFs6bmYjkZS3VpTA", "alias": "neapolitan-express-food-truck-new-york-3", "name": "Neapolitan Express Food Truck", "image_url": "https://s3-media3.fl.yelpcdn.com/bphoto/j7lceJFn6FZaCcHMj5Wvpw/o.jpg", "is_closed": false, "url": "https://www.yelp.com/biz/neapolitan-express-food-truck-new-york-3?adjust_creative=h5HwbyQ0TYvQjBo6Ys5Bgw&utm_campaign=yelp_api_v3&utm_medium=api_v3_business_search&utm_source=h5HwbyQ0TYvQjBo6Ys5Bgw", "review_count": 4, "categories": [{"alias": "pizza", "title": "Pizza"}, {"alias": "foodtrucks", "title": "Food Trucks"}], "rating": 3.5, "coordinates": {"latitude": 40.761147, "longitude": -73.9795077}, "transactions": ["pickup"], "price": "$$", "location": {"address1": "W 52nd And 6th Ave", "address2": null, "address3": "", "city": "New York", "zip_code": "10019", "country": "US", "state": "NY", "display_address": ["W 52nd And 6th Ave", "New York, NY 10019"]}, "phone": "+12122894689", "display_phone": "(212) 289-4689", "distance": 159.75465977871747}, {"id": "cwOZnBiQ7nKNyJFhqUIrqA", "alias": "coco-gourmet-deli-new-york-2", "name": "Coco Gourmet Deli", "image_url": "", "is_closed": false, "url": "https://www.yelp.com/biz/coco-gourmet-deli-new-york-2?adjust_creative=h5HwbyQ0TYvQjBo6Ys5Bgw&utm_campaign=yelp_api_v3&utm_medium=api_v3_business_search&utm_source=h5HwbyQ0TYvQjBo6Ys5Bgw", "review_count": 2, "categories": [{"alias": "delis", "title": "Delis"}], "rating": 2.0, "coordinates": {"latitude": 40.7594845, "longitude": -73.9772001}, "transactions": [], "location": {"address1": "5 W 51st St", "address2": "", "address3": "", "city": "New York", "zip_code": "10019", "country": "US", "state": "NY", "display_address": ["5 W 51st St", "New York, NY 10019"]}, "phone": "+12129776641", "display_phone": "(212) 977-6641", "distance": 81.99792495577285}, {"id": "ftVW4vG7LJRbZdaTwPhlag", "alias": "simply-food-new-york-2", "name": "Simply Food", "image_url": "", "is_closed": false, "url": "https://www.yelp.com/biz/simply-food-new-york-2?adjust_creative=h5HwbyQ0TYvQjBo6Ys5Bgw&utm_campaign=yelp_api_v3&utm_medium=api_v3_business_search&utm_source=h5HwbyQ0TYvQjBo6Ys5Bgw", "review_count": 1, "categories": [{"alias": "cafes", "title": "Cafes"}], "rating": 2.0, "coordinates": {"latitude": 40.75959, "longitude": -73.9775}, "transactions": ["pickup", "delivery"], "location": {"address1": "5 W 51st St", "address2": "", "address3": "", "city": "New York", "zip_code": "10020", "country": "US", "state": "NY", "display_address": ["5 W 51st St", "New York, NY 10020"]}, "phone": "+12129776641", "display_phone": "(212) 977-6641", "distance": 81.99792495577285}]