[{"id": "adoC1gjDmnykhyfQDbbK5g", "alias": "uris-deli-new-york", "name": "Uris Deli", "image_url": "https://s3-media2.fl.yelpcdn.com/bphoto/3EMm0owUWHRyPlH4sHiDbg/o.jpg", "is_closed": false, "url": "https://www.yelp.com/biz/uris-deli-new-york?adjust_creative=ywY5UnLZrNrRl2b93Ruy_g&utm_campaign=yelp_api_v3&utm_medium=api_v3_business_search&utm_source=ywY5UnLZrNrRl2b93Ruy_g", "review_count": 5, "categories": [{"alias": "delis", "title": "Delis"}], "rating": 5.0, "coordinates": {"latitude": 40.8088120644284, "longitude": -73.9611139945442}, "transactions": [], "price": "$", "location": {"address1": "411 W 116th St", "address2": "", "address3": "", "city": "New York", "zip_code": "10027", "country": "US", "state": "NY", "display_address": ["411 W 116th St", "New York, NY 10027"]}, "phone": "+12128545341", "display_phone": "(212) 854-5341", "distance": 316.9824573658797}, {"id": "1CY0Mk1PXIUoVLsLhPq75A", "alias": "kalbi-new-york", "name": "KALBI", "image_url": "https://s3-media1.fl.yelpcdn.com/bphoto/QmgdTPR3OUbAnY5H931Chg/o.jpg", "is_closed": false, "url": "https://www.yelp.com/biz/kalbi-new-york?adjust_creative=ywY5UnLZrNrRl2b93Ruy_g&utm_campaign=yelp_api_v3&utm_medium=api_v3_business_search&utm_source=ywY5UnLZrNrRl2b93Ruy_g", "review_count": 6, "categories": [{"alias": "foodtrucks", "title": "Food Trucks"}, {"alias": "bbq", "title": "Barbeque"}, {"alias": "korean", "title": "Korean"}], "rating": 4.5, "coordinates": {"latitude": 40.8088083994982, "longitude": -73.9631333202124}, "transactions": [], "location": {"address1": "117TH ST & BROADWAY", "address2": null, "address3": "", "city": "New York", "zip_code": "10026", "country": "US", "state": "NY", "display_address": ["117TH ST & BROADWAY", "New York, NY 10026"]}, "phone": "+16462870262", "display_phone": "(646) 287-0262", "distance": 233.11750324014224}, {"id": "lv0qUfiaHPXKO8lfYu6R4g", "alias": "uncle-luoyang-new-york-5", "name": "Uncle Luoyang", "image_url": "https://s3-media2.fl.yelpcdn.com/bphoto/o30r0XfV0pPPWbFw_1dO6w/o.jpg", "is_closed": false, "url": "https://www.yelp.com/biz/uncle-luoyang-new-york-5?adjust_creative=ywY5UnLZrNrRl2b93Ruy_g&utm_campaign=yelp_api_v3&utm_medium=api_v3_business_search&utm_source=ywY5UnLZrNrRl2b93Ruy_g", "review_count": 34, "categories": [{"alias": "foodtrucks", "title": "Food Trucks"}, {"alias": "chinese", "title": "Chinese"}], "rating": 3.5, "coordinates": {"latitude": 40.8099709, "longitude": -73.962353}, "transactions": [], "price": "$", "location": {"address1": "3010 Broadway", "address2": "", "address3": "", "city": "New York", "zip_code": "10027", "country": "US", "state": "NY", "display_address": ["3010 Broadway", "New York, NY 10027"]}, "phone": "+12123908886", "display_phone": "(212) 390-8886", "distance": 152.68753949792662}, {"id": "cf4ygT87Krgbo9cXvSikVA", "alias": "olive-tree-deli-new-york-2", "name": "Olive Tree Deli", "image_url": "https://s3-media1.fl.yelpcdn.com/bphoto/BYr5lGHVbPxAGgU1LZa05g/o.jpg", "is_closed": false, "url": "https://www.yelp.com/biz/olive-tree-deli-new-york-2?adjust_creative=ywY5UnLZrNrRl2b93Ruy_g&utm_campaign=yelp_api_v3&utm_medium=api_v3_business_search&utm_source=ywY5UnLZrNrRl2b93Ruy_g", "review_count": 33, "categories": [{"alias": "delis", "title": "Delis"}], "rating": 4.0, "coordinates": {"latitude": 40.81123, "longitude": -73.96106}, "transactions": ["pickup"], "price": "$", "location": {"address1": "3060 Broadway", "address2": "", "address3": "", "city": "New York", "zip_code": "10027", "country": "US", "state": "NY", "display_address": ["3060 Broadway", "New York, NY 10027"]}, "phone": "+12127494200", "display_phone": "(212) 749-4200", "distance": 216.4920043972994}, {"id": "gATWWbJv_-Khjbd_AvbJ3A", "alias": "postcrypt-coffeehouse-new-york-3", "name": "Postcrypt Coffeehouse", "image_url": "", "is_closed": false, "url": "https://www.yelp.com/biz/postcrypt-coffeehouse-new-york-3?adjust_creative=ywY5UnLZrNrRl2b93Ruy_g&utm_campaign=yelp_api_v3&utm_medium=api_v3_business_search&utm_source=ywY5UnLZrNrRl2b93Ruy_g", "review_count": 1, "categories": [{"alias": "musicvenues", "title": "Music Venues"}, {"alias": "cafes", "title": "Cafes"}], "rating": 5.0, "coordinates": {"latitude": 40.8117304815936, "longitude": -73.9668273925781}, "transactions": [], "location": {"address1": "1157 Amsterdam Ave", "address2": "", "address3": "", "city": "New York", "zip_code": "10027", "country": "US", "state": "NY", "display_address": ["1157 Amsterdam Ave", "New York, NY 10027"]}, "phone": "", "display_phone": "", "distance": 277.3057598187416}, {"id": "4BH4Fjvuh5FdsUQKL6bGeg", "alias": "fogon-new-york-2", "name": "Fogon", "image_url": "https://s3-media4.fl.yelpcdn.com/bphoto/WF352swgcBFQatbZwaL6oA/o.jpg", "is_closed": false, "url": "https://www.yelp.com/biz/fogon-new-york-2?adjust_creative=ywY5UnLZrNrRl2b93Ruy_g&utm_campaign=yelp_api_v3&utm_medium=api_v3_business_search&utm_source=ywY5UnLZrNrRl2b93Ruy_g", "review_count": 4, "categories": [{"alias": "foodtrucks", "title": "Food Trucks"}, {"alias": "peruvian", "title": "Peruvian"}, {"alias": "mexican", "title": "Mexican"}], "rating": 4.5, "coordinates": {"latitude": 40.8086046, "longitude": -73.9627312}, "transactions": [], "location": {"address1": "2980 Broadway", "address2": null, "address3": null, "city": "New York", "zip_code": "10027", "country": "US", "state": "NY", "display_address": ["2980 Broadway", "New York, NY 10027"]}, "phone": "+19295227239", "display_phone": "(929) 522-7239", "distance": 264.161848701004}, {"id": "ORP2NHpcOHHbILkO2fNDQA", "alias": "the-spot-caf\u00e9-new-york", "name": "The Spot Caf\u00e9", "image_url": "https://s3-media3.fl.yelpcdn.com/bphoto/bQlwN7WbqURJKXaDT9J3zw/o.jpg", "is_closed": false, "url": "https://www.yelp.com/biz/the-spot-caf%C3%A9-new-york?adjust_creative=ywY5UnLZrNrRl2b93Ruy_g&utm_campaign=yelp_api_v3&utm_medium=api_v3_business_search&utm_source=ywY5UnLZrNrRl2b93Ruy_g", "review_count": 1, "categories": [{"alias": "soup", "title": "Soup"}, {"alias": "delis", "title": "Delis"}], "rating": 1.0, "coordinates": {"latitude": 40.8108221, "longitude": -73.9639856}, "transactions": [], "price": "$$", "location": {"address1": "475 Riverside Dr", "address2": "", "address3": "The Interchurch Center", "city": "New York", "zip_code": "10115", "country": "US", "state": "NY", "display_address": ["475 Riverside Dr", "The Interchurch Center", "New York, NY 10115"]}, "phone": "+12128702200", "display_phone": "(212) 870-2200", "distance": 20.725662549860957}, {"id": "kTSejIjmKGsK1Erwdser4g", "alias": "broadway-au-lait-new-york", "name": "Broadway Au Lait", "image_url": "https://s3-media3.fl.yelpcdn.com/bphoto/_HEwr7rKT0fwjVJyg_ehfQ/o.jpg", "is_closed": false, "url": "https://www.yelp.com/biz/broadway-au-lait-new-york?adjust_creative=ywY5UnLZrNrRl2b93Ruy_g&utm_campaign=yelp_api_v3&utm_medium=api_v3_business_search&utm_source=ywY5UnLZrNrRl2b93Ruy_g", "review_count": 46, "categories": [{"alias": "delis", "title": "Delis"}, {"alias": "coffee", "title": "Coffee & Tea"}, {"alias": "sandwiches", "title": "Sandwiches"}], "rating": 4.0, "coordinates": {"latitude": 40.8114318, "longitude": -73.9610562}, "transactions": [], "price": "$", "location": {"address1": "3070 Broadway", "address2": "", "address3": "", "city": "New York", "zip_code": "10027", "country": "US", "state": "NY", "display_address": ["3070 Broadway", "New York, NY 10027"]}, "phone": "+12128658429", "display_phone": "(212) 865-8429", "distance": 227.71475139116887}, {"id": "oQwm3Cb3D3le4dPizHRVVg", "alias": "lizs-place-new-york", "name": "Liz's Place", "image_url": "https://s3-media2.fl.yelpcdn.com/bphoto/Xz0b1Hzvgc34nUqjCR8OAQ/o.jpg", "is_closed": false, "url": "https://www.yelp.com/biz/lizs-place-new-york?adjust_creative=ywY5UnLZrNrRl2b93Ruy_g&utm_campaign=yelp_api_v3&utm_medium=api_v3_business_search&utm_source=ywY5UnLZrNrRl2b93Ruy_g", "review_count": 5, "categories": [{"alias": "coffee", "title": "Coffee & Tea"}, {"alias": "breakfast_brunch", "title": "Breakfast & Brunch"}], "rating": 3.5, "coordinates": {"latitude": 40.8098226492782, "longitude": -73.9630421672207}, "transactions": [], "price": "$", "location": {"address1": "607 W 116th St", "address2": "Fl 1", "address3": "Barnard College", "city": "New York", "zip_code": "10027", "country": "US", "state": "NY", "display_address": ["607 W 116th St", "Fl 1", "Barnard College", "New York, NY 10027"]}, "phone": "+12128512931", "display_phone": "(212) 851-2931", "distance": 128.90346020551377}, {"id": "zipqSNZSQen2DGYTE__3FA", "alias": "phony-burger-new-york", "name": "Phony Burger", "image_url": "", "is_closed": false, "url": "https://www.yelp.com/biz/phony-burger-new-york?adjust_creative=ywY5UnLZrNrRl2b93Ruy_g&utm_campaign=yelp_api_v3&utm_medium=api_v3_business_search&utm_source=ywY5UnLZrNrRl2b93Ruy_g", "review_count": 3, "categories": [{"alias": "burgers", "title": "Burgers"}, {"alias": "fooddeliveryservices", "title": "Food Delivery Services"}], "rating": 3.0, "coordinates": {"latitude": 40.811231, "longitude": -73.9616429}, "transactions": ["delivery"], "price": "$$", "location": {"address1": "Broadway", "address2": "", "address3": "", "city": "New York", "zip_code": "10027", "country": "US", "state": "NY", "display_address": ["Broadway", "New York, NY 10027"]}, "phone": "+12124170478", "display_phone": "(212) 417-0478", "distance": 181.64865968230725}, {"id": "yw2yc4OlDDf-5g9DcUtpuw", "alias": "grace-dodge-cafe-new-york", "name": "Grace Dodge Cafe", "image_url": "https://s3-media1.fl.yelpcdn.com/bphoto/WoCadzR5WSEnjiJSWOPsPg/o.jpg", "is_closed": false, "url": "https://www.yelp.com/biz/grace-dodge-cafe-new-york?adjust_creative=ywY5UnLZrNrRl2b93Ruy_g&utm_campaign=yelp_api_v3&utm_medium=api_v3_business_search&utm_source=ywY5UnLZrNrRl2b93Ruy_g", "review_count": 11, "categories": [{"alias": "foodstands", "title": "Food Stands"}], "rating": 3.0, "coordinates": {"latitude": 40.810176, "longitude": -73.960625}, "transactions": [], "price": "$", "location": {"address1": "525 W 120th St", "address2": "", "address3": "", "city": "New York", "zip_code": "10027", "country": "US", "state": "NY", "display_address": ["525 W 120th St", "New York, NY 10027"]}, "phone": "+12126783168", "display_phone": "(212) 678-3168", "distance": 272.9999265643915}]