[{"id": "npWACY8WDDyYhMt0s3YFwQ", "alias": "vin-sur-vingt-new-york-11", "name": "Vin Sur Vingt", "image_url": "https://s3-media4.fl.yelpcdn.com/bphoto/xxT9X7Qp2on8i4GOgsa7pw/o.jpg", "is_closed": false, "url": "https://www.yelp.com/biz/vin-sur-vingt-new-york-11?adjust_creative=ywY5UnLZrNrRl2b93Ruy_g&utm_campaign=yelp_api_v3&utm_medium=api_v3_business_search&utm_source=ywY5UnLZrNrRl2b93Ruy_g", "review_count": 18, "categories": [{"alias": "wine_bars", "title": "Wine Bars"}, {"alias": "french", "title": "French"}], "rating": 4.5, "coordinates": {"latitude": 40.7757, "longitude": -73.98948}, "transactions": [], "location": {"address1": "100 Riverside Blvd", "address2": null, "address3": "", "city": "New York", "zip_code": "10069", "country": "US", "state": "NY", "display_address": ["100 Riverside Blvd", "New York, NY 10069"]}, "phone": "+16467799683", "display_phone": "(646) 779-9683", "distance": 152.02223530792074}, {"id": "eVDV1ALwvre01Xo8v6BCoQ", "alias": "la-salle-dumpling-room-new-york-5", "name": "La Salle Dumpling Room", "image_url": "https://s3-media2.fl.yelpcdn.com/bphoto/n45ztvKdk6Uq_nP469JiKg/o.jpg", "is_closed": false, "url": "https://www.yelp.com/biz/la-salle-dumpling-room-new-york-5?adjust_creative=ywY5UnLZrNrRl2b93Ruy_g&utm_campaign=yelp_api_v3&utm_medium=api_v3_business_search&utm_source=ywY5UnLZrNrRl2b93Ruy_g", "review_count": 185, "categories": [{"alias": "chinese", "title": "Chinese"}], "rating": 4.0, "coordinates": {"latitude": 40.7731596, "longitude": -73.98951}, "transactions": ["delivery", "pickup"], "price": "$$", "location": {"address1": "35 W End Ave", "address2": "", "address3": null, "city": "New York", "zip_code": "10023", "country": "US", "state": "NY", "display_address": ["35 W End Ave", "New York, NY 10023"]}, "phone": "+12125862000", "display_phone": "(212) 586-2000", "distance": 370.4539632963045}, {"id": "S7LCW6kIrPCMHYfnnqo7rg", "alias": "caf\u00e9-21-new-york-4", "name": "Caf\u00e9 21", "image_url": "https://s3-media1.fl.yelpcdn.com/bphoto/lNmyJsfjb7nubMlePfnqFw/o.jpg", "is_closed": false, "url": "https://www.yelp.com/biz/caf%C3%A9-21-new-york-4?adjust_creative=ywY5UnLZrNrRl2b93Ruy_g&utm_campaign=yelp_api_v3&utm_medium=api_v3_business_search&utm_source=ywY5UnLZrNrRl2b93Ruy_g", "review_count": 6, "categories": [{"alias": "newamerican", "title": "American (New)"}, {"alias": "breakfast_brunch", "title": "Breakfast & Brunch"}, {"alias": "dinnertheater", "title": "Dinner Theater"}], "rating": 4.5, "coordinates": {"latitude": 40.772683, "longitude": -73.989975}, "transactions": ["delivery", "pickup"], "location": {"address1": "21 West End Ave", "address2": "", "address3": null, "city": "New York", "zip_code": "10069", "country": "US", "state": "NY", "display_address": ["21 West End Ave", "New York, NY 10069"]}, "phone": "+16467459728", "display_phone": "(646) 745-9728", "distance": 417.97813324362687}, {"id": "tmuHs6fSAUygPyRZUF-rEA", "alias": "pier-i-cafe-new-york", "name": "Pier i Cafe", "image_url": "https://s3-media2.fl.yelpcdn.com/bphoto/fW1CXhh7EN1BpkT743S-Tg/o.jpg", "is_closed": false, "url": "https://www.yelp.com/biz/pier-i-cafe-new-york?adjust_creative=ywY5UnLZrNrRl2b93Ruy_g&utm_campaign=yelp_api_v3&utm_medium=api_v3_business_search&utm_source=ywY5UnLZrNrRl2b93Ruy_g", "review_count": 399, "categories": [{"alias": "tradamerican", "title": "American (Traditional)"}, {"alias": "coffee", "title": "Coffee & Tea"}], "rating": 4.0, "coordinates": {"latitude": 40.779853, "longitude": -73.988689}, "transactions": [], "price": "$$", "location": {"address1": "500 W 70th St", "address2": "", "address3": "", "city": "New York", "zip_code": "10023", "country": "US", "state": "NY", "display_address": ["500 W 70th St", "New York, NY 10023"]}, "phone": "+12123624450", "display_phone": "(212) 362-4450", "distance": 448.3216104351667}, {"id": "EEPyJJFSDNDHFbLMhbDjNg", "alias": "peperino-nyc-pizza-new-york", "name": "Peperino NYC Pizza", "image_url": "https://s3-media2.fl.yelpcdn.com/bphoto/t603vDDNa9uBWohsuUCGVg/o.jpg", "is_closed": false, "url": "https://www.yelp.com/biz/peperino-nyc-pizza-new-york?adjust_creative=ywY5UnLZrNrRl2b93Ruy_g&utm_campaign=yelp_api_v3&utm_medium=api_v3_business_search&utm_source=ywY5UnLZrNrRl2b93Ruy_g", "review_count": 39, "categories": [{"alias": "pizza", "title": "Pizza"}], "rating": 4.5, "coordinates": {"latitude": 40.77272, "longitude": -73.99043}, "transactions": [], "price": "$$", "location": {"address1": "21 West End Ave", "address2": "", "address3": "West 60th Street & Freedom Place", "city": "New York", "zip_code": "10023", "country": "US", "state": "NY", "display_address": ["21 West End Ave", "West 60th Street & Freedom Place", "New York, NY 10023"]}, "phone": "+12122452380", "display_phone": "(212) 245-2380", "distance": 407.81712012810124}, {"id": "zYWPLNh9lx5QTk5J6fIB_A", "alias": "morty-s-wine-and-beer-bar-new-york", "name": "Morty\u2019s Wine & Beer Bar", "image_url": "https://s3-media2.fl.yelpcdn.com/bphoto/oqnUY0ILl32n-ShabTy1bQ/o.jpg", "is_closed": false, "url": "https://www.yelp.com/biz/morty-s-wine-and-beer-bar-new-york?adjust_creative=ywY5UnLZrNrRl2b93Ruy_g&utm_campaign=yelp_api_v3&utm_medium=api_v3_business_search&utm_source=ywY5UnLZrNrRl2b93Ruy_g", "review_count": 6, "categories": [{"alias": "wine_bars", "title": "Wine Bars"}, {"alias": "tapasmallplates", "title": "Tapas/Small Plates"}, {"alias": "beerbar", "title": "Beer Bar"}], "rating": 5.0, "coordinates": {"latitude": 40.7721479, "longitude": -73.9902374}, "transactions": [], "price": "$$", "location": {"address1": "15 West End Ave", "address2": "", "address3": null, "city": "New York", "zip_code": "10023", "country": "US", "state": "NY", "display_address": ["15 West End Ave", "New York, NY 10023"]}, "phone": "+19173883310", "display_phone": "(917) 388-3310", "distance": 460.7778985310392}, {"id": "uz157PmNVyv5K1K1GtwdWA", "alias": "blu-cafe-new-york", "name": "Blu Cafe", "image_url": "https://s3-media3.fl.yelpcdn.com/bphoto/f9vONN9MvJD5USbTEl92SQ/o.jpg", "is_closed": false, "url": "https://www.yelp.com/biz/blu-cafe-new-york?adjust_creative=ywY5UnLZrNrRl2b93Ruy_g&utm_campaign=yelp_api_v3&utm_medium=api_v3_business_search&utm_source=ywY5UnLZrNrRl2b93Ruy_g", "review_count": 48, "categories": [{"alias": "cafes", "title": "Cafes"}], "rating": 4.0, "coordinates": {"latitude": 40.7766270661384, "longitude": -73.9890944849755}, "transactions": ["delivery", "pickup"], "price": "$", "location": {"address1": "120 Riverside Blvd", "address2": "", "address3": "", "city": "New York", "zip_code": "10069", "country": "US", "state": "NY", "display_address": ["120 Riverside Blvd", "New York, NY 10069"]}, "phone": "+12125801200", "display_phone": "(212) 580-1200", "distance": 184.44379133228742}, {"id": "MjvH-4yw0L5atv3Z7xDfDQ", "alias": "lil-jays-new-york", "name": "Li'l Jay's", "image_url": "https://s3-media1.fl.yelpcdn.com/bphoto/FEjguoj3mAVABnqsA6whBA/o.jpg", "is_closed": false, "url": "https://www.yelp.com/biz/lil-jays-new-york?adjust_creative=ywY5UnLZrNrRl2b93Ruy_g&utm_campaign=yelp_api_v3&utm_medium=api_v3_business_search&utm_source=ywY5UnLZrNrRl2b93Ruy_g", "review_count": 2, "categories": [{"alias": "cafes", "title": "Cafes"}, {"alias": "coffee", "title": "Coffee & Tea"}], "rating": 4.0, "coordinates": {"latitude": 40.7716270154089, "longitude": -73.9902999986886}, "transactions": [], "location": {"address1": "445 W 59th St", "address2": "", "address3": "", "city": "New York", "zip_code": "10019", "country": "US", "state": "NY", "display_address": ["445 W 59th St", "New York, NY 10019"]}, "phone": "", "display_phone": "", "distance": 527.5107971678557}, {"id": "ldE6TJ4lo1OIg0eCig3ICg", "alias": "bonmi-new-york", "name": "BONMi", "image_url": "https://s3-media3.fl.yelpcdn.com/bphoto/vvvLtQgJZX2BB4GStwOALQ/o.jpg", "is_closed": false, "url": "https://www.yelp.com/biz/bonmi-new-york?adjust_creative=ywY5UnLZrNrRl2b93Ruy_g&utm_campaign=yelp_api_v3&utm_medium=api_v3_business_search&utm_source=ywY5UnLZrNrRl2b93Ruy_g", "review_count": 176, "categories": [{"alias": "vietnamese", "title": "Vietnamese"}, {"alias": "sandwiches", "title": "Sandwiches"}], "rating": 3.0, "coordinates": {"latitude": 40.7715683, "longitude": -73.9849167}, "transactions": ["delivery", "pickup"], "price": "$$", "location": {"address1": "150 W 62nd St", "address2": null, "address3": "", "city": "New York", "zip_code": "10023", "country": "US", "state": "NY", "display_address": ["150 W 62nd St", "New York, NY 10023"]}, "phone": "+16463465142", "display_phone": "(646) 346-5142", "distance": 728.9490203199533}, {"id": "9-nQA1vbSwOaMBxfisqHMA", "alias": "the-barista-new-york", "name": "The Barista", "image_url": "", "is_closed": false, "url": "https://www.yelp.com/biz/the-barista-new-york?adjust_creative=ywY5UnLZrNrRl2b93Ruy_g&utm_campaign=yelp_api_v3&utm_medium=api_v3_business_search&utm_source=ywY5UnLZrNrRl2b93Ruy_g", "review_count": 1, "categories": [{"alias": "themedcafes", "title": "Themed Cafes"}], "rating": 4.0, "coordinates": {"latitude": 40.772213, "longitude": -73.984994}, "transactions": [], "location": {"address1": "60 Lincoln Center Plaza", "address2": "", "address3": null, "city": "New York", "zip_code": "10023", "country": "US", "state": "NY", "display_address": ["60 Lincoln Center Plaza", "New York, NY 10023"]}, "phone": "", "display_phone": "", "distance": 693.387251202095}, {"id": "5W4D31XAfHW_t23tNaeuMA", "alias": "western-beef-new-york", "name": "Western Beef", "image_url": "https://s3-media4.fl.yelpcdn.com/bphoto/lqIeLIDBctRdy6Sj9RE0RA/o.jpg", "is_closed": false, "url": "https://www.yelp.com/biz/western-beef-new-york?adjust_creative=ywY5UnLZrNrRl2b93Ruy_g&utm_campaign=yelp_api_v3&utm_medium=api_v3_business_search&utm_source=ywY5UnLZrNrRl2b93Ruy_g", "review_count": 102, "categories": [{"alias": "grocery", "title": "Grocery"}, {"alias": "delis", "title": "Delis"}], "rating": 2.0, "coordinates": {"latitude": 40.7736876476092, "longitude": -73.9892451231365}, "transactions": [], "price": "$", "location": {"address1": "75 W End Ave", "address2": "", "address3": "", "city": "New York", "zip_code": "10023", "country": "US", "state": "NY", "display_address": ["75 W End Ave", "New York, NY 10023"]}, "phone": "+12124592800", "display_phone": "(212) 459-2800", "distance": 337.4145311433321}, {"id": "abnEZlLrONsjAehT5awbyg", "alias": "pick-a-bagel-new-york-14", "name": "Pick A Bagel", "image_url": "https://s3-media2.fl.yelpcdn.com/bphoto/e4VWZMYWvSXHtSCnRDU2Fw/o.jpg", "is_closed": false, "url": "https://www.yelp.com/biz/pick-a-bagel-new-york-14?adjust_creative=ywY5UnLZrNrRl2b93Ruy_g&utm_campaign=yelp_api_v3&utm_medium=api_v3_business_search&utm_source=ywY5UnLZrNrRl2b93Ruy_g", "review_count": 127, "categories": [{"alias": "bagels", "title": "Bagels"}, {"alias": "sandwiches", "title": "Sandwiches"}], "rating": 2.5, "coordinates": {"latitude": 40.7727762, "longitude": -73.9897841}, "transactions": ["delivery", "pickup"], "price": "$", "location": {"address1": "39 W End Ave", "address2": "", "address3": "", "city": "New York", "zip_code": "10023", "country": "US", "state": "NY", "display_address": ["39 W End Ave", "New York, NY 10023"]}, "phone": "+12127670208", "display_phone": "(212) 767-0208", "distance": 365.10834155821004}, {"id": "4xklksejVG9pXfBcSOpMnA", "alias": "subway-new-york-457", "name": "Subway", "image_url": "https://s3-media2.fl.yelpcdn.com/bphoto/MNSjRl93Cs3wID0TNVpG5w/o.jpg", "is_closed": false, "url": "https://www.yelp.com/biz/subway-new-york-457?adjust_creative=ywY5UnLZrNrRl2b93Ruy_g&utm_campaign=yelp_api_v3&utm_medium=api_v3_business_search&utm_source=ywY5UnLZrNrRl2b93Ruy_g", "review_count": 9, "categories": [{"alias": "sandwiches", "title": "Sandwiches"}], "rating": 2.0, "coordinates": {"latitude": 40.773172, "longitude": -73.989606}, "transactions": [], "price": "$", "location": {"address1": "33 W End Ave", "address2": "Fl 1", "address3": null, "city": "New York", "zip_code": "10023", "country": "US", "state": "NY", "display_address": ["33 W End Ave", "Fl 1", "New York, NY 10023"]}, "phone": "+12129746191", "display_phone": "(212) 974-6191", "distance": 375.9537906052022}]