[{"id": "k2xtXGmyMU1q49UTlws8tg", "alias": "pop-and-pour-cafe-new-york-2", "name": "Pop and Pour Cafe", "image_url": "https://s3-media2.fl.yelpcdn.com/bphoto/0xeqxQwmskMdYIG3JAV22A/o.jpg", "is_closed": false, "url": "https://www.yelp.com/biz/pop-and-pour-cafe-new-york-2?adjust_creative=h5HwbyQ0TYvQjBo6Ys5Bgw&utm_campaign=yelp_api_v3&utm_medium=api_v3_business_search&utm_source=h5HwbyQ0TYvQjBo6Ys5Bgw", "review_count": 121, "categories": [{"alias": "wine_bars", "title": "Wine Bars"}, {"alias": "cafes", "title": "Cafes"}, {"alias": "cocktailbars", "title": "Cocktail Bars"}], "rating": 4.5, "coordinates": {"latitude": 40.86477, "longitude": -73.92718}, "transactions": ["pickup", "restaurant_reservation", "delivery"], "price": "$$", "location": {"address1": "200 Dyckman St", "address2": null, "address3": "", "city": "New York", "zip_code": "10040", "country": "US", "state": "NY", "display_address": ["200 Dyckman St", "New York, NY 10040"]}, "phone": "+16469983766", "display_phone": "(646) 998-3766", "distance": 742.6360606659961}, {"id": "zZpuUqF0iENnyYd2UYIX6w", "alias": "locksmith-bar-new-york", "name": "Locksmith Bar", "image_url": "https://s3-media3.fl.yelpcdn.com/bphoto/UHtqqYPR-WhW-jptSYFsYw/o.jpg", "is_closed": false, "url": "https://www.yelp.com/biz/locksmith-bar-new-york?adjust_creative=h5HwbyQ0TYvQjBo6Ys5Bgw&utm_campaign=yelp_api_v3&utm_medium=api_v3_business_search&utm_source=h5HwbyQ0TYvQjBo6Ys5Bgw", "review_count": 339, "categories": [{"alias": "newamerican", "title": "American (New)"}, {"alias": "peruvian", "title": "Peruvian"}, {"alias": "beerbar", "title": "Beer Bar"}], "rating": 4.0, "coordinates": {"latitude": 40.8573807, "longitude": -73.9325659}, "transactions": ["pickup", "delivery"], "price": "$$", "location": {"address1": "4463 Broadway", "address2": "", "address3": "", "city": "New York", "zip_code": "10040", "country": "US", "state": "NY", "display_address": ["4463 Broadway", "New York, NY 10040"]}, "phone": "+12123049463", "display_phone": "(212) 304-9463", "distance": 200.79390226943727}, {"id": "HVeQNs_7zh3m-xCZ1ugslA", "alias": "beans-and-vines-inwood", "name": "Beans and Vines", "image_url": "https://s3-media4.fl.yelpcdn.com/bphoto/8AdkldO-LZse62R2O8HTnw/o.jpg", "is_closed": false, "url": "https://www.yelp.com/biz/beans-and-vines-inwood?adjust_creative=h5HwbyQ0TYvQjBo6Ys5Bgw&utm_campaign=yelp_api_v3&utm_medium=api_v3_business_search&utm_source=h5HwbyQ0TYvQjBo6Ys5Bgw", "review_count": 421, "categories": [{"alias": "bars", "title": "Bars"}, {"alias": "newamerican", "title": "American (New)"}, {"alias": "steak", "title": "Steakhouses"}], "rating": 4.0, "coordinates": {"latitude": 40.86651, "longitude": -73.92549}, "transactions": ["pickup", "delivery"], "price": "$$", "location": {"address1": "4799 Broadway", "address2": "", "address3": "", "city": "Inwood", "zip_code": "10034", "country": "US", "state": "NY", "display_address": ["4799 Broadway", "Inwood, NY 10034"]}, "phone": "+16469280209", "display_phone": "(646) 928-0209", "distance": 972.0183996533373}, {"id": "2IrwjU67gguqLqQqZ1nFPg", "alias": "guadalupe-restaurant-new-york-3", "name": "Guadalupe Restaurant", "image_url": "https://s3-media3.fl.yelpcdn.com/bphoto/gJAWEJ_wiiCIJ3SsNW8jCA/o.jpg", "is_closed": false, "url": "https://www.yelp.com/biz/guadalupe-restaurant-new-york-3?adjust_creative=h5HwbyQ0TYvQjBo6Ys5Bgw&utm_campaign=yelp_api_v3&utm_medium=api_v3_business_search&utm_source=h5HwbyQ0TYvQjBo6Ys5Bgw", "review_count": 659, "categories": [{"alias": "mexican", "title": "Mexican"}, {"alias": "steak", "title": "Steakhouses"}, {"alias": "seafood", "title": "Seafood"}], "rating": 4.0, "coordinates": {"latitude": 40.86739, "longitude": -73.92083}, "transactions": ["pickup", "delivery"], "price": "$$", "location": {"address1": "597 W 207th St", "address2": "", "address3": "", "city": "New York", "zip_code": "10034", "country": "US", "state": "NY", "display_address": ["597 W 207th St", "New York, NY 10034"]}, "phone": "+12123041083", "display_phone": "(212) 304-1083", "distance": 1311.8897865364004}, {"id": "DCjRqV6kRPU0h-MaRRcVrQ", "alias": "inwood-bar-and-grill-new-york", "name": "Inwood Bar and Grill", "image_url": "https://s3-media2.fl.yelpcdn.com/bphoto/htH26-1VkWV7aAKNvWFsCw/o.jpg", "is_closed": false, "url": "https://www.yelp.com/biz/inwood-bar-and-grill-new-york?adjust_creative=h5HwbyQ0TYvQjBo6Ys5Bgw&utm_campaign=yelp_api_v3&utm_medium=api_v3_business_search&utm_source=h5HwbyQ0TYvQjBo6Ys5Bgw", "review_count": 401, "categories": [{"alias": "sportsbars", "title": "Sports Bars"}, {"alias": "venues", "title": "Venues & Event Spaces"}, {"alias": "steak", "title": "Steakhouses"}], "rating": 3.5, "coordinates": {"latitude": 40.8670387, "longitude": -73.9223929}, "transactions": ["pickup", "restaurant_reservation", "delivery"], "price": "$$", "location": {"address1": "4892 Broadway", "address2": "", "address3": "", "city": "New York", "zip_code": "10034", "country": "US", "state": "NY", "display_address": ["4892 Broadway", "New York, NY 10034"]}, "phone": "+12123043704", "display_phone": "(212) 304-3704", "distance": 1183.499181049555}, {"id": "cyLw0vW5MrsF35-A6Dy03w", "alias": "saggio-new-york-2", "name": "Saggio", "image_url": "https://s3-media1.fl.yelpcdn.com/bphoto/lJ1vpf_f2aI-b8FkPdv-lA/o.jpg", "is_closed": false, "url": "https://www.yelp.com/biz/saggio-new-york-2?adjust_creative=h5HwbyQ0TYvQjBo6Ys5Bgw&utm_campaign=yelp_api_v3&utm_medium=api_v3_business_search&utm_source=h5HwbyQ0TYvQjBo6Ys5Bgw", "review_count": 601, "categories": [{"alias": "italian", "title": "Italian"}], "rating": 4.0, "coordinates": {"latitude": 40.8514099281625, "longitude": -73.9395604556239}, "transactions": ["pickup", "delivery"], "price": "$$", "location": {"address1": "829 W 181st St", "address2": "", "address3": "", "city": "New York", "zip_code": "10033", "country": "US", "state": "NY", "display_address": ["829 W 181st St", "New York, NY 10033"]}, "phone": "+12127953080", "display_phone": "(212) 795-3080", "distance": 1077.054878206272}, {"id": "beTK9xis0FPjcjXljwm3pQ", "alias": "new-leaf-restaurant-new-york-2", "name": "New Leaf Restaurant", "image_url": "https://s3-media4.fl.yelpcdn.com/bphoto/B4zeT7Hetu7wZObTpu2ClQ/o.jpg", "is_closed": false, "url": "https://www.yelp.com/biz/new-leaf-restaurant-new-york-2?adjust_creative=h5HwbyQ0TYvQjBo6Ys5Bgw&utm_campaign=yelp_api_v3&utm_medium=api_v3_business_search&utm_source=h5HwbyQ0TYvQjBo6Ys5Bgw", "review_count": 496, "categories": [{"alias": "bars", "title": "Bars"}, {"alias": "newamerican", "title": "American (New)"}, {"alias": "venues", "title": "Venues & Event Spaces"}], "rating": 3.5, "coordinates": {"latitude": 40.8634423765889, "longitude": -73.9324239545806}, "transactions": [], "price": "$$$", "location": {"address1": "1 Margaret Corbin Dr", "address2": "", "address3": "", "city": "New York", "zip_code": "10040", "country": "US", "state": "NY", "display_address": ["1 Margaret Corbin Dr", "New York, NY 10040"]}, "phone": "+12125685323", "display_phone": "(212) 568-5323", "distance": 214.3568436624043}, {"id": "ykXZyQBXxoOMoZfaZMnHmg", "alias": "tryon-public-house-new-york", "name": "Tryon Public House", "image_url": "https://s3-media2.fl.yelpcdn.com/bphoto/2GqRk-mU6QV0qyzF3UrVrg/o.jpg", "is_closed": false, "url": "https://www.yelp.com/biz/tryon-public-house-new-york?adjust_creative=h5HwbyQ0TYvQjBo6Ys5Bgw&utm_campaign=yelp_api_v3&utm_medium=api_v3_business_search&utm_source=h5HwbyQ0TYvQjBo6Ys5Bgw", "review_count": 380, "categories": [{"alias": "tradamerican", "title": "American (Traditional)"}, {"alias": "gastropubs", "title": "Gastropubs"}, {"alias": "bars", "title": "Bars"}], "rating": 4.0, "coordinates": {"latitude": 40.8649821372469, "longitude": -73.927843119049}, "transactions": ["pickup", "delivery"], "price": "$$", "location": {"address1": "4740 Broadway", "address2": "", "address3": "", "city": "New York", "zip_code": "10040", "country": "US", "state": "NY", "display_address": ["4740 Broadway", "New York, NY 10040"]}, "phone": "+16469187129", "display_phone": "(646) 918-7129", "distance": 733.8912866173023}, {"id": "WA6HwJ3UlGWWCeJdOTlLWw", "alias": "the-pandering-pig-new-york", "name": "The Pandering Pig", "image_url": "https://s3-media2.fl.yelpcdn.com/bphoto/M2yJE5O7lsaWak4jG7-GaQ/o.jpg", "is_closed": false, "url": "https://www.yelp.com/biz/the-pandering-pig-new-york?adjust_creative=h5HwbyQ0TYvQjBo6Ys5Bgw&utm_campaign=yelp_api_v3&utm_medium=api_v3_business_search&utm_source=h5HwbyQ0TYvQjBo6Ys5Bgw", "review_count": 114, "categories": [{"alias": "newamerican", "title": "American (New)"}, {"alias": "french", "title": "French"}, {"alias": "wine_bars", "title": "Wine Bars"}], "rating": 4.0, "coordinates": {"latitude": 40.855144, "longitude": -73.937599}, "transactions": [], "price": "$$", "location": {"address1": "209 Pinehurst Ave", "address2": "", "address3": "", "city": "New York", "zip_code": "10033", "country": "US", "state": "NY", "display_address": ["209 Pinehurst Ave", "New York, NY 10033"]}, "phone": "+12127813124", "display_phone": "(212) 781-3124", "distance": 681.3541459622887}, {"id": "CY1lJBQatCNo4-_ljlS1rA", "alias": "unique-fusion-restaurant-new-york-2", "name": "Unique Fusion Restaurant", "image_url": "https://s3-media2.fl.yelpcdn.com/bphoto/DasxOMZ07L0urMMNjg9YGg/o.jpg", "is_closed": false, "url": "https://www.yelp.com/biz/unique-fusion-restaurant-new-york-2?adjust_creative=h5HwbyQ0TYvQjBo6Ys5Bgw&utm_campaign=yelp_api_v3&utm_medium=api_v3_business_search&utm_source=h5HwbyQ0TYvQjBo6Ys5Bgw", "review_count": 47, "categories": [{"alias": "asianfusion", "title": "Asian Fusion"}, {"alias": "thai", "title": "Thai"}], "rating": 5.0, "coordinates": {"latitude": 40.8670407799303, "longitude": -73.9210193562469}, "transactions": [], "price": "$$", "location": {"address1": "586 West 207 St", "address2": null, "address3": "", "city": "New York", "zip_code": "10034", "country": "US", "state": "NY", "display_address": ["586 West 207 St", "New York, NY 10034"]}, "phone": "+12124519556", "display_phone": "(212) 451-9556", "distance": 1263.197968288855}, {"id": "Qq_YecqcQ8dhC1P-SWXPOQ", "alias": "809-sangria-bar-and-grill-new-york", "name": "809 Sangria Bar & Grill", "image_url": "https://s3-media1.fl.yelpcdn.com/bphoto/de7NWlP_84qmVgJTA-T1hg/o.jpg", "is_closed": false, "url": "https://www.yelp.com/biz/809-sangria-bar-and-grill-new-york?adjust_creative=h5HwbyQ0TYvQjBo6Ys5Bgw&utm_campaign=yelp_api_v3&utm_medium=api_v3_business_search&utm_source=h5HwbyQ0TYvQjBo6Ys5Bgw", "review_count": 225, "categories": [{"alias": "spanish", "title": "Spanish"}, {"alias": "bars", "title": "Bars"}, {"alias": "caribbean", "title": "Caribbean"}], "rating": 4.0, "coordinates": {"latitude": 40.86196, "longitude": -73.9252}, "transactions": ["pickup"], "price": "$$", "location": {"address1": "112 Dyckman St", "address2": "", "address3": "", "city": "New York", "zip_code": "10040", "country": "US", "state": "NY", "display_address": ["112 Dyckman St", "New York, NY 10040"]}, "phone": "+12123043800", "display_phone": "(212) 304-3800", "distance": 630.6444929171884}, {"id": "7lv8jYYurEBFRglhPYALkw", "alias": "tampopo-ramen-new-york", "name": "Tampopo Ramen", "image_url": "https://s3-media1.fl.yelpcdn.com/bphoto/EOoVXDWqNeVouY_hjwOeMg/o.jpg", "is_closed": false, "url": "https://www.yelp.com/biz/tampopo-ramen-new-york?adjust_creative=h5HwbyQ0TYvQjBo6Ys5Bgw&utm_campaign=yelp_api_v3&utm_medium=api_v3_business_search&utm_source=h5HwbyQ0TYvQjBo6Ys5Bgw", "review_count": 389, "categories": [{"alias": "ramen", "title": "Ramen"}], "rating": 4.0, "coordinates": {"latitude": 40.850719, "longitude": -73.936309}, "transactions": ["pickup", "delivery"], "price": "$$", "location": {"address1": "1 Bennett Ave", "address2": null, "address3": "", "city": "New York", "zip_code": "10033", "country": "US", "state": "NY", "display_address": ["1 Bennett Ave", "New York, NY 10033"]}, "phone": "+12129230575", "display_phone": "(212) 923-0575", "distance": 1001.5505845666695}, {"id": "LlSSa98PQUM8gsnam9lPPQ", "alias": "la-cabana-salvadore\u00f1a-new-york-2", "name": "La Cabana Salvadore\u00f1a", "image_url": "https://s3-media3.fl.yelpcdn.com/bphoto/g_6YXwcfFQWBDoC44QZmXg/o.jpg", "is_closed": false, "url": "https://www.yelp.com/biz/la-cabana-salvadore%C3%B1a-new-york-2?adjust_creative=h5HwbyQ0TYvQjBo6Ys5Bgw&utm_campaign=yelp_api_v3&utm_medium=api_v3_business_search&utm_source=h5HwbyQ0TYvQjBo6Ys5Bgw", "review_count": 138, "categories": [{"alias": "salvadoran", "title": "Salvadoran"}], "rating": 4.0, "coordinates": {"latitude": 40.854478, "longitude": -73.933486}, "transactions": [], "price": "$", "location": {"address1": "4384 Broadway", "address2": "", "address3": "", "city": "New York", "zip_code": "10040", "country": "US", "state": "NY", "display_address": ["4384 Broadway", "New York, NY 10040"]}, "phone": "+12129287872", "display_phone": "(212) 928-7872", "distance": 531.7184379173876}, {"id": "Hoq8s-NePq6_3QxJhR7oNA", "alias": "bocaditos-bistro-new-york", "name": "Bocaditos Bistro", "image_url": "https://s3-media3.fl.yelpcdn.com/bphoto/fA43qNpbSLQNCFmzsqBuBg/o.jpg", "is_closed": false, "url": "https://www.yelp.com/biz/bocaditos-bistro-new-york?adjust_creative=h5HwbyQ0TYvQjBo6Ys5Bgw&utm_campaign=yelp_api_v3&utm_medium=api_v3_business_search&utm_source=h5HwbyQ0TYvQjBo6Ys5Bgw", "review_count": 396, "categories": [{"alias": "breakfast_brunch", "title": "Breakfast & Brunch"}, {"alias": "tapasmallplates", "title": "Tapas/Small Plates"}, {"alias": "wine_bars", "title": "Wine Bars"}], "rating": 4.5, "coordinates": {"latitude": 40.8668498343787, "longitude": -73.9239908382297}, "transactions": ["pickup", "delivery"], "price": "$$", "location": {"address1": "4863 Broadway", "address2": "", "address3": null, "city": "New York", "zip_code": "10034", "country": "US", "state": "NY", "display_address": ["4863 Broadway", "New York, NY 10034"]}, "phone": "+16466494212", "display_phone": "(646) 649-4212", "distance": 1082.1719247123397}, {"id": "_Hig4rf_SEAhq13eBdJ4CQ", "alias": "kismat-indian-restaurant-new-york-2", "name": "Kismat Indian Restaurant", "image_url": "https://s3-media2.fl.yelpcdn.com/bphoto/HZevn1drbBiF-OPAQmu9hA/o.jpg", "is_closed": false, "url": "https://www.yelp.com/biz/kismat-indian-restaurant-new-york-2?adjust_creative=h5HwbyQ0TYvQjBo6Ys5Bgw&utm_campaign=yelp_api_v3&utm_medium=api_v3_business_search&utm_source=h5HwbyQ0TYvQjBo6Ys5Bgw", "review_count": 346, "categories": [{"alias": "indpak", "title": "Indian"}], "rating": 3.5, "coordinates": {"latitude": 40.8552891007756, "longitude": -73.9370184099689}, "transactions": ["pickup", "delivery"], "price": "$$", "location": {"address1": "603 Fort Washington Ave", "address2": null, "address3": "", "city": "New York", "zip_code": "10040", "country": "US", "state": "NY", "display_address": ["603 Fort Washington Ave", "New York, NY 10040"]}, "phone": "+12127958633", "display_phone": "(212) 795-8633", "distance": 612.4740022481495}, {"id": "Qgaf5vsuUoilkzI5Km1iIw", "alias": "altus-cafe-new-york-2", "name": "Altus Cafe", "image_url": "https://s3-media3.fl.yelpcdn.com/bphoto/aqbZk-ns-Bj6kASrDVzNaA/o.jpg", "is_closed": false, "url": "https://www.yelp.com/biz/altus-cafe-new-york-2?adjust_creative=h5HwbyQ0TYvQjBo6Ys5Bgw&utm_campaign=yelp_api_v3&utm_medium=api_v3_business_search&utm_source=h5HwbyQ0TYvQjBo6Ys5Bgw", "review_count": 158, "categories": [{"alias": "steak", "title": "Steakhouses"}, {"alias": "latin", "title": "Latin American"}], "rating": 3.0, "coordinates": {"latitude": 40.85232, "longitude": -73.93485}, "transactions": ["restaurant_reservation"], "price": "$$", "location": {"address1": "4325 Broadway", "address2": "", "address3": "", "city": "New York", "zip_code": "10033", "country": "US", "state": "NY", "display_address": ["4325 Broadway", "New York, NY 10033"]}, "phone": "+12129281367", "display_phone": "(212) 928-1367", "distance": 789.5996512710899}, {"id": "5ceyRQJOItktS3cSv3vScA", "alias": "buddha-beer-bar-new-york", "name": "Buddha Beer Bar", "image_url": "https://s3-media1.fl.yelpcdn.com/bphoto/4Bwvd8xGj_EYrhzBChvo2Q/o.jpg", "is_closed": false, "url": "https://www.yelp.com/biz/buddha-beer-bar-new-york?adjust_creative=h5HwbyQ0TYvQjBo6Ys5Bgw&utm_campaign=yelp_api_v3&utm_medium=api_v3_business_search&utm_source=h5HwbyQ0TYvQjBo6Ys5Bgw", "review_count": 246, "categories": [{"alias": "beerbar", "title": "Beer Bar"}, {"alias": "tradamerican", "title": "American (Traditional)"}], "rating": 3.5, "coordinates": {"latitude": 40.8572686322995, "longitude": -73.9322152056469}, "transactions": ["pickup", "delivery"], "price": "$$", "location": {"address1": "4476 Broadway", "address2": "", "address3": "", "city": "New York", "zip_code": "10040", "country": "US", "state": "NY", "display_address": ["4476 Broadway", "New York, NY 10040"]}, "phone": "+16468612595", "display_phone": "(646) 861-2595", "distance": 204.55295939418164}, {"id": "7yGBu-m5K7oWwtu_kdUoDQ", "alias": "galicia-tapas-new-york", "name": "Galicia Tapas", "image_url": "https://s3-media4.fl.yelpcdn.com/bphoto/MrDmbEakIafFkDmZwDHVQg/o.jpg", "is_closed": false, "url": "https://www.yelp.com/biz/galicia-tapas-new-york?adjust_creative=h5HwbyQ0TYvQjBo6Ys5Bgw&utm_campaign=yelp_api_v3&utm_medium=api_v3_business_search&utm_source=h5HwbyQ0TYvQjBo6Ys5Bgw", "review_count": 17, "categories": [{"alias": "tapasmallplates", "title": "Tapas/Small Plates"}, {"alias": "spanish", "title": "Spanish"}, {"alias": "seafood", "title": "Seafood"}], "rating": 4.5, "coordinates": {"latitude": 40.8667205254913, "longitude": -73.9203661680222}, "transactions": ["pickup", "delivery"], "location": {"address1": "575 W 207th St", "address2": "", "address3": null, "city": "New York", "zip_code": "10034", "country": "US", "state": "NY", "display_address": ["575 W 207th St", "New York, NY 10034"]}, "phone": "+16466785132", "display_phone": "(646) 678-5132", "distance": 1278.9515182203581}, {"id": "hpzm2ZMMccvsm3etCxnJEw", "alias": "le-ch\u00e9ile-new-york-2", "name": "Le Ch\u00e9ile", "image_url": "https://s3-media1.fl.yelpcdn.com/bphoto/CA4wt_IcXNyygWKKfj6hyQ/o.jpg", "is_closed": false, "url": "https://www.yelp.com/biz/le-ch%C3%A9ile-new-york-2?adjust_creative=h5HwbyQ0TYvQjBo6Ys5Bgw&utm_campaign=yelp_api_v3&utm_medium=api_v3_business_search&utm_source=h5HwbyQ0TYvQjBo6Ys5Bgw", "review_count": 369, "categories": [{"alias": "irish", "title": "Irish"}, {"alias": "pubs", "title": "Pubs"}], "rating": 4.0, "coordinates": {"latitude": 40.8514803804586, "longitude": -73.9399689480721}, "transactions": ["pickup", "delivery"], "price": "$$", "location": {"address1": "839 W 181st St", "address2": "", "address3": "", "city": "New York", "zip_code": "10033", "country": "US", "state": "NY", "display_address": ["839 W 181st St", "New York, NY 10033"]}, "phone": "+12127403111", "display_phone": "(212) 740-3111", "distance": 1092.3538490045255}, {"id": "d0lpfDXUHD7kv4fBcwei7A", "alias": "halo-bistro-caf\u00e9-new-york-3", "name": "Halo Bistro Caf\u00e9", "image_url": "https://s3-media2.fl.yelpcdn.com/bphoto/R8vg0f1T990bZ4bLxqHsFw/o.jpg", "is_closed": false, "url": "https://www.yelp.com/biz/halo-bistro-caf%C3%A9-new-york-3?adjust_creative=h5HwbyQ0TYvQjBo6Ys5Bgw&utm_campaign=yelp_api_v3&utm_medium=api_v3_business_search&utm_source=h5HwbyQ0TYvQjBo6Ys5Bgw", "review_count": 9, "categories": [{"alias": "cafes", "title": "Cafes"}], "rating": 4.5, "coordinates": {"latitude": 40.8546475413592, "longitude": -73.9333470538259}, "transactions": ["pickup", "delivery"], "location": {"address1": "4394 Broadway", "address2": "", "address3": null, "city": "New York", "zip_code": "10040", "country": "US", "state": "NY", "display_address": ["4394 Broadway", "New York, NY 10040"]}, "phone": "+16468360783", "display_phone": "(646) 836-0783", "distance": 510.3899789773105}, {"id": "n9NAUB6ivkk45bUz3nm2AA", "alias": "grito-mexican-grill-new-york", "name": "Grito Mexican Grill", "image_url": "https://s3-media4.fl.yelpcdn.com/bphoto/Yh6F4jM5us_IbpKUd0Eyww/o.jpg", "is_closed": false, "url": "https://www.yelp.com/biz/grito-mexican-grill-new-york?adjust_creative=h5HwbyQ0TYvQjBo6Ys5Bgw&utm_campaign=yelp_api_v3&utm_medium=api_v3_business_search&utm_source=h5HwbyQ0TYvQjBo6Ys5Bgw", "review_count": 177, "categories": [{"alias": "mexican", "title": "Mexican"}], "rating": 4.0, "coordinates": {"latitude": 40.85355, "longitude": -73.93087}, "transactions": ["pickup", "delivery"], "price": "$$", "location": {"address1": "1555 Saint Nicholas Ave", "address2": "", "address3": "", "city": "New York", "zip_code": "10040", "country": "US", "state": "NY", "display_address": ["1555 Saint Nicholas Ave", "New York, NY 10040"]}, "phone": "+12127950700", "display_phone": "(212) 795-0700", "distance": 607.5260303888163}, {"id": "0gg9v2DnXapTA6YJm3JMkQ", "alias": "ca\u00f1ave-new-york-6", "name": "Ca\u00f1ave", "image_url": "https://s3-media3.fl.yelpcdn.com/bphoto/vgPqRN-7ym5rJsxkTh6uhg/o.jpg", "is_closed": false, "url": "https://www.yelp.com/biz/ca%C3%B1ave-new-york-6?adjust_creative=h5HwbyQ0TYvQjBo6Ys5Bgw&utm_campaign=yelp_api_v3&utm_medium=api_v3_business_search&utm_source=h5HwbyQ0TYvQjBo6Ys5Bgw", "review_count": 89, "categories": [{"alias": "bars", "title": "Bars"}, {"alias": "mexican", "title": "Mexican"}, {"alias": "breakfast_brunch", "title": "Breakfast & Brunch"}], "rating": 4.0, "coordinates": {"latitude": 40.86445, "longitude": -73.9289}, "transactions": [], "price": "$$", "location": {"address1": "4716 Broadway", "address2": "", "address3": null, "city": "New York", "zip_code": "10040", "country": "US", "state": "NY", "display_address": ["4716 Broadway", "New York, NY 10040"]}, "phone": "+16468500159", "display_phone": "(646) 850-0159", "distance": 649.8287231290617}, {"id": "bx-XYt1nO49jgtItEsqrxQ", "alias": "wahizza-new-york", "name": "Wahizza", "image_url": "https://s3-media4.fl.yelpcdn.com/bphoto/H24bs4VNRPWthxxLP5ZkrQ/o.jpg", "is_closed": false, "url": "https://www.yelp.com/biz/wahizza-new-york?adjust_creative=h5HwbyQ0TYvQjBo6Ys5Bgw&utm_campaign=yelp_api_v3&utm_medium=api_v3_business_search&utm_source=h5HwbyQ0TYvQjBo6Ys5Bgw", "review_count": 111, "categories": [{"alias": "pizza", "title": "Pizza"}], "rating": 4.0, "coordinates": {"latitude": 40.85758, "longitude": -73.93178}, "transactions": ["pickup", "delivery"], "price": "$$", "location": {"address1": "4484 Broadway", "address2": null, "address3": "", "city": "New York", "zip_code": "10040", "country": "US", "state": "NY", "display_address": ["4484 Broadway", "New York, NY 10040"]}, "phone": "+12128378088", "display_phone": "(212) 837-8088", "distance": 173.27020978624324}, {"id": "S85UgKrCsTFdXaly3jNJWw", "alias": "zoe-restaurant-and-lounge-new-york", "name": "Zoe Restaurant & Lounge", "image_url": "https://s3-media3.fl.yelpcdn.com/bphoto/gSUn4ncYtxfkeNFmyDlfQw/o.jpg", "is_closed": false, "url": "https://www.yelp.com/biz/zoe-restaurant-and-lounge-new-york?adjust_creative=h5HwbyQ0TYvQjBo6Ys5Bgw&utm_campaign=yelp_api_v3&utm_medium=api_v3_business_search&utm_source=h5HwbyQ0TYvQjBo6Ys5Bgw", "review_count": 20, "categories": [{"alias": "italian", "title": "Italian"}, {"alias": "bars", "title": "Bars"}, {"alias": "caribbean", "title": "Caribbean"}], "rating": 4.0, "coordinates": {"latitude": 40.853693, "longitude": -73.930849}, "transactions": [], "price": "$$", "location": {"address1": "1559 St Nicholas Ave", "address2": "", "address3": null, "city": "New York", "zip_code": "10040", "country": "US", "state": "NY", "display_address": ["1559 St Nicholas Ave", "New York, NY 10040"]}, "phone": "+19172658730", "display_phone": "(917) 265-8730", "distance": 604.4577006462821}, {"id": "AH2tDS58NyVBCwd3o8QKRw", "alias": "republica-new-york-2", "name": "Republica", "image_url": "https://s3-media2.fl.yelpcdn.com/bphoto/UqkCZ2AfOaceZn0P_BMuQw/o.jpg", "is_closed": false, "url": "https://www.yelp.com/biz/republica-new-york-2?adjust_creative=h5HwbyQ0TYvQjBo6Ys5Bgw&utm_campaign=yelp_api_v3&utm_medium=api_v3_business_search&utm_source=h5HwbyQ0TYvQjBo6Ys5Bgw", "review_count": 198, "categories": [{"alias": "lounges", "title": "Lounges"}, {"alias": "dominican", "title": "Dominican"}], "rating": 2.5, "coordinates": {"latitude": 40.86375, "longitude": -73.92635}, "transactions": ["pickup", "delivery"], "price": "$$", "location": {"address1": "160 Dyckman St", "address2": "", "address3": "", "city": "New York", "zip_code": "10040", "country": "US", "state": "NY", "display_address": ["160 Dyckman St", "New York, NY 10040"]}, "phone": "+16468959444", "display_phone": "(646) 895-9444", "distance": 684.5227878142982}, {"id": "bF38ob3wxacTztdQLRS-Sg", "alias": "tung-thong-181-new-york-2", "name": "Tung Thong 181", "image_url": "https://s3-media4.fl.yelpcdn.com/bphoto/19gCSSx1_l9XkLpoX__UoA/o.jpg", "is_closed": false, "url": "https://www.yelp.com/biz/tung-thong-181-new-york-2?adjust_creative=h5HwbyQ0TYvQjBo6Ys5Bgw&utm_campaign=yelp_api_v3&utm_medium=api_v3_business_search&utm_source=h5HwbyQ0TYvQjBo6Ys5Bgw", "review_count": 86, "categories": [{"alias": "thai", "title": "Thai"}, {"alias": "salad", "title": "Salad"}, {"alias": "soup", "title": "Soup"}], "rating": 4.0, "coordinates": {"latitude": 40.8508415222168, "longitude": -73.9390716552734}, "transactions": ["pickup", "delivery"], "price": "$$", "location": {"address1": "812 W 181st St", "address2": null, "address3": "", "city": "New York", "zip_code": "10033", "country": "US", "state": "NY", "display_address": ["812 W 181st St", "New York, NY 10033"]}, "phone": "+12125685888", "display_phone": "(212) 568-5888", "distance": 1102.0096111777073}, {"id": "1g2MUmzPHrDPcPio62iV9w", "alias": "seawalk-restaurant-new-york", "name": "Seawalk Restaurant", "image_url": "https://s3-media1.fl.yelpcdn.com/bphoto/MGERcWWmCoIly8Qu6EtT_A/o.jpg", "is_closed": false, "url": "https://www.yelp.com/biz/seawalk-restaurant-new-york?adjust_creative=h5HwbyQ0TYvQjBo6Ys5Bgw&utm_campaign=yelp_api_v3&utm_medium=api_v3_business_search&utm_source=h5HwbyQ0TYvQjBo6Ys5Bgw", "review_count": 136, "categories": [{"alias": "seafood", "title": "Seafood"}, {"alias": "bars", "title": "Bars"}, {"alias": "breakfast_brunch", "title": "Breakfast & Brunch"}], "rating": 4.0, "coordinates": {"latitude": 40.86667, "longitude": -73.92837}, "transactions": [], "price": "$$", "location": {"address1": "261 Dyckman St", "address2": "", "address3": null, "city": "New York", "zip_code": "10034", "country": "US", "state": "NY", "display_address": ["261 Dyckman St", "New York, NY 10034"]}, "phone": "+12125689014", "display_phone": "(212) 568-9014", "distance": 895.6489855134159}, {"id": "2lxsbaVX8REi0sbFu4TzpQ", "alias": "chinito-latino-new-york-2", "name": "Chinito Latino", "image_url": "https://s3-media1.fl.yelpcdn.com/bphoto/_-YqnmpvNAp_Cd2TMqOSNA/o.jpg", "is_closed": false, "url": "https://www.yelp.com/biz/chinito-latino-new-york-2?adjust_creative=h5HwbyQ0TYvQjBo6Ys5Bgw&utm_campaign=yelp_api_v3&utm_medium=api_v3_business_search&utm_source=h5HwbyQ0TYvQjBo6Ys5Bgw", "review_count": 46, "categories": [{"alias": "chinese", "title": "Chinese"}, {"alias": "asianfusion", "title": "Asian Fusion"}], "rating": 3.5, "coordinates": {"latitude": 40.86217, "longitude": -73.92551}, "transactions": ["pickup", "delivery"], "location": {"address1": "122 Dyckman St", "address2": null, "address3": "", "city": "New York", "zip_code": "10040", "country": "US", "state": "NY", "display_address": ["122 Dyckman St", "New York, NY 10040"]}, "phone": "+16465903628", "display_phone": "(646) 590-3628", "distance": 625.6528952271227}, {"id": "h5VLolcEpu3ZUnDdjfhjSg", "alias": "papasito-mexican-grill-and-agave-bar-new-york", "name": "Papasito Mexican Grill & Agave Bar", "image_url": "https://s3-media3.fl.yelpcdn.com/bphoto/WV5oxPVmR9yXfIDM6v2wyA/o.jpg", "is_closed": false, "url": "https://www.yelp.com/biz/papasito-mexican-grill-and-agave-bar-new-york?adjust_creative=h5HwbyQ0TYvQjBo6Ys5Bgw&utm_campaign=yelp_api_v3&utm_medium=api_v3_business_search&utm_source=h5HwbyQ0TYvQjBo6Ys5Bgw", "review_count": 429, "categories": [{"alias": "mexican", "title": "Mexican"}], "rating": 3.0, "coordinates": {"latitude": 40.8658205, "longitude": -73.9273649}, "transactions": ["pickup", "delivery"], "price": "$$", "location": {"address1": "223 Dyckman St", "address2": "", "address3": "", "city": "New York", "zip_code": "10034", "country": "US", "state": "NY", "display_address": ["223 Dyckman St", "New York, NY 10034"]}, "phone": "+12125440001", "display_phone": "(212) 544-0001", "distance": 841.8268799672136}, {"id": "4sNPRRefpFQl-fE_aU5XaA", "alias": "refried-beans-mexican-grill-new-york-3", "name": "Refried Beans Mexican Grill", "image_url": "https://s3-media4.fl.yelpcdn.com/bphoto/mfA48j-zfBlM84as9oFWzA/o.jpg", "is_closed": false, "url": "https://www.yelp.com/biz/refried-beans-mexican-grill-new-york-3?adjust_creative=h5HwbyQ0TYvQjBo6Ys5Bgw&utm_campaign=yelp_api_v3&utm_medium=api_v3_business_search&utm_source=h5HwbyQ0TYvQjBo6Ys5Bgw", "review_count": 263, "categories": [{"alias": "mexican", "title": "Mexican"}], "rating": 3.5, "coordinates": {"latitude": 40.8549599636967, "longitude": -73.9370997259323}, "transactions": ["pickup", "delivery"], "price": "$$", "location": {"address1": "591 Fort Washington Ave", "address2": null, "address3": "", "city": "New York", "zip_code": "10033", "country": "US", "state": "NY", "display_address": ["591 Fort Washington Ave", "New York, NY 10033"]}, "phone": "+12125682299", "display_phone": "(212) 568-2299", "distance": 642.9442414337188}, {"id": "gSl_voDj9xLXweSTix5OsA", "alias": "tenth-avenue-new-york-2", "name": "Tenth Avenue", "image_url": "https://s3-media2.fl.yelpcdn.com/bphoto/yNtnQpy_zO93z71Ft8n9Yg/o.jpg", "is_closed": false, "url": "https://www.yelp.com/biz/tenth-avenue-new-york-2?adjust_creative=h5HwbyQ0TYvQjBo6Ys5Bgw&utm_campaign=yelp_api_v3&utm_medium=api_v3_business_search&utm_source=h5HwbyQ0TYvQjBo6Ys5Bgw", "review_count": 33, "categories": [{"alias": "venues", "title": "Venues & Event Spaces"}, {"alias": "cocktailbars", "title": "Cocktail Bars"}, {"alias": "newamerican", "title": "American (New)"}], "rating": 3.0, "coordinates": {"latitude": 40.86205, "longitude": -73.92047}, "transactions": ["pickup", "restaurant_reservation", "delivery"], "location": {"address1": "3795 10th Ave", "address2": null, "address3": null, "city": "New York", "zip_code": "10034", "country": "US", "state": "NY", "display_address": ["3795 10th Ave", "New York, NY 10034"]}, "phone": "+16468924288", "display_phone": "(646) 892-4288", "distance": 1013.8502770270671}, {"id": "BU_GtPGTCy5KiJ6g8Ltdwg", "alias": "golan-heights-new-york", "name": "Golan Heights", "image_url": "https://s3-media4.fl.yelpcdn.com/bphoto/ZrSVSkr2hygysECxPCZBPQ/o.jpg", "is_closed": false, "url": "https://www.yelp.com/biz/golan-heights-new-york?adjust_creative=h5HwbyQ0TYvQjBo6Ys5Bgw&utm_campaign=yelp_api_v3&utm_medium=api_v3_business_search&utm_source=h5HwbyQ0TYvQjBo6Ys5Bgw", "review_count": 76, "categories": [{"alias": "mideastern", "title": "Middle Eastern"}, {"alias": "kosher", "title": "Kosher"}], "rating": 4.0, "coordinates": {"latitude": 40.851497, "longitude": -73.927925}, "transactions": ["pickup", "delivery"], "price": "$$", "location": {"address1": "2553 Amsterdam Ave", "address2": "", "address3": "", "city": "New York", "zip_code": "10033", "country": "US", "state": "NY", "display_address": ["2553 Amsterdam Ave", "New York, NY 10033"]}, "phone": "+12127957842", "display_phone": "(212) 795-7842", "distance": 892.637125409729}, {"id": "lAsxDyhqz_-rncQYwE9JAg", "alias": "la-casa-del-mofongo-new-york-2", "name": "La Casa Del Mofongo", "image_url": "https://s3-media2.fl.yelpcdn.com/bphoto/G4zxQPyQlLd_iyckaJFfeA/o.jpg", "is_closed": false, "url": "https://www.yelp.com/biz/la-casa-del-mofongo-new-york-2?adjust_creative=h5HwbyQ0TYvQjBo6Ys5Bgw&utm_campaign=yelp_api_v3&utm_medium=api_v3_business_search&utm_source=h5HwbyQ0TYvQjBo6Ys5Bgw", "review_count": 427, "categories": [{"alias": "latin", "title": "Latin American"}, {"alias": "dominican", "title": "Dominican"}], "rating": 3.0, "coordinates": {"latitude": 40.850456, "longitude": -73.933403}, "transactions": [], "price": "$$", "location": {"address1": "1447 St Nicholas Ave", "address2": "", "address3": "", "city": "New York", "zip_code": "10033", "country": "US", "state": "NY", "display_address": ["1447 St Nicholas Ave", "New York, NY 10033"]}, "phone": "+12127401200", "display_phone": "(212) 740-1200", "distance": 975.0653313894024}, {"id": "wOcmiJaW-1vhPmt-4kJ6Pw", "alias": "cafe-bark-new-york", "name": "Cafe Bark", "image_url": "https://s3-media1.fl.yelpcdn.com/bphoto/RBpkUj4ODHG2N5ifnoFCvA/o.jpg", "is_closed": false, "url": "https://www.yelp.com/biz/cafe-bark-new-york?adjust_creative=h5HwbyQ0TYvQjBo6Ys5Bgw&utm_campaign=yelp_api_v3&utm_medium=api_v3_business_search&utm_source=h5HwbyQ0TYvQjBo6Ys5Bgw", "review_count": 49, "categories": [{"alias": "cafes", "title": "Cafes"}, {"alias": "petstore", "title": "Pet Stores"}], "rating": 4.5, "coordinates": {"latitude": 40.8513550757183, "longitude": -73.9398384015253}, "transactions": [], "price": "$", "location": {"address1": "833 W 181st St", "address2": "", "address3": null, "city": "New York", "zip_code": "10033", "country": "US", "state": "NY", "display_address": ["833 W 181st St", "New York, NY 10033"]}, "phone": "+16466680962", "display_phone": "(646) 668-0962", "distance": 1096.284890620807}, {"id": "8o-B_1q4XB48CmdaXdm2KQ", "alias": "raices-new-york", "name": "Raices", "image_url": "https://s3-media1.fl.yelpcdn.com/bphoto/EGKYh0ybh5r6sqkdq2wPuA/o.jpg", "is_closed": false, "url": "https://www.yelp.com/biz/raices-new-york?adjust_creative=h5HwbyQ0TYvQjBo6Ys5Bgw&utm_campaign=yelp_api_v3&utm_medium=api_v3_business_search&utm_source=h5HwbyQ0TYvQjBo6Ys5Bgw", "review_count": 131, "categories": [{"alias": "bars", "title": "Bars"}, {"alias": "latin", "title": "Latin American"}], "rating": 3.5, "coordinates": {"latitude": 40.86633, "longitude": -73.92016}, "transactions": ["pickup", "delivery"], "price": "$$", "location": {"address1": "565 W 207th St", "address2": null, "address3": "", "city": "New York", "zip_code": "10034", "country": "US", "state": "NY", "display_address": ["565 W 207th St", "New York, NY 10034"]}, "phone": "+12127293814", "display_phone": "(212) 729-3814", "distance": 1280.5190478941738}, {"id": "VZHyAmdFDreQqL0BT-zdoA", "alias": "monkey-room-new-york", "name": "Monkey Room", "image_url": "https://s3-media3.fl.yelpcdn.com/bphoto/fVDNw7ui6ox0n5u7keV-Yg/o.jpg", "is_closed": false, "url": "https://www.yelp.com/biz/monkey-room-new-york?adjust_creative=h5HwbyQ0TYvQjBo6Ys5Bgw&utm_campaign=yelp_api_v3&utm_medium=api_v3_business_search&utm_source=h5HwbyQ0TYvQjBo6Ys5Bgw", "review_count": 93, "categories": [{"alias": "latin", "title": "Latin American"}, {"alias": "lounges", "title": "Lounges"}], "rating": 3.5, "coordinates": {"latitude": 40.85494, "longitude": -73.9371199}, "transactions": ["pickup", "delivery"], "price": "$$", "location": {"address1": "589 Ft Washington Ave", "address2": "", "address3": "", "city": "New York", "zip_code": "10033", "country": "US", "state": "NY", "display_address": ["589 Ft Washington Ave", "New York, NY 10033"]}, "phone": "+12125439888", "display_phone": "(212) 543-9888", "distance": 650.6930042699822}, {"id": "CDj8xr1rORC60CF3GP1XNA", "alias": "burgos-restaurant-new-york", "name": "Burgos Restaurant", "image_url": "https://s3-media4.fl.yelpcdn.com/bphoto/qEdN54rk6JHQfjnPiEHQTg/o.jpg", "is_closed": false, "url": "https://www.yelp.com/biz/burgos-restaurant-new-york?adjust_creative=h5HwbyQ0TYvQjBo6Ys5Bgw&utm_campaign=yelp_api_v3&utm_medium=api_v3_business_search&utm_source=h5HwbyQ0TYvQjBo6Ys5Bgw", "review_count": 17, "categories": [{"alias": "latin", "title": "Latin American"}], "rating": 4.0, "coordinates": {"latitude": 40.8650300748313, "longitude": -73.9272972769808}, "transactions": [], "price": "$", "location": {"address1": "206 Dyckman St", "address2": "", "address3": "", "city": "New York", "zip_code": "10040", "country": "US", "state": "NY", "display_address": ["206 Dyckman St", "New York, NY 10040"]}, "phone": "+12125693939", "display_phone": "(212) 569-3939", "distance": 760.0602087282188}, {"id": "oS1e-zZ_qzZNIUEp3FYHhQ", "alias": "yummy-thai-new-york", "name": "Yummy Thai", "image_url": "https://s3-media4.fl.yelpcdn.com/bphoto/wjs1YtOpsRDv3x10JcWPqw/o.jpg", "is_closed": false, "url": "https://www.yelp.com/biz/yummy-thai-new-york?adjust_creative=h5HwbyQ0TYvQjBo6Ys5Bgw&utm_campaign=yelp_api_v3&utm_medium=api_v3_business_search&utm_source=h5HwbyQ0TYvQjBo6Ys5Bgw", "review_count": 379, "categories": [{"alias": "thai", "title": "Thai"}], "rating": 3.0, "coordinates": {"latitude": 40.86808, "longitude": -73.9205}, "transactions": ["pickup", "delivery"], "price": "$$", "location": {"address1": "4959 Broadway", "address2": "", "address3": "", "city": "New York", "zip_code": "10034", "country": "US", "state": "NY", "display_address": ["4959 Broadway", "New York, NY 10034"]}, "phone": "+19175290811", "display_phone": "(917) 529-0811", "distance": 1373.2924698644288}, {"id": "7gqMugUq_VAUlPygIT-EVg", "alias": "bar180-new-york", "name": "Bar180", "image_url": "https://s3-media2.fl.yelpcdn.com/bphoto/AvyvYEHfjU10ErtHY0Eyag/o.jpg", "is_closed": false, "url": "https://www.yelp.com/biz/bar180-new-york?adjust_creative=h5HwbyQ0TYvQjBo6Ys5Bgw&utm_campaign=yelp_api_v3&utm_medium=api_v3_business_search&utm_source=h5HwbyQ0TYvQjBo6Ys5Bgw", "review_count": 114, "categories": [{"alias": "newamerican", "title": "American (New)"}, {"alias": "bars", "title": "Bars"}], "rating": 3.5, "coordinates": {"latitude": 40.8495175143563, "longitude": -73.9363799999983}, "transactions": ["pickup", "delivery"], "price": "$$", "location": {"address1": "4241 Broadway", "address2": "", "address3": null, "city": "New York", "zip_code": "10033", "country": "US", "state": "NY", "display_address": ["4241 Broadway", "New York, NY 10033"]}, "phone": "+16469283283", "display_phone": "(646) 928-3283", "distance": 1132.1220658743937}, {"id": "D37laxSajXqhhsaCYo4WSw", "alias": "taqueria-emilio-new-york", "name": "Taqueria Emilio", "image_url": "https://s3-media1.fl.yelpcdn.com/bphoto/tDhB_uz4z2rGHRulvtVhAA/o.jpg", "is_closed": false, "url": "https://www.yelp.com/biz/taqueria-emilio-new-york?adjust_creative=h5HwbyQ0TYvQjBo6Ys5Bgw&utm_campaign=yelp_api_v3&utm_medium=api_v3_business_search&utm_source=h5HwbyQ0TYvQjBo6Ys5Bgw", "review_count": 54, "categories": [{"alias": "mexican", "title": "Mexican"}], "rating": 4.5, "coordinates": {"latitude": 40.8662220265057, "longitude": -73.9201356056336}, "transactions": ["pickup", "delivery"], "price": "$", "location": {"address1": "563 W 207th St", "address2": "", "address3": null, "city": "New York", "zip_code": "10034", "country": "US", "state": "NY", "display_address": ["563 W 207th St", "New York, NY 10034"]}, "phone": "+16468761143", "display_phone": "(646) 876-1143", "distance": 1257.735252426222}, {"id": "80dIz6llWEew4No641ZQKQ", "alias": "burger-heights-new-york-2", "name": "Burger Heights", "image_url": "https://s3-media1.fl.yelpcdn.com/bphoto/raSaePqLe9TdwJghNgfxHg/o.jpg", "is_closed": false, "url": "https://www.yelp.com/biz/burger-heights-new-york-2?adjust_creative=h5HwbyQ0TYvQjBo6Ys5Bgw&utm_campaign=yelp_api_v3&utm_medium=api_v3_business_search&utm_source=h5HwbyQ0TYvQjBo6Ys5Bgw", "review_count": 396, "categories": [{"alias": "burgers", "title": "Burgers"}, {"alias": "hotdogs", "title": "Fast Food"}, {"alias": "hotdog", "title": "Hot Dogs"}], "rating": 4.0, "coordinates": {"latitude": 40.85022, "longitude": -73.93451}, "transactions": ["pickup", "delivery"], "price": "$", "location": {"address1": "177 Wadsworth Ave", "address2": "", "address3": "", "city": "New York", "zip_code": "10033", "country": "US", "state": "NY", "display_address": ["177 Wadsworth Ave", "New York, NY 10033"]}, "phone": "+12129511984", "display_phone": "(212) 951-1984", "distance": 1008.6034939183154}, {"id": "ehNeUb95vEGMNvk3tZVpPQ", "alias": "empire-chinese-restaurant-new-york-4", "name": "Empire Chinese Restaurant", "image_url": "https://s3-media2.fl.yelpcdn.com/bphoto/oKv4CPOj7m-VOKXgndBYEg/o.jpg", "is_closed": false, "url": "https://www.yelp.com/biz/empire-chinese-restaurant-new-york-4?adjust_creative=h5HwbyQ0TYvQjBo6Ys5Bgw&utm_campaign=yelp_api_v3&utm_medium=api_v3_business_search&utm_source=h5HwbyQ0TYvQjBo6Ys5Bgw", "review_count": 8, "categories": [{"alias": "chinese", "title": "Chinese"}], "rating": 4.0, "coordinates": {"latitude": 40.85603, "longitude": -73.92905}, "transactions": [], "price": "$$", "location": {"address1": "1635 Saint Nicholas Ave", "address2": "", "address3": "", "city": "New York", "zip_code": "10040", "country": "US", "state": "NY", "display_address": ["1635 Saint Nicholas Ave", "New York, NY 10040"]}, "phone": "+12129232467", "display_phone": "(212) 923-2467", "distance": 396.45087905991045}, {"id": "8b7Nr6624zlBJTf8zYyrLw", "alias": "mama-sushi-new-york", "name": "Mama Sushi", "image_url": "https://s3-media2.fl.yelpcdn.com/bphoto/RbIasy0vumcZ3f5Wyvnx3Q/o.jpg", "is_closed": false, "url": "https://www.yelp.com/biz/mama-sushi-new-york?adjust_creative=h5HwbyQ0TYvQjBo6Ys5Bgw&utm_campaign=yelp_api_v3&utm_medium=api_v3_business_search&utm_source=h5HwbyQ0TYvQjBo6Ys5Bgw", "review_count": 709, "categories": [{"alias": "sushi", "title": "Sushi Bars"}, {"alias": "japanese", "title": "Japanese"}, {"alias": "cocktailbars", "title": "Cocktail Bars"}], "rating": 3.0, "coordinates": {"latitude": 40.8661259, "longitude": -73.9277212}, "transactions": ["pickup", "delivery"], "price": "$$", "location": {"address1": "237 Dyckman St", "address2": "", "address3": "", "city": "New York", "zip_code": "10034", "country": "US", "state": "NY", "display_address": ["237 Dyckman St", "New York, NY 10034"]}, "phone": "+12125440003", "display_phone": "(212) 544-0003", "distance": 855.8267887926186}, {"id": "sk7oNG7cT6Q21Wc4OCAi-w", "alias": "il-sole-new-york", "name": "Il Sole", "image_url": "https://s3-media2.fl.yelpcdn.com/bphoto/NMYgeToKDN45RorOrsQ00Q/o.jpg", "is_closed": false, "url": "https://www.yelp.com/biz/il-sole-new-york?adjust_creative=h5HwbyQ0TYvQjBo6Ys5Bgw&utm_campaign=yelp_api_v3&utm_medium=api_v3_business_search&utm_source=h5HwbyQ0TYvQjBo6Ys5Bgw", "review_count": 145, "categories": [{"alias": "italian", "title": "Italian"}], "rating": 3.0, "coordinates": {"latitude": 40.86612, "longitude": -73.92771}, "transactions": ["pickup", "delivery"], "price": "$$", "location": {"address1": "233 Dyckman St", "address2": "", "address3": "", "city": "New York", "zip_code": "10034", "country": "US", "state": "NY", "display_address": ["233 Dyckman St", "New York, NY 10034"]}, "phone": "+12125440406", "display_phone": "(212) 544-0406", "distance": 859.8356646607742}, {"id": "GSTNeRXsT8CWImXzrBnP-g", "alias": "pizza-palace-new-york", "name": "Pizza Palace", "image_url": "https://s3-media3.fl.yelpcdn.com/bphoto/Fcqlfjg2SwFZAPb2yC-b_g/o.jpg", "is_closed": false, "url": "https://www.yelp.com/biz/pizza-palace-new-york?adjust_creative=h5HwbyQ0TYvQjBo6Ys5Bgw&utm_campaign=yelp_api_v3&utm_medium=api_v3_business_search&utm_source=h5HwbyQ0TYvQjBo6Ys5Bgw", "review_count": 120, "categories": [{"alias": "pizza", "title": "Pizza"}], "rating": 4.5, "coordinates": {"latitude": 40.8629818681867, "longitude": -73.9256393909454}, "transactions": [], "price": "$", "location": {"address1": "121 Dyckman St", "address2": null, "address3": "", "city": "New York", "zip_code": "10034", "country": "US", "state": "NY", "display_address": ["121 Dyckman St", "New York, NY 10034"]}, "phone": "+12125679588", "display_phone": "(212) 567-9588", "distance": 671.4989616467171}, {"id": "0LhrOS_zzu-MlIwmN9ljoA", "alias": "grill-point-181-new-york", "name": "Grill Point 181", "image_url": "https://s3-media4.fl.yelpcdn.com/bphoto/2tVEvQ5ck_tm3ulwWQHS9Q/o.jpg", "is_closed": false, "url": "https://www.yelp.com/biz/grill-point-181-new-york?adjust_creative=h5HwbyQ0TYvQjBo6Ys5Bgw&utm_campaign=yelp_api_v3&utm_medium=api_v3_business_search&utm_source=h5HwbyQ0TYvQjBo6Ys5Bgw", "review_count": 75, "categories": [{"alias": "mediterranean", "title": "Mediterranean"}, {"alias": "mideastern", "title": "Middle Eastern"}], "rating": 4.0, "coordinates": {"latitude": 40.85055, "longitude": -73.9375}, "transactions": ["pickup", "delivery"], "price": "$", "location": {"address1": "736 W 181st St", "address2": "", "address3": null, "city": "New York", "zip_code": "10033", "country": "US", "state": "NY", "display_address": ["736 W 181st St", "New York, NY 10033"]}, "phone": "+12122560701", "display_phone": "(212) 256-0701", "distance": 1070.428459816868}, {"id": "t8RYSta0K8y1DXYAjhA5Dw", "alias": "brasier-grill-and-rooftop-new-york-3", "name": "Brasier Grill & Rooftop", "image_url": "https://s3-media4.fl.yelpcdn.com/bphoto/67dtNDR2Dy0kKRIxfgkbPg/o.jpg", "is_closed": false, "url": "https://www.yelp.com/biz/brasier-grill-and-rooftop-new-york-3?adjust_creative=h5HwbyQ0TYvQjBo6Ys5Bgw&utm_campaign=yelp_api_v3&utm_medium=api_v3_business_search&utm_source=h5HwbyQ0TYvQjBo6Ys5Bgw", "review_count": 58, "categories": [{"alias": "latin", "title": "Latin American"}, {"alias": "steak", "title": "Steakhouses"}], "rating": 2.5, "coordinates": {"latitude": 40.8611151, "longitude": -73.9208177}, "transactions": ["pickup", "delivery"], "location": {"address1": "472 W 202nd St", "address2": null, "address3": "", "city": "New York", "zip_code": "10034", "country": "US", "state": "NY", "display_address": ["472 W 202nd St", "New York, NY 10034"]}, "phone": "+12125671601", "display_phone": "(212) 567-1601", "distance": 944.8509578261667}, {"id": "3sQPGzWl0PMi2ULZ4DbEAg", "alias": "sushi-mambo-new-york-2", "name": "Sushi Mambo", "image_url": "https://s3-media3.fl.yelpcdn.com/bphoto/cP8CYE-tSc4T036UlhHzuQ/o.jpg", "is_closed": false, "url": "https://www.yelp.com/biz/sushi-mambo-new-york-2?adjust_creative=h5HwbyQ0TYvQjBo6Ys5Bgw&utm_campaign=yelp_api_v3&utm_medium=api_v3_business_search&utm_source=h5HwbyQ0TYvQjBo6Ys5Bgw", "review_count": 258, "categories": [{"alias": "sushi", "title": "Sushi Bars"}, {"alias": "japanese", "title": "Japanese"}, {"alias": "bars", "title": "Bars"}], "rating": 3.0, "coordinates": {"latitude": 40.86106, "longitude": -73.92036}, "transactions": ["pickup", "restaurant_reservation", "delivery"], "price": "$$", "location": {"address1": "431 W 202nd St", "address2": null, "address3": "", "city": "New York", "zip_code": "10034", "country": "US", "state": "NY", "display_address": ["431 W 202nd St", "New York, NY 10034"]}, "phone": "+13475133649", "display_phone": "(347) 513-3649", "distance": 999.8348882003193}, {"id": "0Aw9Af0d9a7HxcbkJaW9eA", "alias": "mamajuana-cafe-new-york", "name": "Mamajuana Cafe", "image_url": "https://s3-media3.fl.yelpcdn.com/bphoto/WoYRXufH59_1UUrXUzDeRg/o.jpg", "is_closed": false, "url": "https://www.yelp.com/biz/mamajuana-cafe-new-york?adjust_creative=h5HwbyQ0TYvQjBo6Ys5Bgw&utm_campaign=yelp_api_v3&utm_medium=api_v3_business_search&utm_source=h5HwbyQ0TYvQjBo6Ys5Bgw", "review_count": 629, "categories": [{"alias": "breakfast_brunch", "title": "Breakfast & Brunch"}, {"alias": "desserts", "title": "Desserts"}, {"alias": "latin", "title": "Latin American"}], "rating": 3.0, "coordinates": {"latitude": 40.866501, "longitude": -73.928037}, "transactions": [], "price": "$$", "location": {"address1": "247 Dyckman St", "address2": "", "address3": "", "city": "New York", "zip_code": "10034", "country": "US", "state": "NY", "display_address": ["247 Dyckman St", "New York, NY 10034"]}, "phone": "+12123040140", "display_phone": "(212) 304-0140", "distance": 882.4947005569803}, {"id": "krx3qFc0QFRqLL3fyscJSQ", "alias": "cachapas-y-mas-new-york", "name": "Cachapas y mas", "image_url": "https://s3-media1.fl.yelpcdn.com/bphoto/UdWx1FIohr0Se9yLV2Yv2w/o.jpg", "is_closed": false, "url": "https://www.yelp.com/biz/cachapas-y-mas-new-york?adjust_creative=h5HwbyQ0TYvQjBo6Ys5Bgw&utm_campaign=yelp_api_v3&utm_medium=api_v3_business_search&utm_source=h5HwbyQ0TYvQjBo6Ys5Bgw", "review_count": 345, "categories": [{"alias": "venezuelan", "title": "Venezuelan"}, {"alias": "sandwiches", "title": "Sandwiches"}, {"alias": "empanadas", "title": "Empanadas"}], "rating": 4.0, "coordinates": {"latitude": 40.862244, "longitude": -73.92475}, "transactions": ["pickup", "delivery"], "price": "$", "location": {"address1": "107 Dyckman St", "address2": "", "address3": "", "city": "New York", "zip_code": "10040", "country": "US", "state": "NY", "display_address": ["107 Dyckman St", "New York, NY 10040"]}, "phone": "+12123042224", "display_phone": "(212) 304-2224", "distance": 684.3916007586648}, {"id": "XgvW66el1VraHx-CuLjEIg", "alias": "no-1-restaurant-new-york-2", "name": "No. 1 Restaurant", "image_url": "https://s3-media2.fl.yelpcdn.com/bphoto/a0ihte5FD7HPhR_1M_PHDg/o.jpg", "is_closed": false, "url": "https://www.yelp.com/biz/no-1-restaurant-new-york-2?adjust_creative=h5HwbyQ0TYvQjBo6Ys5Bgw&utm_campaign=yelp_api_v3&utm_medium=api_v3_business_search&utm_source=h5HwbyQ0TYvQjBo6Ys5Bgw", "review_count": 21, "categories": [{"alias": "tex-mex", "title": "Tex-Mex"}, {"alias": "chinese", "title": "Chinese"}], "rating": 3.5, "coordinates": {"latitude": 40.8577976485116, "longitude": -73.9319991019366}, "transactions": ["pickup", "delivery"], "price": "$$", "location": {"address1": "4480 Broadway", "address2": "", "address3": "", "city": "New York", "zip_code": "10040", "country": "US", "state": "NY", "display_address": ["4480 Broadway", "New York, NY 10040"]}, "phone": "+12123042913", "display_phone": "(212) 304-2913", "distance": 143.388225454354}, {"id": "G5TrLAJ-7D_TawVC29QnPg", "alias": "cloisters-deli-and-grill-new-york", "name": "Cloisters Deli and Grill", "image_url": "https://s3-media1.fl.yelpcdn.com/bphoto/DRODXvxiRBYF1czcKAcRkQ/o.jpg", "is_closed": false, "url": "https://www.yelp.com/biz/cloisters-deli-and-grill-new-york?adjust_creative=h5HwbyQ0TYvQjBo6Ys5Bgw&utm_campaign=yelp_api_v3&utm_medium=api_v3_business_search&utm_source=h5HwbyQ0TYvQjBo6Ys5Bgw", "review_count": 18, "categories": [{"alias": "tradamerican", "title": "American (Traditional)"}, {"alias": "dominican", "title": "Dominican"}], "rating": 4.5, "coordinates": {"latitude": 40.8665469288826, "longitude": -73.9302521198988}, "transactions": ["pickup", "delivery"], "price": "$", "location": {"address1": "7 Henshaw St", "address2": "", "address3": "", "city": "New York", "zip_code": "10034", "country": "US", "state": "NY", "display_address": ["7 Henshaw St", "New York, NY 10034"]}, "phone": "+12129421580", "display_phone": "(212) 942-1580", "distance": 864.1617536605028}, {"id": "NL5hTOe-KoVlALcWLrwb1A", "alias": "ceci-restaurant-new-york", "name": "Ceci Restaurant", "image_url": "https://s3-media1.fl.yelpcdn.com/bphoto/4rKbxRc33o9ZaCiu5r6q3Q/o.jpg", "is_closed": false, "url": "https://www.yelp.com/biz/ceci-restaurant-new-york?adjust_creative=h5HwbyQ0TYvQjBo6Ys5Bgw&utm_campaign=yelp_api_v3&utm_medium=api_v3_business_search&utm_source=h5HwbyQ0TYvQjBo6Ys5Bgw", "review_count": 8, "categories": [{"alias": "latin", "title": "Latin American"}], "rating": 4.5, "coordinates": {"latitude": 40.863565, "longitude": -73.926572}, "transactions": ["pickup", "delivery"], "price": "$", "location": {"address1": "78 Sherman Ave", "address2": "", "address3": "", "city": "New York", "zip_code": "10040", "country": "US", "state": "NY", "display_address": ["78 Sherman Ave", "New York, NY 10040"]}, "phone": "+12125690555", "display_phone": "(212) 569-0555", "distance": 661.3825226564862}, {"id": "F1cTAyVghrMagxFHikwQKQ", "alias": "garden-cafe-new-york-3", "name": "Garden Cafe", "image_url": "https://s3-media3.fl.yelpcdn.com/bphoto/41wJWEaAEKLQ91yEqRXDlQ/o.jpg", "is_closed": false, "url": "https://www.yelp.com/biz/garden-cafe-new-york-3?adjust_creative=h5HwbyQ0TYvQjBo6Ys5Bgw&utm_campaign=yelp_api_v3&utm_medium=api_v3_business_search&utm_source=h5HwbyQ0TYvQjBo6Ys5Bgw", "review_count": 232, "categories": [{"alias": "newamerican", "title": "American (New)"}], "rating": 3.5, "coordinates": {"latitude": 40.8681059, "longitude": -73.920263}, "transactions": ["pickup", "delivery"], "price": "$$", "location": {"address1": "4961 Broadway", "address2": "", "address3": "", "city": "New York", "zip_code": "10034", "country": "US", "state": "NY", "display_address": ["4961 Broadway", "New York, NY 10034"]}, "phone": "+12125449480", "display_phone": "(212) 544-9480", "distance": 1378.2660704017026}, {"id": "eCiAjcDgH68vx334vJsgrw", "alias": "frescos-pizzeria-new-york", "name": "Fresco's Pizzeria", "image_url": "https://s3-media3.fl.yelpcdn.com/bphoto/Tqg515dmNE_8N60XnljBEA/o.jpg", "is_closed": false, "url": "https://www.yelp.com/biz/frescos-pizzeria-new-york?adjust_creative=h5HwbyQ0TYvQjBo6Ys5Bgw&utm_campaign=yelp_api_v3&utm_medium=api_v3_business_search&utm_source=h5HwbyQ0TYvQjBo6Ys5Bgw", "review_count": 178, "categories": [{"alias": "pizza", "title": "Pizza"}], "rating": 4.0, "coordinates": {"latitude": 40.8551130123675, "longitude": -73.9372547647758}, "transactions": ["pickup", "delivery"], "price": "$", "location": {"address1": "804 W 187th St", "address2": null, "address3": "", "city": "New York", "zip_code": "10033", "country": "US", "state": "NY", "display_address": ["804 W 187th St", "New York, NY 10033"]}, "phone": "+12127402737", "display_phone": "(212) 740-2737", "distance": 640.370142136572}, {"id": "23keT4nl99-UhTtpTzlB8w", "alias": "181-cabrini-new-york", "name": "181 Cabrini", "image_url": "https://s3-media2.fl.yelpcdn.com/bphoto/u-1tkLrw1DIOqYhE8BMBnQ/o.jpg", "is_closed": false, "url": "https://www.yelp.com/biz/181-cabrini-new-york?adjust_creative=h5HwbyQ0TYvQjBo6Ys5Bgw&utm_campaign=yelp_api_v3&utm_medium=api_v3_business_search&utm_source=h5HwbyQ0TYvQjBo6Ys5Bgw", "review_count": 235, "categories": [{"alias": "newamerican", "title": "American (New)"}, {"alias": "breakfast_brunch", "title": "Breakfast & Brunch"}], "rating": 3.5, "coordinates": {"latitude": 40.851159, "longitude": -73.940156}, "transactions": ["pickup", "delivery"], "price": "$$", "location": {"address1": "854 W 181st St", "address2": "", "address3": "", "city": "New York", "zip_code": "10033", "country": "US", "state": "NY", "display_address": ["854 W 181st St", "New York, NY 10033"]}, "phone": "+12129232233", "display_phone": "(212) 923-2233", "distance": 1130.001319097005}, {"id": "QlmdiagN2jvkc14T89J-rA", "alias": "jordans-juice-and-salad-bar-new-york", "name": "Jordan's Juice & Salad Bar", "image_url": "https://s3-media3.fl.yelpcdn.com/bphoto/TVtHiW_56rRyrhq1O74SiQ/o.jpg", "is_closed": false, "url": "https://www.yelp.com/biz/jordans-juice-and-salad-bar-new-york?adjust_creative=h5HwbyQ0TYvQjBo6Ys5Bgw&utm_campaign=yelp_api_v3&utm_medium=api_v3_business_search&utm_source=h5HwbyQ0TYvQjBo6Ys5Bgw", "review_count": 9, "categories": [{"alias": "salad", "title": "Salad"}, {"alias": "juicebars", "title": "Juice Bars & Smoothies"}], "rating": 3.0, "coordinates": {"latitude": 40.85679, "longitude": -73.9323849}, "transactions": ["pickup", "delivery"], "location": {"address1": "4462 Broadway", "address2": "", "address3": null, "city": "New York", "zip_code": "10040", "country": "US", "state": "NY", "display_address": ["4462 Broadway", "New York, NY 10040"]}, "phone": "+16468691563", "display_phone": "(646) 869-1563", "distance": 259.58147918881133}, {"id": "qrNV4MrUYgtWkYm2CMUNgQ", "alias": "restaurante-ecuatoriano-g\u00e9nesis-new-york-2", "name": "Restaurante Ecuatoriano G\u00e9nesis", "image_url": "https://s3-media2.fl.yelpcdn.com/bphoto/7bfQPBLZNbmPx8UHBZ3PiQ/o.jpg", "is_closed": false, "url": "https://www.yelp.com/biz/restaurante-ecuatoriano-g%C3%A9nesis-new-york-2?adjust_creative=h5HwbyQ0TYvQjBo6Ys5Bgw&utm_campaign=yelp_api_v3&utm_medium=api_v3_business_search&utm_source=h5HwbyQ0TYvQjBo6Ys5Bgw", "review_count": 6, "categories": [{"alias": "latin", "title": "Latin American"}], "rating": 4.5, "coordinates": {"latitude": 40.8655, "longitude": -73.91999}, "transactions": [], "price": "$$", "location": {"address1": "538 W 207th St", "address2": "", "address3": "", "city": "New York", "zip_code": "10034", "country": "US", "state": "NY", "display_address": ["538 W 207th St", "New York, NY 10034"]}, "phone": "+12129421222", "display_phone": "(212) 942-1222", "distance": 1217.486129037663}, {"id": "l7E6lpov_VPbhrxjWT-76Q", "alias": "the-park-view-new-york", "name": "The Park View", "image_url": "https://s3-media3.fl.yelpcdn.com/bphoto/e2diqPzpoaE9im4oFY1hUw/o.jpg", "is_closed": false, "url": "https://www.yelp.com/biz/the-park-view-new-york?adjust_creative=h5HwbyQ0TYvQjBo6Ys5Bgw&utm_campaign=yelp_api_v3&utm_medium=api_v3_business_search&utm_source=h5HwbyQ0TYvQjBo6Ys5Bgw", "review_count": 324, "categories": [{"alias": "newamerican", "title": "American (New)"}, {"alias": "tradamerican", "title": "American (Traditional)"}, {"alias": "wine_bars", "title": "Wine Bars"}], "rating": 3.5, "coordinates": {"latitude": 40.865788, "longitude": -73.927333}, "transactions": ["pickup", "delivery"], "price": "$$", "location": {"address1": "219 Dyckman St", "address2": "", "address3": "", "city": "New York", "zip_code": "10034", "country": "US", "state": "NY", "display_address": ["219 Dyckman St", "New York, NY 10034"]}, "phone": "+12125449024", "display_phone": "(212) 544-9024", "distance": 833.2285494427186}, {"id": "bl4yPiWAre56vxbiRpdAkQ", "alias": "taqueria-los-jarritos-new-york", "name": "Taqueria Los Jarritos", "image_url": "https://s3-media3.fl.yelpcdn.com/bphoto/zca0ZEV8bjxG6R2Xhz8qLg/o.jpg", "is_closed": false, "url": "https://www.yelp.com/biz/taqueria-los-jarritos-new-york?adjust_creative=h5HwbyQ0TYvQjBo6Ys5Bgw&utm_campaign=yelp_api_v3&utm_medium=api_v3_business_search&utm_source=h5HwbyQ0TYvQjBo6Ys5Bgw", "review_count": 35, "categories": [{"alias": "mexican", "title": "Mexican"}], "rating": 4.0, "coordinates": {"latitude": 40.86061, "longitude": -73.92697}, "transactions": ["pickup", "delivery"], "price": "$", "location": {"address1": "121 Nagle Ave", "address2": null, "address3": "", "city": "New York", "zip_code": "10040", "country": "US", "state": "NY", "display_address": ["121 Nagle Ave", "New York, NY 10040"]}, "phone": "+12127402496", "display_phone": "(212) 740-2496", "distance": 441.2421843999766}, {"id": "FPGPTHWf5wXDsTJeMTqhGA", "alias": "genesis-manhattan", "name": "Genesis", "image_url": "https://s3-media3.fl.yelpcdn.com/bphoto/MR9X1uvqzPFT4OgYKoUyqQ/o.jpg", "is_closed": false, "url": "https://www.yelp.com/biz/genesis-manhattan?adjust_creative=h5HwbyQ0TYvQjBo6Ys5Bgw&utm_campaign=yelp_api_v3&utm_medium=api_v3_business_search&utm_source=h5HwbyQ0TYvQjBo6Ys5Bgw", "review_count": 27, "categories": [{"alias": "latin", "title": "Latin American"}], "rating": 4.5, "coordinates": {"latitude": 40.8655, "longitude": -73.91999}, "transactions": [], "price": "$$", "location": {"address1": "538W 207th St", "address2": "", "address3": "", "city": "Manhattan", "zip_code": "10034", "country": "US", "state": "NY", "display_address": ["538W 207th St", "Manhattan, NY 10034"]}, "phone": "+12129421222", "display_phone": "(212) 942-1222", "distance": 1214.947018980958}, {"id": "jptXnWKw4x4kHYihKLNbZA", "alias": "la-casa-del-mofongo-new-york-5", "name": "La Casa Del Mofongo", "image_url": "https://s3-media2.fl.yelpcdn.com/bphoto/b1o9sM24Dczyn2eQ8GWe4g/o.jpg", "is_closed": false, "url": "https://www.yelp.com/biz/la-casa-del-mofongo-new-york-5?adjust_creative=h5HwbyQ0TYvQjBo6Ys5Bgw&utm_campaign=yelp_api_v3&utm_medium=api_v3_business_search&utm_source=h5HwbyQ0TYvQjBo6Ys5Bgw", "review_count": 86, "categories": [{"alias": "italian", "title": "Italian"}, {"alias": "tapasmallplates", "title": "Tapas/Small Plates"}, {"alias": "hookah_bars", "title": "Hookah Bars"}], "rating": 2.0, "coordinates": {"latitude": 40.8657651086247, "longitude": -73.919690265255}, "transactions": [], "location": {"address1": "546 W 207th St", "address2": "", "address3": null, "city": "New York", "zip_code": "10034", "country": "US", "state": "NY", "display_address": ["546 W 207th St", "New York, NY 10034"]}, "phone": "+12125448888", "display_phone": "(212) 544-8888", "distance": 1256.210212240268}, {"id": "sIp3HkLUmGjH86GP6NePbQ", "alias": "taco-inn-new-york-2", "name": "TACO INN", "image_url": "https://s3-media3.fl.yelpcdn.com/bphoto/V58U7uapD_FrvPaU_h8FvQ/o.jpg", "is_closed": false, "url": "https://www.yelp.com/biz/taco-inn-new-york-2?adjust_creative=h5HwbyQ0TYvQjBo6Ys5Bgw&utm_campaign=yelp_api_v3&utm_medium=api_v3_business_search&utm_source=h5HwbyQ0TYvQjBo6Ys5Bgw", "review_count": 20, "categories": [{"alias": "mexican", "title": "Mexican"}], "rating": 3.0, "coordinates": {"latitude": 40.85171, "longitude": -73.93259}, "transactions": ["pickup", "delivery"], "location": {"address1": "1495 Saint Nicholas Ave", "address2": null, "address3": "", "city": "New York", "zip_code": "10033", "country": "US", "state": "NY", "display_address": ["1495 Saint Nicholas Ave", "New York, NY 10033"]}, "phone": "+19173882525", "display_phone": "(917) 388-2525", "distance": 824.0821869847532}, {"id": "NzFEzBtaPuB_u28Qs7GxHQ", "alias": "elsa-la-reina-del-chicharron-new-york", "name": "Elsa La Reina Del Chicharron", "image_url": "https://s3-media2.fl.yelpcdn.com/bphoto/2QpbycGoDE4wwM8yL4D5fA/o.jpg", "is_closed": false, "url": "https://www.yelp.com/biz/elsa-la-reina-del-chicharron-new-york?adjust_creative=h5HwbyQ0TYvQjBo6Ys5Bgw&utm_campaign=yelp_api_v3&utm_medium=api_v3_business_search&utm_source=h5HwbyQ0TYvQjBo6Ys5Bgw", "review_count": 97, "categories": [{"alias": "latin", "title": "Latin American"}, {"alias": "soup", "title": "Soup"}, {"alias": "juicebars", "title": "Juice Bars & Smoothies"}], "rating": 4.0, "coordinates": {"latitude": 40.86627, "longitude": -73.9246}, "transactions": [], "price": "$", "location": {"address1": "4840 Broadway", "address2": "", "address3": "", "city": "New York", "zip_code": "10034", "country": "US", "state": "NY", "display_address": ["4840 Broadway", "New York, NY 10034"]}, "phone": "+12123041070", "display_phone": "(212) 304-1070", "distance": 1003.8596756512749}, {"id": "kTKmoQ8h5LZILeOk36x7dA", "alias": "el-lina-restaurant-manhattan", "name": "El Lina Restaurant", "image_url": "https://s3-media3.fl.yelpcdn.com/bphoto/hCjmdlIDgK9OtiAYhXi7pw/o.jpg", "is_closed": false, "url": "https://www.yelp.com/biz/el-lina-restaurant-manhattan?adjust_creative=h5HwbyQ0TYvQjBo6Ys5Bgw&utm_campaign=yelp_api_v3&utm_medium=api_v3_business_search&utm_source=h5HwbyQ0TYvQjBo6Ys5Bgw", "review_count": 23, "categories": [{"alias": "caribbean", "title": "Caribbean"}], "rating": 4.5, "coordinates": {"latitude": 40.8642807006836, "longitude": -73.91943359375}, "transactions": [], "price": "$$", "location": {"address1": "500 W 207th St", "address2": "", "address3": "", "city": "Manhattan", "zip_code": "10034", "country": "US", "state": "NY", "display_address": ["500 W 207th St", "Manhattan, NY 10034"]}, "phone": "+12125675031", "display_phone": "(212) 567-5031", "distance": 1198.7643252302141}, {"id": "AaGL6Q8AOSnvs3Wavk6fbg", "alias": "taboga-new-york-2", "name": "Taboga", "image_url": "https://s3-media1.fl.yelpcdn.com/bphoto/Uqttq3oEn80bSA95ggu9rA/o.jpg", "is_closed": false, "url": "https://www.yelp.com/biz/taboga-new-york-2?adjust_creative=h5HwbyQ0TYvQjBo6Ys5Bgw&utm_campaign=yelp_api_v3&utm_medium=api_v3_business_search&utm_source=h5HwbyQ0TYvQjBo6Ys5Bgw", "review_count": 52, "categories": [{"alias": "poolhalls", "title": "Pool Halls"}, {"alias": "latin", "title": "Latin American"}, {"alias": "breakfast_brunch", "title": "Breakfast & Brunch"}], "rating": 3.0, "coordinates": {"latitude": 40.861014, "longitude": -73.920162}, "transactions": ["pickup", "delivery"], "price": "$$", "location": {"address1": "421 W 202nd St", "address2": "", "address3": null, "city": "New York", "zip_code": "10034", "country": "US", "state": "NY", "display_address": ["421 W 202nd St", "New York, NY 10034"]}, "phone": "+12123040018", "display_phone": "(212) 304-0018", "distance": 998.5396435126837}, {"id": "VsDElCx0mQoNXhcbrreB1w", "alias": "popeyes-louisiana-kitchen-new-york-11", "name": "Popeyes Louisiana Kitchen", "image_url": "https://s3-media3.fl.yelpcdn.com/bphoto/IVIJfhBairRpDmdCWcTfpg/o.jpg", "is_closed": false, "url": "https://www.yelp.com/biz/popeyes-louisiana-kitchen-new-york-11?adjust_creative=h5HwbyQ0TYvQjBo6Ys5Bgw&utm_campaign=yelp_api_v3&utm_medium=api_v3_business_search&utm_source=h5HwbyQ0TYvQjBo6Ys5Bgw", "review_count": 9, "categories": [{"alias": "hotdogs", "title": "Fast Food"}, {"alias": "chicken_wings", "title": "Chicken Wings"}], "rating": 3.5, "coordinates": {"latitude": 40.855938, "longitude": -73.929193}, "transactions": ["pickup", "delivery"], "price": "$", "location": {"address1": "601 W 191st St", "address2": "", "address3": "", "city": "New York", "zip_code": "10040", "country": "US", "state": "NY", "display_address": ["601 W 191st St", "New York, NY 10040"]}, "phone": "+12127953614", "display_phone": "(212) 795-3614", "distance": 408.11180303392365}, {"id": "Uq2rNMzfPkJa-2nxZSvwDg", "alias": "alberts-mofongo-new-york-17", "name": "Albert's Mofongo", "image_url": "https://s3-media1.fl.yelpcdn.com/bphoto/jNz_AUcuPRf_cXSKzVmpjA/o.jpg", "is_closed": false, "url": "https://www.yelp.com/biz/alberts-mofongo-new-york-17?adjust_creative=h5HwbyQ0TYvQjBo6Ys5Bgw&utm_campaign=yelp_api_v3&utm_medium=api_v3_business_search&utm_source=h5HwbyQ0TYvQjBo6Ys5Bgw", "review_count": 188, "categories": [{"alias": "dominican", "title": "Dominican"}, {"alias": "spanish", "title": "Spanish"}, {"alias": "seafood", "title": "Seafood"}], "rating": 2.5, "coordinates": {"latitude": 40.8653997269059, "longitude": -73.9269116141556}, "transactions": ["pickup", "delivery"], "price": "$$", "location": {"address1": "4762 Broadway", "address2": null, "address3": "", "city": "New York", "zip_code": "10034", "country": "US", "state": "NY", "display_address": ["4762 Broadway", "New York, NY 10034"]}, "phone": "+12129425656", "display_phone": "(212) 942-5656", "distance": 811.8197904520241}, {"id": "53FfOCrQw8iGlBdT4aLaSQ", "alias": "cocina-taller-new-york-2", "name": "Cocina Taller", "image_url": "https://s3-media1.fl.yelpcdn.com/bphoto/mfZs5uQNswGRg0fp3IkYKQ/o.jpg", "is_closed": false, "url": "https://www.yelp.com/biz/cocina-taller-new-york-2?adjust_creative=h5HwbyQ0TYvQjBo6Ys5Bgw&utm_campaign=yelp_api_v3&utm_medium=api_v3_business_search&utm_source=h5HwbyQ0TYvQjBo6Ys5Bgw", "review_count": 69, "categories": [{"alias": "mediterranean", "title": "Mediterranean"}, {"alias": "champagne_bars", "title": "Champagne Bars"}], "rating": 3.0, "coordinates": {"latitude": 40.8614339, "longitude": -73.9199223}, "transactions": [], "price": "$$", "location": {"address1": "416 B W 203rd St", "address2": "", "address3": "", "city": "New York", "zip_code": "10034", "country": "US", "state": "NY", "display_address": ["416 B W 203rd St", "New York, NY 10034"]}, "phone": "+12123040860", "display_phone": "(212) 304-0860", "distance": 1026.596949815225}, {"id": "XsJRsOGDiTWjitcc0nCsgA", "alias": "burgers-and-grill-new-york", "name": "Burgers & Grill", "image_url": "https://s3-media2.fl.yelpcdn.com/bphoto/fXlw_54cGrp64eGA8j7n2A/o.jpg", "is_closed": false, "url": "https://www.yelp.com/biz/burgers-and-grill-new-york?adjust_creative=h5HwbyQ0TYvQjBo6Ys5Bgw&utm_campaign=yelp_api_v3&utm_medium=api_v3_business_search&utm_source=h5HwbyQ0TYvQjBo6Ys5Bgw", "review_count": 5, "categories": [{"alias": "burgers", "title": "Burgers"}, {"alias": "kosher", "title": "Kosher"}], "rating": 1.5, "coordinates": {"latitude": 40.85125, "longitude": -73.92837}, "transactions": ["pickup", "delivery"], "location": {"address1": "2543 Amsterdam Ave", "address2": "", "address3": null, "city": "New York", "zip_code": "10033", "country": "US", "state": "NY", "display_address": ["2543 Amsterdam Ave", "New York, NY 10033"]}, "phone": "+12125438017", "display_phone": "(212) 543-8017", "distance": 911.6059710066864}, {"id": "FAUMdhzoesC3PEp0b1ujBg", "alias": "broadyke-meat-market-new-york", "name": "Broadyke Meat Market", "image_url": "https://s3-media1.fl.yelpcdn.com/bphoto/OVBqi-3SMOJ8e2qspVqkiQ/o.jpg", "is_closed": false, "url": "https://www.yelp.com/biz/broadyke-meat-market-new-york?adjust_creative=h5HwbyQ0TYvQjBo6Ys5Bgw&utm_campaign=yelp_api_v3&utm_medium=api_v3_business_search&utm_source=h5HwbyQ0TYvQjBo6Ys5Bgw", "review_count": 77, "categories": [{"alias": "meats", "title": "Meat Shops"}, {"alias": "delis", "title": "Delis"}, {"alias": "sandwiches", "title": "Sandwiches"}], "rating": 4.5, "coordinates": {"latitude": 40.86578, "longitude": -73.92703}, "transactions": [], "price": "$$", "location": {"address1": "4767 Broadway", "address2": "", "address3": "", "city": "New York", "zip_code": "10034", "country": "US", "state": "NY", "display_address": ["4767 Broadway", "New York, NY 10034"]}, "phone": "+12125693470", "display_phone": "(212) 569-3470", "distance": 838.317293113976}, {"id": "WvJzhvru8oenl6rwVIl0TQ", "alias": "pate-palo-bar-and-grill-new-york", "name": "Pat'e Palo Bar & Grill", "image_url": "https://s3-media1.fl.yelpcdn.com/bphoto/ubBqD20rTv6-yyqGhqFE5A/o.jpg", "is_closed": false, "url": "https://www.yelp.com/biz/pate-palo-bar-and-grill-new-york?adjust_creative=h5HwbyQ0TYvQjBo6Ys5Bgw&utm_campaign=yelp_api_v3&utm_medium=api_v3_business_search&utm_source=h5HwbyQ0TYvQjBo6Ys5Bgw", "review_count": 89, "categories": [{"alias": "latin", "title": "Latin American"}, {"alias": "bars", "title": "Bars"}, {"alias": "breakfast_brunch", "title": "Breakfast & Brunch"}], "rating": 3.5, "coordinates": {"latitude": 40.8666329129341, "longitude": -73.928326169827}, "transactions": ["pickup", "delivery"], "price": "$$", "location": {"address1": "251-3 Dyckman St", "address2": null, "address3": "", "city": "New York", "zip_code": "10034", "country": "US", "state": "NY", "display_address": ["251-3 Dyckman St", "New York, NY 10034"]}, "phone": "+16469186242", "display_phone": "(646) 918-6242", "distance": 888.1266435900541}, {"id": "m4vr600Ibclr2b2QRU-Qlw", "alias": "la-suegra-de-dyckman-new-york", "name": "La Suegra De Dyckman", "image_url": "https://s3-media1.fl.yelpcdn.com/bphoto/wPy7FlRXAIQH2MhWyhRkYQ/o.jpg", "is_closed": false, "url": "https://www.yelp.com/biz/la-suegra-de-dyckman-new-york?adjust_creative=h5HwbyQ0TYvQjBo6Ys5Bgw&utm_campaign=yelp_api_v3&utm_medium=api_v3_business_search&utm_source=h5HwbyQ0TYvQjBo6Ys5Bgw", "review_count": 7, "categories": [{"alias": "streetvendors", "title": "Street Vendors"}, {"alias": "mexican", "title": "Mexican"}, {"alias": "foodstands", "title": "Food Stands"}], "rating": 4.5, "coordinates": {"latitude": 40.8619823610649, "longitude": -73.9249084865423}, "transactions": [], "price": "$", "location": {"address1": "", "address2": "", "address3": "", "city": "New York", "zip_code": "", "country": "US", "state": "NY", "display_address": ["New York, NY"]}, "phone": "+13472587221", "display_phone": "(347) 258-7221", "distance": 658.2184134428196}, {"id": "XqXJL-0BNwXVy51UT0_oTg", "alias": "marisco-centro-new-york", "name": "Marisco Centro", "image_url": "https://s3-media2.fl.yelpcdn.com/bphoto/p8zEzLNafmNLx6D4zqK25A/o.jpg", "is_closed": false, "url": "https://www.yelp.com/biz/marisco-centro-new-york?adjust_creative=h5HwbyQ0TYvQjBo6Ys5Bgw&utm_campaign=yelp_api_v3&utm_medium=api_v3_business_search&utm_source=h5HwbyQ0TYvQjBo6Ys5Bgw", "review_count": 77, "categories": [{"alias": "latin", "title": "Latin American"}], "rating": 3.5, "coordinates": {"latitude": 40.8513419, "longitude": -73.9320485}, "transactions": ["pickup", "delivery"], "price": "$$", "location": {"address1": "1490 St Nicholas Ave", "address2": "", "address3": "", "city": "New York", "zip_code": "10033", "country": "US", "state": "NY", "display_address": ["1490 St Nicholas Ave", "New York, NY 10033"]}, "phone": "+12127402000", "display_phone": "(212) 740-2000", "distance": 849.9128014713912}, {"id": "PCVXdAfqe50hINaKLvCbgQ", "alias": "oche-a-tu-gusto-new-york", "name": "Oche A Tu Gusto", "image_url": "https://s3-media4.fl.yelpcdn.com/bphoto/Urenxw7DBtRrFPIGQFtCTA/o.jpg", "is_closed": false, "url": "https://www.yelp.com/biz/oche-a-tu-gusto-new-york?adjust_creative=h5HwbyQ0TYvQjBo6Ys5Bgw&utm_campaign=yelp_api_v3&utm_medium=api_v3_business_search&utm_source=h5HwbyQ0TYvQjBo6Ys5Bgw", "review_count": 10, "categories": [{"alias": "hotdogs", "title": "Fast Food"}], "rating": 4.5, "coordinates": {"latitude": 40.8541182335252, "longitude": -73.930453626231}, "transactions": ["pickup", "delivery"], "price": "$", "location": {"address1": "1573 St Nicholas Ave", "address2": "", "address3": "", "city": "New York", "zip_code": "10040", "country": "US", "state": "NY", "display_address": ["1573 St Nicholas Ave", "New York, NY 10040"]}, "phone": "+16469644361", "display_phone": "(646) 964-4361", "distance": 560.8705146450004}, {"id": "0IFd_nGY2l_Miai4n7ifTA", "alias": "tacos-el-paisa-new-york", "name": "Tacos El Paisa", "image_url": "https://s3-media3.fl.yelpcdn.com/bphoto/mpUCr4qklMCyl7op0BfBcA/o.jpg", "is_closed": false, "url": "https://www.yelp.com/biz/tacos-el-paisa-new-york?adjust_creative=h5HwbyQ0TYvQjBo6Ys5Bgw&utm_campaign=yelp_api_v3&utm_medium=api_v3_business_search&utm_source=h5HwbyQ0TYvQjBo6Ys5Bgw", "review_count": 85, "categories": [{"alias": "mexican", "title": "Mexican"}], "rating": 3.5, "coordinates": {"latitude": 40.8533143, "longitude": -73.9306442}, "transactions": ["pickup", "delivery"], "price": "$", "location": {"address1": "1548 Saint Nicholas Ave", "address2": "", "address3": "", "city": "New York", "zip_code": "10040", "country": "US", "state": "NY", "display_address": ["1548 Saint Nicholas Ave", "New York, NY 10040"]}, "phone": "+19175210972", "display_phone": "(917) 521-0972", "distance": 646.4105144244128}, {"id": "o9m6goK-viFJujuPwwWeug", "alias": "lucky-7-tapas-bar-new-york", "name": "Lucky 7 Tapas Bar", "image_url": "https://s3-media1.fl.yelpcdn.com/bphoto/L2ndG5y4UMhcq2jZQycA2w/o.jpg", "is_closed": false, "url": "https://www.yelp.com/biz/lucky-7-tapas-bar-new-york?adjust_creative=h5HwbyQ0TYvQjBo6Ys5Bgw&utm_campaign=yelp_api_v3&utm_medium=api_v3_business_search&utm_source=h5HwbyQ0TYvQjBo6Ys5Bgw", "review_count": 136, "categories": [{"alias": "tapas", "title": "Tapas Bars"}], "rating": 2.0, "coordinates": {"latitude": 40.8504554, "longitude": -73.9333952}, "transactions": [], "price": "$$", "location": {"address1": "1455 Saint Nicholas Ave", "address2": null, "address3": "", "city": "New York", "zip_code": "10033", "country": "US", "state": "NY", "display_address": ["1455 Saint Nicholas Ave", "New York, NY 10033"]}, "phone": "+12127407777", "display_phone": "(212) 740-7777", "distance": 968.1841474195248}, {"id": "Y9jmd1D2QqJTkMMuFrcXNA", "alias": "capitol-restaurant-manhattan-2", "name": "Capitol Restaurant", "image_url": "https://s3-media2.fl.yelpcdn.com/bphoto/68HZRFYNtGRUsE28QC27IA/o.jpg", "is_closed": false, "url": "https://www.yelp.com/biz/capitol-restaurant-manhattan-2?adjust_creative=h5HwbyQ0TYvQjBo6Ys5Bgw&utm_campaign=yelp_api_v3&utm_medium=api_v3_business_search&utm_source=h5HwbyQ0TYvQjBo6Ys5Bgw", "review_count": 55, "categories": [{"alias": "diners", "title": "Diners"}], "rating": 4.0, "coordinates": {"latitude": 40.867615789175, "longitude": -73.9215617626905}, "transactions": ["pickup", "delivery"], "price": "$$", "location": {"address1": "4933 Broadway", "address2": "", "address3": "", "city": "Manhattan", "zip_code": "10034", "country": "US", "state": "NY", "display_address": ["4933 Broadway", "Manhattan, NY 10034"]}, "phone": "+12129425090", "display_phone": "(212) 942-5090", "distance": 1296.7703650088856}, {"id": "YkHSu1qIQvG9uxTTBUYIoQ", "alias": "king-garden-restaurant-new-york", "name": "King Garden Restaurant", "image_url": "https://s3-media3.fl.yelpcdn.com/bphoto/Ku_RdshePIoUfptmhhcyjA/o.jpg", "is_closed": false, "url": "https://www.yelp.com/biz/king-garden-restaurant-new-york?adjust_creative=h5HwbyQ0TYvQjBo6Ys5Bgw&utm_campaign=yelp_api_v3&utm_medium=api_v3_business_search&utm_source=h5HwbyQ0TYvQjBo6Ys5Bgw", "review_count": 15, "categories": [{"alias": "chinese", "title": "Chinese"}], "rating": 4.0, "coordinates": {"latitude": 40.85188, "longitude": -73.9346599}, "transactions": ["pickup", "delivery"], "price": "$", "location": {"address1": "4316 Broadway", "address2": "", "address3": "", "city": "New York", "zip_code": "10033", "country": "US", "state": "NY", "display_address": ["4316 Broadway", "New York, NY 10033"]}, "phone": "+12127813862", "display_phone": "(212) 781-3862", "distance": 833.4346502726279}, {"id": "Hdb6QepRYoFm62Ce8wj4Qw", "alias": "jordans-snack-bar-and-burger-new-york", "name": "Jordan's Snack Bar & Burger", "image_url": "https://s3-media1.fl.yelpcdn.com/bphoto/YMh77jRPofvgFcqoAD3M5Q/o.jpg", "is_closed": false, "url": "https://www.yelp.com/biz/jordans-snack-bar-and-burger-new-york?adjust_creative=h5HwbyQ0TYvQjBo6Ys5Bgw&utm_campaign=yelp_api_v3&utm_medium=api_v3_business_search&utm_source=h5HwbyQ0TYvQjBo6Ys5Bgw", "review_count": 22, "categories": [{"alias": "burgers", "title": "Burgers"}, {"alias": "sandwiches", "title": "Sandwiches"}, {"alias": "dominican", "title": "Dominican"}], "rating": 3.5, "coordinates": {"latitude": 40.85566, "longitude": -73.93341}, "transactions": ["pickup", "delivery"], "price": "$$", "location": {"address1": "4419 Broadway", "address2": "", "address3": null, "city": "New York", "zip_code": "10034", "country": "US", "state": "NY", "display_address": ["4419 Broadway", "New York, NY 10034"]}, "phone": "", "display_phone": "", "distance": 407.5234667020818}, {"id": "AGFJ4T6Woa4SWKuQqITMpg", "alias": "el-conuco-restaurant-new-york", "name": "El Conuco Restaurant", "image_url": "https://s3-media3.fl.yelpcdn.com/bphoto/YdbNfc9N6LzE0w2ELX8BcQ/o.jpg", "is_closed": false, "url": "https://www.yelp.com/biz/el-conuco-restaurant-new-york?adjust_creative=h5HwbyQ0TYvQjBo6Ys5Bgw&utm_campaign=yelp_api_v3&utm_medium=api_v3_business_search&utm_source=h5HwbyQ0TYvQjBo6Ys5Bgw", "review_count": 5, "categories": [{"alias": "latin", "title": "Latin American"}], "rating": 4.0, "coordinates": {"latitude": 40.8631627428076, "longitude": -73.9265879746891}, "transactions": ["pickup", "delivery"], "location": {"address1": "65 Sherman Ave", "address2": "", "address3": null, "city": "New York", "zip_code": "10040", "country": "US", "state": "NY", "display_address": ["65 Sherman Ave", "New York, NY 10040"]}, "phone": "", "display_phone": "", "distance": 627.3395025070159}, {"id": "_FIsTmbweNwSdtXKvhWjIQ", "alias": "oasis-deli-and-grill-new-york", "name": "Oasis Deli and Grill", "image_url": "https://s3-media3.fl.yelpcdn.com/bphoto/PtDR0oNOogKqYTWJRMe1mQ/o.jpg", "is_closed": false, "url": "https://www.yelp.com/biz/oasis-deli-and-grill-new-york?adjust_creative=h5HwbyQ0TYvQjBo6Ys5Bgw&utm_campaign=yelp_api_v3&utm_medium=api_v3_business_search&utm_source=h5HwbyQ0TYvQjBo6Ys5Bgw", "review_count": 8, "categories": [{"alias": "delis", "title": "Delis"}, {"alias": "tradamerican", "title": "American (Traditional)"}, {"alias": "falafel", "title": "Falafel"}], "rating": 4.0, "coordinates": {"latitude": 40.85525, "longitude": -73.93762}, "transactions": ["pickup", "delivery"], "location": {"address1": "814 W 187th St", "address2": null, "address3": "", "city": "New York", "zip_code": "10033", "country": "US", "state": "NY", "display_address": ["814 W 187th St", "New York, NY 10033"]}, "phone": "+12129284239", "display_phone": "(212) 928-4239", "distance": 652.8702546050217}, {"id": "1HPqMfG46M_TUBwR28cUFw", "alias": "dominican-valle-new-york", "name": "Dominican Valle", "image_url": "https://s3-media2.fl.yelpcdn.com/bphoto/ZAFISlqieXmew5Co81jLUA/o.jpg", "is_closed": false, "url": "https://www.yelp.com/biz/dominican-valle-new-york?adjust_creative=h5HwbyQ0TYvQjBo6Ys5Bgw&utm_campaign=yelp_api_v3&utm_medium=api_v3_business_search&utm_source=h5HwbyQ0TYvQjBo6Ys5Bgw", "review_count": 3, "categories": [{"alias": "latin", "title": "Latin American"}], "rating": 4.0, "coordinates": {"latitude": 40.85527, "longitude": -73.92983}, "transactions": ["pickup", "delivery"], "location": {"address1": "1601 Saint Nicholas Ave", "address2": null, "address3": null, "city": "New York", "zip_code": "10040", "country": "US", "state": "NY", "display_address": ["1601 Saint Nicholas Ave", "New York, NY 10040"]}, "phone": "+16468690092", "display_phone": "(646) 869-0092", "distance": 466.3364918306094}, {"id": "s-HEXXeypFRB-9QPXzPzuA", "alias": "buenos-snack-shop-new-york", "name": "Buenos Snack Shop", "image_url": "https://s3-media1.fl.yelpcdn.com/bphoto/5xkkJixscb8ADyIiFYsoMg/o.jpg", "is_closed": false, "url": "https://www.yelp.com/biz/buenos-snack-shop-new-york?adjust_creative=h5HwbyQ0TYvQjBo6Ys5Bgw&utm_campaign=yelp_api_v3&utm_medium=api_v3_business_search&utm_source=h5HwbyQ0TYvQjBo6Ys5Bgw", "review_count": 4, "categories": [{"alias": "delis", "title": "Delis"}], "rating": 5.0, "coordinates": {"latitude": 40.8517827093601, "longitude": -73.9339636266232}, "transactions": [], "location": {"address1": "645 W 184th St", "address2": "", "address3": null, "city": "New York", "zip_code": "10033", "country": "US", "state": "NY", "display_address": ["645 W 184th St", "New York, NY 10033"]}, "phone": "+12127408080", "display_phone": "(212) 740-8080", "distance": 831.950920263798}, {"id": "dC-EC1dZnr40MKnHPx-PIg", "alias": "patacon-pisao-truck-washington-heights", "name": "Patacon Pisao Truck", "image_url": "https://s3-media3.fl.yelpcdn.com/bphoto/q4BC7wdYrD6E1uQY1xde2A/o.jpg", "is_closed": false, "url": "https://www.yelp.com/biz/patacon-pisao-truck-washington-heights?adjust_creative=h5HwbyQ0TYvQjBo6Ys5Bgw&utm_campaign=yelp_api_v3&utm_medium=api_v3_business_search&utm_source=h5HwbyQ0TYvQjBo6Ys5Bgw", "review_count": 82, "categories": [{"alias": "foodtrucks", "title": "Food Trucks"}, {"alias": "venezuelan", "title": "Venezuelan"}], "rating": 4.5, "coordinates": {"latitude": 40.86106, "longitude": -73.92036}, "transactions": ["pickup"], "price": "$", "location": {"address1": "431 W 202nd St", "address2": "", "address3": "", "city": "Washington Heights", "zip_code": "10034", "country": "US", "state": "NY", "display_address": ["431 W 202nd St", "Washington Heights, NY 10034"]}, "phone": "+19179719828", "display_phone": "(917) 971-9828", "distance": 999.8348882003193}, {"id": "wPL0epJzosoFRYox1a5lvA", "alias": "new-golden-star-new-york", "name": "New Golden Star", "image_url": "https://s3-media1.fl.yelpcdn.com/bphoto/LeiDJoQlsgWAg2RHT2hY8g/o.jpg", "is_closed": false, "url": "https://www.yelp.com/biz/new-golden-star-new-york?adjust_creative=h5HwbyQ0TYvQjBo6Ys5Bgw&utm_campaign=yelp_api_v3&utm_medium=api_v3_business_search&utm_source=h5HwbyQ0TYvQjBo6Ys5Bgw", "review_count": 89, "categories": [{"alias": "chinese", "title": "Chinese"}], "rating": 4.0, "coordinates": {"latitude": 40.8498685, "longitude": -73.9362273}, "transactions": ["pickup", "delivery"], "price": "$$", "location": {"address1": "4247 Broadway", "address2": "", "address3": "", "city": "New York", "zip_code": "10033", "country": "US", "state": "NY", "display_address": ["4247 Broadway", "New York, NY 10033"]}, "phone": "+12129285454", "display_phone": "(212) 928-5454", "distance": 1096.6872322278857}, {"id": "jQdqdqa2phpHiQXQE8X38g", "alias": "191-pescaderia-new-york", "name": "191 Pescaderia", "image_url": "https://s3-media1.fl.yelpcdn.com/bphoto/5vjGpxouu085mq1Lvt8-gA/o.jpg", "is_closed": false, "url": "https://www.yelp.com/biz/191-pescaderia-new-york?adjust_creative=h5HwbyQ0TYvQjBo6Ys5Bgw&utm_campaign=yelp_api_v3&utm_medium=api_v3_business_search&utm_source=h5HwbyQ0TYvQjBo6Ys5Bgw", "review_count": 6, "categories": [{"alias": "seafood", "title": "Seafood"}], "rating": 3.0, "coordinates": {"latitude": 40.85523404181, "longitude": -73.9294736087322}, "transactions": [], "location": {"address1": "1609 St Nicholas Ave", "address2": "", "address3": "", "city": "New York", "zip_code": "10040", "country": "US", "state": "NY", "display_address": ["1609 St Nicholas Ave", "New York, NY 10040"]}, "phone": "", "display_phone": "", "distance": 471.3125971251363}, {"id": "jfdmmWd9YfjSl6vRFlx0jw", "alias": "pick-and-eat-new-york-3", "name": "Pick & Eat", "image_url": "https://s3-media2.fl.yelpcdn.com/bphoto/SsShDLYdsISJVsV1y8luUw/o.jpg", "is_closed": false, "url": "https://www.yelp.com/biz/pick-and-eat-new-york-3?adjust_creative=h5HwbyQ0TYvQjBo6Ys5Bgw&utm_campaign=yelp_api_v3&utm_medium=api_v3_business_search&utm_source=h5HwbyQ0TYvQjBo6Ys5Bgw", "review_count": 83, "categories": [{"alias": "newamerican", "title": "American (New)"}, {"alias": "caribbean", "title": "Caribbean"}], "rating": 3.5, "coordinates": {"latitude": 40.8675339818001, "longitude": -73.9215114712715}, "transactions": ["pickup", "delivery"], "price": "$$", "location": {"address1": "4932 Broadway", "address2": "", "address3": "", "city": "New York", "zip_code": "10034", "country": "US", "state": "NY", "display_address": ["4932 Broadway", "New York, NY 10034"]}, "phone": "+12127950056", "display_phone": "(212) 795-0056", "distance": 1283.6351193684848}, {"id": "U1I4gHO_bVhRv1D--JhklQ", "alias": "el-tina-fish-market-new-york", "name": "El Tina Fish Market", "image_url": "https://s3-media4.fl.yelpcdn.com/bphoto/k4GyhyY-b5ZZ7fJjqm4CDA/o.jpg", "is_closed": false, "url": "https://www.yelp.com/biz/el-tina-fish-market-new-york?adjust_creative=h5HwbyQ0TYvQjBo6Ys5Bgw&utm_campaign=yelp_api_v3&utm_medium=api_v3_business_search&utm_source=h5HwbyQ0TYvQjBo6Ys5Bgw", "review_count": 52, "categories": [{"alias": "seafood", "title": "Seafood"}, {"alias": "seafoodmarkets", "title": "Seafood Markets"}], "rating": 4.0, "coordinates": {"latitude": 40.8644535, "longitude": -73.9193338}, "transactions": [], "price": "$$", "location": {"address1": "500 W 207th St", "address2": "", "address3": "", "city": "New York", "zip_code": "10034", "country": "US", "state": "NY", "display_address": ["500 W 207th St", "New York, NY 10034"]}, "phone": "+12125698838", "display_phone": "(212) 569-8838", "distance": 1201.5707659855677}, {"id": "ZCOKKyPJDSVcauTNPtFF-Q", "alias": "rico-chimi-new-york", "name": "Rico Chimi", "image_url": "https://s3-media1.fl.yelpcdn.com/bphoto/rZ5qjsglhs5phM8ihMDtAA/o.jpg", "is_closed": false, "url": "https://www.yelp.com/biz/rico-chimi-new-york?adjust_creative=h5HwbyQ0TYvQjBo6Ys5Bgw&utm_campaign=yelp_api_v3&utm_medium=api_v3_business_search&utm_source=h5HwbyQ0TYvQjBo6Ys5Bgw", "review_count": 26, "categories": [{"alias": "dominican", "title": "Dominican"}], "rating": 3.0, "coordinates": {"latitude": 40.8622093, "longitude": -73.924942}, "transactions": ["pickup", "delivery"], "price": "$", "location": {"address1": "111 Dyckman St", "address2": "", "address3": "", "city": "New York", "zip_code": "10040", "country": "US", "state": "NY", "display_address": ["111 Dyckman St", "New York, NY 10040"]}, "phone": "+12123900464", "display_phone": "(212) 390-0464", "distance": 674.4414634461248}, {"id": "VuAwqaGFogbvK1pxcLzoEw", "alias": "viva-mexico-mexican-cuisine-new-york", "name": "Viva Mexico Mexican Cuisine", "image_url": "https://s3-media2.fl.yelpcdn.com/bphoto/fFtxE_RkDgvmrAD9HHXTOg/o.jpg", "is_closed": false, "url": "https://www.yelp.com/biz/viva-mexico-mexican-cuisine-new-york?adjust_creative=h5HwbyQ0TYvQjBo6Ys5Bgw&utm_campaign=yelp_api_v3&utm_medium=api_v3_business_search&utm_source=h5HwbyQ0TYvQjBo6Ys5Bgw", "review_count": 21, "categories": [{"alias": "mexican", "title": "Mexican"}], "rating": 3.0, "coordinates": {"latitude": 40.85427, "longitude": -73.93035}, "transactions": ["pickup", "delivery"], "location": {"address1": "1577 St Nicholas Ave", "address2": "", "address3": null, "city": "New York", "zip_code": "10040", "country": "US", "state": "NY", "display_address": ["1577 St Nicholas Ave", "New York, NY 10040"]}, "phone": "+19172614686", "display_phone": "(917) 261-4686", "distance": 552.5477640412574}, {"id": "KBDRkNdoKG3wCqWI5trGyg", "alias": "la-nueva-espana-new-york", "name": "La Nueva Espana", "image_url": "https://s3-media2.fl.yelpcdn.com/bphoto/GvdN7eMX9klf7YOUG8Y1tw/o.jpg", "is_closed": false, "url": "https://www.yelp.com/biz/la-nueva-espana-new-york?adjust_creative=h5HwbyQ0TYvQjBo6Ys5Bgw&utm_campaign=yelp_api_v3&utm_medium=api_v3_business_search&utm_source=h5HwbyQ0TYvQjBo6Ys5Bgw", "review_count": 90, "categories": [{"alias": "latin", "title": "Latin American"}], "rating": 3.0, "coordinates": {"latitude": 40.8674324, "longitude": -73.9212347}, "transactions": ["pickup", "delivery"], "price": "$$", "location": {"address1": "606 W 207th St", "address2": "", "address3": "", "city": "New York", "zip_code": "10034", "country": "US", "state": "NY", "display_address": ["606 W 207th St", "New York, NY 10034"]}, "phone": "+12125670500", "display_phone": "(212) 567-0500", "distance": 1279.5931286212067}, {"id": "mNRSbxAl5Yu2ZcjSJ1nd6w", "alias": "cevicos-restaurant-new-york", "name": "Cevicos Restaurant", "image_url": "https://s3-media1.fl.yelpcdn.com/bphoto/IpfzjKmGSgVoHLTbQ-4Adw/o.jpg", "is_closed": false, "url": "https://www.yelp.com/biz/cevicos-restaurant-new-york?adjust_creative=h5HwbyQ0TYvQjBo6Ys5Bgw&utm_campaign=yelp_api_v3&utm_medium=api_v3_business_search&utm_source=h5HwbyQ0TYvQjBo6Ys5Bgw", "review_count": 3, "categories": [{"alias": "restaurants", "title": "Restaurants"}], "rating": 4.5, "coordinates": {"latitude": 40.86069, "longitude": -73.92675}, "transactions": ["pickup", "delivery"], "location": {"address1": "125 Nagle Ave", "address2": "", "address3": null, "city": "New York", "zip_code": "10040", "country": "US", "state": "NY", "display_address": ["125 Nagle Ave", "New York, NY 10040"]}, "phone": "+16469227609", "display_phone": "(646) 922-7609", "distance": 456.47624948056546}, {"id": "T_hmL9ktXYZoB2aWwydU9Q", "alias": "dyckman-express-restaurant-new-york", "name": "Dyckman Express Restaurant", "image_url": "https://s3-media3.fl.yelpcdn.com/bphoto/6FkBGTdvd-9Ma3DuNNn7RA/o.jpg", "is_closed": false, "url": "https://www.yelp.com/biz/dyckman-express-restaurant-new-york?adjust_creative=h5HwbyQ0TYvQjBo6Ys5Bgw&utm_campaign=yelp_api_v3&utm_medium=api_v3_business_search&utm_source=h5HwbyQ0TYvQjBo6Ys5Bgw", "review_count": 91, "categories": [{"alias": "latin", "title": "Latin American"}, {"alias": "caribbean", "title": "Caribbean"}], "rating": 3.0, "coordinates": {"latitude": 40.86184, "longitude": -73.92468}, "transactions": [], "price": "$", "location": {"address1": "101 Dyckman St", "address2": "", "address3": "", "city": "New York", "zip_code": "10040", "country": "US", "state": "NY", "display_address": ["101 Dyckman St", "New York, NY 10040"]}, "phone": "+12125672288", "display_phone": "(212) 567-2288", "distance": 684.0637578195216}, {"id": "Lbo0zh_25-Qi6h4Dlaf2qg", "alias": "west-190-pizza-new-york", "name": "West 190 Pizza", "image_url": "https://s3-media2.fl.yelpcdn.com/bphoto/S1jHLfr_eqF2JbD1Fvcmow/o.jpg", "is_closed": false, "url": "https://www.yelp.com/biz/west-190-pizza-new-york?adjust_creative=h5HwbyQ0TYvQjBo6Ys5Bgw&utm_campaign=yelp_api_v3&utm_medium=api_v3_business_search&utm_source=h5HwbyQ0TYvQjBo6Ys5Bgw", "review_count": 16, "categories": [{"alias": "pizza", "title": "Pizza"}], "rating": 4.0, "coordinates": {"latitude": 40.8550938439257, "longitude": -73.9296631269694}, "transactions": ["pickup", "delivery"], "price": "$", "location": {"address1": "1611 Saint Nicholas Ave", "address2": "", "address3": null, "city": "New York", "zip_code": "10040", "country": "US", "state": "NY", "display_address": ["1611 Saint Nicholas Ave", "New York, NY 10040"]}, "phone": "+12129234441", "display_phone": "(212) 923-4441", "distance": 474.8563719615072}, {"id": "Vcpz9FwSR8ZPr8d4RDAamg", "alias": "qkachapa-manhattan", "name": "Q'Kachapa", "image_url": "https://s3-media4.fl.yelpcdn.com/bphoto/HSJ6xWHqf5ENNs5n8i5uwg/o.jpg", "is_closed": false, "url": "https://www.yelp.com/biz/qkachapa-manhattan?adjust_creative=h5HwbyQ0TYvQjBo6Ys5Bgw&utm_campaign=yelp_api_v3&utm_medium=api_v3_business_search&utm_source=h5HwbyQ0TYvQjBo6Ys5Bgw", "review_count": 22, "categories": [{"alias": "latin", "title": "Latin American"}], "rating": 3.0, "coordinates": {"latitude": 40.85337, "longitude": -73.9305399}, "transactions": ["pickup", "delivery"], "price": "$", "location": {"address1": "1552 St Nicholas Ave", "address2": "", "address3": "", "city": "Manhattan", "zip_code": "10040", "country": "US", "state": "NY", "display_address": ["1552 St Nicholas Ave", "Manhattan, NY 10040"]}, "phone": "+12129282898", "display_phone": "(212) 928-2898", "distance": 642.7390233416176}, {"id": "lmv0hp_1ujrCbtxzpAdVBA", "alias": "seafood-juniors-new-york", "name": "Seafood Junior's", "image_url": "https://s3-media3.fl.yelpcdn.com/bphoto/EMNeX8F4QhoT2cOP7-hLVg/o.jpg", "is_closed": false, "url": "https://www.yelp.com/biz/seafood-juniors-new-york?adjust_creative=h5HwbyQ0TYvQjBo6Ys5Bgw&utm_campaign=yelp_api_v3&utm_medium=api_v3_business_search&utm_source=h5HwbyQ0TYvQjBo6Ys5Bgw", "review_count": 19, "categories": [{"alias": "seafood", "title": "Seafood"}, {"alias": "dominican", "title": "Dominican"}], "rating": 4.0, "coordinates": {"latitude": 40.8494568, "longitude": -73.9366989}, "transactions": ["pickup", "delivery"], "price": "$$", "location": {"address1": "4235 Broadway", "address2": "", "address3": "", "city": "New York", "zip_code": "10033", "country": "US", "state": "NY", "display_address": ["4235 Broadway", "New York, NY 10033"]}, "phone": "+12125680027", "display_phone": "(212) 568-0027", "distance": 1147.7418536953596}, {"id": "xLQnT57oHtt6QLvadT52Cg", "alias": "koko-seafood-salad-and-grill-new-york", "name": "Koko Seafood Salad & Grill", "image_url": "https://s3-media1.fl.yelpcdn.com/bphoto/UDiO_llBVVSmcLMsx6Fbrw/o.jpg", "is_closed": false, "url": "https://www.yelp.com/biz/koko-seafood-salad-and-grill-new-york?adjust_creative=h5HwbyQ0TYvQjBo6Ys5Bgw&utm_campaign=yelp_api_v3&utm_medium=api_v3_business_search&utm_source=h5HwbyQ0TYvQjBo6Ys5Bgw", "review_count": 3, "categories": [{"alias": "seafood", "title": "Seafood"}, {"alias": "juicebars", "title": "Juice Bars & Smoothies"}], "rating": 2.5, "coordinates": {"latitude": 40.86064, "longitude": -73.92782}, "transactions": ["pickup", "delivery"], "location": {"address1": "92 Nagle Ave", "address2": null, "address3": "", "city": "New York", "zip_code": "10040", "country": "US", "state": "NY", "display_address": ["92 Nagle Ave", "New York, NY 10040"]}, "phone": "+19172658878", "display_phone": "(917) 265-8878", "distance": 376.9164556709385}, {"id": "nFS-w6re8Vo13djToqOUMg", "alias": "boca-chica-new-york-2", "name": "Boca Chica", "image_url": "https://s3-media2.fl.yelpcdn.com/bphoto/8N2jRyWOBHRFud46lOvn7A/o.jpg", "is_closed": false, "url": "https://www.yelp.com/biz/boca-chica-new-york-2?adjust_creative=h5HwbyQ0TYvQjBo6Ys5Bgw&utm_campaign=yelp_api_v3&utm_medium=api_v3_business_search&utm_source=h5HwbyQ0TYvQjBo6Ys5Bgw", "review_count": 3, "categories": [{"alias": "latin", "title": "Latin American"}, {"alias": "seafood", "title": "Seafood"}], "rating": 3.5, "coordinates": {"latitude": 40.84943, "longitude": -73.93678}, "transactions": [], "price": "$$$", "location": {"address1": "4235 Broadway", "address2": "", "address3": "", "city": "New York", "zip_code": "10033", "country": "US", "state": "NY", "display_address": ["4235 Broadway", "New York, NY 10033"]}, "phone": "+12125680027", "display_phone": "(212) 568-0027", "distance": 1147.7418536953596}, {"id": "_2aXZ9o3Yl_coNw9-IdqMQ", "alias": "mi-ranchito-new-york", "name": "Mi Ranchito", "image_url": "https://s3-media1.fl.yelpcdn.com/bphoto/oWo-jGr3k3krQempKtDoCw/o.jpg", "is_closed": false, "url": "https://www.yelp.com/biz/mi-ranchito-new-york?adjust_creative=h5HwbyQ0TYvQjBo6Ys5Bgw&utm_campaign=yelp_api_v3&utm_medium=api_v3_business_search&utm_source=h5HwbyQ0TYvQjBo6Ys5Bgw", "review_count": 42, "categories": [{"alias": "mexican", "title": "Mexican"}], "rating": 3.5, "coordinates": {"latitude": 40.850878189059, "longitude": -73.9325881480936}, "transactions": [], "price": "$", "location": {"address1": "1468 St Nicholas Ave", "address2": "", "address3": "", "city": "New York", "zip_code": "10033", "country": "US", "state": "NY", "display_address": ["1468 St Nicholas Ave", "New York, NY 10033"]}, "phone": "+12127402626", "display_phone": "(212) 740-2626", "distance": 913.8025113290486}, {"id": "jcO8iC_MlPP2b_R67itR8Q", "alias": "alkuteeni-deli-new-york", "name": "Alkuteeni Deli", "image_url": "", "is_closed": false, "url": "https://www.yelp.com/biz/alkuteeni-deli-new-york?adjust_creative=h5HwbyQ0TYvQjBo6Ys5Bgw&utm_campaign=yelp_api_v3&utm_medium=api_v3_business_search&utm_source=h5HwbyQ0TYvQjBo6Ys5Bgw", "review_count": 1, "categories": [{"alias": "delis", "title": "Delis"}, {"alias": "sandwiches", "title": "Sandwiches"}], "rating": 5.0, "coordinates": {"latitude": 40.8582700689327, "longitude": -73.9318147258018}, "transactions": [], "price": "$", "location": {"address1": "4500 Broadway", "address2": "", "address3": "", "city": "New York", "zip_code": "10040", "country": "US", "state": "NY", "display_address": ["4500 Broadway", "New York, NY 10040"]}, "phone": "", "display_phone": "", "distance": 89.29641098119816}, {"id": "gcxILajS1FP6WxzrCgefNQ", "alias": "con-sabor-a-mexico-new-york-3", "name": "Con Sabor A Mexico", "image_url": "https://s3-media1.fl.yelpcdn.com/bphoto/CrlQKxVGSiF-kABIAPywHg/o.jpg", "is_closed": false, "url": "https://www.yelp.com/biz/con-sabor-a-mexico-new-york-3?adjust_creative=h5HwbyQ0TYvQjBo6Ys5Bgw&utm_campaign=yelp_api_v3&utm_medium=api_v3_business_search&utm_source=h5HwbyQ0TYvQjBo6Ys5Bgw", "review_count": 22, "categories": [{"alias": "seafood", "title": "Seafood"}, {"alias": "tacos", "title": "Tacos"}], "rating": 3.0, "coordinates": {"latitude": 40.85052, "longitude": -73.93643}, "transactions": ["delivery", "pickup"], "location": {"address1": "711 W 181st St", "address2": "", "address3": null, "city": "New York", "zip_code": "10033", "country": "US", "state": "NY", "display_address": ["711 W 181st St", "New York, NY 10033"]}, "phone": "+12125683830", "display_phone": "(212) 568-3830", "distance": 1027.240889139241}, {"id": "gZD6p1CUb-7dc4B5m_h8qw", "alias": "the-trie-cafe-new-york", "name": "The Trie Cafe", "image_url": "https://s3-media3.fl.yelpcdn.com/bphoto/fx3ot0b5qu7OGaLJMnhojw/o.jpg", "is_closed": false, "url": "https://www.yelp.com/biz/the-trie-cafe-new-york?adjust_creative=h5HwbyQ0TYvQjBo6Ys5Bgw&utm_campaign=yelp_api_v3&utm_medium=api_v3_business_search&utm_source=h5HwbyQ0TYvQjBo6Ys5Bgw", "review_count": 4, "categories": [{"alias": "cafes", "title": "Cafes"}, {"alias": "desserts", "title": "Desserts"}, {"alias": "sandwiches", "title": "Sandwiches"}], "rating": 2.5, "coordinates": {"latitude": 40.864854, "longitude": -73.931919}, "transactions": [], "location": {"address1": "99 Margaret Corbin Dr", "address2": "", "address3": "", "city": "New York", "zip_code": "10040", "country": "US", "state": "NY", "display_address": ["99 Margaret Corbin Dr", "New York, NY 10040"]}, "phone": "+12129233700", "display_phone": "(212) 923-3700", "distance": 643.3509092978763}, {"id": "CC7v0W2wHw2O7E3Mwkub5w", "alias": "stop-809-new-york", "name": "Stop 809", "image_url": "https://s3-media3.fl.yelpcdn.com/bphoto/ZsUJj9xjtzMnNLNdYhSH_Q/o.jpg", "is_closed": false, "url": "https://www.yelp.com/biz/stop-809-new-york?adjust_creative=h5HwbyQ0TYvQjBo6Ys5Bgw&utm_campaign=yelp_api_v3&utm_medium=api_v3_business_search&utm_source=h5HwbyQ0TYvQjBo6Ys5Bgw", "review_count": 14, "categories": [{"alias": "dominican", "title": "Dominican"}], "rating": 3.0, "coordinates": {"latitude": 40.865540786435, "longitude": -73.9196904704722}, "transactions": [], "price": "$", "location": {"address1": "537 W 207th St", "address2": "", "address3": "", "city": "New York", "zip_code": "10034", "country": "US", "state": "NY", "display_address": ["537 W 207th St", "New York, NY 10034"]}, "phone": "+16469187369", "display_phone": "(646) 918-7369", "distance": 1241.5782382784403}, {"id": "ppXprgoStO_jUSRk_tIG2w", "alias": "mr-mangus-kitchen-new-york", "name": "Mr Mangu's kitchen", "image_url": "https://s3-media1.fl.yelpcdn.com/bphoto/fhk3l6zSCrdzJfOrBTDJEw/o.jpg", "is_closed": false, "url": "https://www.yelp.com/biz/mr-mangus-kitchen-new-york?adjust_creative=h5HwbyQ0TYvQjBo6Ys5Bgw&utm_campaign=yelp_api_v3&utm_medium=api_v3_business_search&utm_source=h5HwbyQ0TYvQjBo6Ys5Bgw", "review_count": 11, "categories": [{"alias": "dominican", "title": "Dominican"}], "rating": 1.5, "coordinates": {"latitude": 40.85185, "longitude": -73.93146}, "transactions": ["delivery", "pickup"], "price": "$", "location": {"address1": "1506 St Nicholas Ave", "address2": "", "address3": null, "city": "New York", "zip_code": "10033", "country": "US", "state": "NY", "display_address": ["1506 St Nicholas Ave", "New York, NY 10033"]}, "phone": "+16465901459", "display_phone": "(646) 590-1459", "distance": 803.1420835576064}, {"id": "TSaX5ml_wkF9AMBTvkKppw", "alias": "cafe-kolmaro-manhattan", "name": "Cafe Kolmaro", "image_url": "https://s3-media4.fl.yelpcdn.com/bphoto/G3Ok_2YAkAY-wvq3QSnrpQ/o.jpg", "is_closed": false, "url": "https://www.yelp.com/biz/cafe-kolmaro-manhattan?adjust_creative=h5HwbyQ0TYvQjBo6Ys5Bgw&utm_campaign=yelp_api_v3&utm_medium=api_v3_business_search&utm_source=h5HwbyQ0TYvQjBo6Ys5Bgw", "review_count": 14, "categories": [{"alias": "cafes", "title": "Cafes"}], "rating": 4.5, "coordinates": {"latitude": 40.86484, "longitude": -73.92213}, "transactions": [], "price": "$", "location": {"address1": "185 Sherman Ave", "address2": "", "address3": "", "city": "Manhattan", "zip_code": "10034", "country": "US", "state": "NY", "display_address": ["185 Sherman Ave", "Manhattan, NY 10034"]}, "phone": "+12129420136", "display_phone": "(212) 942-0136", "distance": 1030.891204521432}, {"id": "fMKYLSIxKeUnNqEQk5xuDA", "alias": "hang-lung-chinese-restaurant-new-york", "name": "Hang Lung Chinese Restaurant", "image_url": "https://s3-media2.fl.yelpcdn.com/bphoto/cKgcUjGBrw6-j7ODNqUtwQ/o.jpg", "is_closed": false, "url": "https://www.yelp.com/biz/hang-lung-chinese-restaurant-new-york?adjust_creative=h5HwbyQ0TYvQjBo6Ys5Bgw&utm_campaign=yelp_api_v3&utm_medium=api_v3_business_search&utm_source=h5HwbyQ0TYvQjBo6Ys5Bgw", "review_count": 6, "categories": [{"alias": "chinese", "title": "Chinese"}], "rating": 2.0, "coordinates": {"latitude": 40.85526, "longitude": -73.92916}, "transactions": ["delivery", "pickup"], "location": {"address1": "1614 Saint Nicholas Ave", "address2": "", "address3": "", "city": "New York", "zip_code": "10040", "country": "US", "state": "NY", "display_address": ["1614 Saint Nicholas Ave", "New York, NY 10040"]}, "phone": "+12125685810", "display_phone": "(212) 568-5810", "distance": 474.67454434438827}, {"id": "VUsjoFZ15OVQ4Ol7zt80zg", "alias": "la-lomita-mexican-deli-new-york", "name": "La Lomita Mexican Deli", "image_url": "https://s3-media1.fl.yelpcdn.com/bphoto/5s6IXM50aNrNFEIxIkIAaA/o.jpg", "is_closed": false, "url": "https://www.yelp.com/biz/la-lomita-mexican-deli-new-york?adjust_creative=h5HwbyQ0TYvQjBo6Ys5Bgw&utm_campaign=yelp_api_v3&utm_medium=api_v3_business_search&utm_source=h5HwbyQ0TYvQjBo6Ys5Bgw", "review_count": 35, "categories": [{"alias": "mexican", "title": "Mexican"}], "rating": 3.5, "coordinates": {"latitude": 40.8641999, "longitude": -73.91936}, "transactions": ["delivery", "pickup"], "price": "$", "location": {"address1": "3868 10th Ave", "address2": "", "address3": "", "city": "New York", "zip_code": "10034", "country": "US", "state": "NY", "display_address": ["3868 10th Ave", "New York, NY 10034"]}, "phone": "+12125679355", "display_phone": "(212) 567-9355", "distance": 1199.425672198186}, {"id": "HOWnkysd1Uc0gbuoASWzNw", "alias": "el-jobito-new-york", "name": "El Jobito", "image_url": "https://s3-media4.fl.yelpcdn.com/bphoto/KorN-4QyE2Hyj2oOmcqQ2Q/o.jpg", "is_closed": false, "url": "https://www.yelp.com/biz/el-jobito-new-york?adjust_creative=h5HwbyQ0TYvQjBo6Ys5Bgw&utm_campaign=yelp_api_v3&utm_medium=api_v3_business_search&utm_source=h5HwbyQ0TYvQjBo6Ys5Bgw", "review_count": 3, "categories": [{"alias": "dominican", "title": "Dominican"}], "rating": 3.5, "coordinates": {"latitude": 40.8543156963732, "longitude": -73.9303772993911}, "transactions": [], "location": {"address1": "1579 St Nicholas Ave", "address2": "", "address3": null, "city": "New York", "zip_code": "10040", "country": "US", "state": "NY", "display_address": ["1579 St Nicholas Ave", "New York, NY 10040"]}, "phone": "+16465902495", "display_phone": "(646) 590-2495", "distance": 540.6379150104476}, {"id": "8SA_ZTKNo6TdD65u8ppRGQ", "alias": "panda-house-new-york-2", "name": "Panda House", "image_url": "https://s3-media2.fl.yelpcdn.com/bphoto/HaFBKGMBgIVaoJXE8fZkmg/o.jpg", "is_closed": false, "url": "https://www.yelp.com/biz/panda-house-new-york-2?adjust_creative=h5HwbyQ0TYvQjBo6Ys5Bgw&utm_campaign=yelp_api_v3&utm_medium=api_v3_business_search&utm_source=h5HwbyQ0TYvQjBo6Ys5Bgw", "review_count": 24, "categories": [{"alias": "chinese", "title": "Chinese"}], "rating": 3.0, "coordinates": {"latitude": 40.86055, "longitude": -73.92815}, "transactions": ["delivery", "pickup"], "price": "$", "location": {"address1": "82 Nagle Ave", "address2": "", "address3": "", "city": "New York", "zip_code": "10040", "country": "US", "state": "NY", "display_address": ["82 Nagle Ave", "New York, NY 10040"]}, "phone": "+12125695200", "display_phone": "(212) 569-5200", "distance": 340.7240057032789}, {"id": "jdyIK5Q4Yko2Z5Mr5_ttog", "alias": "havana-tacos-new-york", "name": "Havana Tacos", "image_url": "https://s3-media1.fl.yelpcdn.com/bphoto/x-I0CPXdAC1MdYohcCODtw/o.jpg", "is_closed": false, "url": "https://www.yelp.com/biz/havana-tacos-new-york?adjust_creative=h5HwbyQ0TYvQjBo6Ys5Bgw&utm_campaign=yelp_api_v3&utm_medium=api_v3_business_search&utm_source=h5HwbyQ0TYvQjBo6Ys5Bgw", "review_count": 5, "categories": [{"alias": "tacos", "title": "Tacos"}, {"alias": "cocktailbars", "title": "Cocktail Bars"}, {"alias": "breakfast_brunch", "title": "Breakfast & Brunch"}], "rating": 3.0, "coordinates": {"latitude": 40.8624894494, "longitude": -73.9229769886}, "transactions": ["delivery", "pickup"], "price": "$$", "location": {"address1": "212 Nagle Ave", "address2": null, "address3": "", "city": "New York", "zip_code": "10034", "country": "US", "state": "NY", "display_address": ["212 Nagle Ave", "New York, NY 10034"]}, "phone": "+13473434626", "display_phone": "(347) 343-4626", "distance": 827.9461772090651}, {"id": "EKW0k9FendDGYrALnPC0gA", "alias": "taco-bell-new-york-44", "name": "Taco Bell", "image_url": "https://s3-media4.fl.yelpcdn.com/bphoto/MYMN8pW-fh2d_1tsdH7b2Q/o.jpg", "is_closed": false, "url": "https://www.yelp.com/biz/taco-bell-new-york-44?adjust_creative=h5HwbyQ0TYvQjBo6Ys5Bgw&utm_campaign=yelp_api_v3&utm_medium=api_v3_business_search&utm_source=h5HwbyQ0TYvQjBo6Ys5Bgw", "review_count": 19, "categories": [{"alias": "hotdogs", "title": "Fast Food"}, {"alias": "tacos", "title": "Tacos"}], "rating": 2.0, "coordinates": {"latitude": 40.864184, "longitude": -73.926004}, "transactions": ["delivery"], "location": {"address1": "175 Dyckman Street", "address2": "", "address3": null, "city": "New York", "zip_code": "10034", "country": "US", "state": "NY", "display_address": ["175 Dyckman Street", "New York, NY 10034"]}, "phone": "", "display_phone": "", "distance": 745.3067890301471}, {"id": "XQ6hGg_xgkKyK293lBdF1w", "alias": "punto-de-sabor-new-york", "name": "Punto De Sabor", "image_url": "https://s3-media2.fl.yelpcdn.com/bphoto/tH7WBA0c1qSUHX3MUOJyKA/o.jpg", "is_closed": false, "url": "https://www.yelp.com/biz/punto-de-sabor-new-york?adjust_creative=h5HwbyQ0TYvQjBo6Ys5Bgw&utm_campaign=yelp_api_v3&utm_medium=api_v3_business_search&utm_source=h5HwbyQ0TYvQjBo6Ys5Bgw", "review_count": 41, "categories": [{"alias": "caribbean", "title": "Caribbean"}], "rating": 3.5, "coordinates": {"latitude": 40.8506208, "longitude": -73.9325736}, "transactions": ["delivery", "pickup"], "price": "$", "location": {"address1": "1466 Saint Nicholas Ave", "address2": "", "address3": "", "city": "New York", "zip_code": "10033", "country": "US", "state": "NY", "display_address": ["1466 Saint Nicholas Ave", "New York, NY 10033"]}, "phone": "+12129282299", "display_phone": "(212) 928-2299", "distance": 949.1117890661394}, {"id": "ZLkX44TyrF92pjRqBvpuig", "alias": "tannat-new-york", "name": "Tannat", "image_url": "https://s3-media4.fl.yelpcdn.com/bphoto/p05AegmKalPhrba3YomZNg/o.jpg", "is_closed": false, "url": "https://www.yelp.com/biz/tannat-new-york?adjust_creative=h5HwbyQ0TYvQjBo6Ys5Bgw&utm_campaign=yelp_api_v3&utm_medium=api_v3_business_search&utm_source=h5HwbyQ0TYvQjBo6Ys5Bgw", "review_count": 48, "categories": [{"alias": "wine_bars", "title": "Wine Bars"}, {"alias": "tapasmallplates", "title": "Tapas/Small Plates"}], "rating": 4.5, "coordinates": {"latitude": 40.8649436583596, "longitude": -73.9282702747694}, "transactions": [], "price": "$$", "location": {"address1": "4736 Broadway", "address2": null, "address3": "", "city": "New York", "zip_code": "10040", "country": "US", "state": "NY", "display_address": ["4736 Broadway", "New York, NY 10040"]}, "phone": "+12128070672", "display_phone": "(212) 807-0672", "distance": 699.9386276166301}, {"id": "3QL775s9XyFzC75htzH6Qg", "alias": "cocina-latina-restaurant-new-york-2", "name": "Cocina Latina Restaurant", "image_url": "https://s3-media2.fl.yelpcdn.com/bphoto/H3MwxH1Ik0olyc1qzBH60A/o.jpg", "is_closed": false, "url": "https://www.yelp.com/biz/cocina-latina-restaurant-new-york-2?adjust_creative=h5HwbyQ0TYvQjBo6Ys5Bgw&utm_campaign=yelp_api_v3&utm_medium=api_v3_business_search&utm_source=h5HwbyQ0TYvQjBo6Ys5Bgw", "review_count": 8, "categories": [{"alias": "latin", "title": "Latin American"}, {"alias": "dominican", "title": "Dominican"}, {"alias": "spanish", "title": "Spanish"}], "rating": 3.5, "coordinates": {"latitude": 40.8681143747441, "longitude": -73.9190982467405}, "transactions": ["delivery", "pickup"], "price": "$$", "location": {"address1": "4986 Broadway", "address2": "", "address3": null, "city": "New York", "zip_code": "10034", "country": "US", "state": "NY", "display_address": ["4986 Broadway", "New York, NY 10034"]}, "phone": "+12125442221", "display_phone": "(212) 544-2221", "distance": 1462.3383120730573}, {"id": "Mc-uTqSARIIvdE8Jn8a5Yw", "alias": "amys-restaurant-new-york", "name": "Amy's Restaurant", "image_url": "https://s3-media4.fl.yelpcdn.com/bphoto/hLbgBFVSyABazz-I0_yLBg/o.jpg", "is_closed": false, "url": "https://www.yelp.com/biz/amys-restaurant-new-york?adjust_creative=h5HwbyQ0TYvQjBo6Ys5Bgw&utm_campaign=yelp_api_v3&utm_medium=api_v3_business_search&utm_source=h5HwbyQ0TYvQjBo6Ys5Bgw", "review_count": 109, "categories": [{"alias": "chinese", "title": "Chinese"}], "rating": 3.5, "coordinates": {"latitude": 40.86701, "longitude": -73.92097}, "transactions": ["delivery", "pickup"], "price": "$$", "location": {"address1": "586 W 207th St", "address2": "", "address3": "", "city": "New York", "zip_code": "10034", "country": "US", "state": "NY", "display_address": ["586 W 207th St", "New York, NY 10034"]}, "phone": "+12125673175", "display_phone": "(212) 567-3175", "distance": 1258.7641378307753}, {"id": "VlWTXdRDkhYz6-iU2cjKGQ", "alias": "grandpas-brick-oven-pizza-new-york", "name": "Grandpa's Brick Oven Pizza", "image_url": "https://s3-media3.fl.yelpcdn.com/bphoto/TC5Q2s7-ljMd7uOQqraJHg/o.jpg", "is_closed": false, "url": "https://www.yelp.com/biz/grandpas-brick-oven-pizza-new-york?adjust_creative=h5HwbyQ0TYvQjBo6Ys5Bgw&utm_campaign=yelp_api_v3&utm_medium=api_v3_business_search&utm_source=h5HwbyQ0TYvQjBo6Ys5Bgw", "review_count": 175, "categories": [{"alias": "pizza", "title": "Pizza"}, {"alias": "italian", "title": "Italian"}, {"alias": "wraps", "title": "Wraps"}], "rating": 3.5, "coordinates": {"latitude": 40.8683177, "longitude": -73.9195183}, "transactions": ["delivery", "pickup"], "price": "$", "location": {"address1": "4973 Broadway", "address2": "", "address3": "", "city": "New York", "zip_code": "10034", "country": "US", "state": "NY", "display_address": ["4973 Broadway", "New York, NY 10034"]}, "phone": "+12123041185", "display_phone": "(212) 304-1185", "distance": 1452.811794052616}, {"id": "_LLK-gnjeTLwpyoliglozw", "alias": "hang-lee-chinese-new-york", "name": "Hang Lee Chinese", "image_url": "https://s3-media4.fl.yelpcdn.com/bphoto/RMiobSJyV4o-Hp-fN4Yoog/o.jpg", "is_closed": false, "url": "https://www.yelp.com/biz/hang-lee-chinese-new-york?adjust_creative=h5HwbyQ0TYvQjBo6Ys5Bgw&utm_campaign=yelp_api_v3&utm_medium=api_v3_business_search&utm_source=h5HwbyQ0TYvQjBo6Ys5Bgw", "review_count": 25, "categories": [{"alias": "chinese", "title": "Chinese"}], "rating": 4.0, "coordinates": {"latitude": 40.867262242948, "longitude": -73.9233304385214}, "transactions": [], "price": "$", "location": {"address1": "666 W 204th St", "address2": "", "address3": "", "city": "New York", "zip_code": "10034", "country": "US", "state": "NY", "display_address": ["666 W 204th St", "New York, NY 10034"]}, "phone": "+12129420927", "display_phone": "(212) 942-0927", "distance": 1147.135619901638}, {"id": "Hk0npAE__x6bqrXu9wRc3A", "alias": "kennedy-fried-chicken-new-york-5", "name": "Kennedy Fried Chicken", "image_url": "https://s3-media2.fl.yelpcdn.com/bphoto/3ncrZK_9uOjilrq3CWPvFw/o.jpg", "is_closed": false, "url": "https://www.yelp.com/biz/kennedy-fried-chicken-new-york-5?adjust_creative=h5HwbyQ0TYvQjBo6Ys5Bgw&utm_campaign=yelp_api_v3&utm_medium=api_v3_business_search&utm_source=h5HwbyQ0TYvQjBo6Ys5Bgw", "review_count": 19, "categories": [{"alias": "chicken_wings", "title": "Chicken Wings"}], "rating": 3.5, "coordinates": {"latitude": 40.86162, "longitude": -73.92515}, "transactions": ["delivery", "pickup"], "price": "$", "location": {"address1": "158 Nagle Ave", "address2": "", "address3": "", "city": "New York", "zip_code": "10040", "country": "US", "state": "NY", "display_address": ["158 Nagle Ave", "New York, NY 10040"]}, "phone": "+12129425434", "display_phone": "(212) 942-5434", "distance": 617.4282889390496}, {"id": "F9xVc66eb_tChhfH5wLEHg", "alias": "deli-grocery-new-york-5", "name": "Deli Grocery", "image_url": "https://s3-media2.fl.yelpcdn.com/bphoto/OxNhWkMVWmP1u4Zingyc2A/o.jpg", "is_closed": false, "url": "https://www.yelp.com/biz/deli-grocery-new-york-5?adjust_creative=h5HwbyQ0TYvQjBo6Ys5Bgw&utm_campaign=yelp_api_v3&utm_medium=api_v3_business_search&utm_source=h5HwbyQ0TYvQjBo6Ys5Bgw", "review_count": 2, "categories": [{"alias": "delis", "title": "Delis"}, {"alias": "sandwiches", "title": "Sandwiches"}], "rating": 4.5, "coordinates": {"latitude": 40.85022, "longitude": -73.93451}, "transactions": [], "location": {"address1": "177 Wadsworth Ave", "address2": "Ste 18", "address3": "", "city": "New York", "zip_code": "10033", "country": "US", "state": "NY", "display_address": ["177 Wadsworth Ave", "Ste 18", "New York, NY 10033"]}, "phone": "+12125682520", "display_phone": "(212) 568-2520", "distance": 1008.7068800465292}, {"id": "Bu_OtyFrzgl0rYvm6OrAnQ", "alias": "hudson-view-restaurant-new-york", "name": "Hudson View Restaurant", "image_url": "https://s3-media4.fl.yelpcdn.com/bphoto/ZH9ueSQvLU7RZoGrOaTLkw/o.jpg", "is_closed": false, "url": "https://www.yelp.com/biz/hudson-view-restaurant-new-york?adjust_creative=h5HwbyQ0TYvQjBo6Ys5Bgw&utm_campaign=yelp_api_v3&utm_medium=api_v3_business_search&utm_source=h5HwbyQ0TYvQjBo6Ys5Bgw", "review_count": 209, "categories": [{"alias": "diners", "title": "Diners"}], "rating": 3.0, "coordinates": {"latitude": 40.8506554, "longitude": -73.9378953}, "transactions": ["delivery", "pickup"], "price": "$$", "location": {"address1": "770 W 181st St", "address2": "", "address3": "", "city": "New York", "zip_code": "10033", "country": "US", "state": "NY", "display_address": ["770 W 181st St", "New York, NY 10033"]}, "phone": "+12127810303", "display_phone": "(212) 781-0303", "distance": 1077.4432715652874}, {"id": "Y7CBhMYJtY9T5g-BBv5npA", "alias": "tulcingo-azteca-restaurante-new-york", "name": "Tulcingo Azteca Restaurante", "image_url": "https://s3-media2.fl.yelpcdn.com/bphoto/R4Zgr9o6zqpU7hNHMK7bWg/o.jpg", "is_closed": false, "url": "https://www.yelp.com/biz/tulcingo-azteca-restaurante-new-york?adjust_creative=h5HwbyQ0TYvQjBo6Ys5Bgw&utm_campaign=yelp_api_v3&utm_medium=api_v3_business_search&utm_source=h5HwbyQ0TYvQjBo6Ys5Bgw", "review_count": 17, "categories": [{"alias": "mexican", "title": "Mexican"}], "rating": 3.5, "coordinates": {"latitude": 40.864081, "longitude": -73.9189911}, "transactions": ["delivery", "pickup"], "price": "$$", "location": {"address1": "3861 10th Ave", "address2": "", "address3": "", "city": "New York", "zip_code": "10034", "country": "US", "state": "NY", "display_address": ["3861 10th Ave", "New York, NY 10034"]}, "phone": "+12125676028", "display_phone": "(212) 567-6028", "distance": 1204.993499932946}, {"id": "Dwg-RgHUXsBfAi7G0V8LIg", "alias": "green-juice-cafe-new-york", "name": "Green Juice Cafe", "image_url": "https://s3-media4.fl.yelpcdn.com/bphoto/dHF2qESxWSTOvF5KhVw_NQ/o.jpg", "is_closed": false, "url": "https://www.yelp.com/biz/green-juice-cafe-new-york?adjust_creative=h5HwbyQ0TYvQjBo6Ys5Bgw&utm_campaign=yelp_api_v3&utm_medium=api_v3_business_search&utm_source=h5HwbyQ0TYvQjBo6Ys5Bgw", "review_count": 198, "categories": [{"alias": "sandwiches", "title": "Sandwiches"}, {"alias": "coffee", "title": "Coffee & Tea"}, {"alias": "juicebars", "title": "Juice Bars & Smoothies"}], "rating": 5.0, "coordinates": {"latitude": 40.85188, "longitude": -73.9346599}, "transactions": [], "price": "$", "location": {"address1": "4316 Broadway", "address2": null, "address3": "", "city": "New York", "zip_code": "10033", "country": "US", "state": "NY", "display_address": ["4316 Broadway", "New York, NY 10033"]}, "phone": "+16469187730", "display_phone": "(646) 918-7730", "distance": 833.4346502726279}, {"id": "ePwokkNV9AevDQ92L2l5rw", "alias": "serie-54-new-york", "name": "Serie 54", "image_url": "https://s3-media1.fl.yelpcdn.com/bphoto/ppGv8ST-bA4G1JKVkMZNEQ/o.jpg", "is_closed": false, "url": "https://www.yelp.com/biz/serie-54-new-york?adjust_creative=h5HwbyQ0TYvQjBo6Ys5Bgw&utm_campaign=yelp_api_v3&utm_medium=api_v3_business_search&utm_source=h5HwbyQ0TYvQjBo6Ys5Bgw", "review_count": 1, "categories": [{"alias": "grocery", "title": "Grocery"}, {"alias": "delis", "title": "Delis"}], "rating": 5.0, "coordinates": {"latitude": 40.86317, "longitude": -73.92952}, "transactions": [], "location": {"address1": "4672 Broadway", "address2": "", "address3": null, "city": "New York", "zip_code": "10040", "country": "US", "state": "NY", "display_address": ["4672 Broadway", "New York, NY 10040"]}, "phone": "+16464846069", "display_phone": "(646) 484-6069", "distance": 494.0646387914635}, {"id": "T5-ko-W-TNcMPbMViKxXdA", "alias": "johns-fried-chicken-new-york", "name": "John's Fried Chicken", "image_url": "https://s3-media2.fl.yelpcdn.com/bphoto/v9vWo-8INl2LJlsMYX2FIw/o.jpg", "is_closed": false, "url": "https://www.yelp.com/biz/johns-fried-chicken-new-york?adjust_creative=h5HwbyQ0TYvQjBo6Ys5Bgw&utm_campaign=yelp_api_v3&utm_medium=api_v3_business_search&utm_source=h5HwbyQ0TYvQjBo6Ys5Bgw", "review_count": 57, "categories": [{"alias": "dominican", "title": "Dominican"}, {"alias": "latin", "title": "Latin American"}, {"alias": "chickenshop", "title": "Chicken Shop"}], "rating": 3.5, "coordinates": {"latitude": 40.8648784078434, "longitude": -73.9195375925904}, "transactions": [], "price": "$", "location": {"address1": "512 W 207th St", "address2": "", "address3": "", "city": "New York", "zip_code": "10034", "country": "US", "state": "NY", "display_address": ["512 W 207th St", "New York, NY 10034"]}, "phone": "+12125676489", "display_phone": "(212) 567-6489", "distance": 1211.2582124504427}, {"id": "_1C9EgW9P2gqITsFvPQH4Q", "alias": "ten-tan-chinese-restaurant-new-york", "name": "Ten-Tan Chinese Restaurant", "image_url": "https://s3-media2.fl.yelpcdn.com/bphoto/N3Wz_qCwe3CkTFGgptThFA/o.jpg", "is_closed": false, "url": "https://www.yelp.com/biz/ten-tan-chinese-restaurant-new-york?adjust_creative=h5HwbyQ0TYvQjBo6Ys5Bgw&utm_campaign=yelp_api_v3&utm_medium=api_v3_business_search&utm_source=h5HwbyQ0TYvQjBo6Ys5Bgw", "review_count": 15, "categories": [{"alias": "chinese", "title": "Chinese"}], "rating": 2.5, "coordinates": {"latitude": 40.86415, "longitude": -73.91939}, "transactions": ["delivery", "pickup"], "location": {"address1": "3864 10th Ave", "address2": "", "address3": "", "city": "New York", "zip_code": "10034", "country": "US", "state": "NY", "display_address": ["3864 10th Ave", "New York, NY 10034"]}, "phone": "+12123040330", "display_phone": "(212) 304-0330", "distance": 1181.5314449741936}, {"id": "FI-zvRxm8SR56RM8QL-xhg", "alias": "pizza-nova-new-york-2", "name": "Pizza Nova", "image_url": "https://s3-media2.fl.yelpcdn.com/bphoto/_m8vzeTd92JX-ExLOFWPeQ/o.jpg", "is_closed": false, "url": "https://www.yelp.com/biz/pizza-nova-new-york-2?adjust_creative=h5HwbyQ0TYvQjBo6Ys5Bgw&utm_campaign=yelp_api_v3&utm_medium=api_v3_business_search&utm_source=h5HwbyQ0TYvQjBo6Ys5Bgw", "review_count": 28, "categories": [{"alias": "pizza", "title": "Pizza"}], "rating": 3.5, "coordinates": {"latitude": 40.862838, "longitude": -73.925933}, "transactions": ["delivery", "pickup"], "price": "$", "location": {"address1": "150 Dyckman St", "address2": null, "address3": "", "city": "New York", "zip_code": "10040", "country": "US", "state": "NY", "display_address": ["150 Dyckman St", "New York, NY 10040"]}, "phone": "+12123048333", "display_phone": "(212) 304-8333", "distance": 665.9302929732157}, {"id": "Aprs5McFDpJCKTxWEJMlag", "alias": "mediterraneo-pizza-new-york-2", "name": "Mediterraneo Pizza", "image_url": "https://s3-media4.fl.yelpcdn.com/bphoto/-Tl-_y-QwHHHWUYpn-ZvjQ/o.jpg", "is_closed": false, "url": "https://www.yelp.com/biz/mediterraneo-pizza-new-york-2?adjust_creative=h5HwbyQ0TYvQjBo6Ys5Bgw&utm_campaign=yelp_api_v3&utm_medium=api_v3_business_search&utm_source=h5HwbyQ0TYvQjBo6Ys5Bgw", "review_count": 17, "categories": [{"alias": "pizza", "title": "Pizza"}], "rating": 3.5, "coordinates": {"latitude": 40.85472, "longitude": -73.93002}, "transactions": ["delivery", "pickup"], "price": "$", "location": {"address1": "1593 St Nicholas Ave", "address2": null, "address3": null, "city": "New York", "zip_code": "10040", "country": "US", "state": "NY", "display_address": ["1593 St Nicholas Ave", "New York, NY 10040"]}, "phone": "+12129270282", "display_phone": "(212) 927-0282", "distance": 487.5135802082758}, {"id": "Qx1GU3_LCAHmF_gaajjBOQ", "alias": "charlies-pizza-new-york", "name": "Charlie's Pizza", "image_url": "https://s3-media3.fl.yelpcdn.com/bphoto/0pXuqSrYgiRqT5tcvS6EHA/o.jpg", "is_closed": false, "url": "https://www.yelp.com/biz/charlies-pizza-new-york?adjust_creative=h5HwbyQ0TYvQjBo6Ys5Bgw&utm_campaign=yelp_api_v3&utm_medium=api_v3_business_search&utm_source=h5HwbyQ0TYvQjBo6Ys5Bgw", "review_count": 19, "categories": [{"alias": "pizza", "title": "Pizza"}], "rating": 4.0, "coordinates": {"latitude": 40.8520225, "longitude": -73.9319437}, "transactions": [], "price": "$", "location": {"address1": "1501 Saint Nicholas Ave", "address2": "", "address3": "", "city": "New York", "zip_code": "10033", "country": "US", "state": "NY", "display_address": ["1501 Saint Nicholas Ave", "New York, NY 10033"]}, "phone": "+12127819089", "display_phone": "(212) 781-9089", "distance": 786.5090629979413}, {"id": "bMAsaXIDMActYCYCw0HcCQ", "alias": "no-1-chinese-restaurant-new-york-2", "name": "No 1 Chinese Restaurant", "image_url": "https://s3-media4.fl.yelpcdn.com/bphoto/iQ8U2uGiaez2tLMpMdKjDA/o.jpg", "is_closed": false, "url": "https://www.yelp.com/biz/no-1-chinese-restaurant-new-york-2?adjust_creative=h5HwbyQ0TYvQjBo6Ys5Bgw&utm_campaign=yelp_api_v3&utm_medium=api_v3_business_search&utm_source=h5HwbyQ0TYvQjBo6Ys5Bgw", "review_count": 114, "categories": [{"alias": "chinese", "title": "Chinese"}], "rating": 3.5, "coordinates": {"latitude": 40.8513816, "longitude": -73.9394706}, "transactions": ["delivery", "pickup"], "price": "$", "location": {"address1": "825 W 181st St", "address2": "", "address3": "", "city": "New York", "zip_code": "10033", "country": "US", "state": "NY", "display_address": ["825 W 181st St", "New York, NY 10033"]}, "phone": "+12127403188", "display_phone": "(212) 740-3188", "distance": 1070.5930803520725}, {"id": "jx0bhDsNMPOrUDRQNhijZw", "alias": "georges-pizza-new-york", "name": "George's Pizza", "image_url": "https://s3-media1.fl.yelpcdn.com/bphoto/efJUuUq3UybAe6CMgMwQqA/o.jpg", "is_closed": false, "url": "https://www.yelp.com/biz/georges-pizza-new-york?adjust_creative=h5HwbyQ0TYvQjBo6Ys5Bgw&utm_campaign=yelp_api_v3&utm_medium=api_v3_business_search&utm_source=h5HwbyQ0TYvQjBo6Ys5Bgw", "review_count": 89, "categories": [{"alias": "pizza", "title": "Pizza"}], "rating": 3.0, "coordinates": {"latitude": 40.8504282, "longitude": -73.9370877}, "transactions": ["delivery", "pickup"], "price": "$", "location": {"address1": "726 W 181st St", "address2": "", "address3": "", "city": "New York", "zip_code": "10033", "country": "US", "state": "NY", "display_address": ["726 W 181st St", "New York, NY 10033"]}, "phone": "+12125686891", "display_phone": "(212) 568-6891", "distance": 1061.4812827681471}, {"id": "G7yo_MAyRnGPJc925Nw81w", "alias": "tamale-lady-manhattan", "name": "Tamale Lady", "image_url": "", "is_closed": false, "url": "https://www.yelp.com/biz/tamale-lady-manhattan?adjust_creative=h5HwbyQ0TYvQjBo6Ys5Bgw&utm_campaign=yelp_api_v3&utm_medium=api_v3_business_search&utm_source=h5HwbyQ0TYvQjBo6Ys5Bgw", "review_count": 1, "categories": [{"alias": "foodstands", "title": "Food Stands"}], "rating": 5.0, "coordinates": {"latitude": 40.84984, "longitude": -73.93497}, "transactions": [], "location": {"address1": "181st & Wadsworth Ave.", "address2": "", "address3": "", "city": "Manhattan", "zip_code": "10033", "country": "US", "state": "NY", "display_address": ["181st & Wadsworth Ave.", "Manhattan, NY 10033"]}, "phone": "", "display_phone": "", "distance": 1063.7838112634008}, {"id": "znD_I5mDsFP871ToNEiNPg", "alias": "eat-sherman-creek-new-york", "name": "Eat  Sherman Creek", "image_url": "https://s3-media2.fl.yelpcdn.com/bphoto/LLEYgD0x-vprDxWce0ze6Q/o.jpg", "is_closed": false, "url": "https://www.yelp.com/biz/eat-sherman-creek-new-york?adjust_creative=h5HwbyQ0TYvQjBo6Ys5Bgw&utm_campaign=yelp_api_v3&utm_medium=api_v3_business_search&utm_source=h5HwbyQ0TYvQjBo6Ys5Bgw", "review_count": 2, "categories": [{"alias": "hotdogs", "title": "Fast Food"}], "rating": 4.5, "coordinates": {"latitude": 40.86076810956, "longitude": -73.9198243618011}, "transactions": [], "location": {"address1": "421 W 202nd St", "address2": "", "address3": null, "city": "New York", "zip_code": "10034", "country": "US", "state": "NY", "display_address": ["421 W 202nd St", "New York, NY 10034"]}, "phone": "+12123040018", "display_phone": "(212) 304-0018", "distance": 998.5396435126837}, {"id": "cQRQXI3-B5eGFCi_aj1IyQ", "alias": "golden-city-chinese-restaurant-new-york-2", "name": "Golden City Chinese Restaurant", "image_url": "https://s3-media1.fl.yelpcdn.com/bphoto/C26EhT6sorMFdIlLHtAEag/o.jpg", "is_closed": false, "url": "https://www.yelp.com/biz/golden-city-chinese-restaurant-new-york-2?adjust_creative=h5HwbyQ0TYvQjBo6Ys5Bgw&utm_campaign=yelp_api_v3&utm_medium=api_v3_business_search&utm_source=h5HwbyQ0TYvQjBo6Ys5Bgw", "review_count": 10, "categories": [{"alias": "chinese", "title": "Chinese"}], "rating": 4.0, "coordinates": {"latitude": 40.8513247, "longitude": -73.9283376}, "transactions": ["delivery", "pickup"], "price": "$", "location": {"address1": "2545 Amsterdam Ave", "address2": "", "address3": "", "city": "New York", "zip_code": "10033", "country": "US", "state": "NY", "display_address": ["2545 Amsterdam Ave", "New York, NY 10033"]}, "phone": "+12127811979", "display_phone": "(212) 781-1979", "distance": 907.1185794493025}, {"id": "DV9NEkU3J7SY3u0A194zqg", "alias": "fort-tryon-deli-and-grill-new-york-2", "name": "Fort Tryon Deli & Grill", "image_url": "https://s3-media3.fl.yelpcdn.com/bphoto/BVjMufaSRickE33m__nhrQ/o.jpg", "is_closed": false, "url": "https://www.yelp.com/biz/fort-tryon-deli-and-grill-new-york-2?adjust_creative=h5HwbyQ0TYvQjBo6Ys5Bgw&utm_campaign=yelp_api_v3&utm_medium=api_v3_business_search&utm_source=h5HwbyQ0TYvQjBo6Ys5Bgw", "review_count": 11, "categories": [{"alias": "sandwiches", "title": "Sandwiches"}, {"alias": "juicebars", "title": "Juice Bars & Smoothies"}, {"alias": "delis", "title": "Delis"}], "rating": 3.5, "coordinates": {"latitude": 40.855193, "longitude": -73.938081}, "transactions": ["delivery", "pickup"], "location": {"address1": "210 Pinehurst Ave", "address2": null, "address3": "", "city": "New York", "zip_code": "10033", "country": "US", "state": "NY", "display_address": ["210 Pinehurst Ave", "New York, NY 10033"]}, "phone": "+16463681256", "display_phone": "(646) 368-1256", "distance": 686.886984628576}, {"id": "skqn2xVznMIN2X_wI5um0A", "alias": "boca-chica-new-york-3", "name": "Boca Chica", "image_url": "https://s3-media4.fl.yelpcdn.com/bphoto/az4RbHhjaWQRoaz_axJI1A/o.jpg", "is_closed": false, "url": "https://www.yelp.com/biz/boca-chica-new-york-3?adjust_creative=h5HwbyQ0TYvQjBo6Ys5Bgw&utm_campaign=yelp_api_v3&utm_medium=api_v3_business_search&utm_source=h5HwbyQ0TYvQjBo6Ys5Bgw", "review_count": 5, "categories": [{"alias": "seafood", "title": "Seafood"}], "rating": 3.5, "coordinates": {"latitude": 40.86697, "longitude": -73.92095}, "transactions": ["delivery", "pickup"], "location": {"address1": "584 W 207th St", "address2": "", "address3": null, "city": "New York", "zip_code": "10034", "country": "US", "state": "NY", "display_address": ["584 W 207th St", "New York, NY 10034"]}, "phone": "+12125676777", "display_phone": "(212) 567-6777", "distance": 1245.869995855425}, {"id": "BewiujBW7QMp6ZHFUDlxxA", "alias": "fort-washington-bakery-and-deli-new-york", "name": "Fort Washington Bakery and Deli", "image_url": "https://s3-media2.fl.yelpcdn.com/bphoto/Z-4v4XgUpfRVeXwrb04acQ/o.jpg", "is_closed": false, "url": "https://www.yelp.com/biz/fort-washington-bakery-and-deli-new-york?adjust_creative=h5HwbyQ0TYvQjBo6Ys5Bgw&utm_campaign=yelp_api_v3&utm_medium=api_v3_business_search&utm_source=h5HwbyQ0TYvQjBo6Ys5Bgw", "review_count": 42, "categories": [{"alias": "delis", "title": "Delis"}, {"alias": "bakeries", "title": "Bakeries"}], "rating": 4.0, "coordinates": {"latitude": 40.8509505540133, "longitude": -73.9385998249054}, "transactions": [], "price": "$", "location": {"address1": "808 W 181st St", "address2": "", "address3": "", "city": "New York", "zip_code": "10033", "country": "US", "state": "NY", "display_address": ["808 W 181st St", "New York, NY 10033"]}, "phone": "+12127951891", "display_phone": "(212) 795-1891", "distance": 1082.8531953514703}, {"id": "tgXIWfyRKGaxvFEvTZLvpQ", "alias": "juniors-fresh-new-york", "name": "Junior's Fresh", "image_url": "https://s3-media2.fl.yelpcdn.com/bphoto/CcwBSOJvQ-2m_s7XLMnLOg/o.jpg", "is_closed": false, "url": "https://www.yelp.com/biz/juniors-fresh-new-york?adjust_creative=h5HwbyQ0TYvQjBo6Ys5Bgw&utm_campaign=yelp_api_v3&utm_medium=api_v3_business_search&utm_source=h5HwbyQ0TYvQjBo6Ys5Bgw", "review_count": 2, "categories": [{"alias": "wraps", "title": "Wraps"}, {"alias": "sandwiches", "title": "Sandwiches"}, {"alias": "juicebars", "title": "Juice Bars & Smoothies"}], "rating": 5.0, "coordinates": {"latitude": 40.84936, "longitude": -73.93686}, "transactions": [], "location": {"address1": "4233 Broadway", "address2": "", "address3": null, "city": "New York", "zip_code": "10033", "country": "US", "state": "NY", "display_address": ["4233 Broadway", "New York, NY 10033"]}, "phone": "", "display_phone": "", "distance": 1162.9584984258074}, {"id": "YaBmhRbSyTcEM_It7eDvTw", "alias": "riossi-pizza-new-york", "name": "Riossi Pizza", "image_url": "https://s3-media1.fl.yelpcdn.com/bphoto/tQVzxawefOX4iZo512yWsA/o.jpg", "is_closed": false, "url": "https://www.yelp.com/biz/riossi-pizza-new-york?adjust_creative=h5HwbyQ0TYvQjBo6Ys5Bgw&utm_campaign=yelp_api_v3&utm_medium=api_v3_business_search&utm_source=h5HwbyQ0TYvQjBo6Ys5Bgw", "review_count": 14, "categories": [{"alias": "pizza", "title": "Pizza"}, {"alias": "italian", "title": "Italian"}], "rating": 3.0, "coordinates": {"latitude": 40.8556, "longitude": -73.93343}, "transactions": ["delivery", "pickup"], "location": {"address1": "4417 Broadway", "address2": null, "address3": "", "city": "New York", "zip_code": "10040", "country": "US", "state": "NY", "display_address": ["4417 Broadway", "New York, NY 10040"]}, "phone": "+12123042333", "display_phone": "(212) 304-2333", "distance": 403.62502277555444}, {"id": "b5XMkzCcEJtAfp3a3jXW8w", "alias": "la-cantina-heights-new-york", "name": "La Cantina Heights", "image_url": "https://s3-media2.fl.yelpcdn.com/bphoto/DI7I1YJ8-0-sU5bQXzZeRw/o.jpg", "is_closed": false, "url": "https://www.yelp.com/biz/la-cantina-heights-new-york?adjust_creative=h5HwbyQ0TYvQjBo6Ys5Bgw&utm_campaign=yelp_api_v3&utm_medium=api_v3_business_search&utm_source=h5HwbyQ0TYvQjBo6Ys5Bgw", "review_count": 125, "categories": [{"alias": "newamerican", "title": "American (New)"}, {"alias": "gastropubs", "title": "Gastropubs"}], "rating": 3.0, "coordinates": {"latitude": 40.8567424461518, "longitude": -73.9325465187421}, "transactions": [], "price": "$$", "location": {"address1": "4460 Broadway", "address2": "", "address3": "", "city": "New York", "zip_code": "10040", "country": "US", "state": "NY", "display_address": ["4460 Broadway", "New York, NY 10040"]}, "phone": "+16469187503", "display_phone": "(646) 918-7503", "distance": 267.93766103435246}, {"id": "iXKntnzdVkdWNHLdidOXxw", "alias": "my-healthy-side-juice-bar-new-york", "name": "My healthy side juice bar", "image_url": "https://s3-media1.fl.yelpcdn.com/bphoto/56ABAOrlrLw4oIY5PUEbDQ/o.jpg", "is_closed": false, "url": "https://www.yelp.com/biz/my-healthy-side-juice-bar-new-york?adjust_creative=h5HwbyQ0TYvQjBo6Ys5Bgw&utm_campaign=yelp_api_v3&utm_medium=api_v3_business_search&utm_source=h5HwbyQ0TYvQjBo6Ys5Bgw", "review_count": 3, "categories": [{"alias": "juicebars", "title": "Juice Bars & Smoothies"}, {"alias": "coffee", "title": "Coffee & Tea"}, {"alias": "wraps", "title": "Wraps"}], "rating": 3.5, "coordinates": {"latitude": 40.850749, "longitude": -73.932689}, "transactions": ["delivery", "pickup"], "location": {"address1": "1465 St Nicholas Ave", "address2": "", "address3": null, "city": "New York", "zip_code": "10033", "country": "US", "state": "NY", "display_address": ["1465 St Nicholas Ave", "New York, NY 10033"]}, "phone": "+19176055428", "display_phone": "(917) 605-5428", "distance": 928.8264664835029}, {"id": "pWq3YAKT4YCRxMjh7QniwA", "alias": "disfruta-new-york", "name": "DisFruta", "image_url": "https://s3-media2.fl.yelpcdn.com/bphoto/r9rZR1tJxYYL8AkNiZ47Dw/o.jpg", "is_closed": false, "url": "https://www.yelp.com/biz/disfruta-new-york?adjust_creative=h5HwbyQ0TYvQjBo6Ys5Bgw&utm_campaign=yelp_api_v3&utm_medium=api_v3_business_search&utm_source=h5HwbyQ0TYvQjBo6Ys5Bgw", "review_count": 35, "categories": [{"alias": "juicebars", "title": "Juice Bars & Smoothies"}, {"alias": "icecream", "title": "Ice Cream & Frozen Yogurt"}, {"alias": "salad", "title": "Salad"}], "rating": 4.5, "coordinates": {"latitude": 40.8646006932796, "longitude": -73.9194239655506}, "transactions": [], "price": "$", "location": {"address1": "510 W 207th St", "address2": "", "address3": "", "city": "New York", "zip_code": "10034", "country": "US", "state": "NY", "display_address": ["510 W 207th St", "New York, NY 10034"]}, "phone": "+12125696027", "display_phone": "(212) 569-6027", "distance": 1203.2832437943448}, {"id": "BUKGCWSW8YM_e_8AP9rhbQ", "alias": "vickys-diner-new-york", "name": "Vicky's Diner", "image_url": "https://s3-media2.fl.yelpcdn.com/bphoto/5ijwL5OWf42LLDKdtjGLng/o.jpg", "is_closed": false, "url": "https://www.yelp.com/biz/vickys-diner-new-york?adjust_creative=h5HwbyQ0TYvQjBo6Ys5Bgw&utm_campaign=yelp_api_v3&utm_medium=api_v3_business_search&utm_source=h5HwbyQ0TYvQjBo6Ys5Bgw", "review_count": 100, "categories": [{"alias": "diners", "title": "Diners"}, {"alias": "breakfast_brunch", "title": "Breakfast & Brunch"}], "rating": 3.5, "coordinates": {"latitude": 40.8553037388342, "longitude": -73.9371613500442}, "transactions": [], "price": "$$", "location": {"address1": "805 W 187th St", "address2": "", "address3": "", "city": "New York", "zip_code": "10033", "country": "US", "state": "NY", "display_address": ["805 W 187th St", "New York, NY 10033"]}, "phone": "+12129278458", "display_phone": "(212) 927-8458", "distance": 620.1702552942987}, {"id": "3AGaQvXeMS0-CpJcfOqAPw", "alias": "el-nuevo-caridad-new-york-3", "name": "El Nuevo Caridad", "image_url": "https://s3-media3.fl.yelpcdn.com/bphoto/E9h0S6vUFzhdjr3diNBmgw/o.jpg", "is_closed": false, "url": "https://www.yelp.com/biz/el-nuevo-caridad-new-york-3?adjust_creative=h5HwbyQ0TYvQjBo6Ys5Bgw&utm_campaign=yelp_api_v3&utm_medium=api_v3_business_search&utm_source=h5HwbyQ0TYvQjBo6Ys5Bgw", "review_count": 50, "categories": [{"alias": "latin", "title": "Latin American"}, {"alias": "breweries", "title": "Breweries"}, {"alias": "sandwiches", "title": "Sandwiches"}], "rating": 2.5, "coordinates": {"latitude": 40.8553799, "longitude": -73.92907}, "transactions": ["delivery", "pickup"], "price": "$$", "location": {"address1": "1618 St Nicholas Ave", "address2": "", "address3": "", "city": "New York", "zip_code": "10040", "country": "US", "state": "NY", "display_address": ["1618 St Nicholas Ave", "New York, NY 10040"]}, "phone": "+12127811880", "display_phone": "(212) 781-1880", "distance": 472.7877671723456}, {"id": "yd8MGIY1RDEbQUP9KlBiQw", "alias": "181-gourmet-deli-new-york", "name": "181 Gourmet Deli", "image_url": "https://s3-media1.fl.yelpcdn.com/bphoto/Izw5U59A2_hfe7_SJBQ_4Q/o.jpg", "is_closed": false, "url": "https://www.yelp.com/biz/181-gourmet-deli-new-york?adjust_creative=h5HwbyQ0TYvQjBo6Ys5Bgw&utm_campaign=yelp_api_v3&utm_medium=api_v3_business_search&utm_source=h5HwbyQ0TYvQjBo6Ys5Bgw", "review_count": 11, "categories": [{"alias": "delis", "title": "Delis"}], "rating": 3.0, "coordinates": {"latitude": 40.8512579518016, "longitude": -73.9389246527967}, "transactions": [], "price": "$", "location": {"address1": "815 West 181st St", "address2": "", "address3": "", "city": "New York", "zip_code": "10033", "country": "US", "state": "NY", "display_address": ["815 West 181st St", "New York, NY 10033"]}, "phone": "+12127400005", "display_phone": "(212) 740-0005", "distance": 1059.0008711730263}, {"id": "pDfX95e_UE207riyh7J0YA", "alias": "harmoni-bar-and-grill-new-york", "name": "Harmoni Bar & Grill", "image_url": "https://s3-media1.fl.yelpcdn.com/bphoto/AZrrj8kysM0MzFdT1mr-zA/o.jpg", "is_closed": false, "url": "https://www.yelp.com/biz/harmoni-bar-and-grill-new-york?adjust_creative=h5HwbyQ0TYvQjBo6Ys5Bgw&utm_campaign=yelp_api_v3&utm_medium=api_v3_business_search&utm_source=h5HwbyQ0TYvQjBo6Ys5Bgw", "review_count": 8, "categories": [{"alias": "bars", "title": "Bars"}, {"alias": "bbq", "title": "Barbeque"}], "rating": 2.0, "coordinates": {"latitude": 40.86097, "longitude": -73.92568}, "transactions": ["delivery", "pickup"], "price": "$", "location": {"address1": "151 Nagle Ave", "address2": "", "address3": null, "city": "NY", "zip_code": "10040", "country": "US", "state": "NY", "display_address": ["151 Nagle Ave", "NY, NY 10040"]}, "phone": "+16468959888", "display_phone": "(646) 895-9888", "distance": 541.785628939663}, {"id": "jWOCi1QG8c-v0YXRSdd57A", "alias": "jimbos-hamburger-palace-new-york-3", "name": "Jimbo's Hamburger Palace", "image_url": "https://s3-media1.fl.yelpcdn.com/bphoto/I-DQYf75Q2OSX9qj0CH-vw/o.jpg", "is_closed": false, "url": "https://www.yelp.com/biz/jimbos-hamburger-palace-new-york-3?adjust_creative=h5HwbyQ0TYvQjBo6Ys5Bgw&utm_campaign=yelp_api_v3&utm_medium=api_v3_business_search&utm_source=h5HwbyQ0TYvQjBo6Ys5Bgw", "review_count": 19, "categories": [{"alias": "burgers", "title": "Burgers"}], "rating": 3.5, "coordinates": {"latitude": 40.86237, "longitude": -73.92501}, "transactions": ["delivery", "pickup"], "price": "$", "location": {"address1": "117 Dyckman St", "address2": null, "address3": "", "city": "New York", "zip_code": "10034", "country": "US", "state": "NY", "display_address": ["117 Dyckman St", "New York, NY 10034"]}, "phone": "+12129429769", "display_phone": "(212) 942-9769", "distance": 671.9594834950675}, {"id": "De6_GRCPNoByHknHtDdg4g", "alias": "kennedys-chicken-and-grill-new-york-2", "name": "Kennedy's Chicken & Grill", "image_url": "https://s3-media2.fl.yelpcdn.com/bphoto/r8y9RTD6up8jOK3k0jyd_g/o.jpg", "is_closed": false, "url": "https://www.yelp.com/biz/kennedys-chicken-and-grill-new-york-2?adjust_creative=h5HwbyQ0TYvQjBo6Ys5Bgw&utm_campaign=yelp_api_v3&utm_medium=api_v3_business_search&utm_source=h5HwbyQ0TYvQjBo6Ys5Bgw", "review_count": 7, "categories": [{"alias": "chicken_wings", "title": "Chicken Wings"}, {"alias": "chickenshop", "title": "Chicken Shop"}, {"alias": "hotdogs", "title": "Fast Food"}], "rating": 3.5, "coordinates": {"latitude": 40.8532642492964, "longitude": -73.9306045138977}, "transactions": ["delivery", "pickup"], "price": "$", "location": {"address1": "1550 St Nicholas Ave", "address2": "", "address3": "", "city": "New York", "zip_code": "10040", "country": "US", "state": "NY", "display_address": ["1550 St Nicholas Ave", "New York, NY 10040"]}, "phone": "+12127814739", "display_phone": "(212) 781-4739", "distance": 652.3940452440469}, {"id": "nMTxJTYJ_1xPedH_nXEm1w", "alias": "sunrise-deli-new-york-2", "name": "Sunrise Deli", "image_url": "", "is_closed": false, "url": "https://www.yelp.com/biz/sunrise-deli-new-york-2?adjust_creative=h5HwbyQ0TYvQjBo6Ys5Bgw&utm_campaign=yelp_api_v3&utm_medium=api_v3_business_search&utm_source=h5HwbyQ0TYvQjBo6Ys5Bgw", "review_count": 1, "categories": [{"alias": "delis", "title": "Delis"}], "rating": 5.0, "coordinates": {"latitude": 40.85472, "longitude": -73.93002}, "transactions": [], "price": "$", "location": {"address1": "1593 St Nicholas", "address2": "", "address3": "", "city": "New York", "zip_code": "10040", "country": "US", "state": "NY", "display_address": ["1593 St Nicholas", "New York, NY 10040"]}, "phone": "", "display_phone": "", "distance": 487.5135802082758}, {"id": "entLjafiBAYOvbJYHRvyrw", "alias": "yang-garden-chinese-restaurant-new-york", "name": "Yang Garden Chinese Restaurant", "image_url": "https://s3-media1.fl.yelpcdn.com/bphoto/Dk4xkxLqV3OBoaB-Kr1gWw/o.jpg", "is_closed": false, "url": "https://www.yelp.com/biz/yang-garden-chinese-restaurant-new-york?adjust_creative=h5HwbyQ0TYvQjBo6Ys5Bgw&utm_campaign=yelp_api_v3&utm_medium=api_v3_business_search&utm_source=h5HwbyQ0TYvQjBo6Ys5Bgw", "review_count": 20, "categories": [{"alias": "chinese", "title": "Chinese"}, {"alias": "soup", "title": "Soup"}, {"alias": "sandwiches", "title": "Sandwiches"}], "rating": 3.5, "coordinates": {"latitude": 40.855266, "longitude": -73.937759}, "transactions": [], "price": "$", "location": {"address1": "816 W 187th St", "address2": "", "address3": "", "city": "New York", "zip_code": "10033", "country": "US", "state": "NY", "display_address": ["816 W 187th St", "New York, NY 10033"]}, "phone": "+12127810055", "display_phone": "(212) 781-0055", "distance": 660.7958807135706}, {"id": "CdqIBnH7CYmBJd13Op855A", "alias": "the-uptown-garrison-new-york-2", "name": "The Uptown Garrison", "image_url": "https://s3-media3.fl.yelpcdn.com/bphoto/MIBbLDpXkgy7Dt0hd8w1jA/o.jpg", "is_closed": false, "url": "https://www.yelp.com/biz/the-uptown-garrison-new-york-2?adjust_creative=h5HwbyQ0TYvQjBo6Ys5Bgw&utm_campaign=yelp_api_v3&utm_medium=api_v3_business_search&utm_source=h5HwbyQ0TYvQjBo6Ys5Bgw", "review_count": 123, "categories": [{"alias": "coffee", "title": "Coffee & Tea"}, {"alias": "pizza", "title": "Pizza"}, {"alias": "bars", "title": "Bars"}], "rating": 4.0, "coordinates": {"latitude": 40.8512380090093, "longitude": -73.9392676530849}, "transactions": ["pickup", "delivery"], "price": "$$", "location": {"address1": "821 W 181st", "address2": "", "address3": null, "city": "New York", "zip_code": "10033", "country": "US", "state": "NY", "display_address": ["821 W 181st", "New York, NY 10033"]}, "phone": "+19172614680", "display_phone": "(917) 261-4680", "distance": 1073.9404076406777}, {"id": "Acme_IxW4FEo1zm6RuJXxQ", "alias": "buunni-coffee-new-york", "name": "Buunni Coffee", "image_url": "https://s3-media2.fl.yelpcdn.com/bphoto/AXflZ62-wwyrqDR62A05Ug/o.jpg", "is_closed": false, "url": "https://www.yelp.com/biz/buunni-coffee-new-york?adjust_creative=h5HwbyQ0TYvQjBo6Ys5Bgw&utm_campaign=yelp_api_v3&utm_medium=api_v3_business_search&utm_source=h5HwbyQ0TYvQjBo6Ys5Bgw", "review_count": 20, "categories": [{"alias": "coffee", "title": "Coffee & Tea"}, {"alias": "breakfast_brunch", "title": "Breakfast & Brunch"}, {"alias": "bakeries", "title": "Bakeries"}], "rating": 3.5, "coordinates": {"latitude": 40.8681, "longitude": -73.92041}, "transactions": [], "location": {"address1": "4961 Broadway", "address2": null, "address3": "", "city": "New York", "zip_code": "10034", "country": "US", "state": "NY", "display_address": ["4961 Broadway", "New York, NY 10034"]}, "phone": "+19174727801", "display_phone": "(917) 472-7801", "distance": 1378.2660704017026}, {"id": "AKmLJkAHL2ed6ky7BQ9jHQ", "alias": "burger-king-new-york-61", "name": "Burger King", "image_url": "https://s3-media4.fl.yelpcdn.com/bphoto/zmChmJHki3u0IGvWZCSG9Q/o.jpg", "is_closed": false, "url": "https://www.yelp.com/biz/burger-king-new-york-61?adjust_creative=h5HwbyQ0TYvQjBo6Ys5Bgw&utm_campaign=yelp_api_v3&utm_medium=api_v3_business_search&utm_source=h5HwbyQ0TYvQjBo6Ys5Bgw", "review_count": 1, "categories": [{"alias": "hotdogs", "title": "Fast Food"}, {"alias": "burgers", "title": "Burgers"}], "rating": 1.0, "coordinates": {"latitude": 40.864184, "longitude": -73.926004}, "transactions": [], "location": {"address1": "175 Dyckman St", "address2": "", "address3": null, "city": "New York", "zip_code": "10040", "country": "US", "state": "NY", "display_address": ["175 Dyckman St", "New York, NY 10040"]}, "phone": "+16465967757", "display_phone": "(646) 596-7757", "distance": 745.3067890301471}, {"id": "7WmYpiHs7h6NeTInkpdfIg", "alias": "noels-pizza-new-york", "name": "Noel's Pizza", "image_url": "https://s3-media3.fl.yelpcdn.com/bphoto/rNjyK1BimK7QIQO-F9qUPg/o.jpg", "is_closed": false, "url": "https://www.yelp.com/biz/noels-pizza-new-york?adjust_creative=h5HwbyQ0TYvQjBo6Ys5Bgw&utm_campaign=yelp_api_v3&utm_medium=api_v3_business_search&utm_source=h5HwbyQ0TYvQjBo6Ys5Bgw", "review_count": 7, "categories": [{"alias": "italian", "title": "Italian"}, {"alias": "pizza", "title": "Pizza"}, {"alias": "sandwiches", "title": "Sandwiches"}], "rating": 2.5, "coordinates": {"latitude": 40.8660190654786, "longitude": -73.9200091225777}, "transactions": ["pickup", "delivery"], "location": {"address1": "553 W 207th St", "address2": "", "address3": null, "city": "New York", "zip_code": "10034", "country": "US", "state": "NY", "display_address": ["553 W 207th St", "New York, NY 10034"]}, "phone": "+12125449453", "display_phone": "(212) 544-9453", "distance": 1251.941263385508}, {"id": "twx9t1a4tf4wSAbVl27zjw", "alias": "china-sea-manhattan", "name": "China Sea", "image_url": "https://s3-media1.fl.yelpcdn.com/bphoto/SIxkX6ZquTtV0GBuJOWhvQ/o.jpg", "is_closed": false, "url": "https://www.yelp.com/biz/china-sea-manhattan?adjust_creative=h5HwbyQ0TYvQjBo6Ys5Bgw&utm_campaign=yelp_api_v3&utm_medium=api_v3_business_search&utm_source=h5HwbyQ0TYvQjBo6Ys5Bgw", "review_count": 16, "categories": [{"alias": "chinese", "title": "Chinese"}], "rating": 2.5, "coordinates": {"latitude": 40.86477, "longitude": -73.92718}, "transactions": [], "price": "$", "location": {"address1": "200 Dyckman St", "address2": "", "address3": "", "city": "Manhattan", "zip_code": "10040", "country": "US", "state": "NY", "display_address": ["200 Dyckman St", "Manhattan, NY 10040"]}, "phone": "+12125697768", "display_phone": "(212) 569-7768", "distance": 742.6360606659961}, {"id": "Kkz2heNcQYz6dBKJcnBuaw", "alias": "great-wall-chinese-food-new-york", "name": "Great Wall Chinese Food", "image_url": "https://s3-media3.fl.yelpcdn.com/bphoto/APdC0Wsf3RY8d8R_NKyI-g/o.jpg", "is_closed": false, "url": "https://www.yelp.com/biz/great-wall-chinese-food-new-york?adjust_creative=h5HwbyQ0TYvQjBo6Ys5Bgw&utm_campaign=yelp_api_v3&utm_medium=api_v3_business_search&utm_source=h5HwbyQ0TYvQjBo6Ys5Bgw", "review_count": 45, "categories": [{"alias": "chinese", "title": "Chinese"}], "rating": 3.0, "coordinates": {"latitude": 40.8508169, "longitude": -73.9384686}, "transactions": ["pickup", "delivery"], "price": "$", "location": {"address1": "800 W 181st St", "address2": "", "address3": "", "city": "New York", "zip_code": "10033", "country": "US", "state": "NY", "display_address": ["800 W 181st St", "New York, NY 10033"]}, "phone": "+12127959373", "display_phone": "(212) 795-9373", "distance": 1078.0163940607104}, {"id": "q8ReKI1bEhhVUvYbs2zIGg", "alias": "the-bridge-restaurant-new-york", "name": "The Bridge Restaurant", "image_url": "", "is_closed": false, "url": "https://www.yelp.com/biz/the-bridge-restaurant-new-york?adjust_creative=h5HwbyQ0TYvQjBo6Ys5Bgw&utm_campaign=yelp_api_v3&utm_medium=api_v3_business_search&utm_source=h5HwbyQ0TYvQjBo6Ys5Bgw", "review_count": 1, "categories": [{"alias": "restaurants", "title": "Restaurants"}], "rating": 3.0, "coordinates": {"latitude": 40.8504, "longitude": -73.93764}, "transactions": [], "location": {"address1": "736 W 181st St Frnt 1", "address2": null, "address3": null, "city": "New York", "zip_code": "10033", "country": "US", "state": "NY", "display_address": ["736 W 181st St Frnt 1", "New York, NY 10033"]}, "phone": "+12125681213", "display_phone": "(212) 568-1213", "distance": 1076.0015148005527}, {"id": "FSLdHdT8LLiMjQ02yOrWwA", "alias": "el-floridita-restaurant-new-york-2", "name": "El Floridita Restaurant", "image_url": "https://s3-media2.fl.yelpcdn.com/bphoto/ChT5wvfMnLjwKlm4QeirIg/o.jpg", "is_closed": false, "url": "https://www.yelp.com/biz/el-floridita-restaurant-new-york-2?adjust_creative=h5HwbyQ0TYvQjBo6Ys5Bgw&utm_campaign=yelp_api_v3&utm_medium=api_v3_business_search&utm_source=h5HwbyQ0TYvQjBo6Ys5Bgw", "review_count": 33, "categories": [{"alias": "cuban", "title": "Cuban"}, {"alias": "breakfast_brunch", "title": "Breakfast & Brunch"}], "rating": 3.0, "coordinates": {"latitude": 40.86395, "longitude": -73.91953}, "transactions": ["pickup", "delivery"], "price": "$", "location": {"address1": "3856 10th Ave", "address2": "", "address3": "", "city": "New York", "zip_code": "10034", "country": "US", "state": "NY", "display_address": ["3856 10th Ave", "New York, NY 10034"]}, "phone": "+12125674848", "display_phone": "(212) 567-4848", "distance": 1149.0058356776105}, {"id": "QomjzAeKBigyHcvi_4TZKQ", "alias": "papis-pizzeria-new-york", "name": "Papi's Pizzeria", "image_url": "https://s3-media3.fl.yelpcdn.com/bphoto/cSdeHtaZTZklyqQLyvPb_g/o.jpg", "is_closed": false, "url": "https://www.yelp.com/biz/papis-pizzeria-new-york?adjust_creative=h5HwbyQ0TYvQjBo6Ys5Bgw&utm_campaign=yelp_api_v3&utm_medium=api_v3_business_search&utm_source=h5HwbyQ0TYvQjBo6Ys5Bgw", "review_count": 22, "categories": [{"alias": "pizza", "title": "Pizza"}], "rating": 4.0, "coordinates": {"latitude": 40.8493347, "longitude": -73.9335098}, "transactions": ["pickup"], "price": "$", "location": {"address1": "1422 Saint Nicholas Ave", "address2": null, "address3": "", "city": "New York", "zip_code": "10033", "country": "US", "state": "NY", "display_address": ["1422 Saint Nicholas Ave", "New York, NY 10033"]}, "phone": "+16466926840", "display_phone": "(646) 692-6840", "distance": 1086.2488959158086}, {"id": "682tbIUxjAvPG2fRdOFkeQ", "alias": "el-valle-seafood-restaurant-new-york-2", "name": "El Valle Seafood Restaurant", "image_url": "https://s3-media3.fl.yelpcdn.com/bphoto/8rssuLpad4fgDvxlrthFPQ/o.jpg", "is_closed": false, "url": "https://www.yelp.com/biz/el-valle-seafood-restaurant-new-york-2?adjust_creative=h5HwbyQ0TYvQjBo6Ys5Bgw&utm_campaign=yelp_api_v3&utm_medium=api_v3_business_search&utm_source=h5HwbyQ0TYvQjBo6Ys5Bgw", "review_count": 9, "categories": [{"alias": "seafood", "title": "Seafood"}, {"alias": "dominican", "title": "Dominican"}], "rating": 2.5, "coordinates": {"latitude": 40.865661, "longitude": -73.919539}, "transactions": ["pickup", "delivery"], "price": "$", "location": {"address1": "231 Sherman Ave", "address2": null, "address3": null, "city": "New York", "zip_code": "10034", "country": "US", "state": "NY", "display_address": ["231 Sherman Ave", "New York, NY 10034"]}, "phone": "+12125440808", "display_phone": "(212) 544-0808", "distance": 1259.7096903840413}, {"id": "bgVljzHuWHgPvEMZL52D6g", "alias": "fresh-tortillas-new-york-2", "name": "Fresh Tortilla's", "image_url": "https://s3-media3.fl.yelpcdn.com/bphoto/XFxH2AfRetTjlCNc4Le8lw/o.jpg", "is_closed": false, "url": "https://www.yelp.com/biz/fresh-tortillas-new-york-2?adjust_creative=h5HwbyQ0TYvQjBo6Ys5Bgw&utm_campaign=yelp_api_v3&utm_medium=api_v3_business_search&utm_source=h5HwbyQ0TYvQjBo6Ys5Bgw", "review_count": 47, "categories": [{"alias": "mexican", "title": "Mexican"}], "rating": 3.0, "coordinates": {"latitude": 40.86722, "longitude": -73.92073}, "transactions": ["pickup", "delivery"], "price": "$", "location": {"address1": "595 W 207th St", "address2": "", "address3": "", "city": "New York", "zip_code": "10034", "country": "US", "state": "NY", "display_address": ["595 W 207th St", "New York, NY 10034"]}, "phone": "+12129425729", "display_phone": "(212) 942-5729", "distance": 1300.0164535698564}, {"id": "ZqDpOO44Lg-jKOrosrxrGg", "alias": "gs-coffee-shop-new-york", "name": "G's Coffee Shop", "image_url": "https://s3-media1.fl.yelpcdn.com/bphoto/uCuXQxJoDNH_-qNnq4XUdA/o.jpg", "is_closed": false, "url": "https://www.yelp.com/biz/gs-coffee-shop-new-york?adjust_creative=h5HwbyQ0TYvQjBo6Ys5Bgw&utm_campaign=yelp_api_v3&utm_medium=api_v3_business_search&utm_source=h5HwbyQ0TYvQjBo6Ys5Bgw", "review_count": 63, "categories": [{"alias": "mexican", "title": "Mexican"}, {"alias": "coffee", "title": "Coffee & Tea"}, {"alias": "newamerican", "title": "American (New)"}], "rating": 4.5, "coordinates": {"latitude": 40.8681434, "longitude": -73.9216979}, "transactions": [], "price": "$", "location": {"address1": "634 W 207th St", "address2": "", "address3": "", "city": "New York", "zip_code": "10034", "country": "US", "state": "NY", "display_address": ["634 W 207th St", "New York, NY 10034"]}, "phone": "+12129420679", "display_phone": "(212) 942-0679", "distance": 1314.3475114402065}, {"id": "89x1ctprXjURgn9tutHzXQ", "alias": "piezano-pizza-new-york-2", "name": "Piezano Pizza", "image_url": "https://s3-media1.fl.yelpcdn.com/bphoto/OdDxfCLQoFAPWfVisQSyZw/o.jpg", "is_closed": false, "url": "https://www.yelp.com/biz/piezano-pizza-new-york-2?adjust_creative=h5HwbyQ0TYvQjBo6Ys5Bgw&utm_campaign=yelp_api_v3&utm_medium=api_v3_business_search&utm_source=h5HwbyQ0TYvQjBo6Ys5Bgw", "review_count": 20, "categories": [{"alias": "pizza", "title": "Pizza"}], "rating": 2.5, "coordinates": {"latitude": 40.86067, "longitude": -73.92772}, "transactions": ["pickup", "delivery"], "price": "$", "location": {"address1": "94 Nagle Ave", "address2": null, "address3": "", "city": "New York", "zip_code": "10040", "country": "US", "state": "NY", "display_address": ["94 Nagle Ave", "New York, NY 10040"]}, "phone": "+12125671500", "display_phone": "(212) 567-1500", "distance": 379.5488294481626}, {"id": "Nb-jziKcz_GkuwEM5xnCeQ", "alias": "m-and-w-deli-new-york", "name": "M & W Deli", "image_url": "https://s3-media1.fl.yelpcdn.com/bphoto/-rK4qsl7P2VFcCi-99DGug/o.jpg", "is_closed": false, "url": "https://www.yelp.com/biz/m-and-w-deli-new-york?adjust_creative=h5HwbyQ0TYvQjBo6Ys5Bgw&utm_campaign=yelp_api_v3&utm_medium=api_v3_business_search&utm_source=h5HwbyQ0TYvQjBo6Ys5Bgw", "review_count": 5, "categories": [{"alias": "delis", "title": "Delis"}, {"alias": "convenience", "title": "Convenience Stores"}], "rating": 4.0, "coordinates": {"latitude": 40.8653592728305, "longitude": -73.9241525823902}, "transactions": ["pickup", "delivery"], "location": {"address1": "53 Vermilyea Ave", "address2": "", "address3": "", "city": "New York", "zip_code": "10034", "country": "US", "state": "NY", "display_address": ["53 Vermilyea Ave", "New York, NY 10034"]}, "phone": "+12125676939", "display_phone": "(212) 567-6939", "distance": 945.6831804091065}, {"id": "aFJLPIyLgRS7m_9-2MK6lg", "alias": "exclusive-pizza-new-york", "name": "Exclusive Pizza", "image_url": "https://s3-media3.fl.yelpcdn.com/bphoto/19mmon7n_biPpH-JtyNReg/o.jpg", "is_closed": false, "url": "https://www.yelp.com/biz/exclusive-pizza-new-york?adjust_creative=h5HwbyQ0TYvQjBo6Ys5Bgw&utm_campaign=yelp_api_v3&utm_medium=api_v3_business_search&utm_source=h5HwbyQ0TYvQjBo6Ys5Bgw", "review_count": 100, "categories": [{"alias": "pizza", "title": "Pizza"}], "rating": 3.5, "coordinates": {"latitude": 40.8509482, "longitude": -73.9389477}, "transactions": ["pickup", "delivery"], "price": "$", "location": {"address1": "810 W 181st St", "address2": "", "address3": "", "city": "New York", "zip_code": "10033", "country": "US", "state": "NY", "display_address": ["810 W 181st St", "New York, NY 10033"]}, "phone": "+12127950550", "display_phone": "(212) 795-0550", "distance": 1084.7411453489349}, {"id": "L_aHyUKlmOyA1LVJ54Z18Q", "alias": "207-deli-and-grill-manhattan-2", "name": "207 Deli & Grill", "image_url": "", "is_closed": false, "url": "https://www.yelp.com/biz/207-deli-and-grill-manhattan-2?adjust_creative=h5HwbyQ0TYvQjBo6Ys5Bgw&utm_campaign=yelp_api_v3&utm_medium=api_v3_business_search&utm_source=h5HwbyQ0TYvQjBo6Ys5Bgw", "review_count": 1, "categories": [{"alias": "delis", "title": "Delis"}], "rating": 4.0, "coordinates": {"latitude": 40.86747, "longitude": -73.92138}, "transactions": [], "location": {"address1": "4930 A Broadway", "address2": "", "address3": "", "city": "Manhattan", "zip_code": "10023", "country": "US", "state": "NY", "display_address": ["4930 A Broadway", "Manhattan, NY 10023"]}, "phone": "+12123042400", "display_phone": "(212) 304-2400", "distance": 1279.0103579296035}, {"id": "EZ8HzAGCv3aD2amCZzKCTA", "alias": "el-viejo-jobo-restaurant-new-york", "name": "El Viejo Jobo Restaurant", "image_url": "https://s3-media4.fl.yelpcdn.com/bphoto/YaQcFzpagBjchTiH0fS0SQ/o.jpg", "is_closed": false, "url": "https://www.yelp.com/biz/el-viejo-jobo-restaurant-new-york?adjust_creative=h5HwbyQ0TYvQjBo6Ys5Bgw&utm_campaign=yelp_api_v3&utm_medium=api_v3_business_search&utm_source=h5HwbyQ0TYvQjBo6Ys5Bgw", "review_count": 6, "categories": [{"alias": "latin", "title": "Latin American"}], "rating": 2.5, "coordinates": {"latitude": 40.865658, "longitude": -73.91954}, "transactions": ["pickup", "delivery"], "price": "$$", "location": {"address1": "231 Sherman Ave", "address2": "", "address3": "", "city": "New York", "zip_code": "10034", "country": "US", "state": "NY", "display_address": ["231 Sherman Ave", "New York, NY 10034"]}, "phone": "+12125675050", "display_phone": "(212) 567-5050", "distance": 1259.5156659429813}, {"id": "Im-7ShkmNuKkW2OXays0xw", "alias": "kennedy-fried-chicken-and-pizza-new-york-6", "name": "Kennedy Fried Chicken and Pizza", "image_url": "", "is_closed": false, "url": "https://www.yelp.com/biz/kennedy-fried-chicken-and-pizza-new-york-6?adjust_creative=h5HwbyQ0TYvQjBo6Ys5Bgw&utm_campaign=yelp_api_v3&utm_medium=api_v3_business_search&utm_source=h5HwbyQ0TYvQjBo6Ys5Bgw", "review_count": 11, "categories": [{"alias": "pizza", "title": "Pizza"}], "rating": 2.5, "coordinates": {"latitude": 40.86542, "longitude": -73.9194006}, "transactions": ["pickup", "delivery"], "location": {"address1": "521 W 207th St", "address2": "", "address3": null, "city": "New York", "zip_code": "10034", "country": "US", "state": "NY", "display_address": ["521 W 207th St", "New York, NY 10034"]}, "phone": "+12125692500", "display_phone": "(212) 569-2500", "distance": 1253.912523529945}, {"id": "T0lurzwMWKAi4STQLBlOWA", "alias": "silver-palace-chinese-restaurant-new-york", "name": "Silver Palace Chinese Restaurant", "image_url": "https://s3-media1.fl.yelpcdn.com/bphoto/HCd68LPG_wE52iIQ8ZeO9w/o.jpg", "is_closed": false, "url": "https://www.yelp.com/biz/silver-palace-chinese-restaurant-new-york?adjust_creative=h5HwbyQ0TYvQjBo6Ys5Bgw&utm_campaign=yelp_api_v3&utm_medium=api_v3_business_search&utm_source=h5HwbyQ0TYvQjBo6Ys5Bgw", "review_count": 2, "categories": [{"alias": "chinese", "title": "Chinese"}], "rating": 2.5, "coordinates": {"latitude": 40.84963, "longitude": -73.93309}, "transactions": [], "price": "$", "location": {"address1": "1430 Saint Nicholas Ave", "address2": "", "address3": "", "city": "New York", "zip_code": "10033", "country": "US", "state": "NY", "display_address": ["1430 Saint Nicholas Ave", "New York, NY 10033"]}, "phone": "+12127408000", "display_phone": "(212) 740-8000", "distance": 1055.7688649633233}, {"id": "MgdD2DikZWsSkBNu4Lzh6A", "alias": "chop-chop-new-york", "name": "Chop Chop", "image_url": "https://s3-media4.fl.yelpcdn.com/bphoto/P2QNOlA4RmVsKc_ILOTKSQ/o.jpg", "is_closed": false, "url": "https://www.yelp.com/biz/chop-chop-new-york?adjust_creative=h5HwbyQ0TYvQjBo6Ys5Bgw&utm_campaign=yelp_api_v3&utm_medium=api_v3_business_search&utm_source=h5HwbyQ0TYvQjBo6Ys5Bgw", "review_count": 44, "categories": [{"alias": "kosher", "title": "Kosher"}, {"alias": "chinese", "title": "Chinese"}, {"alias": "sushi", "title": "Sushi Bars"}], "rating": 3.0, "coordinates": {"latitude": 40.85012, "longitude": -73.92987}, "transactions": ["pickup", "delivery"], "price": "$$", "location": {"address1": "501 W 184th St", "address2": "", "address3": "", "city": "New York", "zip_code": "10033", "country": "US", "state": "NY", "display_address": ["501 W 184th St", "New York, NY 10033"]}, "phone": "+12122467246", "display_phone": "(212) 246-7246", "distance": 1000.34316219545}, {"id": "X3oOvBNKrYfSKSOBLV0Jyg", "alias": "gardenia-salad-bar-new-york", "name": "Gardenia Salad Bar", "image_url": "https://s3-media2.fl.yelpcdn.com/bphoto/lEHFbV_O9aIns2movgDycA/o.jpg", "is_closed": false, "url": "https://www.yelp.com/biz/gardenia-salad-bar-new-york?adjust_creative=h5HwbyQ0TYvQjBo6Ys5Bgw&utm_campaign=yelp_api_v3&utm_medium=api_v3_business_search&utm_source=h5HwbyQ0TYvQjBo6Ys5Bgw", "review_count": 17, "categories": [{"alias": "salad", "title": "Salad"}], "rating": 2.0, "coordinates": {"latitude": 40.86837, "longitude": -73.91937}, "transactions": ["pickup", "delivery"], "price": "$$", "location": {"address1": "4979 Broadway", "address2": null, "address3": null, "city": "New York", "zip_code": "10034", "country": "US", "state": "NY", "display_address": ["4979 Broadway", "New York, NY 10034"]}, "phone": "", "display_phone": "", "distance": 1469.35954814242}, {"id": "i_LMoO-cbat3PHmLFF3zjA", "alias": "bunny-deli-new-york", "name": "Bunny Deli", "image_url": "https://s3-media4.fl.yelpcdn.com/bphoto/K9wPrJF8GOiqeH0tMFwjFw/o.jpg", "is_closed": false, "url": "https://www.yelp.com/biz/bunny-deli-new-york?adjust_creative=h5HwbyQ0TYvQjBo6Ys5Bgw&utm_campaign=yelp_api_v3&utm_medium=api_v3_business_search&utm_source=h5HwbyQ0TYvQjBo6Ys5Bgw", "review_count": 53, "categories": [{"alias": "delis", "title": "Delis"}, {"alias": "sandwiches", "title": "Sandwiches"}], "rating": 3.0, "coordinates": {"latitude": 40.8524738, "longitude": -73.9312206}, "transactions": [], "price": "$", "location": {"address1": "1522 Saint Nicholas Ave", "address2": null, "address3": null, "city": "New York", "zip_code": "10033", "country": "US", "state": "NY", "display_address": ["1522 Saint Nicholas Ave", "New York, NY 10033"]}, "phone": "+12127813303", "display_phone": "(212) 781-3303", "distance": 734.6892536589949}, {"id": "0eB6111fjR17aJV9kTINOg", "alias": "dos-mares-restaurant-and-lounge-new-york", "name": "Dos Mares Restaurant and Lounge", "image_url": "https://s3-media1.fl.yelpcdn.com/bphoto/Tp60chhv_nI7R9w7QL2VDA/o.jpg", "is_closed": false, "url": "https://www.yelp.com/biz/dos-mares-restaurant-and-lounge-new-york?adjust_creative=h5HwbyQ0TYvQjBo6Ys5Bgw&utm_campaign=yelp_api_v3&utm_medium=api_v3_business_search&utm_source=h5HwbyQ0TYvQjBo6Ys5Bgw", "review_count": 2, "categories": [{"alias": "lounges", "title": "Lounges"}, {"alias": "seafood", "title": "Seafood"}, {"alias": "tapas", "title": "Tapas Bars"}], "rating": 2.5, "coordinates": {"latitude": 40.86255, "longitude": -73.92831}, "transactions": ["pickup", "delivery"], "location": {"address1": "25 Sherman Ave", "address2": null, "address3": "", "city": "New York", "zip_code": "10040", "country": "US", "state": "NY", "display_address": ["25 Sherman Ave", "New York, NY 10040"]}, "phone": "+16463703070", "display_phone": "(646) 370-3070", "distance": 481.48485733723174}, {"id": "TnYL4gkcnWyoHO76KL4v6w", "alias": "sushi-yu-2-new-york", "name": "Sushi Yu 2", "image_url": "https://s3-media1.fl.yelpcdn.com/bphoto/JUqURW5f1jSZRKavDJMNKw/o.jpg", "is_closed": false, "url": "https://www.yelp.com/biz/sushi-yu-2-new-york?adjust_creative=h5HwbyQ0TYvQjBo6Ys5Bgw&utm_campaign=yelp_api_v3&utm_medium=api_v3_business_search&utm_source=h5HwbyQ0TYvQjBo6Ys5Bgw", "review_count": 235, "categories": [{"alias": "japanese", "title": "Japanese"}, {"alias": "sushi", "title": "Sushi Bars"}], "rating": 3.5, "coordinates": {"latitude": 40.8513870239258, "longitude": -73.9398880004883}, "transactions": ["pickup", "delivery"], "price": "$$", "location": {"address1": "827 W 181st St", "address2": null, "address3": "", "city": "New York", "zip_code": "10033", "country": "US", "state": "NY", "display_address": ["827 W 181st St", "New York, NY 10033"]}, "phone": "+12127815255", "display_phone": "(212) 781-5255", "distance": 1096.1157919682023}, {"id": "MwvVgfNDrqhAAtfkOOHCVg", "alias": "pizza-haven-new-york", "name": "Pizza Haven", "image_url": "https://s3-media4.fl.yelpcdn.com/bphoto/V5XRHfp33LgQNhIGbNdTuA/o.jpg", "is_closed": false, "url": "https://www.yelp.com/biz/pizza-haven-new-york?adjust_creative=h5HwbyQ0TYvQjBo6Ys5Bgw&utm_campaign=yelp_api_v3&utm_medium=api_v3_business_search&utm_source=h5HwbyQ0TYvQjBo6Ys5Bgw", "review_count": 92, "categories": [{"alias": "pizza", "title": "Pizza"}], "rating": 2.0, "coordinates": {"latitude": 40.8676342, "longitude": -73.9209182}, "transactions": ["pickup", "delivery"], "price": "$", "location": {"address1": "4942 Broadway", "address2": "Ste 207", "address3": "", "city": "New York", "zip_code": "10034", "country": "US", "state": "NY", "display_address": ["4942 Broadway", "Ste 207", "New York, NY 10034"]}, "phone": "+12125693720", "display_phone": "(212) 569-3720", "distance": 1323.8487726533833}, {"id": "Gis29CeO78xoaaoIL6BRKw", "alias": "dominos-pizza-new-york-18", "name": "Domino's Pizza", "image_url": "https://s3-media3.fl.yelpcdn.com/bphoto/uagKthDfXYoVLR6_wXA2jw/o.jpg", "is_closed": false, "url": "https://www.yelp.com/biz/dominos-pizza-new-york-18?adjust_creative=h5HwbyQ0TYvQjBo6Ys5Bgw&utm_campaign=yelp_api_v3&utm_medium=api_v3_business_search&utm_source=h5HwbyQ0TYvQjBo6Ys5Bgw", "review_count": 59, "categories": [{"alias": "pizza", "title": "Pizza"}, {"alias": "chicken_wings", "title": "Chicken Wings"}, {"alias": "sandwiches", "title": "Sandwiches"}], "rating": 2.5, "coordinates": {"latitude": 40.85056, "longitude": -73.9375}, "transactions": [], "price": "$", "location": {"address1": "736 W 181st St", "address2": "", "address3": "", "city": "New York", "zip_code": "10033", "country": "US", "state": "NY", "display_address": ["736 W 181st St", "New York, NY 10033"]}, "phone": "+12127813700", "display_phone": "(212) 781-3700", "distance": 1070.428459816868}, {"id": "G-QVCv1Lsz-15ZcjI7J2WA", "alias": "lake-como-pizza-new-york", "name": "Lake Como Pizza", "image_url": "https://s3-media4.fl.yelpcdn.com/bphoto/ji9u0mX-lO7667V5JuPeDQ/o.jpg", "is_closed": false, "url": "https://www.yelp.com/biz/lake-como-pizza-new-york?adjust_creative=h5HwbyQ0TYvQjBo6Ys5Bgw&utm_campaign=yelp_api_v3&utm_medium=api_v3_business_search&utm_source=h5HwbyQ0TYvQjBo6Ys5Bgw", "review_count": 9, "categories": [{"alias": "pizza", "title": "Pizza"}, {"alias": "kosher", "title": "Kosher"}], "rating": 2.5, "coordinates": {"latitude": 40.85137, "longitude": -73.92828}, "transactions": [], "price": "$$", "location": {"address1": "2549 Amsterdam Ave", "address2": "", "address3": "", "city": "New York", "zip_code": "10033", "country": "US", "state": "NY", "display_address": ["2549 Amsterdam Ave", "New York, NY 10033"]}, "phone": "+12127400110", "display_phone": "(212) 740-0110", "distance": 903.1298555729562}, {"id": "-71z5kAJS79mfmgR-DyjiQ", "alias": "mcdonalds-new-york-46", "name": "McDonald's", "image_url": "https://s3-media1.fl.yelpcdn.com/bphoto/rANwe_TajWyphrdTN5MKLw/o.jpg", "is_closed": false, "url": "https://www.yelp.com/biz/mcdonalds-new-york-46?adjust_creative=h5HwbyQ0TYvQjBo6Ys5Bgw&utm_campaign=yelp_api_v3&utm_medium=api_v3_business_search&utm_source=h5HwbyQ0TYvQjBo6Ys5Bgw", "review_count": 43, "categories": [{"alias": "hotdogs", "title": "Fast Food"}, {"alias": "burgers", "title": "Burgers"}, {"alias": "coffee", "title": "Coffee & Tea"}], "rating": 1.5, "coordinates": {"latitude": 40.850094, "longitude": -73.936035}, "transactions": ["delivery"], "price": "$", "location": {"address1": "4259 Broadway", "address2": "", "address3": "", "city": "New York", "zip_code": "10033", "country": "US", "state": "NY", "display_address": ["4259 Broadway", "New York, NY 10033"]}, "phone": "+19175210827", "display_phone": "(917) 521-0827", "distance": 1061.9510233739077}, {"id": "-bOXDOBK1W0ceWEw0-Cjzw", "alias": "grandmas-pizza-new-york", "name": "Grandma's Pizza", "image_url": "", "is_closed": false, "url": "https://www.yelp.com/biz/grandmas-pizza-new-york?adjust_creative=h5HwbyQ0TYvQjBo6Ys5Bgw&utm_campaign=yelp_api_v3&utm_medium=api_v3_business_search&utm_source=h5HwbyQ0TYvQjBo6Ys5Bgw", "review_count": 16, "categories": [{"alias": "pizza", "title": "Pizza"}], "rating": 3.0, "coordinates": {"latitude": 40.85145, "longitude": -73.92822}, "transactions": ["pickup", "delivery"], "price": "$$", "location": {"address1": "2551 Amsterdam Ave", "address2": null, "address3": null, "city": "New York", "zip_code": "10033", "country": "US", "state": "NY", "display_address": ["2551 Amsterdam Ave", "New York, NY 10033"]}, "phone": "+12129274895", "display_phone": "(212) 927-4895", "distance": 895.8391221014101}, {"id": "qiiRhWjklqzxS4ApGKLP-Q", "alias": "acapulco-deli-and-grocery-new-york", "name": "Acapulco Deli & Grocery", "image_url": "", "is_closed": false, "url": "https://www.yelp.com/biz/acapulco-deli-and-grocery-new-york?adjust_creative=h5HwbyQ0TYvQjBo6Ys5Bgw&utm_campaign=yelp_api_v3&utm_medium=api_v3_business_search&utm_source=h5HwbyQ0TYvQjBo6Ys5Bgw", "review_count": 5, "categories": [{"alias": "mexican", "title": "Mexican"}, {"alias": "grocery", "title": "Grocery"}, {"alias": "importedfood", "title": "Imported Food"}], "rating": 3.5, "coordinates": {"latitude": 40.8649972, "longitude": -73.9271007}, "transactions": [], "location": {"address1": "206 Dyckman St", "address2": "", "address3": "", "city": "New York", "zip_code": "10040", "country": "US", "state": "NY", "display_address": ["206 Dyckman St", "New York, NY 10040"]}, "phone": "+12123043300", "display_phone": "(212) 304-3300", "distance": 760.7294973389207}, {"id": "OD7IkX-BGuCGjMUd02hBqQ", "alias": "luxor-ny-new-york", "name": "Luxor NY", "image_url": "https://s3-media2.fl.yelpcdn.com/bphoto/x8PIbV7P2Hp1m-HWsIkkjQ/o.jpg", "is_closed": false, "url": "https://www.yelp.com/biz/luxor-ny-new-york?adjust_creative=h5HwbyQ0TYvQjBo6Ys5Bgw&utm_campaign=yelp_api_v3&utm_medium=api_v3_business_search&utm_source=h5HwbyQ0TYvQjBo6Ys5Bgw", "review_count": 1, "categories": [{"alias": "salad", "title": "Salad"}, {"alias": "chicken_wings", "title": "Chicken Wings"}, {"alias": "pizza", "title": "Pizza"}], "rating": 1.0, "coordinates": {"latitude": 40.8616554, "longitude": -73.9206428}, "transactions": ["pickup", "delivery"], "location": {"address1": "3775 10th Ave", "address2": "", "address3": null, "city": "New York", "zip_code": "10034", "country": "US", "state": "NY", "display_address": ["3775 10th Ave", "New York, NY 10034"]}, "phone": "+16464769182", "display_phone": "(646) 476-9182", "distance": 975.1220208565643}, {"id": "_6nI_J5Kzj12oHMfjR3A4A", "alias": "u-like-chinese-take-out-new-york", "name": "U Like Chinese Take Out", "image_url": "https://s3-media2.fl.yelpcdn.com/bphoto/VSUaAPEt13JoTow8ZxtA4w/o.jpg", "is_closed": false, "url": "https://www.yelp.com/biz/u-like-chinese-take-out-new-york?adjust_creative=h5HwbyQ0TYvQjBo6Ys5Bgw&utm_campaign=yelp_api_v3&utm_medium=api_v3_business_search&utm_source=h5HwbyQ0TYvQjBo6Ys5Bgw", "review_count": 72, "categories": [{"alias": "chinese", "title": "Chinese"}], "rating": 3.0, "coordinates": {"latitude": 40.8674342, "longitude": -73.9215025}, "transactions": ["pickup", "delivery"], "price": "$", "location": {"address1": "4926 Broadway", "address2": "", "address3": "", "city": "New York", "zip_code": "10034", "country": "US", "state": "NY", "display_address": ["4926 Broadway", "New York, NY 10034"]}, "phone": "+12125693333", "display_phone": "(212) 569-3333", "distance": 1262.1240533212053}, {"id": "0QGdHJtqRJOvw7gm8qOZmQ", "alias": "dyckman-dogs-new-york", "name": "Dyckman Dogs", "image_url": "https://s3-media2.fl.yelpcdn.com/bphoto/1IvCaEgWaOxZEFTGn9PrAw/o.jpg", "is_closed": false, "url": "https://www.yelp.com/biz/dyckman-dogs-new-york?adjust_creative=h5HwbyQ0TYvQjBo6Ys5Bgw&utm_campaign=yelp_api_v3&utm_medium=api_v3_business_search&utm_source=h5HwbyQ0TYvQjBo6Ys5Bgw", "review_count": 8, "categories": [{"alias": "hotdog", "title": "Hot Dogs"}, {"alias": "burgers", "title": "Burgers"}], "rating": 3.0, "coordinates": {"latitude": 40.86197, "longitude": -73.92476}, "transactions": ["pickup", "delivery"], "location": {"address1": "105A Dyckman St", "address2": "", "address3": null, "city": "New York", "zip_code": "10040", "country": "US", "state": "NY", "display_address": ["105A Dyckman St", "New York, NY 10040"]}, "phone": "+12123042224", "display_phone": "(212) 304-2224", "distance": 672.6059569169195}, {"id": "-loCjwcjLowSYMDqJFS1-w", "alias": "parada-maim\u00f3n-new-york", "name": "Parada Maim\u00f3n", "image_url": "", "is_closed": false, "url": "https://www.yelp.com/biz/parada-maim%C3%B3n-new-york?adjust_creative=h5HwbyQ0TYvQjBo6Ys5Bgw&utm_campaign=yelp_api_v3&utm_medium=api_v3_business_search&utm_source=h5HwbyQ0TYvQjBo6Ys5Bgw", "review_count": 6, "categories": [{"alias": "latin", "title": "Latin American"}], "rating": 3.5, "coordinates": {"latitude": 40.8625298, "longitude": -73.9283981}, "transactions": ["pickup", "delivery"], "price": "$$", "location": {"address1": "25 Sherman Ave", "address2": "", "address3": "", "city": "New York", "zip_code": "10040", "country": "US", "state": "NY", "display_address": ["25 Sherman Ave", "New York, NY 10040"]}, "phone": "+12129422226", "display_phone": "(212) 942-2226", "distance": 481.48485733723174}, {"id": "hZE45ArSu-Lq_YxDCxseMg", "alias": "new-kennedy-new-york", "name": "New Kennedy", "image_url": "https://s3-media2.fl.yelpcdn.com/bphoto/NdOIRlXO8UvBjLPF-_yDCg/o.jpg", "is_closed": false, "url": "https://www.yelp.com/biz/new-kennedy-new-york?adjust_creative=h5HwbyQ0TYvQjBo6Ys5Bgw&utm_campaign=yelp_api_v3&utm_medium=api_v3_business_search&utm_source=h5HwbyQ0TYvQjBo6Ys5Bgw", "review_count": 9, "categories": [{"alias": "chicken_wings", "title": "Chicken Wings"}, {"alias": "burgers", "title": "Burgers"}, {"alias": "sandwiches", "title": "Sandwiches"}], "rating": 2.0, "coordinates": {"latitude": 40.8676500225833, "longitude": -73.9217736572027}, "transactions": ["pickup", "delivery"], "location": {"address1": "4927 Broadway", "address2": "", "address3": null, "city": "New York", "zip_code": "10034", "country": "US", "state": "NY", "display_address": ["4927 Broadway", "New York, NY 10034"]}, "phone": "+12125676762", "display_phone": "(212) 567-6762", "distance": 1268.9252646103587}, {"id": "skEDkjqJWMEjU0YRL8Kojg", "alias": "jr-primos-ii-restaurant-new-york", "name": "JR Primos-Ii Restaurant", "image_url": "https://s3-media1.fl.yelpcdn.com/bphoto/kZsplHNQE-lOhSOPGwOj9w/o.jpg", "is_closed": false, "url": "https://www.yelp.com/biz/jr-primos-ii-restaurant-new-york?adjust_creative=h5HwbyQ0TYvQjBo6Ys5Bgw&utm_campaign=yelp_api_v3&utm_medium=api_v3_business_search&utm_source=h5HwbyQ0TYvQjBo6Ys5Bgw", "review_count": 2, "categories": [{"alias": "spanish", "title": "Spanish"}], "rating": 2.0, "coordinates": {"latitude": 40.8682577624947, "longitude": -73.9190576908811}, "transactions": ["pickup", "delivery"], "price": "$", "location": {"address1": "4986 Broadway", "address2": "", "address3": "", "city": "New York", "zip_code": "10034", "country": "US", "state": "NY", "display_address": ["4986 Broadway", "New York, NY 10034"]}, "phone": "+12125448080", "display_phone": "(212) 544-8080", "distance": 1475.8072195546035}, {"id": "kjndYUa-cc4tdYV5Gw_SBQ", "alias": "caribe-restaurant-manhattan", "name": "Caribe Restaurant", "image_url": "https://s3-media3.fl.yelpcdn.com/bphoto/WnczDwElSspDQ8Kdow6mFQ/o.jpg", "is_closed": false, "url": "https://www.yelp.com/biz/caribe-restaurant-manhattan?adjust_creative=h5HwbyQ0TYvQjBo6Ys5Bgw&utm_campaign=yelp_api_v3&utm_medium=api_v3_business_search&utm_source=h5HwbyQ0TYvQjBo6Ys5Bgw", "review_count": 5, "categories": [{"alias": "caribbean", "title": "Caribbean"}, {"alias": "seafood", "title": "Seafood"}], "rating": 2.0, "coordinates": {"latitude": 40.8537254333496, "longitude": -73.930046081543}, "transactions": ["pickup", "delivery"], "price": "$", "location": {"address1": "1562 St Nicholas Ave", "address2": "", "address3": "", "city": "Manhattan", "zip_code": "10040", "country": "US", "state": "NY", "display_address": ["1562 St Nicholas Ave", "Manhattan, NY 10040"]}, "phone": "+12127815135", "display_phone": "(212) 781-5135", "distance": 603.5574013451361}, {"id": "dLc8BkDIyws4JZ7vGVZgJw", "alias": "best-gourmet-deli-and-grill-new-york", "name": "Best Gourmet Deli and Grill", "image_url": "", "is_closed": false, "url": "https://www.yelp.com/biz/best-gourmet-deli-and-grill-new-york?adjust_creative=h5HwbyQ0TYvQjBo6Ys5Bgw&utm_campaign=yelp_api_v3&utm_medium=api_v3_business_search&utm_source=h5HwbyQ0TYvQjBo6Ys5Bgw", "review_count": 2, "categories": [{"alias": "delis", "title": "Delis"}, {"alias": "halal", "title": "Halal"}, {"alias": "sandwiches", "title": "Sandwiches"}], "rating": 3.0, "coordinates": {"latitude": 40.8542599, "longitude": -73.92849}, "transactions": ["pickup", "delivery"], "price": "$", "location": {"address1": "494 Audubon Ave", "address2": "", "address3": "", "city": "New York", "zip_code": "10040", "country": "US", "state": "NY", "display_address": ["494 Audubon Ave", "New York, NY 10040"]}, "phone": "+12125680471", "display_phone": "(212) 568-0471", "distance": 600.1738939347413}, {"id": "v-eBq7ZrDRq69JRGKv-iaw", "alias": "fidel-gourmet-deli-new-york-3", "name": "Fidel Gourmet Deli", "image_url": "https://s3-media4.fl.yelpcdn.com/bphoto/L23qXO1mMvP8Cw9UJaGLeA/o.jpg", "is_closed": false, "url": "https://www.yelp.com/biz/fidel-gourmet-deli-new-york-3?adjust_creative=h5HwbyQ0TYvQjBo6Ys5Bgw&utm_campaign=yelp_api_v3&utm_medium=api_v3_business_search&utm_source=h5HwbyQ0TYvQjBo6Ys5Bgw", "review_count": 8, "categories": [{"alias": "convenience", "title": "Convenience Stores"}, {"alias": "delis", "title": "Delis"}], "rating": 3.0, "coordinates": {"latitude": 40.8670002222061, "longitude": -73.9232991635799}, "transactions": ["pickup", "delivery"], "price": "$", "location": {"address1": "4879 Broadway", "address2": "", "address3": "", "city": "New York", "zip_code": "10034", "country": "US", "state": "NY", "display_address": ["4879 Broadway", "New York, NY 10034"]}, "phone": "+12125442467", "display_phone": "(212) 544-2467", "distance": 1133.89812751565}, {"id": "9lPY_cT08HNENiylNy47qA", "alias": "dominos-pizza-new-york-2", "name": "Domino's Pizza", "image_url": "https://s3-media1.fl.yelpcdn.com/bphoto/l9UDV5-hN2kpiuH2KkedIg/o.jpg", "is_closed": false, "url": "https://www.yelp.com/biz/dominos-pizza-new-york-2?adjust_creative=h5HwbyQ0TYvQjBo6Ys5Bgw&utm_campaign=yelp_api_v3&utm_medium=api_v3_business_search&utm_source=h5HwbyQ0TYvQjBo6Ys5Bgw", "review_count": 31, "categories": [{"alias": "pizza", "title": "Pizza"}, {"alias": "chicken_wings", "title": "Chicken Wings"}, {"alias": "sandwiches", "title": "Sandwiches"}], "rating": 2.0, "coordinates": {"latitude": 40.8662801, "longitude": -73.9255373}, "transactions": [], "price": "$", "location": {"address1": "4797 Broadway", "address2": "", "address3": "", "city": "New York", "zip_code": "10034", "country": "US", "state": "NY", "display_address": ["4797 Broadway", "New York, NY 10034"]}, "phone": "+12125678600", "display_phone": "(212) 567-8600", "distance": 949.5031937667039}, {"id": "BNfczrjXvPzcDzQdM0ig9g", "alias": "yeungs-number-1-chinese-restaurant-new-york", "name": "Yeung's Number 1 Chinese Restaurant", "image_url": "https://s3-media3.fl.yelpcdn.com/bphoto/cxVhBNJp6VIRxQWi7fljbQ/o.jpg", "is_closed": false, "url": "https://www.yelp.com/biz/yeungs-number-1-chinese-restaurant-new-york?adjust_creative=h5HwbyQ0TYvQjBo6Ys5Bgw&utm_campaign=yelp_api_v3&utm_medium=api_v3_business_search&utm_source=h5HwbyQ0TYvQjBo6Ys5Bgw", "review_count": 9, "categories": [{"alias": "chinese", "title": "Chinese"}], "rating": 2.0, "coordinates": {"latitude": 40.85757, "longitude": -73.93197}, "transactions": ["pickup", "delivery"], "price": "$", "location": {"address1": "4486 Broadway", "address2": "", "address3": "", "city": "New York", "zip_code": "10040", "country": "US", "state": "NY", "display_address": ["4486 Broadway", "New York, NY 10040"]}, "phone": "+12123041360", "display_phone": "(212) 304-1360", "distance": 170.58654232553485}, {"id": "BGRH2FxBNoORyqtQtHsFAw", "alias": "nagle-deli-smoke-shop-and-convenience-store-new-york", "name": "Nagle Deli, Smoke Shop, & Convenience Store", "image_url": "", "is_closed": false, "url": "https://www.yelp.com/biz/nagle-deli-smoke-shop-and-convenience-store-new-york?adjust_creative=h5HwbyQ0TYvQjBo6Ys5Bgw&utm_campaign=yelp_api_v3&utm_medium=api_v3_business_search&utm_source=h5HwbyQ0TYvQjBo6Ys5Bgw", "review_count": 1, "categories": [{"alias": "tobaccoshops", "title": "Tobacco Shops"}, {"alias": "delis", "title": "Delis"}, {"alias": "convenience", "title": "Convenience Stores"}], "rating": 1.0, "coordinates": {"latitude": 40.86116, "longitude": -73.9264199}, "transactions": [], "location": {"address1": "126 Nagle Ave", "address2": "", "address3": "", "city": "New York", "zip_code": "10040", "country": "US", "state": "NY", "display_address": ["126 Nagle Ave", "New York, NY 10040"]}, "phone": "+12123044801", "display_phone": "(212) 304-4801", "distance": 501.62474975783516}, {"id": "L_ywJAgHsKbdnxx1Ror28w", "alias": "d-fruit-opia-new-york", "name": "D'Fruit-Opia", "image_url": "https://s3-media3.fl.yelpcdn.com/bphoto/J53EjvR5CMzrT7EPM3_TaQ/o.jpg", "is_closed": false, "url": "https://www.yelp.com/biz/d-fruit-opia-new-york?adjust_creative=h5HwbyQ0TYvQjBo6Ys5Bgw&utm_campaign=yelp_api_v3&utm_medium=api_v3_business_search&utm_source=h5HwbyQ0TYvQjBo6Ys5Bgw", "review_count": 1, "categories": [{"alias": "sandwiches", "title": "Sandwiches"}, {"alias": "juicebars", "title": "Juice Bars & Smoothies"}, {"alias": "latin", "title": "Latin American"}], "rating": 5.0, "coordinates": {"latitude": 40.86463, "longitude": -73.91943}, "transactions": [], "location": {"address1": "510 W 207th St", "address2": null, "address3": "", "city": "New York", "zip_code": "10034", "country": "US", "state": "NY", "display_address": ["510 W 207th St", "New York, NY 10034"]}, "phone": "+12123040629", "display_phone": "(212) 304-0629", "distance": 1197.8500174123783}, {"id": "XgtCCdqgBjWiAcRMGeHrVA", "alias": "papa-johns-pizza-new-york-38", "name": "Papa John's Pizza", "image_url": "", "is_closed": false, "url": "https://www.yelp.com/biz/papa-johns-pizza-new-york-38?adjust_creative=h5HwbyQ0TYvQjBo6Ys5Bgw&utm_campaign=yelp_api_v3&utm_medium=api_v3_business_search&utm_source=h5HwbyQ0TYvQjBo6Ys5Bgw", "review_count": 2, "categories": [{"alias": "pizza", "title": "Pizza"}], "rating": 1.5, "coordinates": {"latitude": 40.86533, "longitude": -73.91951}, "transactions": ["pickup", "delivery"], "price": "$", "location": {"address1": "523 West 207Th Street", "address2": null, "address3": null, "city": "New York", "zip_code": "10034", "country": "US", "state": "NY", "display_address": ["523 West 207Th Street", "New York, NY 10034"]}, "phone": "+12125447272", "display_phone": "(212) 544-7272", "distance": 1240.1253282083308}, {"id": "RxwuO9hOLN6lWk38OlynPQ", "alias": "la-potencia-new-york", "name": "La Potencia", "image_url": "", "is_closed": false, "url": "https://www.yelp.com/biz/la-potencia-new-york?adjust_creative=h5HwbyQ0TYvQjBo6Ys5Bgw&utm_campaign=yelp_api_v3&utm_medium=api_v3_business_search&utm_source=h5HwbyQ0TYvQjBo6Ys5Bgw", "review_count": 3, "categories": [{"alias": "latin", "title": "Latin American"}], "rating": 3.5, "coordinates": {"latitude": 40.8535911887884, "longitude": -73.9306792616844}, "transactions": [], "price": "$", "location": {"address1": "1559 Saint Nicholas Ave", "address2": "", "address3": "", "city": "New York", "zip_code": "10040", "country": "US", "state": "NY", "display_address": ["1559 Saint Nicholas Ave", "New York, NY 10040"]}, "phone": "", "display_phone": "", "distance": 604.4577006462821}, {"id": "RHB5-2m3x0WpC2u9sjk4yQ", "alias": "tropical-rotisserie-chicken-manhattan", "name": "Tropical Rotisserie Chicken", "image_url": "", "is_closed": false, "url": "https://www.yelp.com/biz/tropical-rotisserie-chicken-manhattan?adjust_creative=h5HwbyQ0TYvQjBo6Ys5Bgw&utm_campaign=yelp_api_v3&utm_medium=api_v3_business_search&utm_source=h5HwbyQ0TYvQjBo6Ys5Bgw", "review_count": 3, "categories": [{"alias": "spanish", "title": "Spanish"}], "rating": 1.5, "coordinates": {"latitude": 40.867515206337, "longitude": -73.9215657860041}, "transactions": [], "location": {"address1": "4930 Broadway", "address2": "", "address3": "", "city": "Manhattan", "zip_code": "10034", "country": "US", "state": "NY", "display_address": ["4930 Broadway", "Manhattan, NY 10034"]}, "phone": "+12129429111", "display_phone": "(212) 942-9111", "distance": 1286.100471884969}, {"id": "EhxmXCAEQoG5JBWVbpk6gA", "alias": "germain-deli-new-york-2", "name": "Germain Deli", "image_url": "https://s3-media2.fl.yelpcdn.com/bphoto/lTChDRyvzYUciJ8QxUIg0g/o.jpg", "is_closed": false, "url": "https://www.yelp.com/biz/germain-deli-new-york-2?adjust_creative=h5HwbyQ0TYvQjBo6Ys5Bgw&utm_campaign=yelp_api_v3&utm_medium=api_v3_business_search&utm_source=h5HwbyQ0TYvQjBo6Ys5Bgw", "review_count": 1, "categories": [{"alias": "delis", "title": "Delis"}, {"alias": "sandwiches", "title": "Sandwiches"}], "rating": 1.0, "coordinates": {"latitude": 40.86332, "longitude": -73.92717}, "transactions": ["pickup", "delivery"], "location": {"address1": "64 Sherman Ave", "address2": null, "address3": "", "city": "New York", "zip_code": "10040", "country": "US", "state": "NY", "display_address": ["64 Sherman Ave", "New York, NY 10040"]}, "phone": "+16469227975", "display_phone": "(646) 922-7975", "distance": 607.7183319299863}, {"id": "V0bHyQ2mPQiA4OUjEWspyg", "alias": "mcdonalds-new-york-433", "name": "McDonald's", "image_url": "https://s3-media1.fl.yelpcdn.com/bphoto/FBZ1l9FpqPZ-zhI2G6R2hg/o.jpg", "is_closed": false, "url": "https://www.yelp.com/biz/mcdonalds-new-york-433?adjust_creative=h5HwbyQ0TYvQjBo6Ys5Bgw&utm_campaign=yelp_api_v3&utm_medium=api_v3_business_search&utm_source=h5HwbyQ0TYvQjBo6Ys5Bgw", "review_count": 33, "categories": [{"alias": "burgers", "title": "Burgers"}, {"alias": "hotdogs", "title": "Fast Food"}, {"alias": "coffee", "title": "Coffee & Tea"}], "rating": 2.0, "coordinates": {"latitude": 40.86508, "longitude": -73.927202}, "transactions": ["delivery"], "price": "$", "location": {"address1": "208 Dyckman St", "address2": "", "address3": "", "city": "New York", "zip_code": "10040", "country": "US", "state": "NY", "display_address": ["208 Dyckman St", "New York, NY 10040"]}, "phone": "+12125692909", "display_phone": "(212) 569-2909", "distance": 768.8355372895238}, {"id": "Ir8aVZqrz2GbsfhEpMiDxw", "alias": "rincon-cibaeno-restaurant-new-york", "name": "Rincon Cibaeno Restaurant", "image_url": "", "is_closed": false, "url": "https://www.yelp.com/biz/rincon-cibaeno-restaurant-new-york?adjust_creative=h5HwbyQ0TYvQjBo6Ys5Bgw&utm_campaign=yelp_api_v3&utm_medium=api_v3_business_search&utm_source=h5HwbyQ0TYvQjBo6Ys5Bgw", "review_count": 2, "categories": [{"alias": "caribbean", "title": "Caribbean"}], "rating": 3.0, "coordinates": {"latitude": 40.86069, "longitude": -73.92675}, "transactions": [], "price": "$", "location": {"address1": "125 Nagle Ave", "address2": "", "address3": "", "city": "New York", "zip_code": "10040", "country": "US", "state": "NY", "display_address": ["125 Nagle Ave", "New York, NY 10040"]}, "phone": "+12125449332", "display_phone": "(212) 544-9332", "distance": 456.47624948056546}, {"id": "lkb8ygOIZNp7IES7xb2uHg", "alias": "carreons-deli-and-bakery-new-york", "name": "Carreon's Deli and Bakery", "image_url": "https://s3-media2.fl.yelpcdn.com/bphoto/gg1RcO0DX6SdegaxSN4eqw/o.jpg", "is_closed": false, "url": "https://www.yelp.com/biz/carreons-deli-and-bakery-new-york?adjust_creative=h5HwbyQ0TYvQjBo6Ys5Bgw&utm_campaign=yelp_api_v3&utm_medium=api_v3_business_search&utm_source=h5HwbyQ0TYvQjBo6Ys5Bgw", "review_count": 13, "categories": [{"alias": "bakeries", "title": "Bakeries"}, {"alias": "bagels", "title": "Bagels"}, {"alias": "delis", "title": "Delis"}], "rating": 3.0, "coordinates": {"latitude": 40.86835, "longitude": -73.91944}, "transactions": ["pickup", "delivery"], "price": "$", "location": {"address1": "4975 Broadway", "address2": "", "address3": "", "city": "New York", "zip_code": "10034", "country": "US", "state": "NY", "display_address": ["4975 Broadway", "New York, NY 10034"]}, "phone": "+19179241233", "display_phone": "(917) 924-1233", "distance": 1464.721948594776}, {"id": "ThkwfR5Cgwcgm2se-MuHYg", "alias": "mcdonalds-new-york-141", "name": "McDonald's", "image_url": "https://s3-media3.fl.yelpcdn.com/bphoto/j1mfBFkAsPTmPCWjPx5lSw/o.jpg", "is_closed": false, "url": "https://www.yelp.com/biz/mcdonalds-new-york-141?adjust_creative=h5HwbyQ0TYvQjBo6Ys5Bgw&utm_campaign=yelp_api_v3&utm_medium=api_v3_business_search&utm_source=h5HwbyQ0TYvQjBo6Ys5Bgw", "review_count": 14, "categories": [{"alias": "hotdogs", "title": "Fast Food"}, {"alias": "burgers", "title": "Burgers"}, {"alias": "coffee", "title": "Coffee & Tea"}], "rating": 1.5, "coordinates": {"latitude": 40.867396, "longitude": -73.921301}, "transactions": ["delivery"], "price": "$", "location": {"address1": "608 W 207th St", "address2": "", "address3": "", "city": "New York", "zip_code": "10034", "country": "US", "state": "NY", "display_address": ["608 W 207th St", "New York, NY 10034"]}, "phone": "+12123043611", "display_phone": "(212) 304-3611", "distance": 1274.8196639150542}, {"id": "d2P5CJeY6jK85mZEFDW6nw", "alias": "beans-and-vines-express-new-york-2", "name": "Beans and Vines Express", "image_url": "https://s3-media2.fl.yelpcdn.com/bphoto/a_i1cY1Ehj0DjGAhEJsOsw/o.jpg", "is_closed": false, "url": "https://www.yelp.com/biz/beans-and-vines-express-new-york-2?adjust_creative=h5HwbyQ0TYvQjBo6Ys5Bgw&utm_campaign=yelp_api_v3&utm_medium=api_v3_business_search&utm_source=h5HwbyQ0TYvQjBo6Ys5Bgw", "review_count": 5, "categories": [{"alias": "burgers", "title": "Burgers"}, {"alias": "sandwiches", "title": "Sandwiches"}, {"alias": "catering", "title": "Caterers"}], "rating": 2.0, "coordinates": {"latitude": 40.86629, "longitude": -73.92466}, "transactions": ["delivery", "pickup"], "location": {"address1": "4842 Broadway", "address2": "", "address3": null, "city": "New York", "zip_code": "10034", "country": "US", "state": "NY", "display_address": ["4842 Broadway", "New York, NY 10034"]}, "phone": "+12125442326", "display_phone": "(212) 544-2326", "distance": 1003.8596756512749}, {"id": "FFXW3H3zx9a2KUrEP01QUw", "alias": "luxor-new-york-new-york", "name": "Luxor New York", "image_url": "https://s3-media4.fl.yelpcdn.com/bphoto/7VfvInkeIyAftJkWz5jTag/o.jpg", "is_closed": false, "url": "https://www.yelp.com/biz/luxor-new-york-new-york?adjust_creative=h5HwbyQ0TYvQjBo6Ys5Bgw&utm_campaign=yelp_api_v3&utm_medium=api_v3_business_search&utm_source=h5HwbyQ0TYvQjBo6Ys5Bgw", "review_count": 1, "categories": [{"alias": "spanish", "title": "Spanish"}], "rating": 1.0, "coordinates": {"latitude": 40.86148, "longitude": -73.92069}, "transactions": [], "location": {"address1": "3775 10th Ave", "address2": "", "address3": null, "city": "New York", "zip_code": "10034", "country": "US", "state": "NY", "display_address": ["3775 10th Ave", "New York, NY 10034"]}, "phone": "", "display_phone": "", "distance": 975.1220208565643}, {"id": "Yc-TQJVyh1-hycktarZUyQ", "alias": "aires-restaurant-new-york", "name": "Aires Restaurant", "image_url": "", "is_closed": false, "url": "https://www.yelp.com/biz/aires-restaurant-new-york?adjust_creative=h5HwbyQ0TYvQjBo6Ys5Bgw&utm_campaign=yelp_api_v3&utm_medium=api_v3_business_search&utm_source=h5HwbyQ0TYvQjBo6Ys5Bgw", "review_count": 3, "categories": [{"alias": "restaurants", "title": "Restaurants"}], "rating": 3.5, "coordinates": {"latitude": 40.86097, "longitude": -73.92568}, "transactions": [], "location": {"address1": "151 Nagle Ave", "address2": null, "address3": null, "city": "New York", "zip_code": "10040", "country": "US", "state": "NY", "display_address": ["151 Nagle Ave", "New York, NY 10040"]}, "phone": "+13477267642", "display_phone": "(347) 726-7642", "distance": 541.785628939663}, {"id": "bgV2hCzvhpxqNwMiXgubxQ", "alias": "pizza-shop-new-york-2", "name": "Pizza Shop", "image_url": "", "is_closed": false, "url": "https://www.yelp.com/biz/pizza-shop-new-york-2?adjust_creative=h5HwbyQ0TYvQjBo6Ys5Bgw&utm_campaign=yelp_api_v3&utm_medium=api_v3_business_search&utm_source=h5HwbyQ0TYvQjBo6Ys5Bgw", "review_count": 4, "categories": [{"alias": "pizza", "title": "Pizza"}], "rating": 2.5, "coordinates": {"latitude": 40.86067, "longitude": -73.92772}, "transactions": [], "price": "$$", "location": {"address1": "94 Nagle Ave", "address2": null, "address3": null, "city": "New York", "zip_code": "10040", "country": "US", "state": "NY", "display_address": ["94 Nagle Ave", "New York, NY 10040"]}, "phone": "+12123044700", "display_phone": "(212) 304-4700", "distance": 379.5488294481626}, {"id": "FFtJBatkfQkb-Ni_7NSdpg", "alias": "rancho-los-compadres-new-york", "name": "Rancho Los Compadres", "image_url": "", "is_closed": false, "url": "https://www.yelp.com/biz/rancho-los-compadres-new-york?adjust_creative=h5HwbyQ0TYvQjBo6Ys5Bgw&utm_campaign=yelp_api_v3&utm_medium=api_v3_business_search&utm_source=h5HwbyQ0TYvQjBo6Ys5Bgw", "review_count": 3, "categories": [{"alias": "mexican", "title": "Mexican"}, {"alias": "latin", "title": "Latin American"}], "rating": 2.5, "coordinates": {"latitude": 40.86409, "longitude": -73.92505}, "transactions": [], "price": "$", "location": {"address1": "110 Sherman Ave", "address2": "", "address3": "", "city": "New York", "zip_code": "10034", "country": "US", "state": "NY", "display_address": ["110 Sherman Ave", "New York, NY 10034"]}, "phone": "+12125691002", "display_phone": "(212) 569-1002", "distance": 806.4304467371046}, {"id": "MKxNSfy6K__Tp5nrJP9c5Q", "alias": "subway-new-york-459", "name": "Subway", "image_url": "https://s3-media1.fl.yelpcdn.com/bphoto/pb_ELSwoPbfO6SV_I_YAAQ/o.jpg", "is_closed": false, "url": "https://www.yelp.com/biz/subway-new-york-459?adjust_creative=h5HwbyQ0TYvQjBo6Ys5Bgw&utm_campaign=yelp_api_v3&utm_medium=api_v3_business_search&utm_source=h5HwbyQ0TYvQjBo6Ys5Bgw", "review_count": 6, "categories": [{"alias": "sandwiches", "title": "Sandwiches"}], "rating": 2.0, "coordinates": {"latitude": 40.8642425434252, "longitude": -73.9267812807287}, "transactions": ["delivery", "pickup"], "price": "$", "location": {"address1": "180-182 Dyckman St", "address2": "", "address3": "", "city": "New York", "zip_code": "10040", "country": "US", "state": "NY", "display_address": ["180-182 Dyckman St", "New York, NY 10040"]}, "phone": "+16467073221", "display_phone": "(646) 707-3221", "distance": 709.559557208585}, {"id": "6JofyoHOHpF2ho6nmKfedA", "alias": "delios-pizza-new-york", "name": "Delio's Pizza", "image_url": "https://s3-media2.fl.yelpcdn.com/bphoto/ntvNujqo1P09i_HnWmgEDQ/o.jpg", "is_closed": false, "url": "https://www.yelp.com/biz/delios-pizza-new-york?adjust_creative=h5HwbyQ0TYvQjBo6Ys5Bgw&utm_campaign=yelp_api_v3&utm_medium=api_v3_business_search&utm_source=h5HwbyQ0TYvQjBo6Ys5Bgw", "review_count": 7, "categories": [{"alias": "pizza", "title": "Pizza"}], "rating": 2.5, "coordinates": {"latitude": 40.8660068, "longitude": -73.9200941}, "transactions": ["delivery", "pickup"], "price": "$", "location": {"address1": "553 W 207th St", "address2": null, "address3": "", "city": "New York", "zip_code": "10034", "country": "US", "state": "NY", "display_address": ["553 W 207th St", "New York, NY 10034"]}, "phone": "+12125449453", "display_phone": "(212) 544-9453", "distance": 1245.4813727746969}, {"id": "irkUw4Yb46lnfWr_WBBdEw", "alias": "danny-f-donut-corporation-new-york", "name": "Danny F Donut Corporation", "image_url": "", "is_closed": false, "url": "https://www.yelp.com/biz/danny-f-donut-corporation-new-york?adjust_creative=h5HwbyQ0TYvQjBo6Ys5Bgw&utm_campaign=yelp_api_v3&utm_medium=api_v3_business_search&utm_source=h5HwbyQ0TYvQjBo6Ys5Bgw", "review_count": 3, "categories": [{"alias": "restaurants", "title": "Restaurants"}], "rating": 3.0, "coordinates": {"latitude": 40.86425, "longitude": -73.91931}, "transactions": [], "price": "$", "location": {"address1": "3868 10th Ave", "address2": "", "address3": "", "city": "New York", "zip_code": "10034", "country": "US", "state": "NY", "display_address": ["3868 10th Ave", "New York, NY 10034"]}, "phone": "+12125679355", "display_phone": "(212) 567-9355", "distance": 1199.425672198186}]