[{"id": "C6f_MQaRwIbJ8diailVaCA", "alias": "l-appart-new-york", "name": "L'Appart", "image_url": "https://s3-media3.fl.yelpcdn.com/bphoto/U7vx4eJJjfVWeOsqMMmNHQ/o.jpg", "is_closed": false, "url": "https://www.yelp.com/biz/l-appart-new-york?adjust_creative=ywY5UnLZrNrRl2b93Ruy_g&utm_campaign=yelp_api_v3&utm_medium=api_v3_business_search&utm_source=ywY5UnLZrNrRl2b93Ruy_g", "review_count": 101, "categories": [{"alias": "french", "title": "French"}], "rating": 5.0, "coordinates": {"latitude": 40.712708, "longitude": -74.015919}, "transactions": [], "price": "$$$$", "location": {"address1": "225 Liberty St", "address2": "", "address3": "", "city": "New York", "zip_code": "10281", "country": "US", "state": "NY", "display_address": ["225 Liberty St", "New York, NY 10281"]}, "phone": "+12129818577", "display_phone": "(212) 981-8577", "distance": 34.28664175957464}, {"id": "hAmf5Tfs0OhllZHAmO-12g", "alias": "tartinery-hudson-eats-new-york-3", "name": "Tartinery Hudson Eats", "image_url": "https://s3-media1.fl.yelpcdn.com/bphoto/rzNL_PAoRLMDya1VpCv0Lw/o.jpg", "is_closed": false, "url": "https://www.yelp.com/biz/tartinery-hudson-eats-new-york-3?adjust_creative=ywY5UnLZrNrRl2b93Ruy_g&utm_campaign=yelp_api_v3&utm_medium=api_v3_business_search&utm_source=ywY5UnLZrNrRl2b93Ruy_g", "review_count": 368, "categories": [{"alias": "french", "title": "French"}], "rating": 4.0, "coordinates": {"latitude": 40.712338, "longitude": -74.01588}, "transactions": [], "price": "$$", "location": {"address1": "225 Liberty St", "address2": "", "address3": "", "city": "New York", "zip_code": "10281", "country": "US", "state": "NY", "display_address": ["225 Liberty St", "New York, NY 10281"]}, "phone": "+16467558484", "display_phone": "(646) 755-8484", "distance": 63.057486897781445}, {"id": "QvQilClGyuKFz08TBsoJNA", "alias": "le-district-new-york", "name": "Le District", "image_url": "https://s3-media2.fl.yelpcdn.com/bphoto/e3bJlc3e_43c9qBWKWLd1g/o.jpg", "is_closed": false, "url": "https://www.yelp.com/biz/le-district-new-york?adjust_creative=ywY5UnLZrNrRl2b93Ruy_g&utm_campaign=yelp_api_v3&utm_medium=api_v3_business_search&utm_source=ywY5UnLZrNrRl2b93Ruy_g", "review_count": 545, "categories": [{"alias": "french", "title": "French"}, {"alias": "wine_bars", "title": "Wine Bars"}, {"alias": "grocery", "title": "Grocery"}], "rating": 3.5, "coordinates": {"latitude": 40.7126473617984, "longitude": -74.0157784596443}, "transactions": ["pickup", "delivery"], "price": "$$", "location": {"address1": "225 Liberty St", "address2": "", "address3": "", "city": "New York", "zip_code": "10281", "country": "US", "state": "NY", "display_address": ["225 Liberty St", "New York, NY 10281"]}, "phone": "+12129818588", "display_phone": "(212) 981-8588", "distance": 29.200550392183043}, {"id": "2lbHlWGnpb6AHVfuyZnaPQ", "alias": "hudson-eats-new-york", "name": "Hudson Eats", "image_url": "https://s3-media1.fl.yelpcdn.com/bphoto/i9ONaSpIfvTTr4_4qKfrKQ/o.jpg", "is_closed": false, "url": "https://www.yelp.com/biz/hudson-eats-new-york?adjust_creative=ywY5UnLZrNrRl2b93Ruy_g&utm_campaign=yelp_api_v3&utm_medium=api_v3_business_search&utm_source=ywY5UnLZrNrRl2b93Ruy_g", "review_count": 8, "categories": [{"alias": "food_court", "title": "Food Court"}], "rating": 4.0, "coordinates": {"latitude": 40.7128272044248, "longitude": -74.0156737008855}, "transactions": [], "location": {"address1": "225 Liberty St", "address2": "", "address3": null, "city": "New York", "zip_code": "10080", "country": "US", "state": "NY", "display_address": ["225 Liberty St", "New York, NY 10080"]}, "phone": "", "display_phone": "", "distance": 10.08917851916202}, {"id": "e5qXalUNGVoee2NsaDy-cQ", "alias": "seamores-new-york-13", "name": "Seamore's", "image_url": "https://s3-media2.fl.yelpcdn.com/bphoto/OZuF1mTKf9H2f365gSC1vA/o.jpg", "is_closed": false, "url": "https://www.yelp.com/biz/seamores-new-york-13?adjust_creative=ywY5UnLZrNrRl2b93Ruy_g&utm_campaign=yelp_api_v3&utm_medium=api_v3_business_search&utm_source=ywY5UnLZrNrRl2b93Ruy_g", "review_count": 109, "categories": [{"alias": "seafood", "title": "Seafood"}], "rating": 3.5, "coordinates": {"latitude": 40.7141804777842, "longitude": -74.0155678242445}, "transactions": ["pickup", "delivery"], "price": "$$", "location": {"address1": "250 Vesey St", "address2": "", "address3": null, "city": "New York", "zip_code": "10281", "country": "US", "state": "NY", "display_address": ["250 Vesey St", "New York, NY 10281"]}, "phone": "+16465857380", "display_phone": "(646) 585-7380", "distance": 147.96755791565843}, {"id": "pasWmob-dg6RkqETkO7RWA", "alias": "mighty-quinns-barbeque-new-york-4", "name": "Mighty Quinn's Barbeque", "image_url": "https://s3-media1.fl.yelpcdn.com/bphoto/tbotFViaP68K4NHuJMTtbQ/o.jpg", "is_closed": false, "url": "https://www.yelp.com/biz/mighty-quinns-barbeque-new-york-4?adjust_creative=ywY5UnLZrNrRl2b93Ruy_g&utm_campaign=yelp_api_v3&utm_medium=api_v3_business_search&utm_source=ywY5UnLZrNrRl2b93Ruy_g", "review_count": 270, "categories": [{"alias": "bbq", "title": "Barbeque"}], "rating": 3.5, "coordinates": {"latitude": 40.712545, "longitude": -74.0156618}, "transactions": ["delivery"], "price": "$$", "location": {"address1": "225 Liberty St", "address2": "", "address3": "", "city": "New York", "zip_code": "10281", "country": "US", "state": "NY", "display_address": ["225 Liberty St", "New York, NY 10281"]}, "phone": "", "display_phone": "", "distance": 35.00742402989755}, {"id": "ywP0OEqRC6sp4NK1-QhW-g", "alias": "parm-new-york-4", "name": "Parm", "image_url": "https://s3-media4.fl.yelpcdn.com/bphoto/TDThIVYpCW0R7dsV4uiJ0g/o.jpg", "is_closed": false, "url": "https://www.yelp.com/biz/parm-new-york-4?adjust_creative=ywY5UnLZrNrRl2b93Ruy_g&utm_campaign=yelp_api_v3&utm_medium=api_v3_business_search&utm_source=ywY5UnLZrNrRl2b93Ruy_g", "review_count": 375, "categories": [{"alias": "italian", "title": "Italian"}, {"alias": "sandwiches", "title": "Sandwiches"}], "rating": 3.0, "coordinates": {"latitude": 40.7144510120714, "longitude": -74.0161083107869}, "transactions": ["pickup", "delivery"], "price": "$$", "location": {"address1": "Brookfield Pl", "address2": "250 Vesey St", "address3": "", "city": "New York", "zip_code": "10080", "country": "US", "state": "NY", "display_address": ["Brookfield Pl", "250 Vesey St", "New York, NY 10080"]}, "phone": "+12127764927", "display_phone": "(212) 776-4927", "distance": 183.99430639834574}, {"id": "Fl8f8jOGyTV9_SqHgbGZbA", "alias": "del-friscos-grille-new-york-4", "name": "Del Frisco's Grille", "image_url": "https://s3-media4.fl.yelpcdn.com/bphoto/YpGsV5QjVTUmojCaLQnD-w/o.jpg", "is_closed": false, "url": "https://www.yelp.com/biz/del-friscos-grille-new-york-4?adjust_creative=ywY5UnLZrNrRl2b93Ruy_g&utm_campaign=yelp_api_v3&utm_medium=api_v3_business_search&utm_source=ywY5UnLZrNrRl2b93Ruy_g", "review_count": 152, "categories": [{"alias": "tradamerican", "title": "American (Traditional)"}, {"alias": "steak", "title": "Steakhouses"}, {"alias": "sandwiches", "title": "Sandwiches"}], "rating": 3.5, "coordinates": {"latitude": 40.714167, "longitude": -74.016111}, "transactions": ["pickup", "delivery"], "price": "$$$", "location": {"address1": "250 Vesey St", "address2": "", "address3": null, "city": "New York", "zip_code": "10080", "country": "US", "state": "NY", "display_address": ["250 Vesey St", "New York, NY 10080"]}, "phone": "+12127860760", "display_phone": "(212) 786-0760", "distance": 153.7096091421926}, {"id": "tFQRwk9SVOFgpMBZ55UrLw", "alias": "umami-burger-brookfield-place-new-york-2", "name": "Umami Burger - Brookfield Place", "image_url": "https://s3-media4.fl.yelpcdn.com/bphoto/3Y-13NeVaia5_m7Mmn6O1A/o.jpg", "is_closed": false, "url": "https://www.yelp.com/biz/umami-burger-brookfield-place-new-york-2?adjust_creative=ywY5UnLZrNrRl2b93Ruy_g&utm_campaign=yelp_api_v3&utm_medium=api_v3_business_search&utm_source=ywY5UnLZrNrRl2b93Ruy_g", "review_count": 307, "categories": [{"alias": "newamerican", "title": "American (New)"}, {"alias": "burgers", "title": "Burgers"}, {"alias": "gastropubs", "title": "Gastropubs"}], "rating": 3.0, "coordinates": {"latitude": 40.713225, "longitude": -74.015913}, "transactions": ["pickup", "delivery"], "price": "$$", "location": {"address1": "225 Liberty St", "address2": "Ste 247", "address3": "", "city": "New York", "zip_code": "10281", "country": "US", "state": "NY", "display_address": ["225 Liberty St", "Ste 247", "New York, NY 10281"]}, "phone": "+19177284400", "display_phone": "(917) 728-4400", "distance": 51.35248068590905}, {"id": "ySbVtwa_PHQIlnKVMNSNeQ", "alias": "shake-shack-new-york-11", "name": "Shake Shack", "image_url": "https://s3-media1.fl.yelpcdn.com/bphoto/vuK8-Wdim4tXASfalJ0Nvw/o.jpg", "is_closed": false, "url": "https://www.yelp.com/biz/shake-shack-new-york-11?adjust_creative=ywY5UnLZrNrRl2b93Ruy_g&utm_campaign=yelp_api_v3&utm_medium=api_v3_business_search&utm_source=ywY5UnLZrNrRl2b93Ruy_g", "review_count": 927, "categories": [{"alias": "burgers", "title": "Burgers"}, {"alias": "icecream", "title": "Ice Cream & Frozen Yogurt"}], "rating": 4.0, "coordinates": {"latitude": 40.715283, "longitude": -74.014799}, "transactions": ["delivery"], "price": "$$", "location": {"address1": "215 Murray St", "address2": "", "address3": "", "city": "New York", "zip_code": "10282", "country": "US", "state": "NY", "display_address": ["215 Murray St", "New York, NY 10282"]}, "phone": "+16465454600", "display_phone": "(646) 545-4600", "distance": 278.01504099489205}, {"id": "rJeh77RIvtmISisvVoy6TA", "alias": "northern-tiger-new-york", "name": "Northern Tiger", "image_url": "https://s3-media1.fl.yelpcdn.com/bphoto/3tNUf6GhOfSI98PA3WW5bA/o.jpg", "is_closed": false, "url": "https://www.yelp.com/biz/northern-tiger-new-york?adjust_creative=ywY5UnLZrNrRl2b93Ruy_g&utm_campaign=yelp_api_v3&utm_medium=api_v3_business_search&utm_source=ywY5UnLZrNrRl2b93Ruy_g", "review_count": 155, "categories": [{"alias": "chinese", "title": "Chinese"}], "rating": 3.0, "coordinates": {"latitude": 40.7126462901984, "longitude": -74.0160110541061}, "transactions": ["pickup", "delivery"], "price": "$$", "location": {"address1": "225 Liberty St", "address2": "", "address3": "Hudson Eats", "city": "New York", "zip_code": "10281", "country": "US", "state": "NY", "display_address": ["225 Liberty St", "Hudson Eats", "New York, NY 10281"]}, "phone": "+19174600335", "display_phone": "(917) 460-0335", "distance": 44.4036591560873}, {"id": "wJ-MPdFSPUoChucj-r6YxA", "alias": "dig-new-york-21", "name": "Dig", "image_url": "https://s3-media3.fl.yelpcdn.com/bphoto/U6F5dHIzLHaJV44rnBB4wQ/o.jpg", "is_closed": false, "url": "https://www.yelp.com/biz/dig-new-york-21?adjust_creative=ywY5UnLZrNrRl2b93Ruy_g&utm_campaign=yelp_api_v3&utm_medium=api_v3_business_search&utm_source=ywY5UnLZrNrRl2b93Ruy_g", "review_count": 175, "categories": [{"alias": "newamerican", "title": "American (New)"}], "rating": 3.5, "coordinates": {"latitude": 40.7127509843895, "longitude": -74.0155569472908}, "transactions": [], "price": "$$", "location": {"address1": "225 Liberty St", "address2": null, "address3": "", "city": "New York", "zip_code": "10281", "country": "US", "state": "NY", "display_address": ["225 Liberty St", "New York, NY 10281"]}, "phone": "+12127764051", "display_phone": "(212) 776-4051", "distance": 10.987324130114452}, {"id": "HV5DMBmEpQ_Nu6NSekJquA", "alias": "harrys-italian-new-york", "name": "Harry's Italian", "image_url": "https://s3-media3.fl.yelpcdn.com/bphoto/lWl9_RyttmzZKkSEO6Kthw/o.jpg", "is_closed": false, "url": "https://www.yelp.com/biz/harrys-italian-new-york?adjust_creative=ywY5UnLZrNrRl2b93Ruy_g&utm_campaign=yelp_api_v3&utm_medium=api_v3_business_search&utm_source=ywY5UnLZrNrRl2b93Ruy_g", "review_count": 250, "categories": [{"alias": "pizza", "title": "Pizza"}, {"alias": "italian", "title": "Italian"}, {"alias": "breakfast_brunch", "title": "Breakfast & Brunch"}], "rating": 3.5, "coordinates": {"latitude": 40.7153762863468, "longitude": -74.0139836332683}, "transactions": ["pickup", "delivery"], "price": "$$", "location": {"address1": "225 Murray St", "address2": "", "address3": "", "city": "New York", "zip_code": "10282", "country": "US", "state": "NY", "display_address": ["225 Murray St", "New York, NY 10282"]}, "phone": "+12126081007", "display_phone": "(212) 608-1007", "distance": 261.555626937402}, {"id": "UUIKdOylovTfXGvvKTN_yQ", "alias": "one-dine-new-york", "name": "One Dine", "image_url": "https://s3-media1.fl.yelpcdn.com/bphoto/lOErfU-O5PBgv-qdo7E5EA/o.jpg", "is_closed": false, "url": "https://www.yelp.com/biz/one-dine-new-york?adjust_creative=ywY5UnLZrNrRl2b93Ruy_g&utm_campaign=yelp_api_v3&utm_medium=api_v3_business_search&utm_source=ywY5UnLZrNrRl2b93Ruy_g", "review_count": 150, "categories": [{"alias": "newamerican", "title": "American (New)"}], "rating": 3.0, "coordinates": {"latitude": 40.713122, "longitude": -74.013364}, "transactions": [], "price": "$$$", "location": {"address1": "285 Fulton St", "address2": "", "address3": "One World Trade Center", "city": "New York", "zip_code": "10007", "country": "US", "state": "NY", "display_address": ["285 Fulton St", "One World Trade Center", "New York, NY 10007"]}, "phone": "+18446961776", "display_phone": "(844) 696-1776", "distance": 187.36076004881502}, {"id": "WZLhPYaYSFy7M_-Jh1VuNw", "alias": "dos-toros-taqueria-new-york-5", "name": "Dos Toros Taqueria", "image_url": "https://s3-media3.fl.yelpcdn.com/bphoto/U9lP_dHiFUdpHmULufyA5w/o.jpg", "is_closed": false, "url": "https://www.yelp.com/biz/dos-toros-taqueria-new-york-5?adjust_creative=ywY5UnLZrNrRl2b93Ruy_g&utm_campaign=yelp_api_v3&utm_medium=api_v3_business_search&utm_source=ywY5UnLZrNrRl2b93Ruy_g", "review_count": 109, "categories": [{"alias": "mexican", "title": "Mexican"}], "rating": 3.5, "coordinates": {"latitude": 40.7130865074113, "longitude": -74.0160842315927}, "transactions": [], "price": "$$", "location": {"address1": "200 Vesey St", "address2": "", "address3": "", "city": "New York", "zip_code": "10285", "country": "US", "state": "NY", "display_address": ["200 Vesey St", "New York, NY 10285"]}, "phone": "+13472189518", "display_phone": "(347) 218-9518", "distance": 51.592152131955146}, {"id": "aixlpNVteSFpBS9o_HUsNQ", "alias": "beaubourg-new-york", "name": "Beaubourg", "image_url": "https://s3-media1.fl.yelpcdn.com/bphoto/v1RN77moPSBBZnrH588hZQ/o.jpg", "is_closed": false, "url": "https://www.yelp.com/biz/beaubourg-new-york?adjust_creative=ywY5UnLZrNrRl2b93Ruy_g&utm_campaign=yelp_api_v3&utm_medium=api_v3_business_search&utm_source=ywY5UnLZrNrRl2b93Ruy_g", "review_count": 277, "categories": [{"alias": "french", "title": "French"}], "rating": 3.0, "coordinates": {"latitude": 40.71156, "longitude": -74.01533}, "transactions": [], "price": "$$$", "location": {"address1": "225 Liberty St", "address2": "", "address3": null, "city": "New York", "zip_code": "10281", "country": "US", "state": "NY", "display_address": ["225 Liberty St", "New York, NY 10281"]}, "phone": "+12129818588", "display_phone": "(212) 981-8588", "distance": 93.75003602519703}, {"id": "Ei4UyR1_mMFwuunv8gRUWw", "alias": "atrio-wine-bar-and-restaurant-new-york", "name": "Atrio Wine Bar & Restaurant", "image_url": "https://s3-media2.fl.yelpcdn.com/bphoto/DKq2IHFHizg79dprtjhkBQ/o.jpg", "is_closed": false, "url": "https://www.yelp.com/biz/atrio-wine-bar-and-restaurant-new-york?adjust_creative=ywY5UnLZrNrRl2b93Ruy_g&utm_campaign=yelp_api_v3&utm_medium=api_v3_business_search&utm_source=ywY5UnLZrNrRl2b93Ruy_g", "review_count": 86, "categories": [{"alias": "wine_bars", "title": "Wine Bars"}, {"alias": "newamerican", "title": "American (New)"}], "rating": 3.5, "coordinates": {"latitude": 40.715, "longitude": -74.0158}, "transactions": [], "price": "$$$", "location": {"address1": "102 N End Ave", "address2": "", "address3": "Conrad", "city": "New York", "zip_code": "10282", "country": "US", "state": "NY", "display_address": ["102 N End Ave", "Conrad", "New York, NY 10282"]}, "phone": "+16467694250", "display_phone": "(646) 769-4250", "distance": 245.24108567688359}, {"id": "GzY2EjCmGNgvRd7IE20fTA", "alias": "wei-west-new-york", "name": "Wei West", "image_url": "https://s3-media1.fl.yelpcdn.com/bphoto/oE8Xptas64LJ1M6fCJHHfw/o.jpg", "is_closed": false, "url": "https://www.yelp.com/biz/wei-west-new-york?adjust_creative=ywY5UnLZrNrRl2b93Ruy_g&utm_campaign=yelp_api_v3&utm_medium=api_v3_business_search&utm_source=ywY5UnLZrNrRl2b93Ruy_g", "review_count": 209, "categories": [{"alias": "asianfusion", "title": "Asian Fusion"}, {"alias": "japanese", "title": "Japanese"}, {"alias": "chinese", "title": "Chinese"}], "rating": 3.0, "coordinates": {"latitude": 40.7149792560543, "longitude": -74.0148960394593}, "transactions": ["pickup", "delivery"], "price": "$$", "location": {"address1": "235 Murray St", "address2": "", "address3": "", "city": "New York", "zip_code": "10282", "country": "US", "state": "NY", "display_address": ["235 Murray St", "New York, NY 10282"]}, "phone": "+12127861300", "display_phone": "(212) 786-1300", "distance": 243.2647567708825}, {"id": "h5TLgzyZAgEZKKuQZl0sag", "alias": "bar-a-vin-new-york-2", "name": "Bar a Vin", "image_url": "https://s3-media2.fl.yelpcdn.com/bphoto/WmNg_kJdys2lvGglqZXhCw/o.jpg", "is_closed": false, "url": "https://www.yelp.com/biz/bar-a-vin-new-york-2?adjust_creative=ywY5UnLZrNrRl2b93Ruy_g&utm_campaign=yelp_api_v3&utm_medium=api_v3_business_search&utm_source=ywY5UnLZrNrRl2b93Ruy_g", "review_count": 40, "categories": [{"alias": "french", "title": "French"}, {"alias": "wine_bars", "title": "Wine Bars"}, {"alias": "beerbar", "title": "Beer Bar"}], "rating": 3.5, "coordinates": {"latitude": 40.712455, "longitude": -74.015304}, "transactions": [], "price": "$$", "location": {"address1": "225 Liberty St", "address2": "", "address3": null, "city": "New York", "zip_code": "10286", "country": "US", "state": "NY", "display_address": ["225 Liberty St", "New York, NY 10286"]}, "phone": "+12129818588", "display_phone": "(212) 981-8588", "distance": 93.75003602519703}, {"id": "RcJpDt26LSDKiRQyoCj0bA", "alias": "central-tavern-new-york", "name": "Central Tavern", "image_url": "", "is_closed": false, "url": "https://www.yelp.com/biz/central-tavern-new-york?adjust_creative=ywY5UnLZrNrRl2b93Ruy_g&utm_campaign=yelp_api_v3&utm_medium=api_v3_business_search&utm_source=ywY5UnLZrNrRl2b93Ruy_g", "review_count": 1, "categories": [{"alias": "tradamerican", "title": "American (Traditional)"}], "rating": 4.0, "coordinates": {"latitude": 40.7106053084135, "longitude": -74.0144895762205}, "transactions": [], "location": {"address1": "101 West St", "address2": "", "address3": "", "city": "New York", "zip_code": "10001", "country": "US", "state": "NY", "display_address": ["101 West St", "New York, NY 10001"]}, "phone": "+12129628806", "display_phone": "(212) 962-8806", "distance": 214.33457802547696}, {"id": "XAeGAF5MGr7P6A13SnXbjQ", "alias": "merchants-river-house-new-york", "name": "Merchants River House", "image_url": "https://s3-media2.fl.yelpcdn.com/bphoto/d2_jKOO_4DxIArHtMT1r-A/o.jpg", "is_closed": false, "url": "https://www.yelp.com/biz/merchants-river-house-new-york?adjust_creative=ywY5UnLZrNrRl2b93Ruy_g&utm_campaign=yelp_api_v3&utm_medium=api_v3_business_search&utm_source=ywY5UnLZrNrRl2b93Ruy_g", "review_count": 446, "categories": [{"alias": "newamerican", "title": "American (New)"}], "rating": 4.0, "coordinates": {"latitude": 40.7112882252543, "longitude": -74.0176175854584}, "transactions": ["pickup", "delivery"], "price": "$$", "location": {"address1": "375 S End Ave", "address2": "", "address3": "", "city": "New York", "zip_code": "10280", "country": "US", "state": "NY", "display_address": ["375 S End Ave", "New York, NY 10280"]}, "phone": "+12124321451", "display_phone": "(212) 432-1451", "distance": 245.54344771122982}, {"id": "_94vfFroevCsC4plhWnvjw", "alias": "num-pang-kitchen-new-york-4", "name": "Num Pang Kitchen", "image_url": "https://s3-media2.fl.yelpcdn.com/bphoto/vREoUaNw9k-qcnpWPkxzfA/o.jpg", "is_closed": false, "url": "https://www.yelp.com/biz/num-pang-kitchen-new-york-4?adjust_creative=ywY5UnLZrNrRl2b93Ruy_g&utm_campaign=yelp_api_v3&utm_medium=api_v3_business_search&utm_source=ywY5UnLZrNrRl2b93Ruy_g", "review_count": 185, "categories": [{"alias": "sandwiches", "title": "Sandwiches"}], "rating": 3.5, "coordinates": {"latitude": 40.712455, "longitude": -74.015304}, "transactions": ["pickup", "delivery"], "price": "$$", "location": {"address1": "225 Liberty St", "address2": null, "address3": "", "city": "New York", "zip_code": "10281", "country": "US", "state": "NY", "display_address": ["225 Liberty St", "New York, NY 10281"]}, "phone": "+12122271957", "display_phone": "(212) 227-1957", "distance": 93.75003602519703}, {"id": "sB3HiDCC7mak6TE7JeJVvQ", "alias": "merchants-bbq-new-york", "name": "Merchants BBQ", "image_url": "https://s3-media1.fl.yelpcdn.com/bphoto/km4NntUeKVUsqm8yALAfdg/o.jpg", "is_closed": false, "url": "https://www.yelp.com/biz/merchants-bbq-new-york?adjust_creative=ywY5UnLZrNrRl2b93Ruy_g&utm_campaign=yelp_api_v3&utm_medium=api_v3_business_search&utm_source=ywY5UnLZrNrRl2b93Ruy_g", "review_count": 1, "categories": [{"alias": "localflavor", "title": "Local Flavor"}, {"alias": "bbq", "title": "Barbeque"}], "rating": 4.0, "coordinates": {"latitude": 40.712398, "longitude": -74.015418}, "transactions": [], "price": "$$$", "location": {"address1": "225 Liberty St", "address2": "", "address3": "", "city": "New York", "zip_code": "10282", "country": "US", "state": "NY", "display_address": ["225 Liberty St", "New York, NY 10282"]}, "phone": "+12128714000", "display_phone": "(212) 871-4000", "distance": 51.59981788694537}, {"id": "UGvF4yz_VC3wZ5ylz6NMYw", "alias": "bar-\u00e0-frites-new-york-2", "name": "Bar \u00e0 Frites", "image_url": "https://s3-media1.fl.yelpcdn.com/bphoto/d4h6WQBfaQtqVfI1j7T6dA/o.jpg", "is_closed": false, "url": "https://www.yelp.com/biz/bar-%C3%A0-frites-new-york-2?adjust_creative=ywY5UnLZrNrRl2b93Ruy_g&utm_campaign=yelp_api_v3&utm_medium=api_v3_business_search&utm_source=ywY5UnLZrNrRl2b93Ruy_g", "review_count": 15, "categories": [{"alias": "bars", "title": "Bars"}, {"alias": "french", "title": "French"}, {"alias": "sushi", "title": "Sushi Bars"}], "rating": 3.0, "coordinates": {"latitude": 40.7115600894676, "longitude": -74.0153301134706}, "transactions": [], "location": {"address1": "225 Liberty St", "address2": "", "address3": "Le District", "city": "New York", "zip_code": "10281", "country": "US", "state": "NY", "display_address": ["225 Liberty St", "Le District", "New York, NY 10281"]}, "phone": "+12129818588", "display_phone": "(212) 981-8588", "distance": 144.68637714991507}, {"id": "B8yFj4qt-HgMCbF5S-GkgA", "alias": "creperie-new-york-6", "name": "Creperie", "image_url": "https://s3-media2.fl.yelpcdn.com/bphoto/ui1CclnzwxxZPAqaIlK9PQ/o.jpg", "is_closed": false, "url": "https://www.yelp.com/biz/creperie-new-york-6?adjust_creative=ywY5UnLZrNrRl2b93Ruy_g&utm_campaign=yelp_api_v3&utm_medium=api_v3_business_search&utm_source=ywY5UnLZrNrRl2b93Ruy_g", "review_count": 14, "categories": [{"alias": "creperies", "title": "Creperies"}], "rating": 3.0, "coordinates": {"latitude": 40.711547382455, "longitude": -74.0153995156288}, "transactions": [], "price": "$", "location": {"address1": "255 Liberty St", "address2": "", "address3": null, "city": "New York", "zip_code": "10281", "country": "US", "state": "NY", "display_address": ["255 Liberty St", "New York, NY 10281"]}, "phone": "", "display_phone": "", "distance": 145.43431760644964}, {"id": "xVzRouEsAICjEV0-EBrTUw", "alias": "olives-new-york-4", "name": "Olive's", "image_url": "https://s3-media3.fl.yelpcdn.com/bphoto/bdJscejjDxYWkCDFEI0xCg/o.jpg", "is_closed": false, "url": "https://www.yelp.com/biz/olives-new-york-4?adjust_creative=ywY5UnLZrNrRl2b93Ruy_g&utm_campaign=yelp_api_v3&utm_medium=api_v3_business_search&utm_source=ywY5UnLZrNrRl2b93Ruy_g", "review_count": 72, "categories": [{"alias": "coffee", "title": "Coffee & Tea"}, {"alias": "breakfast_brunch", "title": "Breakfast & Brunch"}, {"alias": "bagels", "title": "Bagels"}], "rating": 3.0, "coordinates": {"latitude": 40.7130540421177, "longitude": -74.015492820832}, "transactions": [], "price": "$$", "location": {"address1": "225 Liberty St", "address2": "", "address3": "Hudson Eats", "city": "New York", "zip_code": "10281", "country": "US", "state": "NY", "display_address": ["225 Liberty St", "Hudson Eats", "New York, NY 10281"]}, "phone": "+12128580111", "display_phone": "(212) 858-0111", "distance": 23.361674749457983}, {"id": "tA1QO_GParSsaOaO8UoBvQ", "alias": "blue-smoke-new-york-4", "name": "Blue Smoke", "image_url": "https://s3-media1.fl.yelpcdn.com/bphoto/y_o53DqH1s_4kHnjklHmzg/o.jpg", "is_closed": false, "url": "https://www.yelp.com/biz/blue-smoke-new-york-4?adjust_creative=ywY5UnLZrNrRl2b93Ruy_g&utm_campaign=yelp_api_v3&utm_medium=api_v3_business_search&utm_source=ywY5UnLZrNrRl2b93Ruy_g", "review_count": 635, "categories": [{"alias": "southern", "title": "Southern"}, {"alias": "bbq", "title": "Barbeque"}, {"alias": "sportsbars", "title": "Sports Bars"}], "rating": 3.5, "coordinates": {"latitude": 40.714486, "longitude": -74.0152768}, "transactions": ["pickup", "delivery"], "price": "$$", "location": {"address1": "255 Vesey St", "address2": "", "address3": "", "city": "New York", "zip_code": "10282", "country": "US", "state": "NY", "display_address": ["255 Vesey St", "New York, NY 10282"]}, "phone": "+12128892005", "display_phone": "(212) 889-2005", "distance": 241.8001913302282}, {"id": "aS96CjGeSWXjKEAENvW68w", "alias": "hot-dog-cart-at-south-end-ave-new-york", "name": "Hot Dog Cart At South End Ave", "image_url": "https://s3-media2.fl.yelpcdn.com/bphoto/rhNgN0oAnCm_KnYWgtDZXA/o.jpg", "is_closed": false, "url": "https://www.yelp.com/biz/hot-dog-cart-at-south-end-ave-new-york?adjust_creative=ywY5UnLZrNrRl2b93Ruy_g&utm_campaign=yelp_api_v3&utm_medium=api_v3_business_search&utm_source=ywY5UnLZrNrRl2b93Ruy_g", "review_count": 26, "categories": [{"alias": "foodstands", "title": "Food Stands"}, {"alias": "hotdog", "title": "Hot Dogs"}], "rating": 4.0, "coordinates": {"latitude": 40.7109314570261, "longitude": -74.0161190947942}, "transactions": [], "price": "$", "location": {"address1": "331 South End Ave", "address2": "", "address3": "", "city": "New York", "zip_code": "10280", "country": "US", "state": "NY", "display_address": ["331 South End Ave", "New York, NY 10280"]}, "phone": "+12124310131", "display_phone": "(212) 431-0131", "distance": 218.49298984229227}, {"id": "R7Uo4SZzZ5ZJy5tFJ7IW4g", "alias": "skinny-pizza-new-york", "name": "Skinny Pizza", "image_url": "https://s3-media1.fl.yelpcdn.com/bphoto/67JMQyzwqly9jxdd0oSm4Q/o.jpg", "is_closed": false, "url": "https://www.yelp.com/biz/skinny-pizza-new-york?adjust_creative=ywY5UnLZrNrRl2b93Ruy_g&utm_campaign=yelp_api_v3&utm_medium=api_v3_business_search&utm_source=ywY5UnLZrNrRl2b93Ruy_g", "review_count": 94, "categories": [{"alias": "pizza", "title": "Pizza"}, {"alias": "soup", "title": "Soup"}, {"alias": "salad", "title": "Salad"}], "rating": 2.5, "coordinates": {"latitude": 40.711986, "longitude": -74.015266}, "transactions": ["pickup", "delivery"], "price": "$$", "location": {"address1": "225 Liberty St", "address2": "", "address3": "", "city": "New York", "zip_code": "10281", "country": "US", "state": "NY", "display_address": ["225 Liberty St", "New York, NY 10281"]}, "phone": "+19176393844", "display_phone": "(917) 639-3844", "distance": 99.14749810334432}, {"id": "B-MDhRKRTmTqj4Vp_p8AGw", "alias": "p-j-clarkes-new-york-8", "name": "P.J. Clarke's", "image_url": "https://s3-media1.fl.yelpcdn.com/bphoto/R4JjrUHy0q1_6_0EXpD3Yg/o.jpg", "is_closed": false, "url": "https://www.yelp.com/biz/p-j-clarkes-new-york-8?adjust_creative=ywY5UnLZrNrRl2b93Ruy_g&utm_campaign=yelp_api_v3&utm_medium=api_v3_business_search&utm_source=ywY5UnLZrNrRl2b93Ruy_g", "review_count": 549, "categories": [{"alias": "tradamerican", "title": "American (Traditional)"}, {"alias": "raw_food", "title": "Live/Raw Food"}, {"alias": "cocktailbars", "title": "Cocktail Bars"}], "rating": 3.0, "coordinates": {"latitude": 40.7136996616618, "longitude": -74.0162283182144}, "transactions": ["pickup", "delivery"], "price": "$$", "location": {"address1": "250 Vesey St", "address2": "", "address3": "", "city": "New York", "zip_code": "10281", "country": "US", "state": "NY", "display_address": ["250 Vesey St", "New York, NY 10281"]}, "phone": "+12122851500", "display_phone": "(212) 285-1500", "distance": 110.1115417824875}, {"id": "EWoLBFek1k0Pt4MbTZQjGQ", "alias": "dr-smood-murray-street-new-york", "name": "Dr Smood - Murray Street", "image_url": "https://s3-media1.fl.yelpcdn.com/bphoto/ebwPfa-4P0J0MpuWAE0U4A/o.jpg", "is_closed": false, "url": "https://www.yelp.com/biz/dr-smood-murray-street-new-york?adjust_creative=ywY5UnLZrNrRl2b93Ruy_g&utm_campaign=yelp_api_v3&utm_medium=api_v3_business_search&utm_source=ywY5UnLZrNrRl2b93Ruy_g", "review_count": 3, "categories": [{"alias": "cafes", "title": "Cafes"}, {"alias": "coffee", "title": "Coffee & Tea"}, {"alias": "juicebars", "title": "Juice Bars & Smoothies"}], "rating": 3.5, "coordinates": {"latitude": 40.71526, "longitude": -74.01461}, "transactions": ["pickup", "delivery"], "location": {"address1": "210 Murray St", "address2": null, "address3": "", "city": "New York", "zip_code": "10282", "country": "US", "state": "NY", "display_address": ["210 Murray St", "New York, NY 10282"]}, "phone": "+16469711643", "display_phone": "(646) 971-1643", "distance": 245.36013340113692}, {"id": "uas-gysnqvS_Krx0kmLQ5A", "alias": "black-seed-bagels-at-hudson-eats-new-york", "name": "Black Seed Bagels At Hudson Eats", "image_url": "https://s3-media2.fl.yelpcdn.com/bphoto/sRangbZ_T4jL-FWP35-VbQ/o.jpg", "is_closed": false, "url": "https://www.yelp.com/biz/black-seed-bagels-at-hudson-eats-new-york?adjust_creative=ywY5UnLZrNrRl2b93Ruy_g&utm_campaign=yelp_api_v3&utm_medium=api_v3_business_search&utm_source=ywY5UnLZrNrRl2b93Ruy_g", "review_count": 186, "categories": [{"alias": "bagels", "title": "Bagels"}, {"alias": "breakfast_brunch", "title": "Breakfast & Brunch"}, {"alias": "sandwiches", "title": "Sandwiches"}], "rating": 2.0, "coordinates": {"latitude": 40.7125928060161, "longitude": -74.0158035308725}, "transactions": ["pickup", "delivery"], "price": "$$", "location": {"address1": "200 Vesey St", "address2": "", "address3": "", "city": "New York", "zip_code": "10080", "country": "US", "state": "NY", "display_address": ["200 Vesey St", "New York, NY 10080"]}, "phone": "+16469151500", "display_phone": "(646) 915-1500", "distance": 35.29374913093667}, {"id": "u7zorNKg8uP86EIGRW8kXg", "alias": "fuku-new-york-19", "name": "Fuku", "image_url": "https://s3-media1.fl.yelpcdn.com/bphoto/cpEFJ2QYdjZnGJ6qYQTI7A/o.jpg", "is_closed": false, "url": "https://www.yelp.com/biz/fuku-new-york-19?adjust_creative=ywY5UnLZrNrRl2b93Ruy_g&utm_campaign=yelp_api_v3&utm_medium=api_v3_business_search&utm_source=ywY5UnLZrNrRl2b93Ruy_g", "review_count": 143, "categories": [{"alias": "comfortfood", "title": "Comfort Food"}, {"alias": "newamerican", "title": "American (New)"}], "rating": 3.0, "coordinates": {"latitude": 40.71156, "longitude": -74.01533}, "transactions": ["delivery"], "price": "$$", "location": {"address1": "225 Liberty St", "address2": "", "address3": null, "city": "New York", "zip_code": "10281", "country": "US", "state": "NY", "display_address": ["225 Liberty St", "New York, NY 10281"]}, "phone": "+16463838862", "display_phone": "(646) 383-8862", "distance": 93.75003602519703}, {"id": "pS7aJrWCGRuVqflukwiFDw", "alias": "wasabi-sushi-and-bento-new-york-11", "name": "Wasabi Sushi & Bento", "image_url": "https://s3-media2.fl.yelpcdn.com/bphoto/ozx4OoJg6Vjuufyu5H3hzQ/o.jpg", "is_closed": false, "url": "https://www.yelp.com/biz/wasabi-sushi-and-bento-new-york-11?adjust_creative=ywY5UnLZrNrRl2b93Ruy_g&utm_campaign=yelp_api_v3&utm_medium=api_v3_business_search&utm_source=ywY5UnLZrNrRl2b93Ruy_g", "review_count": 36, "categories": [{"alias": "sushi", "title": "Sushi Bars"}, {"alias": "japanese", "title": "Japanese"}, {"alias": "soup", "title": "Soup"}], "rating": 3.5, "coordinates": {"latitude": 40.712591, "longitude": -74.01272}, "transactions": ["pickup", "delivery"], "price": "$", "location": {"address1": "185 Greenwich St", "address2": "Ste LL3115", "address3": null, "city": "New York", "zip_code": "10007", "country": "US", "state": "NY", "display_address": ["185 Greenwich St", "Ste LL3115", "New York, NY 10007"]}, "phone": "+19172612437", "display_phone": "(917) 261-2437", "distance": 240.90456319659887}, {"id": "r3bwyyc48GoqIFYLd4gOXw", "alias": "casa-masa-new-york", "name": "Casa Masa", "image_url": "https://s3-media2.fl.yelpcdn.com/bphoto/dF8Nuy4RXFH0FWNrFKEPYA/o.jpg", "is_closed": false, "url": "https://www.yelp.com/biz/casa-masa-new-york?adjust_creative=ywY5UnLZrNrRl2b93Ruy_g&utm_campaign=yelp_api_v3&utm_medium=api_v3_business_search&utm_source=ywY5UnLZrNrRl2b93Ruy_g", "review_count": 3, "categories": [{"alias": "mexican", "title": "Mexican"}], "rating": 3.0, "coordinates": {"latitude": 40.710645, "longitude": -74.015555}, "transactions": [], "location": {"address1": "200 Liberty St", "address2": "", "address3": "Winter Garden Promenade", "city": "New York", "zip_code": "10281", "country": "US", "state": "NY", "display_address": ["200 Liberty St", "Winter Garden Promenade", "New York, NY 10281"]}, "phone": "", "display_phone": "", "distance": 243.58266398347502}, {"id": "rbAxZRKdMoMxeonDTmooFg", "alias": "el-vez-new-york", "name": "El Vez", "image_url": "https://s3-media2.fl.yelpcdn.com/bphoto/R-e4iH1DDZu520ADMraxyQ/o.jpg", "is_closed": false, "url": "https://www.yelp.com/biz/el-vez-new-york?adjust_creative=ywY5UnLZrNrRl2b93Ruy_g&utm_campaign=yelp_api_v3&utm_medium=api_v3_business_search&utm_source=ywY5UnLZrNrRl2b93Ruy_g", "review_count": 649, "categories": [{"alias": "mexican", "title": "Mexican"}, {"alias": "breakfast_brunch", "title": "Breakfast & Brunch"}], "rating": 3.5, "coordinates": {"latitude": 40.7147356376792, "longitude": -74.015635}, "transactions": ["pickup", "delivery"], "price": "$$", "location": {"address1": "259 Vesey St", "address2": "", "address3": "", "city": "New York", "zip_code": "10282", "country": "US", "state": "NY", "display_address": ["259 Vesey St", "New York, NY 10282"]}, "phone": "+12122332500", "display_phone": "(212) 233-2500", "distance": 209.79703701209638}, {"id": "_w1dOeM47whrFZoREjbuPA", "alias": "chopt-creative-salad-co-new-york-26", "name": "Chopt Creative Salad Co.", "image_url": "https://s3-media2.fl.yelpcdn.com/bphoto/KLwr5X_MrdeZGictWOt6eQ/o.jpg", "is_closed": false, "url": "https://www.yelp.com/biz/chopt-creative-salad-co-new-york-26?adjust_creative=ywY5UnLZrNrRl2b93Ruy_g&utm_campaign=yelp_api_v3&utm_medium=api_v3_business_search&utm_source=ywY5UnLZrNrRl2b93Ruy_g", "review_count": 5, "categories": [{"alias": "salad", "title": "Salad"}], "rating": 3.0, "coordinates": {"latitude": 40.712894, "longitude": -74.015701}, "transactions": [], "location": {"address1": "225 Liberty St", "address2": "Hudson Eats", "address3": null, "city": "New York", "zip_code": "10080", "country": "US", "state": "NY", "display_address": ["225 Liberty St", "Hudson Eats", "New York, NY 10080"]}, "phone": "+16467620054", "display_phone": "(646) 762-0054", "distance": 13.034737965203712}, {"id": "nsPDmDEn539AqQZpj2KrsA", "alias": "chipotle-mexican-grill-new-york-73", "name": "Chipotle Mexican Grill", "image_url": "https://s3-media1.fl.yelpcdn.com/bphoto/MoT_cVqY2-e3QQA9cbDGYA/o.jpg", "is_closed": false, "url": "https://www.yelp.com/biz/chipotle-mexican-grill-new-york-73?adjust_creative=ywY5UnLZrNrRl2b93Ruy_g&utm_campaign=yelp_api_v3&utm_medium=api_v3_business_search&utm_source=ywY5UnLZrNrRl2b93Ruy_g", "review_count": 39, "categories": [{"alias": "mexican", "title": "Mexican"}, {"alias": "hotdogs", "title": "Fast Food"}], "rating": 2.0, "coordinates": {"latitude": 40.7107027115765, "longitude": -74.0163696314733}, "transactions": [], "price": "$", "location": {"address1": "325 S End Ave", "address2": "", "address3": "", "city": "New York", "zip_code": "10280", "country": "US", "state": "NY", "display_address": ["325 S End Ave", "New York, NY 10280"]}, "phone": "+12122673818", "display_phone": "(212) 267-3818", "distance": 248.35734007074672}, {"id": "BCg5O26hQnVX7OOepNLK6w", "alias": "blue-ribbon-sushi-bar-hudson-eats-new-york", "name": "Blue Ribbon Sushi Bar - Hudson Eats", "image_url": "https://s3-media3.fl.yelpcdn.com/bphoto/uX_6H8KV4wzgOuYLM6P8hQ/o.jpg", "is_closed": false, "url": "https://www.yelp.com/biz/blue-ribbon-sushi-bar-hudson-eats-new-york?adjust_creative=ywY5UnLZrNrRl2b93Ruy_g&utm_campaign=yelp_api_v3&utm_medium=api_v3_business_search&utm_source=ywY5UnLZrNrRl2b93Ruy_g", "review_count": 146, "categories": [{"alias": "sushi", "title": "Sushi Bars"}, {"alias": "japanese", "title": "Japanese"}], "rating": 3.5, "coordinates": {"latitude": 40.712693, "longitude": -74.015839}, "transactions": ["pickup", "delivery"], "price": "$$", "location": {"address1": "225 Liberty St", "address2": "Hudson Eats", "address3": "", "city": "New York", "zip_code": "10281", "country": "US", "state": "NY", "display_address": ["225 Liberty St", "Hudson Eats", "New York, NY 10281"]}, "phone": "+12127860808", "display_phone": "(212) 786-0808", "distance": 29.42500350881219}, {"id": "PnuocdD_cKWKAwzUT2wW4Q", "alias": "juice-press-new-york-36", "name": "Juice Press", "image_url": "https://s3-media2.fl.yelpcdn.com/bphoto/GcxA1LtHNBqu7v6eG5a6VA/o.jpg", "is_closed": false, "url": "https://www.yelp.com/biz/juice-press-new-york-36?adjust_creative=ywY5UnLZrNrRl2b93Ruy_g&utm_campaign=yelp_api_v3&utm_medium=api_v3_business_search&utm_source=ywY5UnLZrNrRl2b93Ruy_g", "review_count": 6, "categories": [{"alias": "juicebars", "title": "Juice Bars & Smoothies"}, {"alias": "vegan", "title": "Vegan"}, {"alias": "organic_stores", "title": "Organic Stores"}], "rating": 3.0, "coordinates": {"latitude": 40.71156, "longitude": -74.01533}, "transactions": [], "price": "$$$", "location": {"address1": "225 Liberty St", "address2": null, "address3": "Equinox Brookfield Pl", "city": "New York", "zip_code": "10281", "country": "US", "state": "NY", "display_address": ["225 Liberty St", "Equinox Brookfield Pl", "New York, NY 10281"]}, "phone": "+12127770034", "display_phone": "(212) 777-0034", "distance": 93.75003602519703}, {"id": "wNG7nfVEqPPTiQwQ3uIXjA", "alias": "joe-and-the-juice-new-york-9", "name": "JOE & THE JUICE", "image_url": "https://s3-media1.fl.yelpcdn.com/bphoto/-X5BeKZWyxetDFlYjgz1aw/o.jpg", "is_closed": false, "url": "https://www.yelp.com/biz/joe-and-the-juice-new-york-9?adjust_creative=ywY5UnLZrNrRl2b93Ruy_g&utm_campaign=yelp_api_v3&utm_medium=api_v3_business_search&utm_source=ywY5UnLZrNrRl2b93Ruy_g", "review_count": 132, "categories": [{"alias": "coffee", "title": "Coffee & Tea"}, {"alias": "juicebars", "title": "Juice Bars & Smoothies"}, {"alias": "cafes", "title": "Cafes"}], "rating": 3.0, "coordinates": {"latitude": 40.7127629242971, "longitude": -74.0134200453758}, "transactions": [], "price": "$", "location": {"address1": "World Trade Ctr 185 Greenwich St", "address2": "Main Level C2", "address3": null, "city": "New York", "zip_code": "10006", "country": "US", "state": "NY", "display_address": ["World Trade Ctr 185 Greenwich St", "Main Level C2", "New York, NY 10006"]}, "phone": "", "display_phone": "", "distance": 180.4352150813276}, {"id": "FHMu4ZseXglvn8FQVWAPjw", "alias": "chopt-creative-salad-co-new-york-40", "name": "Chopt Creative Salad Co.", "image_url": "https://s3-media3.fl.yelpcdn.com/bphoto/fXvnB6JGBXowanYRqRUjhQ/o.jpg", "is_closed": false, "url": "https://www.yelp.com/biz/chopt-creative-salad-co-new-york-40?adjust_creative=ywY5UnLZrNrRl2b93Ruy_g&utm_campaign=yelp_api_v3&utm_medium=api_v3_business_search&utm_source=ywY5UnLZrNrRl2b93Ruy_g", "review_count": 120, "categories": [{"alias": "salad", "title": "Salad"}, {"alias": "vegetarian", "title": "Vegetarian"}], "rating": 3.0, "coordinates": {"latitude": 40.712349458594, "longitude": -74.0158876724914}, "transactions": ["pickup"], "price": "$$", "location": {"address1": "225 Liberty St", "address2": "", "address3": "", "city": "New York", "zip_code": "10281", "country": "US", "state": "NY", "display_address": ["225 Liberty St", "New York, NY 10281"]}, "phone": "+16467620054", "display_phone": "(646) 762-0054", "distance": 62.196426359770015}, {"id": "L5eqJRy8Yx_4El6rUxWmBw", "alias": "el-vez-burrito-bar-new-york", "name": "El Vez Burrito Bar", "image_url": "https://s3-media3.fl.yelpcdn.com/bphoto/p-1_uKZapdvXP2OJA97Mdw/o.jpg", "is_closed": false, "url": "https://www.yelp.com/biz/el-vez-burrito-bar-new-york?adjust_creative=ywY5UnLZrNrRl2b93Ruy_g&utm_campaign=yelp_api_v3&utm_medium=api_v3_business_search&utm_source=ywY5UnLZrNrRl2b93Ruy_g", "review_count": 133, "categories": [{"alias": "mexican", "title": "Mexican"}, {"alias": "salad", "title": "Salad"}, {"alias": "breakfast_brunch", "title": "Breakfast & Brunch"}], "rating": 4.0, "coordinates": {"latitude": 40.7147356376792, "longitude": -74.015635}, "transactions": [], "price": "$$", "location": {"address1": "259 Vesey St", "address2": "", "address3": "", "city": "New York", "zip_code": "10282", "country": "US", "state": "NY", "display_address": ["259 Vesey St", "New York, NY 10282"]}, "phone": "+12122332500", "display_phone": "(212) 233-2500", "distance": 209.79703701209638}, {"id": "j9tAoiEsgSS85QV04pY3lQ", "alias": "kimchi-taco-new-york-2", "name": "Kimchi Taco", "image_url": "https://s3-media1.fl.yelpcdn.com/bphoto/VeQld7L0Tf3U6fcR_1tkUQ/o.jpg", "is_closed": false, "url": "https://www.yelp.com/biz/kimchi-taco-new-york-2?adjust_creative=ywY5UnLZrNrRl2b93Ruy_g&utm_campaign=yelp_api_v3&utm_medium=api_v3_business_search&utm_source=ywY5UnLZrNrRl2b93Ruy_g", "review_count": 223, "categories": [{"alias": "korean", "title": "Korean"}, {"alias": "foodtrucks", "title": "Food Trucks"}, {"alias": "mexican", "title": "Mexican"}], "rating": 3.0, "coordinates": {"latitude": 40.7112121582031, "longitude": -74.0148391723633}, "transactions": [], "price": "$", "location": {"address1": "", "address2": "", "address3": "", "city": "New York", "zip_code": "10281", "country": "US", "state": "NY", "display_address": ["New York, NY 10281"]}, "phone": "+17183601839", "display_phone": "(718) 360-1839", "distance": 212.4605716587705}, {"id": "S6Wa5JDebsRgU0wyDwMbjg", "alias": "devon-and-blakely-new-york-8", "name": "Devon & Blakely", "image_url": "https://s3-media3.fl.yelpcdn.com/bphoto/UD7Qg0gYhWsu8sBkAmBwLA/o.jpg", "is_closed": false, "url": "https://www.yelp.com/biz/devon-and-blakely-new-york-8?adjust_creative=ywY5UnLZrNrRl2b93Ruy_g&utm_campaign=yelp_api_v3&utm_medium=api_v3_business_search&utm_source=ywY5UnLZrNrRl2b93Ruy_g", "review_count": 89, "categories": [{"alias": "sandwiches", "title": "Sandwiches"}, {"alias": "cafes", "title": "Cafes"}], "rating": 2.0, "coordinates": {"latitude": 40.714141219887, "longitude": -74.0155009707779}, "transactions": ["pickup", "delivery"], "price": "$$", "location": {"address1": "1 World Financial Ctr", "address2": "", "address3": "", "city": "New York", "zip_code": "10281", "country": "US", "state": "NY", "display_address": ["1 World Financial Ctr", "New York, NY 10281"]}, "phone": "+12127864206", "display_phone": "(212) 786-4206", "distance": 143.67961865685132}, {"id": "M_pqBIcgG9eL3Y6aLFn9-w", "alias": "beans-and-greens-new-york-2", "name": "Beans & Greens", "image_url": "https://s3-media3.fl.yelpcdn.com/bphoto/-w44G4w0hRtg9HD7xQOSEw/o.jpg", "is_closed": false, "url": "https://www.yelp.com/biz/beans-and-greens-new-york-2?adjust_creative=ywY5UnLZrNrRl2b93Ruy_g&utm_campaign=yelp_api_v3&utm_medium=api_v3_business_search&utm_source=ywY5UnLZrNrRl2b93Ruy_g", "review_count": 92, "categories": [{"alias": "breakfast_brunch", "title": "Breakfast & Brunch"}, {"alias": "salad", "title": "Salad"}, {"alias": "juicebars", "title": "Juice Bars & Smoothies"}], "rating": 2.5, "coordinates": {"latitude": 40.715004, "longitude": -74.014819}, "transactions": ["pickup", "delivery"], "price": "$$", "location": {"address1": "245 Murray St", "address2": "", "address3": "", "city": "New York", "zip_code": "10282", "country": "US", "state": "NY", "display_address": ["245 Murray St", "New York, NY 10282"]}, "phone": "+12127864760", "display_phone": "(212) 786-4760", "distance": 247.4969157501446}, {"id": "ce605OMECZ3jLZtk6dCDHA", "alias": "le-pain-quotidien-new-york-137", "name": "Le Pain Quotidien", "image_url": "https://s3-media2.fl.yelpcdn.com/bphoto/JMULfFbyn9qGxaOq3vM3mA/o.jpg", "is_closed": false, "url": "https://www.yelp.com/biz/le-pain-quotidien-new-york-137?adjust_creative=ywY5UnLZrNrRl2b93Ruy_g&utm_campaign=yelp_api_v3&utm_medium=api_v3_business_search&utm_source=ywY5UnLZrNrRl2b93Ruy_g", "review_count": 68, "categories": [{"alias": "coffee", "title": "Coffee & Tea"}, {"alias": "bakeries", "title": "Bakeries"}, {"alias": "breakfast_brunch", "title": "Breakfast & Brunch"}], "rating": 3.0, "coordinates": {"latitude": 40.7112998613948, "longitude": -74.0161925656414}, "transactions": ["pickup", "delivery"], "price": "$$", "location": {"address1": "395 S End Ave", "address2": "", "address3": null, "city": "New York", "zip_code": "10280", "country": "US", "state": "NY", "display_address": ["395 S End Ave", "New York, NY 10280"]}, "phone": "+16466188930", "display_phone": "(646) 618-8930", "distance": 180.4586278733882}, {"id": "CfckTE8gu7NTSBDIxQcIVQ", "alias": "pret-a-manger-new-york-76", "name": "Pret A Manger", "image_url": "https://s3-media3.fl.yelpcdn.com/bphoto/ktYLkHoCgvwtZLCVc00Kbw/o.jpg", "is_closed": false, "url": "https://www.yelp.com/biz/pret-a-manger-new-york-76?adjust_creative=ywY5UnLZrNrRl2b93Ruy_g&utm_campaign=yelp_api_v3&utm_medium=api_v3_business_search&utm_source=ywY5UnLZrNrRl2b93Ruy_g", "review_count": 24, "categories": [{"alias": "coffee", "title": "Coffee & Tea"}, {"alias": "breakfast_brunch", "title": "Breakfast & Brunch"}, {"alias": "sandwiches", "title": "Sandwiches"}], "rating": 3.0, "coordinates": {"latitude": 40.71302, "longitude": -74.013032}, "transactions": [], "price": "$", "location": {"address1": "1 World Trade Ctr", "address2": "", "address3": null, "city": "New York", "zip_code": "10007", "country": "US", "state": "NY", "display_address": ["1 World Trade Ctr", "New York, NY 10007"]}, "phone": "+12126933700", "display_phone": "(212) 693-3700", "distance": 183.93470887458577}]