[{"id": "jIbFA311ECY4Fv4L0JikdQ", "alias": "just-pho-new-york-2", "name": "Just Pho", "image_url": "https://s3-media2.fl.yelpcdn.com/bphoto/csy62hnNVt9F2s3fI3f4UA/o.jpg", "is_closed": false, "url": "https://www.yelp.com/biz/just-pho-new-york-2?adjust_creative=HdhkN5EEH6lAqE3kwhsHEQ&utm_campaign=yelp_api_v3&utm_medium=api_v3_business_search&utm_source=HdhkN5EEH6lAqE3kwhsHEQ", "review_count": 169, "categories": [{"alias": "vietnamese", "title": "Vietnamese"}, {"alias": "soup", "title": "Soup"}], "rating": 4.0, "coordinates": {"latitude": 40.74989, "longitude": -73.99425}, "transactions": ["delivery", "pickup"], "price": "$$", "location": {"address1": "252 W 31st St", "address2": null, "address3": "", "city": "New York", "zip_code": "10001", "country": "US", "state": "NY", "display_address": ["252 W 31st St", "New York, NY 10001"]}, "phone": "+19172617494", "display_phone": "(917) 261-7494", "distance": 119.51960327947778}, {"id": "PK7xvOMIjLOnuAC9oupggw", "alias": "the-pennsy-new-york", "name": "The Pennsy", "image_url": "https://s3-media1.fl.yelpcdn.com/bphoto/0isgIM9o9pvkZaGCEh0NiA/o.jpg", "is_closed": false, "url": "https://www.yelp.com/biz/the-pennsy-new-york?adjust_creative=HdhkN5EEH6lAqE3kwhsHEQ&utm_campaign=yelp_api_v3&utm_medium=api_v3_business_search&utm_source=HdhkN5EEH6lAqE3kwhsHEQ", "review_count": 372, "categories": [{"alias": "food_court", "title": "Food Court"}], "rating": 3.5, "coordinates": {"latitude": 40.750305, "longitude": -73.9917}, "transactions": [], "price": "$$", "location": {"address1": "2 Pennsylvania Plz", "address2": null, "address3": "", "city": "New York", "zip_code": "10121", "country": "US", "state": "NY", "display_address": ["2 Pennsylvania Plz", "New York, NY 10121"]}, "phone": "+16468131818", "display_phone": "(646) 813-1818", "distance": 107.2849942739057}, {"id": "gKJ-rb2di7fPGIuIjF0ylw", "alias": "taco-dumbo-new-york", "name": "Taco Dumbo", "image_url": "https://s3-media4.fl.yelpcdn.com/bphoto/BSaUy4QQHjyisIpIHVwe2w/o.jpg", "is_closed": false, "url": "https://www.yelp.com/biz/taco-dumbo-new-york?adjust_creative=HdhkN5EEH6lAqE3kwhsHEQ&utm_campaign=yelp_api_v3&utm_medium=api_v3_business_search&utm_source=HdhkN5EEH6lAqE3kwhsHEQ", "review_count": 106, "categories": [{"alias": "latin", "title": "Latin American"}, {"alias": "tacos", "title": "Tacos"}], "rating": 4.0, "coordinates": {"latitude": 40.750297, "longitude": -73.991708}, "transactions": ["delivery", "pickup"], "price": "$$", "location": {"address1": "2 Pennsylvania Plz", "address2": "The Pennsy", "address3": null, "city": "New York", "zip_code": "10121", "country": "US", "state": "NY", "display_address": ["2 Pennsylvania Plz", "The Pennsy", "New York, NY 10121"]}, "phone": "+16464809366", "display_phone": "(646) 480-9366", "distance": 106.6223148202358}, {"id": "Mxt2kkCd9iowHfGkbVHlBQ", "alias": "the-grill-room-at-msg-restaurant-new-york", "name": "The Grill Room at MSG Restaurant", "image_url": "https://s3-media3.fl.yelpcdn.com/bphoto/FQQBWeS-gP-X6LFtWWJxnQ/o.jpg", "is_closed": false, "url": "https://www.yelp.com/biz/the-grill-room-at-msg-restaurant-new-york?adjust_creative=HdhkN5EEH6lAqE3kwhsHEQ&utm_campaign=yelp_api_v3&utm_medium=api_v3_business_search&utm_source=HdhkN5EEH6lAqE3kwhsHEQ", "review_count": 2, "categories": [{"alias": "newamerican", "title": "American (New)"}], "rating": 5.0, "coordinates": {"latitude": 40.750541, "longitude": -73.993462}, "transactions": [], "location": {"address1": "4 Pennsylvania Plaza", "address2": null, "address3": "", "city": "New York", "zip_code": "10001", "country": "US", "state": "NY", "display_address": ["4 Pennsylvania Plaza", "New York, NY 10001"]}, "phone": "+12124656000", "display_phone": "(212) 465-6000", "distance": 50.21906082872409}, {"id": "5wjQmxHJChnb_diAYy3Wow", "alias": "nick-stefs-steakhouse-new-york", "name": "Nick + Stef's Steakhouse", "image_url": "https://s3-media3.fl.yelpcdn.com/bphoto/n1PlcwF4hJDATn0bv1wdPg/o.jpg", "is_closed": false, "url": "https://www.yelp.com/biz/nick-stefs-steakhouse-new-york?adjust_creative=HdhkN5EEH6lAqE3kwhsHEQ&utm_campaign=yelp_api_v3&utm_medium=api_v3_business_search&utm_source=HdhkN5EEH6lAqE3kwhsHEQ", "review_count": 218, "categories": [{"alias": "steak", "title": "Steakhouses"}], "rating": 3.5, "coordinates": {"latitude": 40.7515161474489, "longitude": -73.9939186455078}, "transactions": [], "price": "$$$", "location": {"address1": "9 Penn Plz", "address2": null, "address3": "", "city": "New York", "zip_code": "10001", "country": "US", "state": "NY", "display_address": ["9 Penn Plz", "New York, NY 10001"]}, "phone": "+12125634444", "display_phone": "(212) 563-4444", "distance": 155.6731487118607}, {"id": "iu8nqOMFdUPg201QMkrGJw", "alias": "american-whiskey-new-york", "name": "American Whiskey", "image_url": "https://s3-media3.fl.yelpcdn.com/bphoto/OkWjUMRJrRkpB8suSLOBXA/o.jpg", "is_closed": false, "url": "https://www.yelp.com/biz/american-whiskey-new-york?adjust_creative=HdhkN5EEH6lAqE3kwhsHEQ&utm_campaign=yelp_api_v3&utm_medium=api_v3_business_search&utm_source=HdhkN5EEH6lAqE3kwhsHEQ", "review_count": 326, "categories": [{"alias": "newamerican", "title": "American (New)"}, {"alias": "cocktailbars", "title": "Cocktail Bars"}, {"alias": "sportsbars", "title": "Sports Bars"}], "rating": 3.5, "coordinates": {"latitude": 40.7493, "longitude": -73.99414}, "transactions": [], "price": "$$", "location": {"address1": "247 W 30th St", "address2": "", "address3": "", "city": "New York", "zip_code": "10001", "country": "US", "state": "NY", "display_address": ["247 W 30th St", "New York, NY 10001"]}, "phone": "+12129671070", "display_phone": "(212) 967-1070", "distance": 135.6617584073625}, {"id": "Jwb7oACzIF1EI2aq-417ew", "alias": "charlie-palmer-steaks-new-york", "name": "Charlie Palmer Steaks", "image_url": "https://s3-media4.fl.yelpcdn.com/bphoto/LpHTiYCb6g6enRdaaonp4Q/o.jpg", "is_closed": false, "url": "https://www.yelp.com/biz/charlie-palmer-steaks-new-york?adjust_creative=HdhkN5EEH6lAqE3kwhsHEQ&utm_campaign=yelp_api_v3&utm_medium=api_v3_business_search&utm_source=HdhkN5EEH6lAqE3kwhsHEQ", "review_count": 1, "categories": [{"alias": "foodstands", "title": "Food Stands"}, {"alias": "newamerican", "title": "American (New)"}, {"alias": "steak", "title": "Steakhouses"}], "rating": 5.0, "coordinates": {"latitude": 40.75047, "longitude": -73.99338}, "transactions": [], "location": {"address1": "4 Pennsylvania Plz", "address2": "", "address3": null, "city": "New York", "zip_code": "10001", "country": "US", "state": "NY", "display_address": ["4 Pennsylvania Plz", "New York, NY 10001"]}, "phone": "", "display_phone": "", "distance": 50.21906082872409}, {"id": "Dhd5Ur9e8X0uK4OLfVvw3g", "alias": "shake-shack-new-york-44", "name": "Shake Shack", "image_url": "https://s3-media2.fl.yelpcdn.com/bphoto/RVM42Rxc3xYA3Q5TZwzLlQ/o.jpg", "is_closed": false, "url": "https://www.yelp.com/biz/shake-shack-new-york-44?adjust_creative=HdhkN5EEH6lAqE3kwhsHEQ&utm_campaign=yelp_api_v3&utm_medium=api_v3_business_search&utm_source=HdhkN5EEH6lAqE3kwhsHEQ", "review_count": 159, "categories": [{"alias": "burgers", "title": "Burgers"}, {"alias": "hotdogs", "title": "Fast Food"}, {"alias": "breakfast_brunch", "title": "Breakfast & Brunch"}], "rating": 3.5, "coordinates": {"latitude": 40.7506085432919, "longitude": -73.9921478247893}, "transactions": ["delivery"], "price": "$$", "location": {"address1": "1 Pennsylvania Plz", "address2": "Lower Concourse", "address3": "Penn Station", "city": "New York", "zip_code": "10119", "country": "US", "state": "NY", "display_address": ["1 Pennsylvania Plz", "Lower Concourse", "Penn Station", "New York, NY 10119"]}, "phone": "+16462029715", "display_phone": "(646) 202-9715", "distance": 125.19663606674028}, {"id": "J17UnrHP-kDBaaQzhIUWLQ", "alias": "roses-pizza-new-york", "name": "Rose's Pizza", "image_url": "https://s3-media3.fl.yelpcdn.com/bphoto/-CqW-iIRnnr7r1TkvAPw4Q/o.jpg", "is_closed": false, "url": "https://www.yelp.com/biz/roses-pizza-new-york?adjust_creative=HdhkN5EEH6lAqE3kwhsHEQ&utm_campaign=yelp_api_v3&utm_medium=api_v3_business_search&utm_source=HdhkN5EEH6lAqE3kwhsHEQ", "review_count": 275, "categories": [{"alias": "pizza", "title": "Pizza"}, {"alias": "italian", "title": "Italian"}], "rating": 3.5, "coordinates": {"latitude": 40.751159, "longitude": -73.9922235}, "transactions": ["delivery", "pickup"], "price": "$", "location": {"address1": "1 Penn Plz", "address2": null, "address3": "", "city": "New York", "zip_code": "10119", "country": "US", "state": "NY", "display_address": ["1 Penn Plz", "New York, NY 10119"]}, "phone": "+12126297455", "display_phone": "(212) 629-7455", "distance": 113.31460704467307}, {"id": "niE9HCQD-lhFwbajU6DlkA", "alias": "manhattan-soup-man-new-york", "name": "Manhattan Soup Man", "image_url": "https://s3-media3.fl.yelpcdn.com/bphoto/sHW25Z8YNjqALh90IboX5g/o.jpg", "is_closed": false, "url": "https://www.yelp.com/biz/manhattan-soup-man-new-york?adjust_creative=HdhkN5EEH6lAqE3kwhsHEQ&utm_campaign=yelp_api_v3&utm_medium=api_v3_business_search&utm_source=HdhkN5EEH6lAqE3kwhsHEQ", "review_count": 2, "categories": [{"alias": "soup", "title": "Soup"}], "rating": 4.0, "coordinates": {"latitude": 40.751172, "longitude": -73.992242}, "transactions": [], "location": {"address1": "1 Penn Plz", "address2": "", "address3": "", "city": "New York", "zip_code": "10119", "country": "US", "state": "NY", "display_address": ["1 Penn Plz", "New York, NY 10119"]}, "phone": "+12126310521", "display_phone": "(212) 631-0521", "distance": 113.66503110654813}, {"id": "IQVbaEIskj5SnNDgWLnGbA", "alias": "ribalta-mo-new-york-2", "name": "Ribalta Mo'", "image_url": "https://s3-media4.fl.yelpcdn.com/bphoto/rG91XbXouwbiINiOiF4NhQ/o.jpg", "is_closed": false, "url": "https://www.yelp.com/biz/ribalta-mo-new-york-2?adjust_creative=HdhkN5EEH6lAqE3kwhsHEQ&utm_campaign=yelp_api_v3&utm_medium=api_v3_business_search&utm_source=HdhkN5EEH6lAqE3kwhsHEQ", "review_count": 21, "categories": [{"alias": "pizza", "title": "Pizza"}], "rating": 3.5, "coordinates": {"latitude": 40.750325556274, "longitude": -73.9918599851807}, "transactions": ["delivery", "pickup"], "location": {"address1": "2 Penn Plz", "address2": null, "address3": "The Pennsy", "city": "New York", "zip_code": "10121", "country": "US", "state": "NY", "display_address": ["2 Penn Plz", "The Pennsy", "New York, NY 10121"]}, "phone": "+16466601149", "display_phone": "(646) 660-1149", "distance": 93.81488030328921}, {"id": "A-OJFfD0jsAX8WEZ5yaDsQ", "alias": "play-by-play-restaurant-new-york", "name": "Play by Play Restaurant", "image_url": "https://s3-media2.fl.yelpcdn.com/bphoto/Y5d6hMJaItJrCkJksoli6g/o.jpg", "is_closed": false, "url": "https://www.yelp.com/biz/play-by-play-restaurant-new-york?adjust_creative=HdhkN5EEH6lAqE3kwhsHEQ&utm_campaign=yelp_api_v3&utm_medium=api_v3_business_search&utm_source=HdhkN5EEH6lAqE3kwhsHEQ", "review_count": 1, "categories": [{"alias": "tradamerican", "title": "American (Traditional)"}], "rating": 4.0, "coordinates": {"latitude": 40.75047, "longitude": -73.99338}, "transactions": [], "price": "$$", "location": {"address1": "4 Penn Plz", "address2": "Fl 4", "address3": "", "city": "New York", "zip_code": "10001", "country": "US", "state": "NY", "display_address": ["4 Penn Plz", "Fl 4", "New York, NY 10001"]}, "phone": "+12124655888", "display_phone": "(212) 465-5888", "distance": 50.21906082872409}, {"id": "YIkVYlwVkMiHVnDYZtpt4A", "alias": "kaboozs-bar-and-grill-new-york", "name": "Kabooz's Bar & Grill", "image_url": "https://s3-media3.fl.yelpcdn.com/bphoto/3klkygp-NLdDLIyLWr0eDg/o.jpg", "is_closed": false, "url": "https://www.yelp.com/biz/kaboozs-bar-and-grill-new-york?adjust_creative=HdhkN5EEH6lAqE3kwhsHEQ&utm_campaign=yelp_api_v3&utm_medium=api_v3_business_search&utm_source=HdhkN5EEH6lAqE3kwhsHEQ", "review_count": 140, "categories": [{"alias": "bars", "title": "Bars"}, {"alias": "sandwiches", "title": "Sandwiches"}], "rating": 3.5, "coordinates": {"latitude": 40.750627, "longitude": -73.993469}, "transactions": ["delivery", "pickup"], "price": "$$", "location": {"address1": "2 Penn Plz", "address2": "", "address3": "", "city": "New York", "zip_code": "10121", "country": "US", "state": "NY", "display_address": ["2 Penn Plz", "New York, NY 10121"]}, "phone": "+12127600848", "display_phone": "(212) 760-0848", "distance": 54.40893236057571}, {"id": "nJvbEcsYCLPRVzNgi47qBQ", "alias": "the-tillage-new-york-new-york", "name": "The Tillage New York", "image_url": "https://s3-media2.fl.yelpcdn.com/bphoto/rkMNMA9petY-8I60AdT-gQ/o.jpg", "is_closed": false, "url": "https://www.yelp.com/biz/the-tillage-new-york-new-york?adjust_creative=HdhkN5EEH6lAqE3kwhsHEQ&utm_campaign=yelp_api_v3&utm_medium=api_v3_business_search&utm_source=HdhkN5EEH6lAqE3kwhsHEQ", "review_count": 9, "categories": [{"alias": "newamerican", "title": "American (New)"}, {"alias": "breakfast_brunch", "title": "Breakfast & Brunch"}, {"alias": "cocktailbars", "title": "Cocktail Bars"}], "rating": 5.0, "coordinates": {"latitude": 40.749435, "longitude": -73.994271}, "transactions": ["delivery", "pickup"], "location": {"address1": "251 West 30th St", "address2": null, "address3": "", "city": "New York", "zip_code": "10001", "country": "US", "state": "NY", "display_address": ["251 West 30th St", "New York, NY 10001"]}, "phone": "+16465909888", "display_phone": "(646) 590-9888", "distance": 142.98942415107842}, {"id": "zT-ilbiiVm73Eqhp3dNXjg", "alias": "the-club-bar-and-grill-new-york", "name": "The Club Bar and Grill", "image_url": "https://s3-media4.fl.yelpcdn.com/bphoto/bYxSMWA-_Xkg7rMXyEKawQ/o.jpg", "is_closed": false, "url": "https://www.yelp.com/biz/the-club-bar-and-grill-new-york?adjust_creative=HdhkN5EEH6lAqE3kwhsHEQ&utm_campaign=yelp_api_v3&utm_medium=api_v3_business_search&utm_source=HdhkN5EEH6lAqE3kwhsHEQ", "review_count": 3, "categories": [{"alias": "bars", "title": "Bars"}, {"alias": "newamerican", "title": "American (New)"}], "rating": 4.0, "coordinates": {"latitude": 40.75047, "longitude": -73.99338}, "transactions": [], "location": {"address1": "4 Penn Plz", "address2": "", "address3": "Madison Square Garden", "city": "New York", "zip_code": "10001", "country": "US", "state": "NY", "display_address": ["4 Penn Plz", "Madison Square Garden", "New York, NY 10001"]}, "phone": "+12124656290", "display_phone": "(212) 465-6290", "distance": 50.21906082872409}, {"id": "z8KJDPz6-KSLUUcuYxk0uQ", "alias": "chickpea-manhattan-8", "name": "Chickpea", "image_url": "https://s3-media3.fl.yelpcdn.com/bphoto/TCwf4QgHqiMip6PMcXJYFA/o.jpg", "is_closed": false, "url": "https://www.yelp.com/biz/chickpea-manhattan-8?adjust_creative=HdhkN5EEH6lAqE3kwhsHEQ&utm_campaign=yelp_api_v3&utm_medium=api_v3_business_search&utm_source=HdhkN5EEH6lAqE3kwhsHEQ", "review_count": 41, "categories": [{"alias": "mideastern", "title": "Middle Eastern"}], "rating": 3.0, "coordinates": {"latitude": 40.7497125864029, "longitude": -73.9936213195324}, "transactions": [], "price": "$$", "location": {"address1": "234 W 31st St", "address2": "", "address3": "Penn Station  Amtrak Concourse", "city": "Manhattan", "zip_code": "10001", "country": "US", "state": "NY", "display_address": ["234 W 31st St", "Penn Station  Amtrak Concourse", "Manhattan, NY 10001"]}, "phone": "+12122440101", "display_phone": "(212) 244-0101", "distance": 82.29703006372237}, {"id": "_vRhM0nRCAQPHko-XUkg_w", "alias": "pat-lafrieda-new-york", "name": "Pat LaFrieda", "image_url": "https://s3-media1.fl.yelpcdn.com/bphoto/1ToQIVg9qgtGf64WK51LUw/o.jpg", "is_closed": false, "url": "https://www.yelp.com/biz/pat-lafrieda-new-york?adjust_creative=HdhkN5EEH6lAqE3kwhsHEQ&utm_campaign=yelp_api_v3&utm_medium=api_v3_business_search&utm_source=HdhkN5EEH6lAqE3kwhsHEQ", "review_count": 96, "categories": [{"alias": "sandwiches", "title": "Sandwiches"}], "rating": 3.0, "coordinates": {"latitude": 40.750104, "longitude": -73.992213}, "transactions": ["delivery", "pickup"], "price": "$$", "location": {"address1": "2 Penn Plz", "address2": "", "address3": "The Pennsy", "city": "New York", "zip_code": "10121", "country": "US", "state": "NY", "display_address": ["2 Penn Plz", "The Pennsy", "New York, NY 10121"]}, "phone": "", "display_phone": "", "distance": 68.15470057401373}, {"id": "_AbpRXX0PPbIAPoyJSvoSg", "alias": "the-juice-shop-new-york-5", "name": "The Juice Shop", "image_url": "https://s3-media2.fl.yelpcdn.com/bphoto/vSFcXqHleIeJ9TqW8HKAMA/o.jpg", "is_closed": false, "url": "https://www.yelp.com/biz/the-juice-shop-new-york-5?adjust_creative=HdhkN5EEH6lAqE3kwhsHEQ&utm_campaign=yelp_api_v3&utm_medium=api_v3_business_search&utm_source=HdhkN5EEH6lAqE3kwhsHEQ", "review_count": 112, "categories": [{"alias": "juicebars", "title": "Juice Bars & Smoothies"}, {"alias": "salad", "title": "Salad"}, {"alias": "acaibowls", "title": "Acai Bowls"}], "rating": 3.0, "coordinates": {"latitude": 40.749812, "longitude": -73.99278}, "transactions": ["pickup", "delivery"], "price": "$$", "location": {"address1": "7 Penn Plz", "address2": "", "address3": "", "city": "New York", "zip_code": "10001", "country": "US", "state": "NY", "display_address": ["7 Penn Plz", "New York, NY 10001"]}, "phone": "+12125648048", "display_phone": "(212) 564-8048", "distance": 58.05185967470692}, {"id": "MxX0Q3ELSGNcg9DIQIt-Zw", "alias": "godiva-cafe-new-york-4", "name": "Godiva Cafe", "image_url": "https://s3-media4.fl.yelpcdn.com/bphoto/RurDMoicIszrFyVLN20Lpw/o.jpg", "is_closed": false, "url": "https://www.yelp.com/biz/godiva-cafe-new-york-4?adjust_creative=HdhkN5EEH6lAqE3kwhsHEQ&utm_campaign=yelp_api_v3&utm_medium=api_v3_business_search&utm_source=HdhkN5EEH6lAqE3kwhsHEQ", "review_count": 29, "categories": [{"alias": "chocolate", "title": "Chocolatiers & Shops"}, {"alias": "cafes", "title": "Cafes"}], "rating": 3.0, "coordinates": {"latitude": 40.7513889703788, "longitude": -73.9930560439825}, "transactions": [], "location": {"address1": "One Pennsylvania Plz", "address2": "Ste LL2", "address3": null, "city": "New York", "zip_code": "10119", "country": "US", "state": "NY", "display_address": ["One Pennsylvania Plz", "Ste LL2", "New York, NY 10119"]}, "phone": "+19179242232", "display_phone": "(917) 924-2232", "distance": 119.8375748780629}, {"id": "rEPus52W0HwS2WA_i9RvPQ", "alias": "tgi-fridays-new-york-12", "name": "TGI Fridays", "image_url": "https://s3-media1.fl.yelpcdn.com/bphoto/cn0-kTzpCBTJQzpu2fQFzg/o.jpg", "is_closed": false, "url": "https://www.yelp.com/biz/tgi-fridays-new-york-12?adjust_creative=HdhkN5EEH6lAqE3kwhsHEQ&utm_campaign=yelp_api_v3&utm_medium=api_v3_business_search&utm_source=HdhkN5EEH6lAqE3kwhsHEQ", "review_count": 172, "categories": [{"alias": "tradamerican", "title": "American (Traditional)"}], "rating": 2.0, "coordinates": {"latitude": 40.749695, "longitude": -73.992431}, "transactions": [], "price": "$$", "location": {"address1": "2 Penn Plz", "address2": "", "address3": "", "city": "New York", "zip_code": "10001", "country": "US", "state": "NY", "display_address": ["2 Penn Plz", "New York, NY 10001"]}, "phone": "+12126300348", "display_phone": "(212) 630-0348", "distance": 82.53463336786368}, {"id": "cZ4eKXNxAhTLza9fMnl7fg", "alias": "33rd-st-and-7th-ave-nw-halal-cart-new-york", "name": "33rd St And 7th Ave NW Halal Cart", "image_url": "https://s3-media1.fl.yelpcdn.com/bphoto/WP6olvVrWWDml3ROtx9Z3w/o.jpg", "is_closed": false, "url": "https://www.yelp.com/biz/33rd-st-and-7th-ave-nw-halal-cart-new-york?adjust_creative=HdhkN5EEH6lAqE3kwhsHEQ&utm_campaign=yelp_api_v3&utm_medium=api_v3_business_search&utm_source=HdhkN5EEH6lAqE3kwhsHEQ", "review_count": 4, "categories": [{"alias": "halal", "title": "Halal"}], "rating": 4.5, "coordinates": {"latitude": 40.7505211952008, "longitude": -73.9914098620578}, "transactions": [], "location": {"address1": "33RD St And 7th Ave Nw Halal Cart", "address2": "", "address3": "", "city": "New York", "zip_code": "", "country": "US", "state": "NY", "display_address": ["33RD St And 7th Ave Nw Halal Cart", "New York, NY"]}, "phone": "", "display_phone": "", "distance": 133.73914038127342}, {"id": "ULF7NqOo2VWrxMs_hkYgCQ", "alias": "tracks-raw-bar-and-grill-new-york-2", "name": "Tracks Raw Bar & Grill", "image_url": "https://s3-media3.fl.yelpcdn.com/bphoto/7KxgABui3jlE99EqySAIPQ/o.jpg", "is_closed": false, "url": "https://www.yelp.com/biz/tracks-raw-bar-and-grill-new-york-2?adjust_creative=HdhkN5EEH6lAqE3kwhsHEQ&utm_campaign=yelp_api_v3&utm_medium=api_v3_business_search&utm_source=HdhkN5EEH6lAqE3kwhsHEQ", "review_count": 274, "categories": [{"alias": "pubs", "title": "Pubs"}, {"alias": "raw_food", "title": "Live/Raw Food"}, {"alias": "tradamerican", "title": "American (Traditional)"}], "rating": 3.5, "coordinates": {"latitude": 40.7505086580734, "longitude": -73.9935086600351}, "transactions": [], "price": "$$", "location": {"address1": "220 West 31st St", "address2": "", "address3": "", "city": "New York", "zip_code": "10001", "country": "US", "state": "NY", "display_address": ["220 West 31st St", "New York, NY 10001"]}, "phone": "+12122446736", "display_phone": "(212) 244-6736", "distance": 50.04772438541566}, {"id": "2Ob3LnFYq4GAQGhz2rK6UA", "alias": "halal-cart-new-york-12", "name": "Halal Cart", "image_url": "https://s3-media3.fl.yelpcdn.com/bphoto/9N51xCkv6RZXK2FLHXecWg/o.jpg", "is_closed": false, "url": "https://www.yelp.com/biz/halal-cart-new-york-12?adjust_creative=HdhkN5EEH6lAqE3kwhsHEQ&utm_campaign=yelp_api_v3&utm_medium=api_v3_business_search&utm_source=HdhkN5EEH6lAqE3kwhsHEQ", "review_count": 13, "categories": [{"alias": "foodstands", "title": "Food Stands"}], "rating": 4.0, "coordinates": {"latitude": 40.7515326915739, "longitude": -73.9939639396609}, "transactions": [], "price": "$", "location": {"address1": "33RD And 8th", "address2": "", "address3": "", "city": "New York", "zip_code": "10001", "country": "US", "state": "NY", "display_address": ["33RD And 8th", "New York, NY 10001"]}, "phone": "", "display_phone": "", "distance": 158.4449313482221}, {"id": "6_WV9SiwZBqQGaQYJlmaWw", "alias": "don-pepi-delicatessen-new-york", "name": "Don Pepi Delicatessen", "image_url": "https://s3-media2.fl.yelpcdn.com/bphoto/O3vHkkkVYRs5pYoJp1MU8A/o.jpg", "is_closed": false, "url": "https://www.yelp.com/biz/don-pepi-delicatessen-new-york?adjust_creative=HdhkN5EEH6lAqE3kwhsHEQ&utm_campaign=yelp_api_v3&utm_medium=api_v3_business_search&utm_source=HdhkN5EEH6lAqE3kwhsHEQ", "review_count": 77, "categories": [{"alias": "delis", "title": "Delis"}], "rating": 3.5, "coordinates": {"latitude": 40.7501450499955, "longitude": -73.9922790429569}, "transactions": ["delivery", "pickup"], "price": "$", "location": {"address1": "2 Pennsylvania Plz", "address2": "", "address3": "", "city": "New York", "zip_code": "10121", "country": "US", "state": "NY", "display_address": ["2 Pennsylvania Plz", "New York, NY 10121"]}, "phone": "+12127600802", "display_phone": "(212) 760-0802", "distance": 61.41480948713938}, {"id": "sUl6cvAilF87Q8gRIzUJdw", "alias": "penn-plates-manhattan", "name": "Penn Plates", "image_url": "https://s3-media1.fl.yelpcdn.com/bphoto/K5A-VXpikkZCoVx7g5_WQQ/o.jpg", "is_closed": false, "url": "https://www.yelp.com/biz/penn-plates-manhattan?adjust_creative=HdhkN5EEH6lAqE3kwhsHEQ&utm_campaign=yelp_api_v3&utm_medium=api_v3_business_search&utm_source=HdhkN5EEH6lAqE3kwhsHEQ", "review_count": 6, "categories": [{"alias": "food_court", "title": "Food Court"}], "rating": 3.5, "coordinates": {"latitude": 40.7512627, "longitude": -73.9923498}, "transactions": [], "price": "$$", "location": {"address1": "One Penn Plaza - Park E", "address2": "", "address3": "", "city": "Manhattan", "zip_code": "10001", "country": "US", "state": "NY", "display_address": ["One Penn Plaza - Park E", "Manhattan, NY 10001"]}, "phone": "+12125299262", "display_phone": "(212) 529-9262", "distance": 117.94589003087918}, {"id": "WGo6s0sSqjLwM4sGtrUlJg", "alias": "penn-sushi-new-york", "name": "Penn Sushi", "image_url": "https://s3-media1.fl.yelpcdn.com/bphoto/guYRMEW7fZgjL8htsqOkzA/o.jpg", "is_closed": false, "url": "https://www.yelp.com/biz/penn-sushi-new-york?adjust_creative=HdhkN5EEH6lAqE3kwhsHEQ&utm_campaign=yelp_api_v3&utm_medium=api_v3_business_search&utm_source=HdhkN5EEH6lAqE3kwhsHEQ", "review_count": 52, "categories": [{"alias": "sushi", "title": "Sushi Bars"}], "rating": 3.5, "coordinates": {"latitude": 40.750671, "longitude": -73.992108}, "transactions": [], "price": "$$", "location": {"address1": "2 Penn Plz", "address2": "", "address3": "Penn Station", "city": "New York", "zip_code": "10121", "country": "US", "state": "NY", "display_address": ["2 Penn Plz", "Penn Station", "New York, NY 10121"]}, "phone": "+12125645496", "display_phone": "(212) 564-5496", "distance": 83.06847837311692}, {"id": "PetO4CfZ1k36oMJL3Oc0Wg", "alias": "wasabi-sushi-and-bento-new-york-8", "name": "Wasabi Sushi & Bento", "image_url": "https://s3-media1.fl.yelpcdn.com/bphoto/METsG7-DgJq3vYb1PRcpfA/o.jpg", "is_closed": false, "url": "https://www.yelp.com/biz/wasabi-sushi-and-bento-new-york-8?adjust_creative=HdhkN5EEH6lAqE3kwhsHEQ&utm_campaign=yelp_api_v3&utm_medium=api_v3_business_search&utm_source=HdhkN5EEH6lAqE3kwhsHEQ", "review_count": 91, "categories": [{"alias": "sushi", "title": "Sushi Bars"}, {"alias": "japanese", "title": "Japanese"}], "rating": 3.0, "coordinates": {"latitude": 40.7506085432919, "longitude": -73.9921478247893}, "transactions": ["delivery", "pickup"], "price": "$$", "location": {"address1": "1 Pennsylvania Plz", "address2": "", "address3": null, "city": "New York", "zip_code": "10119", "country": "US", "state": "NY", "display_address": ["1 Pennsylvania Plz", "New York, NY 10119"]}, "phone": "+16466494433", "display_phone": "(646) 649-4433", "distance": 125.19663606674028}, {"id": "ZCovHszvGGfU73hx1Db2iA", "alias": "moes-southwest-grill-new-york-12", "name": "Moe's Southwest Grill", "image_url": "https://s3-media1.fl.yelpcdn.com/bphoto/dYVDzYphY5az5DrAzEWetg/o.jpg", "is_closed": false, "url": "https://www.yelp.com/biz/moes-southwest-grill-new-york-12?adjust_creative=HdhkN5EEH6lAqE3kwhsHEQ&utm_campaign=yelp_api_v3&utm_medium=api_v3_business_search&utm_source=HdhkN5EEH6lAqE3kwhsHEQ", "review_count": 78, "categories": [{"alias": "mexican", "title": "Mexican"}, {"alias": "tex-mex", "title": "Tex-Mex"}], "rating": 3.0, "coordinates": {"latitude": 40.7514627416272, "longitude": -73.9933718735322}, "transactions": ["delivery", "pickup"], "price": "$", "location": {"address1": "1 Penn Plz", "address2": "LIRR Level", "address3": "", "city": "New York", "zip_code": "10010", "country": "US", "state": "NY", "display_address": ["1 Penn Plz", "LIRR Level", "New York, NY 10010"]}, "phone": "+12125947817", "display_phone": "(212) 594-7817", "distance": 132.16859215294517}, {"id": "zK_0aH6P9HhmYmCWx9cBxQ", "alias": "t\u00edr-na-n\u00f3g-new-york-14", "name": "T\u00edr na N\u00f3g", "image_url": "https://s3-media1.fl.yelpcdn.com/bphoto/x92rKtCGVTZEmgGXgfQGaA/o.jpg", "is_closed": false, "url": "https://www.yelp.com/biz/t%C3%ADr-na-n%C3%B3g-new-york-14?adjust_creative=HdhkN5EEH6lAqE3kwhsHEQ&utm_campaign=yelp_api_v3&utm_medium=api_v3_business_search&utm_source=HdhkN5EEH6lAqE3kwhsHEQ", "review_count": 237, "categories": [{"alias": "bars", "title": "Bars"}, {"alias": "tradamerican", "title": "American (Traditional)"}, {"alias": "irish", "title": "Irish"}], "rating": 3.5, "coordinates": {"latitude": 40.750114, "longitude": -73.994544}, "transactions": ["delivery"], "price": "$$", "location": {"address1": "254 W 31st St", "address2": "", "address3": "", "city": "New York", "zip_code": "10001", "country": "US", "state": "NY", "display_address": ["254 W 31st St", "New York, NY 10001"]}, "phone": "+12126300249", "display_phone": "(212) 630-0249", "distance": 134.12758978858412}, {"id": "jqQgeKEekZmGwjfNYlyYUA", "alias": "don-pepi-pizza-new-york", "name": "Don Pepi Pizza", "image_url": "https://s3-media3.fl.yelpcdn.com/bphoto/yuuhOuWb2pLAnJ7oAXu4LQ/o.jpg", "is_closed": false, "url": "https://www.yelp.com/biz/don-pepi-pizza-new-york?adjust_creative=HdhkN5EEH6lAqE3kwhsHEQ&utm_campaign=yelp_api_v3&utm_medium=api_v3_business_search&utm_source=HdhkN5EEH6lAqE3kwhsHEQ", "review_count": 100, "categories": [{"alias": "pizza", "title": "Pizza"}], "rating": 3.5, "coordinates": {"latitude": 40.749732, "longitude": -73.992252}, "transactions": ["delivery", "pickup"], "price": "$", "location": {"address1": "2 Pennsylvania Plz", "address2": "", "address3": "", "city": "New York", "zip_code": "10001", "country": "US", "state": "NY", "display_address": ["2 Pennsylvania Plz", "New York, NY 10001"]}, "phone": "+12129674385", "display_phone": "(212) 967-4385", "distance": 88.70770722341709}, {"id": "yCTNvxK9WntN-YS9Abhtbg", "alias": "sabi-sushi-new-york-5", "name": "Sabi Sushi", "image_url": "https://s3-media2.fl.yelpcdn.com/bphoto/3njzdJWrSJhNanNZUAyD_w/o.jpg", "is_closed": false, "url": "https://www.yelp.com/biz/sabi-sushi-new-york-5?adjust_creative=HdhkN5EEH6lAqE3kwhsHEQ&utm_campaign=yelp_api_v3&utm_medium=api_v3_business_search&utm_source=HdhkN5EEH6lAqE3kwhsHEQ", "review_count": 36, "categories": [{"alias": "sushi", "title": "Sushi Bars"}], "rating": 2.5, "coordinates": {"latitude": 40.7499359797906, "longitude": -73.9922038250401}, "transactions": [], "price": "$$", "location": {"address1": "2 Pennsylvania Plz", "address2": "", "address3": null, "city": "New York", "zip_code": "10121", "country": "US", "state": "NY", "display_address": ["2 Pennsylvania Plz", "New York, NY 10121"]}, "phone": "", "display_phone": "", "distance": 77.2163621908222}, {"id": "OBMyyHMHeE05ivcC8xbbVw", "alias": "chickpea-new-york-15", "name": "Chickpea", "image_url": "https://s3-media4.fl.yelpcdn.com/bphoto/LUIFwG2drakBHBg-khCHNA/o.jpg", "is_closed": false, "url": "https://www.yelp.com/biz/chickpea-new-york-15?adjust_creative=HdhkN5EEH6lAqE3kwhsHEQ&utm_campaign=yelp_api_v3&utm_medium=api_v3_business_search&utm_source=HdhkN5EEH6lAqE3kwhsHEQ", "review_count": 40, "categories": [{"alias": "mideastern", "title": "Middle Eastern"}], "rating": 2.5, "coordinates": {"latitude": 40.7503369988858, "longitude": -73.9917000369263}, "transactions": ["delivery", "pickup"], "price": "$", "location": {"address1": "202 W 34th St", "address2": "", "address3": "LIRR Concourse Level Near A/C/E lines", "city": "New York", "zip_code": "10001", "country": "US", "state": "NY", "display_address": ["202 W 34th St", "LIRR Concourse Level Near A/C/E lines", "New York, NY 10001"]}, "phone": "+12129670001", "display_phone": "(212) 967-0001", "distance": 107.3111459424425}, {"id": "8r3pGmedA_0SpoKBQdFVVA", "alias": "willies-wonderful-waffles-new-york", "name": "Willies Wonderful Waffles", "image_url": "", "is_closed": false, "url": "https://www.yelp.com/biz/willies-wonderful-waffles-new-york?adjust_creative=HdhkN5EEH6lAqE3kwhsHEQ&utm_campaign=yelp_api_v3&utm_medium=api_v3_business_search&utm_source=HdhkN5EEH6lAqE3kwhsHEQ", "review_count": 1, "categories": [{"alias": "waffles", "title": "Waffles"}], "rating": 5.0, "coordinates": {"latitude": 40.749299, "longitude": -73.99329417}, "transactions": [], "location": {"address1": "227W W 30th St", "address2": "", "address3": null, "city": "New York", "zip_code": "10001", "country": "US", "state": "NY", "display_address": ["227W W 30th St", "New York, NY 10001"]}, "phone": "", "display_phone": "", "distance": 120.19126127518457}, {"id": "WnM3R1wRMRg6Dv9BZ7WpDg", "alias": "pret-a-manger-new-york-92", "name": "Pret a Manger", "image_url": "https://s3-media3.fl.yelpcdn.com/bphoto/sqoKCF6Fjn7gty2H_XQY2A/o.jpg", "is_closed": false, "url": "https://www.yelp.com/biz/pret-a-manger-new-york-92?adjust_creative=HdhkN5EEH6lAqE3kwhsHEQ&utm_campaign=yelp_api_v3&utm_medium=api_v3_business_search&utm_source=HdhkN5EEH6lAqE3kwhsHEQ", "review_count": 14, "categories": [{"alias": "coffee", "title": "Coffee & Tea"}, {"alias": "sandwiches", "title": "Sandwiches"}], "rating": 3.0, "coordinates": {"latitude": 40.7516241, "longitude": -73.9924959}, "transactions": [], "location": {"address1": "1 Penn Plz", "address2": "", "address3": "", "city": "New York", "zip_code": "10119", "country": "US", "state": "NY", "display_address": ["1 Penn Plz", "New York, NY 10119"]}, "phone": "+16465901382", "display_phone": "(646) 590-1382", "distance": 125.19663606674028}, {"id": "UaIoh1_wD-nDdnPoBXdDDw", "alias": "nathans-new-york-2", "name": "Nathan's", "image_url": "https://s3-media3.fl.yelpcdn.com/bphoto/Bbpw9ZN2lVcN6QoyWINe3A/o.jpg", "is_closed": false, "url": "https://www.yelp.com/biz/nathans-new-york-2?adjust_creative=HdhkN5EEH6lAqE3kwhsHEQ&utm_campaign=yelp_api_v3&utm_medium=api_v3_business_search&utm_source=HdhkN5EEH6lAqE3kwhsHEQ", "review_count": 38, "categories": [{"alias": "hotdog", "title": "Hot Dogs"}], "rating": 2.5, "coordinates": {"latitude": 40.7497139, "longitude": -73.9917221}, "transactions": [], "price": "$", "location": {"address1": "2 Penn Plz", "address2": "", "address3": "", "city": "New York", "zip_code": "10121", "country": "US", "state": "NY", "display_address": ["2 Penn Plz", "New York, NY 10121"]}, "phone": "+12126300320", "display_phone": "(212) 630-0320", "distance": 79.29252239402703}, {"id": "3qEixOs_MyT0tpjhGEG0Cw", "alias": "tim-hortons-manhattan-2", "name": "Tim Hortons", "image_url": "https://s3-media4.fl.yelpcdn.com/bphoto/1LiHQclWlRyhXF7cDewjvQ/o.jpg", "is_closed": false, "url": "https://www.yelp.com/biz/tim-hortons-manhattan-2?adjust_creative=HdhkN5EEH6lAqE3kwhsHEQ&utm_campaign=yelp_api_v3&utm_medium=api_v3_business_search&utm_source=HdhkN5EEH6lAqE3kwhsHEQ", "review_count": 5, "categories": [{"alias": "cafes", "title": "Cafes"}], "rating": 2.5, "coordinates": {"latitude": 40.7497177, "longitude": -73.9917374}, "transactions": [], "price": "$", "location": {"address1": "2 Penn Plz", "address2": "", "address3": "Amtrak Level", "city": "Manhattan", "zip_code": "10001", "country": "US", "state": "NY", "display_address": ["2 Penn Plz", "Amtrak Level", "Manhattan, NY 10001"]}, "phone": "+12126200320", "display_phone": "(212) 620-0320", "distance": 90.1705105689596}, {"id": "IdEhtaAidvpW62rU8qNC6A", "alias": "the-thirsty-fan-new-york", "name": "The Thirsty Fan", "image_url": "https://s3-media2.fl.yelpcdn.com/bphoto/5tYvOKiu17mZKsMV8nFG7w/o.jpg", "is_closed": false, "url": "https://www.yelp.com/biz/the-thirsty-fan-new-york?adjust_creative=HdhkN5EEH6lAqE3kwhsHEQ&utm_campaign=yelp_api_v3&utm_medium=api_v3_business_search&utm_source=HdhkN5EEH6lAqE3kwhsHEQ", "review_count": 20, "categories": [{"alias": "sportsbars", "title": "Sports Bars"}, {"alias": "newamerican", "title": "American (New)"}, {"alias": "burgers", "title": "Burgers"}], "rating": 2.5, "coordinates": {"latitude": 40.749866, "longitude": -73.994438}, "transactions": ["delivery", "pickup"], "price": "$$", "location": {"address1": "254 W 31st St", "address2": null, "address3": "", "city": "New York", "zip_code": "10001", "country": "US", "state": "NY", "display_address": ["254 W 31st St", "New York, NY 10001"]}, "phone": "+12122169355", "display_phone": "(212) 216-9355", "distance": 125.73272197254155}, {"id": "tk4uNXMjOuPRht2Xs5kmpA", "alias": "houlihans-new-york-15", "name": "Houlihan's", "image_url": "", "is_closed": false, "url": "https://www.yelp.com/biz/houlihans-new-york-15?adjust_creative=HdhkN5EEH6lAqE3kwhsHEQ&utm_campaign=yelp_api_v3&utm_medium=api_v3_business_search&utm_source=HdhkN5EEH6lAqE3kwhsHEQ", "review_count": 1, "categories": [{"alias": "tradamerican", "title": "American (Traditional)"}], "rating": 3.0, "coordinates": {"latitude": 40.7497131, "longitude": -73.9917198}, "transactions": [], "location": {"address1": "2 Penn Plz", "address2": "", "address3": "Basement", "city": "New York", "zip_code": "10001", "country": "US", "state": "NY", "display_address": ["2 Penn Plz", "Basement", "New York, NY 10001"]}, "phone": "+12126700348", "display_phone": "(212) 670-0348", "distance": 79.29252239402703}, {"id": "WPykmkMYWvXNdvCS2kDbkA", "alias": "taco-bell-new-york-26", "name": "Taco Bell", "image_url": "https://s3-media4.fl.yelpcdn.com/bphoto/d13B6_q_sttUUlPizigyDQ/o.jpg", "is_closed": false, "url": "https://www.yelp.com/biz/taco-bell-new-york-26?adjust_creative=HdhkN5EEH6lAqE3kwhsHEQ&utm_campaign=yelp_api_v3&utm_medium=api_v3_business_search&utm_source=HdhkN5EEH6lAqE3kwhsHEQ", "review_count": 31, "categories": [{"alias": "tex-mex", "title": "Tex-Mex"}, {"alias": "hotdogs", "title": "Fast Food"}, {"alias": "mexican", "title": "Mexican"}], "rating": 2.5, "coordinates": {"latitude": 40.75097, "longitude": -73.99342}, "transactions": [], "price": "$", "location": {"address1": "Pennsylvania Station", "address2": "2 Penn Plaza", "address3": null, "city": "New York", "zip_code": "10001", "country": "US", "state": "NY", "display_address": ["Pennsylvania Station", "2 Penn Plaza", "New York, NY 10001"]}, "phone": "+12126300320", "display_phone": "(212) 630-0320", "distance": 82.16034753165323}, {"id": "zGr7wWZkz4BulSakGM0UgQ", "alias": "charleys-philly-steaks-new-york", "name": "Charley's Philly Steaks", "image_url": "https://s3-media2.fl.yelpcdn.com/bphoto/0yPjk0skiDF0H21Ywa02Jw/o.jpg", "is_closed": false, "url": "https://www.yelp.com/biz/charleys-philly-steaks-new-york?adjust_creative=HdhkN5EEH6lAqE3kwhsHEQ&utm_campaign=yelp_api_v3&utm_medium=api_v3_business_search&utm_source=HdhkN5EEH6lAqE3kwhsHEQ", "review_count": 18, "categories": [{"alias": "sandwiches", "title": "Sandwiches"}], "rating": 2.5, "coordinates": {"latitude": 40.7506085432919, "longitude": -73.9921478247893}, "transactions": ["delivery", "pickup"], "price": "$", "location": {"address1": "1 Pennsylvania Plz", "address2": "", "address3": "", "city": "New York", "zip_code": "10119", "country": "US", "state": "NY", "display_address": ["1 Pennsylvania Plz", "New York, NY 10119"]}, "phone": "+12125947817", "display_phone": "(212) 594-7817", "distance": 125.19663606674028}, {"id": "wOCRePrToxG1J2CAyiEWug", "alias": "the-little-beet-new-york-5", "name": "The Little Beet", "image_url": "https://s3-media2.fl.yelpcdn.com/bphoto/7b7US62BP_Njv3rcx9kOtg/o.jpg", "is_closed": false, "url": "https://www.yelp.com/biz/the-little-beet-new-york-5?adjust_creative=HdhkN5EEH6lAqE3kwhsHEQ&utm_campaign=yelp_api_v3&utm_medium=api_v3_business_search&utm_source=HdhkN5EEH6lAqE3kwhsHEQ", "review_count": 81, "categories": [{"alias": "salad", "title": "Salad"}, {"alias": "vegan", "title": "Vegan"}, {"alias": "gluten_free", "title": "Gluten-Free"}], "rating": 3.5, "coordinates": {"latitude": 40.7499719, "longitude": -73.9921676}, "transactions": ["delivery", "pickup"], "price": "$$", "location": {"address1": "2 Penn Plz", "address2": "", "address3": "", "city": "New York", "zip_code": "10121", "country": "US", "state": "NY", "display_address": ["2 Penn Plz", "New York, NY 10121"]}, "phone": "+12126820650", "display_phone": "(212) 682-0650", "distance": 77.77152877977102}, {"id": "c69VFUE3CCYJ0Gqj-g4Vow", "alias": "starbucks-pickup-new-york", "name": "Starbucks Pickup", "image_url": "https://s3-media4.fl.yelpcdn.com/bphoto/9PAUR3ncwMyJdfbxSp_A5A/o.jpg", "is_closed": false, "url": "https://www.yelp.com/biz/starbucks-pickup-new-york?adjust_creative=HdhkN5EEH6lAqE3kwhsHEQ&utm_campaign=yelp_api_v3&utm_medium=api_v3_business_search&utm_source=HdhkN5EEH6lAqE3kwhsHEQ", "review_count": 2, "categories": [{"alias": "coffee", "title": "Coffee & Tea"}, {"alias": "hotdogs", "title": "Fast Food"}], "rating": 5.0, "coordinates": {"latitude": 40.751182, "longitude": -73.992163}, "transactions": [], "location": {"address1": "1 Penn Plz", "address2": "", "address3": null, "city": "New York", "zip_code": "10001", "country": "US", "state": "NY", "display_address": ["1 Penn Plz", "New York, NY 10001"]}, "phone": "", "display_phone": "", "distance": 118.31248900094731}, {"id": "I0l1s9BmxP3j2EVQ34Zlhg", "alias": "chickpea-new-york-6", "name": "Chickpea", "image_url": "https://s3-media3.fl.yelpcdn.com/bphoto/GrqCyr0d1ObwwdJhv059DQ/o.jpg", "is_closed": false, "url": "https://www.yelp.com/biz/chickpea-new-york-6?adjust_creative=HdhkN5EEH6lAqE3kwhsHEQ&utm_campaign=yelp_api_v3&utm_medium=api_v3_business_search&utm_source=HdhkN5EEH6lAqE3kwhsHEQ", "review_count": 36, "categories": [{"alias": "mideastern", "title": "Middle Eastern"}], "rating": 2.5, "coordinates": {"latitude": 40.7517158998249, "longitude": -73.9924692973588}, "transactions": ["pickup"], "price": "$$", "location": {"address1": "1 Penn Plz", "address2": "", "address3": null, "city": "New York", "zip_code": "10001", "country": "US", "state": "NY", "display_address": ["1 Penn Plz", "New York, NY 10001"]}, "phone": "+12122440101", "display_phone": "(212) 244-0101", "distance": 125.19663606674028}, {"id": "of_O6oo2Q0J6J3uJx_vGsg", "alias": "le-bon-cafe-new-york", "name": "Le Bon Cafe", "image_url": "https://s3-media1.fl.yelpcdn.com/bphoto/xwcRf_TmHb8OOVkK3fPF_Q/o.jpg", "is_closed": false, "url": "https://www.yelp.com/biz/le-bon-cafe-new-york?adjust_creative=HdhkN5EEH6lAqE3kwhsHEQ&utm_campaign=yelp_api_v3&utm_medium=api_v3_business_search&utm_source=HdhkN5EEH6lAqE3kwhsHEQ", "review_count": 27, "categories": [{"alias": "cafes", "title": "Cafes"}], "rating": 3.0, "coordinates": {"latitude": 40.7516241, "longitude": -73.9924959}, "transactions": ["delivery", "pickup"], "price": "$", "location": {"address1": "1 Penn Plaza Concourse Level", "address2": "Ste 1612", "address3": "", "city": "New York", "zip_code": "10119", "country": "US", "state": "NY", "display_address": ["1 Penn Plaza Concourse Level", "Ste 1612", "New York, NY 10119"]}, "phone": "+12129475555", "display_phone": "(212) 947-5555", "distance": 134.131576379995}, {"id": "eNO_IEsJo_CqtFwOkNlRIA", "alias": "famous-amadeus-new-york", "name": "Famous Amadeus", "image_url": "https://s3-media1.fl.yelpcdn.com/bphoto/A77pLhzLnfJnn5EW2nZxqw/o.jpg", "is_closed": false, "url": "https://www.yelp.com/biz/famous-amadeus-new-york?adjust_creative=HdhkN5EEH6lAqE3kwhsHEQ&utm_campaign=yelp_api_v3&utm_medium=api_v3_business_search&utm_source=HdhkN5EEH6lAqE3kwhsHEQ", "review_count": 3, "categories": [{"alias": "pizza", "title": "Pizza"}], "rating": 2.5, "coordinates": {"latitude": 40.7491302490234, "longitude": -73.9923629760742}, "transactions": [], "price": "$", "location": {"address1": "Madison Square Garden", "address2": "", "address3": "", "city": "New York", "zip_code": "10001", "country": "US", "state": "NY", "display_address": ["Madison Square Garden", "New York, NY 10001"]}, "phone": "+12129041112", "display_phone": "(212) 904-1112", "distance": 44.59078756429372}, {"id": "rPMjnhve3w6NYZk74Bs3Dg", "alias": "lenwich-new-york-16", "name": "Lenwich", "image_url": "https://s3-media3.fl.yelpcdn.com/bphoto/8U4HFNpLRSjZNRvpLfLI5g/o.jpg", "is_closed": false, "url": "https://www.yelp.com/biz/lenwich-new-york-16?adjust_creative=HdhkN5EEH6lAqE3kwhsHEQ&utm_campaign=yelp_api_v3&utm_medium=api_v3_business_search&utm_source=HdhkN5EEH6lAqE3kwhsHEQ", "review_count": 119, "categories": [{"alias": "sandwiches", "title": "Sandwiches"}, {"alias": "salad", "title": "Salad"}, {"alias": "breakfast_brunch", "title": "Breakfast & Brunch"}], "rating": 3.0, "coordinates": {"latitude": 40.750688, "longitude": -73.991541}, "transactions": ["delivery"], "price": "$", "location": {"address1": "1 Penn Plz", "address2": "", "address3": "", "city": "New York", "zip_code": "10119", "country": "US", "state": "NY", "display_address": ["1 Penn Plz", "New York, NY 10119"]}, "phone": "+16463900005", "display_phone": "(646) 390-0005", "distance": 127.6736241185837}, {"id": "TEXFhWjdcHp6BYerHBwi6Q", "alias": "houlihans-penn-station-new-york", "name": "Houlihan's Penn Station", "image_url": "", "is_closed": false, "url": "https://www.yelp.com/biz/houlihans-penn-station-new-york?adjust_creative=HdhkN5EEH6lAqE3kwhsHEQ&utm_campaign=yelp_api_v3&utm_medium=api_v3_business_search&utm_source=HdhkN5EEH6lAqE3kwhsHEQ", "review_count": 1, "categories": [{"alias": "restaurants", "title": "Restaurants"}], "rating": 1.0, "coordinates": {"latitude": 40.7497139, "longitude": -73.9917221}, "transactions": [], "price": "$$", "location": {"address1": "2 Penn Plz", "address2": "", "address3": "", "city": "New York", "zip_code": "10121", "country": "US", "state": "NY", "display_address": ["2 Penn Plz", "New York, NY 10121"]}, "phone": "+12126300348", "display_phone": "(212) 630-0348", "distance": 79.29252239402703}, {"id": "u768cfsaa2mm5wP9XnSO2g", "alias": "pret-a-manger-new-york-69", "name": "Pret A Manger", "image_url": "https://s3-media2.fl.yelpcdn.com/bphoto/eSFtx1MDCZiPPW5pjfuVDA/o.jpg", "is_closed": false, "url": "https://www.yelp.com/biz/pret-a-manger-new-york-69?adjust_creative=HdhkN5EEH6lAqE3kwhsHEQ&utm_campaign=yelp_api_v3&utm_medium=api_v3_business_search&utm_source=HdhkN5EEH6lAqE3kwhsHEQ", "review_count": 77, "categories": [{"alias": "coffee", "title": "Coffee & Tea"}, {"alias": "breakfast_brunch", "title": "Breakfast & Brunch"}, {"alias": "sandwiches", "title": "Sandwiches"}], "rating": 3.5, "coordinates": {"latitude": 40.751229, "longitude": -73.992226}, "transactions": [], "price": "$", "location": {"address1": "1 Penn Plz", "address2": "", "address3": "Penn Station", "city": "New York", "zip_code": "10119", "country": "US", "state": "NY", "display_address": ["1 Penn Plz", "Penn Station", "New York, NY 10119"]}, "phone": "+12122442820", "display_phone": "(212) 244-2820", "distance": 119.74364934464901}, {"id": "_2lPJTEsaf8x1_RaYOcr2A", "alias": "cafe-n-more-new-york", "name": "Cafe 'n' More", "image_url": "", "is_closed": false, "url": "https://www.yelp.com/biz/cafe-n-more-new-york?adjust_creative=HdhkN5EEH6lAqE3kwhsHEQ&utm_campaign=yelp_api_v3&utm_medium=api_v3_business_search&utm_source=HdhkN5EEH6lAqE3kwhsHEQ", "review_count": 1, "categories": [{"alias": "cafes", "title": "Cafes"}], "rating": 1.0, "coordinates": {"latitude": 40.7511286, "longitude": -73.992471}, "transactions": [], "location": {"address1": "1 Penn Plz", "address2": "", "address3": "Lobby", "city": "New York", "zip_code": "10119", "country": "US", "state": "NY", "display_address": ["1 Penn Plz", "Lobby", "New York, NY 10119"]}, "phone": "+12125647979", "display_phone": "(212) 564-7979", "distance": 100.07905134482179}]