[{"id": "7AknGS1qVEyq_pHfmjkZtg", "alias": "wolf-new-york", "name": "Wolf", "image_url": "https://s3-media2.fl.yelpcdn.com/bphoto/NNUA7aSMhZzgbl14lTaHQQ/o.jpg", "is_closed": false, "url": "https://www.yelp.com/biz/wolf-new-york?adjust_creative=h5HwbyQ0TYvQjBo6Ys5Bgw&utm_campaign=yelp_api_v3&utm_medium=api_v3_business_search&utm_source=h5HwbyQ0TYvQjBo6Ys5Bgw", "review_count": 43, "categories": [{"alias": "italian", "title": "Italian"}], "rating": 4.5, "coordinates": {"latitude": 40.7661522, "longitude": -73.9811393}, "transactions": [], "location": {"address1": "225 W 57th St", "address2": "", "address3": null, "city": "New York", "zip_code": "10019", "country": "US", "state": "NY", "display_address": ["225 W 57th St", "New York, NY 10019"]}, "phone": "+12122952184", "display_phone": "(212) 295-2184", "distance": 65.95267554159415}, {"id": "LXdblKc5g1Dp17xiV-Am1w", "alias": "trattoria-dellarte-new-york", "name": "Trattoria Dell'Arte", "image_url": "https://s3-media3.fl.yelpcdn.com/bphoto/nb5gs8r7y_HnkqRnbJ1Bcw/o.jpg", "is_closed": false, "url": "https://www.yelp.com/biz/trattoria-dellarte-new-york?adjust_creative=h5HwbyQ0TYvQjBo6Ys5Bgw&utm_campaign=yelp_api_v3&utm_medium=api_v3_business_search&utm_source=h5HwbyQ0TYvQjBo6Ys5Bgw", "review_count": 1025, "categories": [{"alias": "italian", "title": "Italian"}], "rating": 4.0, "coordinates": {"latitude": 40.765295646702, "longitude": -73.98046281606}, "transactions": ["delivery", "pickup"], "price": "$$$", "location": {"address1": "900 7th Ave", "address2": "", "address3": "", "city": "New York", "zip_code": "10019", "country": "US", "state": "NY", "display_address": ["900 7th Ave", "New York, NY 10019"]}, "phone": "+12122459800", "display_phone": "(212) 245-9800", "distance": 55.152279731901565}, {"id": "oY-tooKEm8F-6Il1JOQzKg", "alias": "souvlaki-gr-new-york-6", "name": "Souvlaki GR", "image_url": "https://s3-media3.fl.yelpcdn.com/bphoto/KRdLGzIMd6iVdFh2EBS-Lg/o.jpg", "is_closed": false, "url": "https://www.yelp.com/biz/souvlaki-gr-new-york-6?adjust_creative=h5HwbyQ0TYvQjBo6Ys5Bgw&utm_campaign=yelp_api_v3&utm_medium=api_v3_business_search&utm_source=h5HwbyQ0TYvQjBo6Ys5Bgw", "review_count": 632, "categories": [{"alias": "greek", "title": "Greek"}], "rating": 4.0, "coordinates": {"latitude": 40.76465, "longitude": -73.98029}, "transactions": ["delivery", "pickup"], "price": "$$", "location": {"address1": "162 W 56th St", "address2": null, "address3": "", "city": "New York", "zip_code": "10019", "country": "US", "state": "NY", "display_address": ["162 W 56th St", "New York, NY 10019"]}, "phone": "+12129747482", "display_phone": "(212) 974-7482", "distance": 120.96598078867865}, {"id": "oVsMJbQ8rpiq6H-8rtasDQ", "alias": "brooklyn-diner-new-york", "name": "Brooklyn Diner", "image_url": "https://s3-media2.fl.yelpcdn.com/bphoto/d6D4coMCRtcl8ZTGw9QrfQ/o.jpg", "is_closed": false, "url": "https://www.yelp.com/biz/brooklyn-diner-new-york?adjust_creative=h5HwbyQ0TYvQjBo6Ys5Bgw&utm_campaign=yelp_api_v3&utm_medium=api_v3_business_search&utm_source=h5HwbyQ0TYvQjBo6Ys5Bgw", "review_count": 848, "categories": [{"alias": "diners", "title": "Diners"}, {"alias": "tradamerican", "title": "American (Traditional)"}], "rating": 3.0, "coordinates": {"latitude": 40.7656402416927, "longitude": -73.9807265996933}, "transactions": ["delivery", "pickup"], "price": "$$", "location": {"address1": "212 W 57th St", "address2": "", "address3": "", "city": "New York", "zip_code": "10019", "country": "US", "state": "NY", "display_address": ["212 W 57th St", "New York, NY 10019"]}, "phone": "+12129771957", "display_phone": "(212) 977-1957", "distance": 25.287862435483305}, {"id": "Vz1At3Ku-vStSy4dFt145Q", "alias": "bistro-verde-temporarily-closed-new-york", "name": "Bistro Verde - Temporarily Closed", "image_url": "https://s3-media2.fl.yelpcdn.com/bphoto/NThqCKNuI6fS3l7Qo1DPWw/o.jpg", "is_closed": false, "url": "https://www.yelp.com/biz/bistro-verde-temporarily-closed-new-york?adjust_creative=h5HwbyQ0TYvQjBo6Ys5Bgw&utm_campaign=yelp_api_v3&utm_medium=api_v3_business_search&utm_source=h5HwbyQ0TYvQjBo6Ys5Bgw", "review_count": 28, "categories": [{"alias": "tradamerican", "title": "American (Traditional)"}], "rating": 4.0, "coordinates": {"latitude": 40.7662427, "longitude": -73.9812435}, "transactions": [], "location": {"address1": "225 W 57th St", "address2": null, "address3": null, "city": "New York", "zip_code": "10019", "country": "US", "state": "NY", "display_address": ["225 W 57th St", "New York, NY 10019"]}, "phone": "+12122952187", "display_phone": "(212) 295-2187", "distance": 77.63515134382308}, {"id": "xlr1KcIeILEZXSRy3OycDw", "alias": "clubhouse-temporarily-closed-new-york", "name": "Clubhouse - Temporarily Closed", "image_url": "https://s3-media1.fl.yelpcdn.com/bphoto/Pp9lykMpBx6ImnOPiohllQ/o.jpg", "is_closed": false, "url": "https://www.yelp.com/biz/clubhouse-temporarily-closed-new-york?adjust_creative=h5HwbyQ0TYvQjBo6Ys5Bgw&utm_campaign=yelp_api_v3&utm_medium=api_v3_business_search&utm_source=h5HwbyQ0TYvQjBo6Ys5Bgw", "review_count": 7, "categories": [{"alias": "newamerican", "title": "American (New)"}, {"alias": "cocktailbars", "title": "Cocktail Bars"}], "rating": 5.0, "coordinates": {"latitude": 40.7667047232494, "longitude": -73.9820542931557}, "transactions": [], "location": {"address1": "235 W 57th St", "address2": "", "address3": null, "city": "New York", "zip_code": "10019", "country": "US", "state": "NY", "display_address": ["235 W 57th St", "New York, NY 10019"]}, "phone": "+12128435100", "display_phone": "(212) 843-5100", "distance": 154.02245594815523}, {"id": "TaAICUBApAfQG0ATDyspJQ", "alias": "9ten-restaurant-new-york", "name": "9ten Restaurant", "image_url": "https://s3-media4.fl.yelpcdn.com/bphoto/kFwu2Ffhpo-qvz6UwQon2g/o.jpg", "is_closed": false, "url": "https://www.yelp.com/biz/9ten-restaurant-new-york?adjust_creative=h5HwbyQ0TYvQjBo6Ys5Bgw&utm_campaign=yelp_api_v3&utm_medium=api_v3_business_search&utm_source=h5HwbyQ0TYvQjBo6Ys5Bgw", "review_count": 203, "categories": [{"alias": "newamerican", "title": "American (New)"}, {"alias": "bars", "title": "Bars"}, {"alias": "pizza", "title": "Pizza"}], "rating": 4.0, "coordinates": {"latitude": 40.7661399841309, "longitude": -73.97998046875}, "transactions": ["delivery", "pickup"], "price": "$$", "location": {"address1": "910 7th Ave", "address2": "", "address3": "", "city": "New York", "zip_code": "10019", "country": "US", "state": "NY", "display_address": ["910 7th Ave", "New York, NY 10019"]}, "phone": "+19176393366", "display_phone": "(917) 639-3366", "distance": 110.19626548455523}, {"id": "XLhzRqTsv9vZwNjmwS2e9g", "alias": "carnegie-diner-new-york", "name": "Carnegie Diner", "image_url": "https://s3-media3.fl.yelpcdn.com/bphoto/vu4v7OIx7RuJuSQguGc7FA/o.jpg", "is_closed": false, "url": "https://www.yelp.com/biz/carnegie-diner-new-york?adjust_creative=h5HwbyQ0TYvQjBo6Ys5Bgw&utm_campaign=yelp_api_v3&utm_medium=api_v3_business_search&utm_source=h5HwbyQ0TYvQjBo6Ys5Bgw", "review_count": 28, "categories": [{"alias": "burgers", "title": "Burgers"}, {"alias": "bakeries", "title": "Bakeries"}, {"alias": "sandwiches", "title": "Sandwiches"}], "rating": 3.5, "coordinates": {"latitude": 40.766056, "longitude": -73.980504}, "transactions": ["delivery", "pickup"], "location": {"address1": "205 W 57th St", "address2": "", "address3": null, "city": "New York", "zip_code": "10019", "country": "US", "state": "NY", "display_address": ["205 W 57th St", "New York, NY 10019"]}, "phone": "+12126641001", "display_phone": "(212) 664-1001", "distance": 69.12230237520994}, {"id": "u5zbsITgkFbAlRq0j-XE-g", "alias": "serafina-broadway-new-york", "name": "Serafina Broadway", "image_url": "https://s3-media2.fl.yelpcdn.com/bphoto/l5i104-fJ5pzz-0XrgtzPQ/o.jpg", "is_closed": false, "url": "https://www.yelp.com/biz/serafina-broadway-new-york?adjust_creative=h5HwbyQ0TYvQjBo6Ys5Bgw&utm_campaign=yelp_api_v3&utm_medium=api_v3_business_search&utm_source=h5HwbyQ0TYvQjBo6Ys5Bgw", "review_count": 607, "categories": [{"alias": "italian", "title": "Italian"}, {"alias": "pizza", "title": "Pizza"}], "rating": 3.0, "coordinates": {"latitude": 40.7645, "longitude": -73.9819}, "transactions": ["delivery", "pickup"], "price": "$$", "location": {"address1": "210 W 55th St", "address2": null, "address3": "", "city": "New York", "zip_code": "10019", "country": "US", "state": "NY", "display_address": ["210 W 55th St", "New York, NY 10019"]}, "phone": "+12123151700", "display_phone": "(212) 315-1700", "distance": 151.62126011415492}, {"id": "Pf1gdUngOSo75T0qdf-fMg", "alias": "oh-mochi-new-york", "name": "Oh Mochi", "image_url": "https://s3-media1.fl.yelpcdn.com/bphoto/zrfM29D5O363BMsJoJ0EtA/o.jpg", "is_closed": false, "url": "https://www.yelp.com/biz/oh-mochi-new-york?adjust_creative=h5HwbyQ0TYvQjBo6Ys5Bgw&utm_campaign=yelp_api_v3&utm_medium=api_v3_business_search&utm_source=h5HwbyQ0TYvQjBo6Ys5Bgw", "review_count": 34, "categories": [{"alias": "desserts", "title": "Desserts"}, {"alias": "donuts", "title": "Donuts"}, {"alias": "pizza", "title": "Pizza"}], "rating": 4.0, "coordinates": {"latitude": 40.7662428236374, "longitude": -73.9812435954809}, "transactions": [], "price": "$", "location": {"address1": "225 W 57th St", "address2": "", "address3": null, "city": "New York", "zip_code": "10019", "country": "US", "state": "NY", "display_address": ["225 W 57th St", "New York, NY 10019"]}, "phone": "", "display_phone": "", "distance": 77.65048333869545}, {"id": "XzxlmC5W37klZXzSHrwOtA", "alias": "carnegie-johns-new-york", "name": "Carnegie John's", "image_url": "https://s3-media3.fl.yelpcdn.com/bphoto/KWW6VLoL5gOGL8VKonEdWQ/o.jpg", "is_closed": false, "url": "https://www.yelp.com/biz/carnegie-johns-new-york?adjust_creative=h5HwbyQ0TYvQjBo6Ys5Bgw&utm_campaign=yelp_api_v3&utm_medium=api_v3_business_search&utm_source=h5HwbyQ0TYvQjBo6Ys5Bgw", "review_count": 85, "categories": [{"alias": "burgers", "title": "Burgers"}, {"alias": "foodstands", "title": "Food Stands"}, {"alias": "sandwiches", "title": "Sandwiches"}], "rating": 4.5, "coordinates": {"latitude": 40.7648470396513, "longitude": -73.9805518728638}, "transactions": [], "price": "$", "location": {"address1": "56th St & 7th Ave", "address2": "", "address3": "", "city": "New York", "zip_code": "10011", "country": "US", "state": "NY", "display_address": ["56th St & 7th Ave", "New York, NY 10011"]}, "phone": "", "display_phone": "", "distance": 88.91138835436979}, {"id": "MwcRbM6lS6_8N67LmyBELA", "alias": "99-cent-fresh-pizza-new-york-5", "name": "99 Cent Fresh Pizza", "image_url": "https://s3-media3.fl.yelpcdn.com/bphoto/yy7ZIhBQiVIsoBINay-MIg/o.jpg", "is_closed": false, "url": "https://www.yelp.com/biz/99-cent-fresh-pizza-new-york-5?adjust_creative=h5HwbyQ0TYvQjBo6Ys5Bgw&utm_campaign=yelp_api_v3&utm_medium=api_v3_business_search&utm_source=h5HwbyQ0TYvQjBo6Ys5Bgw", "review_count": 520, "categories": [{"alias": "pizza", "title": "Pizza"}], "rating": 4.0, "coordinates": {"latitude": 40.76458, "longitude": -73.98247}, "transactions": [], "price": "$", "location": {"address1": "1723 Broadway", "address2": "", "address3": "", "city": "New York", "zip_code": "10019", "country": "US", "state": "NY", "display_address": ["1723 Broadway", "New York, NY 10019"]}, "phone": "+12122452155", "display_phone": "(212) 245-2155", "distance": 166.84941589329202}, {"id": "qoc8jyoCBW4tw9zspA2K6Q", "alias": "jeannies-new-york", "name": "Jeannie's", "image_url": "https://s3-media3.fl.yelpcdn.com/bphoto/7ErQfHQobcZqvUOULEonBQ/o.jpg", "is_closed": false, "url": "https://www.yelp.com/biz/jeannies-new-york?adjust_creative=h5HwbyQ0TYvQjBo6Ys5Bgw&utm_campaign=yelp_api_v3&utm_medium=api_v3_business_search&utm_source=h5HwbyQ0TYvQjBo6Ys5Bgw", "review_count": 15, "categories": [{"alias": "italian", "title": "Italian"}, {"alias": "pizza", "title": "Pizza"}], "rating": 4.5, "coordinates": {"latitude": 40.766492, "longitude": -73.980912}, "transactions": [], "price": "$$", "location": {"address1": "225 W 57th St", "address2": null, "address3": null, "city": "New York", "zip_code": "10019", "country": "US", "state": "NY", "display_address": ["225 W 57th St", "New York, NY 10019"]}, "phone": "", "display_phone": "", "distance": 103.1811598223636}, {"id": "JJluK3s0SKFv02LKZbl_kw", "alias": "old-traditional-polish-cuisine-new-york", "name": "Old Traditional Polish Cuisine", "image_url": "https://s3-media2.fl.yelpcdn.com/bphoto/ZwWpxOFWciypQOTvqcALJQ/o.jpg", "is_closed": false, "url": "https://www.yelp.com/biz/old-traditional-polish-cuisine-new-york?adjust_creative=h5HwbyQ0TYvQjBo6Ys5Bgw&utm_campaign=yelp_api_v3&utm_medium=api_v3_business_search&utm_source=h5HwbyQ0TYvQjBo6Ys5Bgw", "review_count": 63, "categories": [{"alias": "polish", "title": "Polish"}, {"alias": "foodtrucks", "title": "Food Trucks"}, {"alias": "catering", "title": "Caterers"}], "rating": 4.5, "coordinates": {"latitude": 40.7647053435302, "longitude": -73.9821391124684}, "transactions": [], "price": "$", "location": {"address1": "55TH St Broadway Ave", "address2": "", "address3": "", "city": "New York", "zip_code": "10020", "country": "US", "state": "NY", "display_address": ["55TH St Broadway Ave", "New York, NY 10020"]}, "phone": "+13474698867", "display_phone": "(347) 469-8867", "distance": 134.9435777375787}, {"id": "o5fKNEFJbakQ_UJ3-0hmgw", "alias": "pj-carneys-new-york", "name": "PJ Carneys", "image_url": "https://s3-media2.fl.yelpcdn.com/bphoto/7smTK2ItFbHYh9E2DFk6gg/o.jpg", "is_closed": false, "url": "https://www.yelp.com/biz/pj-carneys-new-york?adjust_creative=h5HwbyQ0TYvQjBo6Ys5Bgw&utm_campaign=yelp_api_v3&utm_medium=api_v3_business_search&utm_source=h5HwbyQ0TYvQjBo6Ys5Bgw", "review_count": 141, "categories": [{"alias": "pubs", "title": "Pubs"}, {"alias": "soup", "title": "Soup"}, {"alias": "tradamerican", "title": "American (Traditional)"}], "rating": 3.5, "coordinates": {"latitude": 40.7658801, "longitude": -73.9799718}, "transactions": [], "price": "$$", "location": {"address1": "906 7th Ave", "address2": "", "address3": "", "city": "New York", "zip_code": "10019", "country": "US", "state": "NY", "display_address": ["906 7th Ave", "New York, NY 10019"]}, "phone": "+12126640056", "display_phone": "(212) 664-0056", "distance": 93.66649407434774}, {"id": "-23J5mEnALQ0K6TzcmAJFA", "alias": "blue-dog-cafe-new-york-2", "name": "Blue Dog Cafe", "image_url": "https://s3-media3.fl.yelpcdn.com/bphoto/MohhYHvp5ea7r-RQr_ddDg/o.jpg", "is_closed": false, "url": "https://www.yelp.com/biz/blue-dog-cafe-new-york-2?adjust_creative=h5HwbyQ0TYvQjBo6Ys5Bgw&utm_campaign=yelp_api_v3&utm_medium=api_v3_business_search&utm_source=h5HwbyQ0TYvQjBo6Ys5Bgw", "review_count": 225, "categories": [{"alias": "cafes", "title": "Cafes"}], "rating": 3.5, "coordinates": {"latitude": 40.7647474199518, "longitude": -73.9797406067459}, "transactions": ["delivery"], "price": "$$", "location": {"address1": "155 W 56th St", "address2": "", "address3": "", "city": "New York", "zip_code": "10019", "country": "US", "state": "NY", "display_address": ["155 W 56th St", "New York, NY 10019"]}, "phone": "+12123022037", "display_phone": "(212) 302-2037", "distance": 140.54371268314327}, {"id": "PK-ohmmqEQXipgm_U8JjrA", "alias": "tisserie-new-york-2", "name": "Tisserie", "image_url": "https://s3-media1.fl.yelpcdn.com/bphoto/96P_0o2Oa38bnCG-KeLRBQ/o.jpg", "is_closed": false, "url": "https://www.yelp.com/biz/tisserie-new-york-2?adjust_creative=h5HwbyQ0TYvQjBo6Ys5Bgw&utm_campaign=yelp_api_v3&utm_medium=api_v3_business_search&utm_source=h5HwbyQ0TYvQjBo6Ys5Bgw", "review_count": 358, "categories": [{"alias": "cafes", "title": "Cafes"}, {"alias": "bakeries", "title": "Bakeries"}, {"alias": "coffee", "title": "Coffee & Tea"}], "rating": 4.0, "coordinates": {"latitude": 40.7643662648707, "longitude": -73.9810570774322}, "transactions": ["delivery", "pickup"], "price": "$", "location": {"address1": "870 7th Ave", "address2": "", "address3": "", "city": "New York", "zip_code": "10019", "country": "US", "state": "NY", "display_address": ["870 7th Ave", "New York, NY 10019"]}, "phone": "+19174092891", "display_phone": "(917) 409-2891", "distance": 133.58294350645966}, {"id": "k-ljVS3yrPl2XTqH4S72rQ", "alias": "shoe-bar-new-york-3", "name": "Shoe Bar", "image_url": "https://s3-media2.fl.yelpcdn.com/bphoto/R89wirtaF_Hwjghz4QPAjQ/o.jpg", "is_closed": false, "url": "https://www.yelp.com/biz/shoe-bar-new-york-3?adjust_creative=h5HwbyQ0TYvQjBo6Ys5Bgw&utm_campaign=yelp_api_v3&utm_medium=api_v3_business_search&utm_source=h5HwbyQ0TYvQjBo6Ys5Bgw", "review_count": 3, "categories": [{"alias": "tapasmallplates", "title": "Tapas/Small Plates"}, {"alias": "coffee", "title": "Coffee & Tea"}, {"alias": "cocktailbars", "title": "Cocktail Bars"}], "rating": 5.0, "coordinates": {"latitude": 40.7662427, "longitude": -73.9812435}, "transactions": [], "location": {"address1": "225 W 57th St", "address2": null, "address3": "Nordstrom", "city": "New York", "zip_code": "10019", "country": "US", "state": "NY", "display_address": ["225 W 57th St", "Nordstrom", "New York, NY 10019"]}, "phone": "+12122952182", "display_phone": "(212) 295-2182", "distance": 77.63515134382308}, {"id": "BovnR6siyH2QjhuPXNXVwg", "alias": "roast-kitchen-new-york-16", "name": "Roast Kitchen", "image_url": "https://s3-media4.fl.yelpcdn.com/bphoto/hhpsTOmH79KcGcMCmBaoMg/o.jpg", "is_closed": false, "url": "https://www.yelp.com/biz/roast-kitchen-new-york-16?adjust_creative=h5HwbyQ0TYvQjBo6Ys5Bgw&utm_campaign=yelp_api_v3&utm_medium=api_v3_business_search&utm_source=h5HwbyQ0TYvQjBo6Ys5Bgw", "review_count": 41, "categories": [{"alias": "juicebars", "title": "Juice Bars & Smoothies"}, {"alias": "breakfast_brunch", "title": "Breakfast & Brunch"}], "rating": 3.0, "coordinates": {"latitude": 40.7658544, "longitude": -73.9804554}, "transactions": ["delivery", "pickup"], "price": "$$", "location": {"address1": "209 West 57th St", "address2": null, "address3": null, "city": "New York", "zip_code": "10019", "country": "US", "state": "NY", "display_address": ["209 West 57th St", "New York, NY 10019"]}, "phone": "+16469129920", "display_phone": "(646) 912-9920", "distance": 62.5018542101858}, {"id": "B6eNhdBB0n5auXkRdpWr3Q", "alias": "king-souvlaki-new-york", "name": "King Souvlaki", "image_url": "https://s3-media1.fl.yelpcdn.com/bphoto/XmIkAfUE17TJjB16UKljaA/o.jpg", "is_closed": false, "url": "https://www.yelp.com/biz/king-souvlaki-new-york?adjust_creative=h5HwbyQ0TYvQjBo6Ys5Bgw&utm_campaign=yelp_api_v3&utm_medium=api_v3_business_search&utm_source=h5HwbyQ0TYvQjBo6Ys5Bgw", "review_count": 11, "categories": [{"alias": "greek", "title": "Greek"}, {"alias": "foodtrucks", "title": "Food Trucks"}], "rating": 4.0, "coordinates": {"latitude": 40.76473, "longitude": -73.9822}, "transactions": [], "location": {"address1": "West 55th Street and Broadway", "address2": null, "address3": "", "city": "New York", "zip_code": "10017", "country": "US", "state": "NY", "display_address": ["West 55th Street and Broadway", "New York, NY 10017"]}, "phone": "+13473840217", "display_phone": "(347) 384-0217", "distance": 137.75580713143637}, {"id": "U1zTQPZEI84Bz6CHYUZs5g", "alias": "broadway-bar-temporarily-closed-new-york", "name": "Broadway Bar - Temporarily Closed", "image_url": "https://s3-media3.fl.yelpcdn.com/bphoto/-ACUDXdJ8BlnZ5Y0DfIKQQ/o.jpg", "is_closed": false, "url": "https://www.yelp.com/biz/broadway-bar-temporarily-closed-new-york?adjust_creative=h5HwbyQ0TYvQjBo6Ys5Bgw&utm_campaign=yelp_api_v3&utm_medium=api_v3_business_search&utm_source=h5HwbyQ0TYvQjBo6Ys5Bgw", "review_count": 2, "categories": [{"alias": "tapasmallplates", "title": "Tapas/Small Plates"}, {"alias": "cocktailbars", "title": "Cocktail Bars"}], "rating": 5.0, "coordinates": {"latitude": 40.7662427, "longitude": -73.9812435}, "transactions": [], "location": {"address1": "225 W 57th St", "address2": null, "address3": "", "city": "New York", "zip_code": "10019", "country": "US", "state": "NY", "display_address": ["225 W 57th St", "New York, NY 10019"]}, "phone": "+12122952183", "display_phone": "(212) 295-2183", "distance": 77.63515134382308}, {"id": "Y1y5ZAryfXrYc3C2ybAewg", "alias": "redeye-grill-new-york-2", "name": "Redeye Grill", "image_url": "https://s3-media2.fl.yelpcdn.com/bphoto/9CC1nsM8UdIJ7HNNVEHdyw/o.jpg", "is_closed": false, "url": "https://www.yelp.com/biz/redeye-grill-new-york-2?adjust_creative=h5HwbyQ0TYvQjBo6Ys5Bgw&utm_campaign=yelp_api_v3&utm_medium=api_v3_business_search&utm_source=h5HwbyQ0TYvQjBo6Ys5Bgw", "review_count": 63, "categories": [{"alias": "newamerican", "title": "American (New)"}, {"alias": "seafood", "title": "Seafood"}, {"alias": "breakfast_brunch", "title": "Breakfast & Brunch"}], "rating": 3.0, "coordinates": {"latitude": 40.76517, "longitude": -73.98058}, "transactions": [], "location": {"address1": "890 7th Ave", "address2": null, "address3": "", "city": "New York", "zip_code": "10106", "country": "US", "state": "NY", "display_address": ["890 7th Ave", "New York, NY 10106"]}, "phone": "+12125419000", "display_phone": "(212) 541-9000", "distance": 49.83272548264479}, {"id": "Bx9ufqCtxxdl2l6pT3J45g", "alias": "petrossian-boutique-and-cafe-new-york", "name": "Petrossian Boutique & Cafe", "image_url": "https://s3-media3.fl.yelpcdn.com/bphoto/1rdKEPcETJDNFWdU8KK5XQ/o.jpg", "is_closed": false, "url": "https://www.yelp.com/biz/petrossian-boutique-and-cafe-new-york?adjust_creative=h5HwbyQ0TYvQjBo6Ys5Bgw&utm_campaign=yelp_api_v3&utm_medium=api_v3_business_search&utm_source=h5HwbyQ0TYvQjBo6Ys5Bgw", "review_count": 362, "categories": [{"alias": "french", "title": "French"}, {"alias": "seafood", "title": "Seafood"}], "rating": 4.0, "coordinates": {"latitude": 40.7658521957585, "longitude": -73.979433064085}, "transactions": [], "price": "$$", "location": {"address1": "911 7th Ave", "address2": "", "address3": "", "city": "New York", "zip_code": "10019", "country": "US", "state": "NY", "display_address": ["911 7th Ave", "New York, NY 10019"]}, "phone": "+12122452217", "display_phone": "(212) 245-2217", "distance": 136.6115232787999}, {"id": "t_qclzYoPslpb00OCe1MnA", "alias": "cafe-metro-new-york-25", "name": "Cafe Metro", "image_url": "https://s3-media3.fl.yelpcdn.com/bphoto/psTA2s99JUE_nUMf0_eUfg/o.jpg", "is_closed": false, "url": "https://www.yelp.com/biz/cafe-metro-new-york-25?adjust_creative=h5HwbyQ0TYvQjBo6Ys5Bgw&utm_campaign=yelp_api_v3&utm_medium=api_v3_business_search&utm_source=h5HwbyQ0TYvQjBo6Ys5Bgw", "review_count": 25, "categories": [{"alias": "salad", "title": "Salad"}, {"alias": "juicebars", "title": "Juice Bars & Smoothies"}, {"alias": "sandwiches", "title": "Sandwiches"}], "rating": 3.5, "coordinates": {"latitude": 40.76464, "longitude": -73.9802799}, "transactions": ["delivery", "pickup"], "location": {"address1": "162 W 56th St", "address2": null, "address3": "", "city": "New York", "zip_code": "10019", "country": "US", "state": "NY", "display_address": ["162 W 56th St", "New York, NY 10019"]}, "phone": "+12125816545", "display_phone": "(212) 581-6545", "distance": 120.96598078867865}, {"id": "yKOTFgZmTFeas8Pvt077vA", "alias": "the-russian-tea-room-new-york", "name": "The Russian Tea Room", "image_url": "https://s3-media3.fl.yelpcdn.com/bphoto/fVA-wOVStNIIEu5LI65Fpw/o.jpg", "is_closed": false, "url": "https://www.yelp.com/biz/the-russian-tea-room-new-york?adjust_creative=h5HwbyQ0TYvQjBo6Ys5Bgw&utm_campaign=yelp_api_v3&utm_medium=api_v3_business_search&utm_source=h5HwbyQ0TYvQjBo6Ys5Bgw", "review_count": 1002, "categories": [{"alias": "tea", "title": "Tea Rooms"}, {"alias": "russian", "title": "Russian"}, {"alias": "venues", "title": "Venues & Event Spaces"}], "rating": 3.0, "coordinates": {"latitude": 40.764958, "longitude": -73.9794337}, "transactions": ["delivery", "pickup"], "price": "$$$$", "location": {"address1": "150 W 57th St", "address2": null, "address3": "", "city": "New York", "zip_code": "10019", "country": "US", "state": "NY", "display_address": ["150 W 57th St", "New York, NY 10019"]}, "phone": "+12125817100", "display_phone": "(212) 581-7100", "distance": 149.10024133962338}, {"id": "0KrOkhh3VjlnQSVROQM_Xg", "alias": "applejack-diner-new-york", "name": "Applejack Diner", "image_url": "https://s3-media4.fl.yelpcdn.com/bphoto/w5QUb8Wvr-UrLAQR1GBTwg/o.jpg", "is_closed": false, "url": "https://www.yelp.com/biz/applejack-diner-new-york?adjust_creative=h5HwbyQ0TYvQjBo6Ys5Bgw&utm_campaign=yelp_api_v3&utm_medium=api_v3_business_search&utm_source=h5HwbyQ0TYvQjBo6Ys5Bgw", "review_count": 312, "categories": [{"alias": "diners", "title": "Diners"}, {"alias": "desserts", "title": "Desserts"}, {"alias": "breakfast_brunch", "title": "Breakfast & Brunch"}], "rating": 3.0, "coordinates": {"latitude": 40.7645296, "longitude": -73.9824447}, "transactions": ["delivery", "pickup"], "price": "$$", "location": {"address1": "1725 Broadway", "address2": "", "address3": "", "city": "New York", "zip_code": "10019", "country": "US", "state": "NY", "display_address": ["1725 Broadway", "New York, NY 10019"]}, "phone": "+12125866075", "display_phone": "(212) 586-6075", "distance": 160.13417874601}, {"id": "M6aCb7aJzIAyiNJ3c9WpMQ", "alias": "le-pain-quotidien-new-york-34", "name": "Le Pain Quotidien", "image_url": "https://s3-media2.fl.yelpcdn.com/bphoto/K9TUhcOnqk8AUStgLIQkLA/o.jpg", "is_closed": false, "url": "https://www.yelp.com/biz/le-pain-quotidien-new-york-34?adjust_creative=h5HwbyQ0TYvQjBo6Ys5Bgw&utm_campaign=yelp_api_v3&utm_medium=api_v3_business_search&utm_source=h5HwbyQ0TYvQjBo6Ys5Bgw", "review_count": 102, "categories": [{"alias": "belgian", "title": "Belgian"}, {"alias": "bakeries", "title": "Bakeries"}, {"alias": "breakfast_brunch", "title": "Breakfast & Brunch"}], "rating": 3.0, "coordinates": {"latitude": 40.7663330471095, "longitude": -73.979585697037}, "transactions": [], "price": "$$", "location": {"address1": "Central Park Driveway", "address2": "", "address3": "Sheep Meadow", "city": "New York", "zip_code": "10023", "country": "US", "state": "NY", "display_address": ["Central Park Driveway", "Sheep Meadow", "New York, NY 10023"]}, "phone": "", "display_phone": "", "distance": 147.17502052201345}, {"id": "29Y6YWJ7SEMJJqEuK9WKKg", "alias": "hot-dog-cart-new-york-3", "name": "Hot Dog Cart", "image_url": "https://s3-media2.fl.yelpcdn.com/bphoto/tFe_YI_RLgzBGo1PYIGxZQ/o.jpg", "is_closed": false, "url": "https://www.yelp.com/biz/hot-dog-cart-new-york-3?adjust_creative=h5HwbyQ0TYvQjBo6Ys5Bgw&utm_campaign=yelp_api_v3&utm_medium=api_v3_business_search&utm_source=h5HwbyQ0TYvQjBo6Ys5Bgw", "review_count": 1, "categories": [{"alias": "foodstands", "title": "Food Stands"}], "rating": 4.0, "coordinates": {"latitude": 40.7663205, "longitude": -73.981912}, "transactions": [], "location": {"address1": "West 57 St", "address2": "", "address3": "", "city": "New York", "zip_code": "10019", "country": "US", "state": "NY", "display_address": ["West 57 St", "New York, NY 10019"]}, "phone": "", "display_phone": "", "distance": 113.03526123336708}, {"id": "aP3Z0DXzwzM8lZWg3YX9KQ", "alias": "molyvos-new-york", "name": "Molyvos", "image_url": "https://s3-media4.fl.yelpcdn.com/bphoto/I205VMe0ypHPt1uDFlsUag/o.jpg", "is_closed": false, "url": "https://www.yelp.com/biz/molyvos-new-york?adjust_creative=h5HwbyQ0TYvQjBo6Ys5Bgw&utm_campaign=yelp_api_v3&utm_medium=api_v3_business_search&utm_source=h5HwbyQ0TYvQjBo6Ys5Bgw", "review_count": 488, "categories": [{"alias": "greek", "title": "Greek"}, {"alias": "mediterranean", "title": "Mediterranean"}], "rating": 3.5, "coordinates": {"latitude": 40.7644338, "longitude": -73.9806394}, "transactions": ["delivery", "pickup"], "price": "$$$", "location": {"address1": "871 7th Ave", "address2": "", "address3": "", "city": "New York", "zip_code": "10019", "country": "US", "state": "NY", "display_address": ["871 7th Ave", "New York, NY 10019"]}, "phone": "+12125827500", "display_phone": "(212) 582-7500", "distance": 129.84294002356086}, {"id": "6_qAmt-rUH2tk2HqA5i5Cg", "alias": "hani-pacific-new-york-2", "name": "Hani Pacific", "image_url": "https://s3-media1.fl.yelpcdn.com/bphoto/J97S0BzaHGsnS5b62v_eGg/o.jpg", "is_closed": false, "url": "https://www.yelp.com/biz/hani-pacific-new-york-2?adjust_creative=h5HwbyQ0TYvQjBo6Ys5Bgw&utm_campaign=yelp_api_v3&utm_medium=api_v3_business_search&utm_source=h5HwbyQ0TYvQjBo6Ys5Bgw", "review_count": 10, "categories": [{"alias": "panasian", "title": "Pan Asian"}, {"alias": "cocktailbars", "title": "Cocktail Bars"}], "rating": 3.0, "coordinates": {"latitude": 40.7662427, "longitude": -73.9812435}, "transactions": [], "location": {"address1": "225 W 57th St", "address2": null, "address3": "Nordstrom", "city": "New York", "zip_code": "10019", "country": "US", "state": "NY", "display_address": ["225 W 57th St", "Nordstrom", "New York, NY 10019"]}, "phone": "+12122952186", "display_phone": "(212) 295-2186", "distance": 77.63515134382308}, {"id": "wlbd1wWGulrh1NEYvLBDjA", "alias": "joe-and-the-juice-new-york-25", "name": "Joe & The Juice", "image_url": "https://s3-media2.fl.yelpcdn.com/bphoto/eYJ5NqfRNkBnlQJO1bbZog/o.jpg", "is_closed": false, "url": "https://www.yelp.com/biz/joe-and-the-juice-new-york-25?adjust_creative=h5HwbyQ0TYvQjBo6Ys5Bgw&utm_campaign=yelp_api_v3&utm_medium=api_v3_business_search&utm_source=h5HwbyQ0TYvQjBo6Ys5Bgw", "review_count": 72, "categories": [{"alias": "juicebars", "title": "Juice Bars & Smoothies"}, {"alias": "coffee", "title": "Coffee & Tea"}, {"alias": "cafes", "title": "Cafes"}], "rating": 2.5, "coordinates": {"latitude": 40.76582, "longitude": -73.98154}, "transactions": ["delivery", "pickup"], "price": "$$", "location": {"address1": "1758 Broadway", "address2": "", "address3": null, "city": "New York", "zip_code": "10019", "country": "US", "state": "NY", "display_address": ["1758 Broadway", "New York, NY 10019"]}, "phone": "", "display_phone": "", "distance": 36.362999097921055}, {"id": "SO9Y_SN8voOB3uU4ausRog", "alias": "korilla-bbq-new-york", "name": "Korilla BBQ", "image_url": "https://s3-media1.fl.yelpcdn.com/bphoto/fyRzLW3wM6j4nI-jWgWrZA/o.jpg", "is_closed": false, "url": "https://www.yelp.com/biz/korilla-bbq-new-york?adjust_creative=h5HwbyQ0TYvQjBo6Ys5Bgw&utm_campaign=yelp_api_v3&utm_medium=api_v3_business_search&utm_source=h5HwbyQ0TYvQjBo6Ys5Bgw", "review_count": 495, "categories": [{"alias": "korean", "title": "Korean"}, {"alias": "foodtrucks", "title": "Food Trucks"}, {"alias": "breakfast_brunch", "title": "Breakfast & Brunch"}], "rating": 4.0, "coordinates": {"latitude": 40.7647655944894, "longitude": -73.9822647110451}, "transactions": [], "price": "$", "location": {"address1": "672 Lexington Ave", "address2": "", "address3": "", "city": "New York", "zip_code": "10019", "country": "US", "state": "NY", "display_address": ["672 Lexington Ave", "New York, NY 10019"]}, "phone": "", "display_phone": "", "distance": 138.17617995011332}, {"id": "wEGU5E5rm2PjZjkoTEmFGg", "alias": "bon-app\u00e9tit-supper-club-and-caf\u00e9-new-york-2", "name": "Bon App\u00e9tit Supper Club & Caf\u00e9", "image_url": "https://s3-media4.fl.yelpcdn.com/bphoto/sTlOUaCj1ciRimO9-RIswg/o.jpg", "is_closed": false, "url": "https://www.yelp.com/biz/bon-app%C3%A9tit-supper-club-and-caf%C3%A9-new-york-2?adjust_creative=h5HwbyQ0TYvQjBo6Ys5Bgw&utm_campaign=yelp_api_v3&utm_medium=api_v3_business_search&utm_source=h5HwbyQ0TYvQjBo6Ys5Bgw", "review_count": 10, "categories": [{"alias": "sandwiches", "title": "Sandwiches"}], "rating": 3.0, "coordinates": {"latitude": 40.7661059, "longitude": -73.9810332}, "transactions": [], "price": "$$", "location": {"address1": "221 W 57th St", "address2": "", "address3": "", "city": "New York", "zip_code": "10019", "country": "US", "state": "NY", "display_address": ["221 W 57th St", "New York, NY 10019"]}, "phone": "", "display_phone": "", "distance": 64.27246738329671}, {"id": "rww9ZIPZt_YG8NEajYjC_A", "alias": "gems-circle-farm-new-york", "name": "Gem's Circle Farm", "image_url": "https://s3-media2.fl.yelpcdn.com/bphoto/H6SQ6yB8BI8-C_K7oO2pow/o.jpg", "is_closed": false, "url": "https://www.yelp.com/biz/gems-circle-farm-new-york?adjust_creative=h5HwbyQ0TYvQjBo6Ys5Bgw&utm_campaign=yelp_api_v3&utm_medium=api_v3_business_search&utm_source=h5HwbyQ0TYvQjBo6Ys5Bgw", "review_count": 4, "categories": [{"alias": "delis", "title": "Delis"}], "rating": 2.5, "coordinates": {"latitude": 40.7660415, "longitude": -73.9798545}, "transactions": [], "price": "$", "location": {"address1": "916 7th Ave", "address2": "", "address3": "", "city": "New York", "zip_code": "10019", "country": "US", "state": "NY", "display_address": ["916 7th Ave", "New York, NY 10019"]}, "phone": "+12129777730", "display_phone": "(212) 977-7730", "distance": 125.80459628441146}, {"id": "wbdL_gDZSKMR6kwRTBwx4g", "alias": "pret-a-manger-new-york-87", "name": "Pret A Manger", "image_url": "https://s3-media1.fl.yelpcdn.com/bphoto/TH-KstbVRFcI3tzMJihKTg/o.jpg", "is_closed": false, "url": "https://www.yelp.com/biz/pret-a-manger-new-york-87?adjust_creative=h5HwbyQ0TYvQjBo6Ys5Bgw&utm_campaign=yelp_api_v3&utm_medium=api_v3_business_search&utm_source=h5HwbyQ0TYvQjBo6Ys5Bgw", "review_count": 16, "categories": [{"alias": "breakfast_brunch", "title": "Breakfast & Brunch"}, {"alias": "coffee", "title": "Coffee & Tea"}, {"alias": "sandwiches", "title": "Sandwiches"}], "rating": 3.0, "coordinates": {"latitude": 40.765655, "longitude": -73.9816624}, "transactions": [], "price": "$", "location": {"address1": "1756 Broadway", "address2": "", "address3": null, "city": "New York", "zip_code": "10019", "country": "US", "state": "NY", "display_address": ["1756 Broadway", "New York, NY 10019"]}, "phone": "+16469644302", "display_phone": "(646) 964-4302", "distance": 55.730370345525955}, {"id": "PZlofInZTZnp2jwL3L5sqw", "alias": "fresh-and-co-new-york-30", "name": "fresh&co", "image_url": "https://s3-media1.fl.yelpcdn.com/bphoto/TxG_5mbuFf-DYV4uhR0dMw/o.jpg", "is_closed": false, "url": "https://www.yelp.com/biz/fresh-and-co-new-york-30?adjust_creative=h5HwbyQ0TYvQjBo6Ys5Bgw&utm_campaign=yelp_api_v3&utm_medium=api_v3_business_search&utm_source=h5HwbyQ0TYvQjBo6Ys5Bgw", "review_count": 92, "categories": [{"alias": "salad", "title": "Salad"}, {"alias": "sandwiches", "title": "Sandwiches"}, {"alias": "soup", "title": "Soup"}], "rating": 3.5, "coordinates": {"latitude": 40.76554, "longitude": -73.98046}, "transactions": ["delivery", "pickup"], "price": "$$", "location": {"address1": "200 W 57th St", "address2": "", "address3": "", "city": "New York", "zip_code": "10019", "country": "US", "state": "NY", "display_address": ["200 W 57th St", "New York, NY 10019"]}, "phone": "+12125137374", "display_phone": "(212) 513-7374", "distance": 34.59559287211664}, {"id": "ksZNEztbSbpvdu3rfGC5bg", "alias": "le-pain-quotidien-new-york-154", "name": "Le Pain Quotidien", "image_url": "https://s3-media2.fl.yelpcdn.com/bphoto/3sEoeYtFGDOHrbnwvXgh2Q/o.jpg", "is_closed": false, "url": "https://www.yelp.com/biz/le-pain-quotidien-new-york-154?adjust_creative=h5HwbyQ0TYvQjBo6Ys5Bgw&utm_campaign=yelp_api_v3&utm_medium=api_v3_business_search&utm_source=h5HwbyQ0TYvQjBo6Ys5Bgw", "review_count": 321, "categories": [{"alias": "bakeries", "title": "Bakeries"}, {"alias": "coffee", "title": "Coffee & Tea"}, {"alias": "breakfast_brunch", "title": "Breakfast & Brunch"}], "rating": 3.5, "coordinates": {"latitude": 40.7663869, "longitude": -73.9796481}, "transactions": ["delivery", "pickup"], "price": "$$", "location": {"address1": "922 7th Ave", "address2": "", "address3": "", "city": "New York", "zip_code": "10019", "country": "US", "state": "NY", "display_address": ["922 7th Ave", "New York, NY 10019"]}, "phone": "+12127570775", "display_phone": "(212) 757-0775", "distance": 146.56871097529327}]