[{"id": "xefmiLAsKURFc6FDGSRgfQ", "alias": "westville-wall-st-new-york-5", "name": "Westville - Wall St", "image_url": "https://s3-media1.fl.yelpcdn.com/bphoto/_O4D1UjnQ9GNf4ocli5vCw/o.jpg", "is_closed": false, "url": "https://www.yelp.com/biz/westville-wall-st-new-york-5?adjust_creative=h5HwbyQ0TYvQjBo6Ys5Bgw&utm_campaign=yelp_api_v3&utm_medium=api_v3_business_search&utm_source=h5HwbyQ0TYvQjBo6Ys5Bgw", "review_count": 189, "categories": [{"alias": "tradamerican", "title": "American (Traditional)"}, {"alias": "breakfast_brunch", "title": "Breakfast & Brunch"}, {"alias": "hotdog", "title": "Hot Dogs"}], "rating": 4.0, "coordinates": {"latitude": 40.70478, "longitude": -74.00652}, "transactions": ["delivery", "pickup"], "price": "$$", "location": {"address1": "110 Wall St", "address2": null, "address3": "", "city": "New York", "zip_code": "10005", "country": "US", "state": "NY", "display_address": ["110 Wall St", "New York, NY 10005"]}, "phone": "+12127414780", "display_phone": "(212) 741-4780", "distance": 82.52389456650316}, {"id": "9MO5UogFuvqAriOA9RlqKA", "alias": "saravana-bhavan-new-york-4", "name": "Saravana Bhavan", "image_url": "https://s3-media3.fl.yelpcdn.com/bphoto/3PGlwv7VF3ekdj9b-8cJEg/o.jpg", "is_closed": false, "url": "https://www.yelp.com/biz/saravana-bhavan-new-york-4?adjust_creative=h5HwbyQ0TYvQjBo6Ys5Bgw&utm_campaign=yelp_api_v3&utm_medium=api_v3_business_search&utm_source=h5HwbyQ0TYvQjBo6Ys5Bgw", "review_count": 5, "categories": [{"alias": "vegetarian", "title": "Vegetarian"}], "rating": 4.0, "coordinates": {"latitude": 40.7038, "longitude": -74.00816}, "transactions": ["delivery", "pickup"], "location": {"address1": "32 Old Slip", "address2": "", "address3": null, "city": "New York", "zip_code": "10005", "country": "US", "state": "NY", "display_address": ["32 Old Slip", "New York, NY 10005"]}, "phone": "+19175133582", "display_phone": "(917) 513-3582", "distance": 106.45750729425781}, {"id": "V96YbhzyAGsDByRrCWpBZA", "alias": "haru-sushi-new-york-7", "name": "Haru Sushi", "image_url": "https://s3-media4.fl.yelpcdn.com/bphoto/d-tFw3_nsSP9Z7QpT0nChA/o.jpg", "is_closed": false, "url": "https://www.yelp.com/biz/haru-sushi-new-york-7?adjust_creative=h5HwbyQ0TYvQjBo6Ys5Bgw&utm_campaign=yelp_api_v3&utm_medium=api_v3_business_search&utm_source=h5HwbyQ0TYvQjBo6Ys5Bgw", "review_count": 390, "categories": [{"alias": "japanese", "title": "Japanese"}, {"alias": "sushi", "title": "Sushi Bars"}], "rating": 3.0, "coordinates": {"latitude": 40.705247, "longitude": -74.00843}, "transactions": ["delivery", "pickup"], "price": "$$", "location": {"address1": "1 Wall St Ct", "address2": "", "address3": "", "city": "New York", "zip_code": "10005", "country": "US", "state": "NY", "display_address": ["1 Wall St Ct", "New York, NY 10005"]}, "phone": "+12127856850", "display_phone": "(212) 785-6850", "distance": 164.7489697826296}, {"id": "QRf4pu36mJYUKFRVfdGOEg", "alias": "andaz-kitchen-and-bar-new-york-2", "name": "Andaz Kitchen & Bar", "image_url": "https://s3-media1.fl.yelpcdn.com/bphoto/AyPOlN0ZzOBRI1MeEfXejw/o.jpg", "is_closed": false, "url": "https://www.yelp.com/biz/andaz-kitchen-and-bar-new-york-2?adjust_creative=h5HwbyQ0TYvQjBo6Ys5Bgw&utm_campaign=yelp_api_v3&utm_medium=api_v3_business_search&utm_source=h5HwbyQ0TYvQjBo6Ys5Bgw", "review_count": 7, "categories": [{"alias": "beergardens", "title": "Beer Gardens"}, {"alias": "tradamerican", "title": "American (Traditional)"}, {"alias": "italian", "title": "Italian"}], "rating": 2.0, "coordinates": {"latitude": 40.7050399, "longitude": -74.00812}, "transactions": [], "location": {"address1": "75 Wall St", "address2": "", "address3": "", "city": "New York", "zip_code": "10005", "country": "US", "state": "NY", "display_address": ["75 Wall St", "New York, NY 10005"]}, "phone": "+12125901234", "display_phone": "(212) 590-1234", "distance": 133.9953615027502}, {"id": "KrSkBKzq7t-8yNeGhq_EXg", "alias": "jiannettos-pizza-truck-new-york-3", "name": "Jiannetto's Pizza Truck", "image_url": "https://s3-media4.fl.yelpcdn.com/bphoto/TjEVRMLnxOtgbQAewKDqmw/o.jpg", "is_closed": false, "url": "https://www.yelp.com/biz/jiannettos-pizza-truck-new-york-3?adjust_creative=h5HwbyQ0TYvQjBo6Ys5Bgw&utm_campaign=yelp_api_v3&utm_medium=api_v3_business_search&utm_source=h5HwbyQ0TYvQjBo6Ys5Bgw", "review_count": 31, "categories": [{"alias": "foodstands", "title": "Food Stands"}, {"alias": "pizza", "title": "Pizza"}], "rating": 4.5, "coordinates": {"latitude": 40.70525, "longitude": -74.00675}, "transactions": ["pickup"], "price": "$", "location": {"address1": "100 Wall St", "address2": "", "address3": "", "city": "New York", "zip_code": "10270", "country": "US", "state": "NY", "display_address": ["100 Wall St", "New York, NY 10270"]}, "phone": "+19177530819", "display_phone": "(917) 753-0819", "distance": 96.67485577403703}, {"id": "PbLGoaIkihF2JPnVRFtxxw", "alias": "oaxaca-taqueria-new-york-13", "name": "Oaxaca Taqueria", "image_url": "https://s3-media2.fl.yelpcdn.com/bphoto/_CLTMjK6Aef2DwGcUzxVmQ/o.jpg", "is_closed": false, "url": "https://www.yelp.com/biz/oaxaca-taqueria-new-york-13?adjust_creative=h5HwbyQ0TYvQjBo6Ys5Bgw&utm_campaign=yelp_api_v3&utm_medium=api_v3_business_search&utm_source=h5HwbyQ0TYvQjBo6Ys5Bgw", "review_count": 77, "categories": [{"alias": "mexican", "title": "Mexican"}], "rating": 3.0, "coordinates": {"latitude": 40.7054473656225, "longitude": -74.0083641817509}, "transactions": ["delivery", "pickup"], "price": "$", "location": {"address1": "87 Beaver St", "address2": "", "address3": "", "city": "New York", "zip_code": "10005", "country": "US", "state": "NY", "display_address": ["87 Beaver St", "New York, NY 10005"]}, "phone": "+12122320035", "display_phone": "(212) 232-0035", "distance": 176.18133848712765}, {"id": "p78LDlztKCqlZT_90lDFYA", "alias": "fuku-new-york-18", "name": "Fuku", "image_url": "https://s3-media2.fl.yelpcdn.com/bphoto/NZxPVfQ57FMtJYfo4lVaaw/o.jpg", "is_closed": false, "url": "https://www.yelp.com/biz/fuku-new-york-18?adjust_creative=h5HwbyQ0TYvQjBo6Ys5Bgw&utm_campaign=yelp_api_v3&utm_medium=api_v3_business_search&utm_source=h5HwbyQ0TYvQjBo6Ys5Bgw", "review_count": 183, "categories": [{"alias": "comfortfood", "title": "Comfort Food"}, {"alias": "newamerican", "title": "American (New)"}], "rating": 3.5, "coordinates": {"latitude": 40.70478, "longitude": -74.00652}, "transactions": ["delivery"], "price": "$$", "location": {"address1": "110 Wall St", "address2": "", "address3": null, "city": "New York", "zip_code": "10005", "country": "US", "state": "NY", "display_address": ["110 Wall St", "New York, NY 10005"]}, "phone": "+16467908720", "display_phone": "(646) 790-8720", "distance": 82.52389456650316}, {"id": "AGwgDMaC6m4CjOohQRIBcQ", "alias": "tacos-morelos-new-york-4", "name": "Tacos Morelos", "image_url": "https://s3-media1.fl.yelpcdn.com/bphoto/SEWHK_s0umm26KQqcw6tCw/o.jpg", "is_closed": false, "url": "https://www.yelp.com/biz/tacos-morelos-new-york-4?adjust_creative=h5HwbyQ0TYvQjBo6Ys5Bgw&utm_campaign=yelp_api_v3&utm_medium=api_v3_business_search&utm_source=h5HwbyQ0TYvQjBo6Ys5Bgw", "review_count": 4, "categories": [{"alias": "foodtrucks", "title": "Food Trucks"}, {"alias": "mexican", "title": "Mexican"}], "rating": 4.5, "coordinates": {"latitude": 40.7053992525685, "longitude": -74.007755112878}, "transactions": [], "location": {"address1": "75 Wall St", "address2": "", "address3": "", "city": "New York", "zip_code": "10005", "country": "US", "state": "NY", "display_address": ["75 Wall St", "New York, NY 10005"]}, "phone": "+16464049080", "display_phone": "(646) 404-9080", "distance": 141.4822683701057}, {"id": "9afasrQQUFS1zDVnolwxcw", "alias": "halal-cart-new-york", "name": "Halal Cart", "image_url": "https://s3-media2.fl.yelpcdn.com/bphoto/A3rC4_93tYj_b-0BuFuNWA/o.jpg", "is_closed": false, "url": "https://www.yelp.com/biz/halal-cart-new-york?adjust_creative=h5HwbyQ0TYvQjBo6Ys5Bgw&utm_campaign=yelp_api_v3&utm_medium=api_v3_business_search&utm_source=h5HwbyQ0TYvQjBo6Ys5Bgw", "review_count": 6, "categories": [{"alias": "foodstands", "title": "Food Stands"}], "rating": 4.5, "coordinates": {"latitude": 40.705008323599, "longitude": -74.007476580932}, "transactions": [], "location": {"address1": "Wall St And Pearl St", "address2": "", "address3": "", "city": "New York", "zip_code": "10038", "country": "US", "state": "NY", "display_address": ["Wall St And Pearl St", "New York, NY 10038"]}, "phone": "", "display_phone": "", "distance": 92.08152366173114}, {"id": "Od82pxnqILWhXZV6YNdD9Q", "alias": "halal-cart-new-york-6", "name": "Halal Cart", "image_url": "https://s3-media2.fl.yelpcdn.com/bphoto/mnEjzJSbmtXd4Ol9ZtVF1w/o.jpg", "is_closed": false, "url": "https://www.yelp.com/biz/halal-cart-new-york-6?adjust_creative=h5HwbyQ0TYvQjBo6Ys5Bgw&utm_campaign=yelp_api_v3&utm_medium=api_v3_business_search&utm_source=h5HwbyQ0TYvQjBo6Ys5Bgw", "review_count": 7, "categories": [{"alias": "foodstands", "title": "Food Stands"}, {"alias": "mideastern", "title": "Middle Eastern"}], "rating": 2.5, "coordinates": {"latitude": 40.70518, "longitude": -74.0074}, "transactions": [], "price": "$", "location": {"address1": "Wall St & Water St", "address2": "", "address3": "", "city": "New York", "zip_code": "10005", "country": "US", "state": "NY", "display_address": ["Wall St & Water St", "New York, NY 10005"]}, "phone": "", "display_phone": "", "distance": 105.77935168211991}, {"id": "7jg8KipJjYY9WAQ73b8WiQ", "alias": "halal-food-manhattan", "name": "Halal Food", "image_url": "", "is_closed": false, "url": "https://www.yelp.com/biz/halal-food-manhattan?adjust_creative=h5HwbyQ0TYvQjBo6Ys5Bgw&utm_campaign=yelp_api_v3&utm_medium=api_v3_business_search&utm_source=h5HwbyQ0TYvQjBo6Ys5Bgw", "review_count": 1, "categories": [{"alias": "foodstands", "title": "Food Stands"}], "rating": 1.0, "coordinates": {"latitude": 40.70538, "longitude": -74.00738}, "transactions": [], "location": {"address1": "118 Water", "address2": "", "address3": "", "city": "Manhattan", "zip_code": "10005", "country": "US", "state": "NY", "display_address": ["118 Water", "Manhattan, NY 10005"]}, "phone": "", "display_phone": "", "distance": 132.13827308044156}]