[{"id": "_LJFf9YqpYxvExTvVxb7Rw", "alias": "the-modern-new-york-3", "name": "The Modern", "image_url": "https://s3-media3.fl.yelpcdn.com/bphoto/__is97xsPSkTBpivq7IWMQ/o.jpg", "is_closed": false, "url": "https://www.yelp.com/biz/the-modern-new-york-3?adjust_creative=h5HwbyQ0TYvQjBo6Ys5Bgw&utm_campaign=yelp_api_v3&utm_medium=api_v3_business_search&utm_source=h5HwbyQ0TYvQjBo6Ys5Bgw", "review_count": 1013, "categories": [{"alias": "newamerican", "title": "American (New)"}], "rating": 4.5, "coordinates": {"latitude": 40.7610699, "longitude": -73.97709}, "transactions": [], "price": "$$$$", "location": {"address1": "9 W 53rd St", "address2": "", "address3": "", "city": "New York", "zip_code": "10019", "country": "US", "state": "NY", "display_address": ["9 W 53rd St", "New York, NY 10019"]}, "phone": "+12123331220", "display_phone": "(212) 333-1220", "distance": 73.3356537252245}, {"id": "7CfaiHE11MO2zAiu3w6bsw", "alias": "taco-dumbo-new-york-3", "name": "Taco Dumbo", "image_url": "https://s3-media1.fl.yelpcdn.com/bphoto/PO7O9_T7AUrVItPgVMP1AQ/o.jpg", "is_closed": false, "url": "https://www.yelp.com/biz/taco-dumbo-new-york-3?adjust_creative=h5HwbyQ0TYvQjBo6Ys5Bgw&utm_campaign=yelp_api_v3&utm_medium=api_v3_business_search&utm_source=h5HwbyQ0TYvQjBo6Ys5Bgw", "review_count": 298, "categories": [{"alias": "latin", "title": "Latin American"}, {"alias": "tacos", "title": "Tacos"}], "rating": 4.0, "coordinates": {"latitude": 40.760941, "longitude": -73.978049}, "transactions": ["pickup", "delivery"], "price": "$$", "location": {"address1": "31W 52nd", "address2": null, "address3": "", "city": "New York", "zip_code": "10103", "country": "US", "state": "NY", "display_address": ["31W 52nd", "New York, NY 10103"]}, "phone": "+19172616283", "display_phone": "(917) 261-6283", "distance": 35.96540428796165}, {"id": "wFjELmsEYh972BG79HwMqA", "alias": "upstairs-at-21-new-york", "name": "Upstairs at 21", "image_url": "https://s3-media1.fl.yelpcdn.com/bphoto/NuYnK16OlEPAR-sF_xjOKg/o.jpg", "is_closed": false, "url": "https://www.yelp.com/biz/upstairs-at-21-new-york?adjust_creative=h5HwbyQ0TYvQjBo6Ys5Bgw&utm_campaign=yelp_api_v3&utm_medium=api_v3_business_search&utm_source=h5HwbyQ0TYvQjBo6Ys5Bgw", "review_count": 11, "categories": [{"alias": "newamerican", "title": "American (New)"}], "rating": 4.5, "coordinates": {"latitude": 40.76037, "longitude": -73.97741}, "transactions": [], "price": "$$$$", "location": {"address1": "21 W 52nd St", "address2": "", "address3": "", "city": "New York", "zip_code": "10019", "country": "US", "state": "NY", "display_address": ["21 W 52nd St", "New York, NY 10019"]}, "phone": "+12125827200", "display_phone": "(212) 582-7200", "distance": 36.11570500119795}, {"id": "_IkMfWpOkQXRZtJAYJUJIw", "alias": "hama-japanese-cuisine-new-york", "name": "Hama Japanese Cuisine", "image_url": "https://s3-media4.fl.yelpcdn.com/bphoto/R6pDrpuZdRXr88Iv-YGtIw/o.jpg", "is_closed": false, "url": "https://www.yelp.com/biz/hama-japanese-cuisine-new-york?adjust_creative=h5HwbyQ0TYvQjBo6Ys5Bgw&utm_campaign=yelp_api_v3&utm_medium=api_v3_business_search&utm_source=h5HwbyQ0TYvQjBo6Ys5Bgw", "review_count": 369, "categories": [{"alias": "sushi", "title": "Sushi Bars"}, {"alias": "japanese", "title": "Japanese"}], "rating": 4.0, "coordinates": {"latitude": 40.7597846984863, "longitude": -73.9776382446289}, "transactions": ["pickup", "delivery"], "price": "$$", "location": {"address1": "11 W 51st St", "address2": "", "address3": "", "city": "New York", "zip_code": "10019", "country": "US", "state": "NY", "display_address": ["11 W 51st St", "New York, NY 10019"]}, "phone": "+12127577103", "display_phone": "(212) 757-7103", "distance": 110.65620996539076}, {"id": "844H9r0tRQZmxiEtjeTW0A", "alias": "the-bar-room-new-york-5", "name": "The Bar Room", "image_url": "https://s3-media4.fl.yelpcdn.com/bphoto/dD_aq3RI1L5JhdbLLoKbUQ/o.jpg", "is_closed": false, "url": "https://www.yelp.com/biz/the-bar-room-new-york-5?adjust_creative=h5HwbyQ0TYvQjBo6Ys5Bgw&utm_campaign=yelp_api_v3&utm_medium=api_v3_business_search&utm_source=h5HwbyQ0TYvQjBo6Ys5Bgw", "review_count": 497, "categories": [{"alias": "lounges", "title": "Lounges"}, {"alias": "french", "title": "French"}, {"alias": "newamerican", "title": "American (New)"}], "rating": 4.0, "coordinates": {"latitude": 40.7610309319265, "longitude": -73.9765593703613}, "transactions": [], "price": "$$$", "location": {"address1": "9 W 53rd St", "address2": "", "address3": "", "city": "New York", "zip_code": "10019", "country": "US", "state": "NY", "display_address": ["9 W 53rd St", "New York, NY 10019"]}, "phone": "+12123331220", "display_phone": "(212) 333-1220", "distance": 97.93204423529647}, {"id": "oSAiyZF-xTqdRkwN5KrV_Q", "alias": "del-friscos-grille-new-york", "name": "Del Frisco's Grille", "image_url": "https://s3-media1.fl.yelpcdn.com/bphoto/rTZtu1TRN-6wPeKYxG_fSg/o.jpg", "is_closed": false, "url": "https://www.yelp.com/biz/del-friscos-grille-new-york?adjust_creative=h5HwbyQ0TYvQjBo6Ys5Bgw&utm_campaign=yelp_api_v3&utm_medium=api_v3_business_search&utm_source=h5HwbyQ0TYvQjBo6Ys5Bgw", "review_count": 696, "categories": [{"alias": "steak", "title": "Steakhouses"}, {"alias": "newamerican", "title": "American (New)"}, {"alias": "seafood", "title": "Seafood"}], "rating": 3.5, "coordinates": {"latitude": 40.7596566, "longitude": -73.9783161}, "transactions": ["pickup", "delivery"], "price": "$$$", "location": {"address1": "50 Rockefeller Plz", "address2": "", "address3": "", "city": "New York", "zip_code": "10020", "country": "US", "state": "NY", "display_address": ["50 Rockefeller Plz", "New York, NY 10020"]}, "phone": "+12127670371", "display_phone": "(212) 767-0371", "distance": 136.19152306370773}, {"id": "RSGqAGFmgfoVssOBfkldXA", "alias": "21-club-new-york", "name": "21 Club", "image_url": "https://s3-media2.fl.yelpcdn.com/bphoto/ZVUicCEhf-vI_9eZG3UPHw/o.jpg", "is_closed": false, "url": "https://www.yelp.com/biz/21-club-new-york?adjust_creative=h5HwbyQ0TYvQjBo6Ys5Bgw&utm_campaign=yelp_api_v3&utm_medium=api_v3_business_search&utm_source=h5HwbyQ0TYvQjBo6Ys5Bgw", "review_count": 630, "categories": [{"alias": "tradamerican", "title": "American (Traditional)"}, {"alias": "venues", "title": "Venues & Event Spaces"}], "rating": 3.5, "coordinates": {"latitude": 40.76037, "longitude": -73.97741}, "transactions": [], "price": "$$$$", "location": {"address1": "21 W 52nd St", "address2": "", "address3": "", "city": "New York", "zip_code": "10019", "country": "US", "state": "NY", "display_address": ["21 W 52nd St", "New York, NY 10019"]}, "phone": "+12125827200", "display_phone": "(212) 582-7200", "distance": 36.11570500119795}, {"id": "oBORgWrnY4rRVyhPsYaTWw", "alias": "nusr-et-steakhouse-new-york-4", "name": "Nusr-Et Steakhouse", "image_url": "https://s3-media1.fl.yelpcdn.com/bphoto/PpAy466RGrnsf_8ckppw2w/o.jpg", "is_closed": false, "url": "https://www.yelp.com/biz/nusr-et-steakhouse-new-york-4?adjust_creative=h5HwbyQ0TYvQjBo6Ys5Bgw&utm_campaign=yelp_api_v3&utm_medium=api_v3_business_search&utm_source=h5HwbyQ0TYvQjBo6Ys5Bgw", "review_count": 523, "categories": [{"alias": "steak", "title": "Steakhouses"}, {"alias": "turkish", "title": "Turkish"}], "rating": 3.5, "coordinates": {"latitude": 40.761343, "longitude": -73.978529}, "transactions": [], "price": "$$$$", "location": {"address1": "60 W 53rd St", "address2": null, "address3": "", "city": "New York", "zip_code": "10019", "country": "US", "state": "NY", "display_address": ["60 W 53rd St", "New York, NY 10019"]}, "phone": "+12123153660", "display_phone": "(212) 315-3660", "distance": 95.3460302715245}, {"id": "IxwuIDcpRa7EpQs7V481Ww", "alias": "il-gattopardo-new-york-2", "name": "Il Gattopardo", "image_url": "https://s3-media4.fl.yelpcdn.com/bphoto/B80_8HoZSJu09EqBo-83aw/o.jpg", "is_closed": false, "url": "https://www.yelp.com/biz/il-gattopardo-new-york-2?adjust_creative=h5HwbyQ0TYvQjBo6Ys5Bgw&utm_campaign=yelp_api_v3&utm_medium=api_v3_business_search&utm_source=h5HwbyQ0TYvQjBo6Ys5Bgw", "review_count": 157, "categories": [{"alias": "italian", "title": "Italian"}], "rating": 4.0, "coordinates": {"latitude": 40.7614994602915, "longitude": -73.976308999227}, "transactions": [], "price": "$$$", "location": {"address1": "13-15 W 54th St", "address2": "", "address3": "", "city": "New York", "zip_code": "10019", "country": "US", "state": "NY", "display_address": ["13-15 W 54th St", "New York, NY 10019"]}, "phone": "+12122460412", "display_phone": "(212) 246-0412", "distance": 140.02805699246895}, {"id": "AUm7If5Cbvy20AnmyxE-xA", "alias": "dos-toros-taqueria-new-york-21", "name": "Dos Toros Taqueria", "image_url": "https://s3-media2.fl.yelpcdn.com/bphoto/yP_tVk9iSAyReZkyyYfOPg/o.jpg", "is_closed": false, "url": "https://www.yelp.com/biz/dos-toros-taqueria-new-york-21?adjust_creative=h5HwbyQ0TYvQjBo6Ys5Bgw&utm_campaign=yelp_api_v3&utm_medium=api_v3_business_search&utm_source=h5HwbyQ0TYvQjBo6Ys5Bgw", "review_count": 82, "categories": [{"alias": "mexican", "title": "Mexican"}], "rating": 4.0, "coordinates": {"latitude": 40.7607084122727, "longitude": -73.9784675091505}, "transactions": ["pickup", "delivery"], "price": "$$", "location": {"address1": "52 W 52nd St", "address2": "", "address3": null, "city": "New York", "zip_code": "10019", "country": "US", "state": "NY", "display_address": ["52 W 52nd St", "New York, NY 10019"]}, "phone": "+13473057765", "display_phone": "(347) 305-7765", "distance": 67.29436847702671}, {"id": "qoVVQZpwXPxX_wL5qKzy0g", "alias": "moma-caf\u00e9-2-new-york-5", "name": "MoMA Caf\u00e9 2", "image_url": "https://s3-media3.fl.yelpcdn.com/bphoto/Mn1cPIxqGRDdlvrjbUdWBA/o.jpg", "is_closed": false, "url": "https://www.yelp.com/biz/moma-caf%C3%A9-2-new-york-5?adjust_creative=h5HwbyQ0TYvQjBo6Ys5Bgw&utm_campaign=yelp_api_v3&utm_medium=api_v3_business_search&utm_source=h5HwbyQ0TYvQjBo6Ys5Bgw", "review_count": 227, "categories": [{"alias": "italian", "title": "Italian"}], "rating": 3.5, "coordinates": {"latitude": 40.7611218647439, "longitude": -73.9769403189103}, "transactions": [], "price": "$$", "location": {"address1": "11 W 53rd St", "address2": "Fl 2", "address3": "The Museum of Modern Art", "city": "New York", "zip_code": "10019", "country": "US", "state": "NY", "display_address": ["11 W 53rd St", "Fl 2", "The Museum of Modern Art", "New York, NY 10019"]}, "phone": "+12127089700", "display_phone": "(212) 708-9700", "distance": 72.52183546425977}, {"id": "aDsUZs-esGEJVBFgAatucQ", "alias": "terrace-cafe-new-york", "name": "Terrace Cafe", "image_url": "https://s3-media3.fl.yelpcdn.com/bphoto/vwB_CQVtR3Hnlrh3x5VMPw/o.jpg", "is_closed": false, "url": "https://www.yelp.com/biz/terrace-cafe-new-york?adjust_creative=h5HwbyQ0TYvQjBo6Ys5Bgw&utm_campaign=yelp_api_v3&utm_medium=api_v3_business_search&utm_source=h5HwbyQ0TYvQjBo6Ys5Bgw", "review_count": 74, "categories": [{"alias": "newamerican", "title": "American (New)"}, {"alias": "italian", "title": "Italian"}], "rating": 3.5, "coordinates": {"latitude": 40.76146, "longitude": -73.97736}, "transactions": [], "price": "$$", "location": {"address1": "11 W 53rd St", "address2": "", "address3": "", "city": "New York", "zip_code": "10019", "country": "US", "state": "NY", "display_address": ["11 W 53rd St", "New York, NY 10019"]}, "phone": "+12123331299", "display_phone": "(212) 333-1299", "distance": 64.81422290546577}, {"id": "7B2XMvV5uGuKyl19-HTSvg", "alias": "fogo-de-chao-brazilian-steakhouse-new-york-6", "name": "Fogo De Chao Brazilian Steakhouse", "image_url": "https://s3-media2.fl.yelpcdn.com/bphoto/IcEOfdd4OS-lTrLLPigq9A/o.jpg", "is_closed": false, "url": "https://www.yelp.com/biz/fogo-de-chao-brazilian-steakhouse-new-york-6?adjust_creative=h5HwbyQ0TYvQjBo6Ys5Bgw&utm_campaign=yelp_api_v3&utm_medium=api_v3_business_search&utm_source=h5HwbyQ0TYvQjBo6Ys5Bgw", "review_count": 1197, "categories": [{"alias": "brazilian", "title": "Brazilian"}, {"alias": "steak", "title": "Steakhouses"}], "rating": 4.0, "coordinates": {"latitude": 40.7610765, "longitude": -73.9777711}, "transactions": [], "price": "$$$", "location": {"address1": "40 W 53rd St", "address2": "", "address3": "", "city": "New York", "zip_code": "10019", "country": "US", "state": "NY", "display_address": ["40 W 53rd St", "New York, NY 10019"]}, "phone": "+12129699980", "display_phone": "(212) 969-9980", "distance": 33.87951712279654}, {"id": "VSfYR6MriVSQDAmO0gPFPQ", "alias": "just-salad-new-york-47", "name": "Just Salad", "image_url": "https://s3-media4.fl.yelpcdn.com/bphoto/8xBIYXOTgi0asQYmtSsjaA/o.jpg", "is_closed": false, "url": "https://www.yelp.com/biz/just-salad-new-york-47?adjust_creative=h5HwbyQ0TYvQjBo6Ys5Bgw&utm_campaign=yelp_api_v3&utm_medium=api_v3_business_search&utm_source=h5HwbyQ0TYvQjBo6Ys5Bgw", "review_count": 16, "categories": [{"alias": "salad", "title": "Salad"}, {"alias": "wraps", "title": "Wraps"}, {"alias": "vegetarian", "title": "Vegetarian"}], "rating": 4.0, "coordinates": {"latitude": 40.760473, "longitude": -73.978881}, "transactions": ["pickup", "delivery"], "location": {"address1": "1290 6th Ave", "address2": "", "address3": "", "city": "New York", "zip_code": "10104", "country": "US", "state": "NY", "display_address": ["1290 6th Ave", "New York, NY 10104"]}, "phone": "+18666733757", "display_phone": "(866) 673-3757", "distance": 107.26061262270457}, {"id": "9JrOZDknW8Yx3TK2MSShwA", "alias": "earl-of-sandwich-new-york", "name": "Earl of Sandwich", "image_url": "https://s3-media4.fl.yelpcdn.com/bphoto/2edDacOj9Am7am9Jc6QFKA/o.jpg", "is_closed": false, "url": "https://www.yelp.com/biz/earl-of-sandwich-new-york?adjust_creative=h5HwbyQ0TYvQjBo6Ys5Bgw&utm_campaign=yelp_api_v3&utm_medium=api_v3_business_search&utm_source=h5HwbyQ0TYvQjBo6Ys5Bgw", "review_count": 158, "categories": [{"alias": "sandwiches", "title": "Sandwiches"}, {"alias": "salad", "title": "Salad"}, {"alias": "wraps", "title": "Wraps"}], "rating": 3.5, "coordinates": {"latitude": 40.7604516657528, "longitude": -73.978870511055}, "transactions": ["pickup", "delivery"], "price": "$", "location": {"address1": "1290 6th Ave", "address2": "", "address3": "", "city": "New York", "zip_code": "10104", "country": "US", "state": "NY", "display_address": ["1290 6th Ave", "New York, NY 10104"]}, "phone": "+12122479246", "display_phone": "(212) 247-9246", "distance": 107.1942654407848}, {"id": "I9nt0X_e_MlOz_rUwFt_Fg", "alias": "global-kitchen-new-york", "name": "Global Kitchen", "image_url": "https://s3-media1.fl.yelpcdn.com/bphoto/mGNGfjW6lAwtd2X8yWzhvw/o.jpg", "is_closed": false, "url": "https://www.yelp.com/biz/global-kitchen-new-york?adjust_creative=h5HwbyQ0TYvQjBo6Ys5Bgw&utm_campaign=yelp_api_v3&utm_medium=api_v3_business_search&utm_source=h5HwbyQ0TYvQjBo6Ys5Bgw", "review_count": 112, "categories": [{"alias": "japanese", "title": "Japanese"}, {"alias": "delis", "title": "Delis"}, {"alias": "catering", "title": "Caterers"}], "rating": 3.0, "coordinates": {"latitude": 40.7606671573033, "longitude": -73.9788367502624}, "transactions": ["pickup", "delivery"], "price": "$", "location": {"address1": "1290 Ave Of Americas", "address2": "", "address3": "", "city": "New York", "zip_code": "10019", "country": "US", "state": "NY", "display_address": ["1290 Ave Of Americas", "New York, NY 10019"]}, "phone": "+12125813200", "display_phone": "(212) 581-3200", "distance": 98.72218183549327}, {"id": "n1KP9xA13k97DelFyByrbg", "alias": "macchiato-espresso-bar-new-york-4", "name": "Macchiato Espresso Bar", "image_url": "https://s3-media1.fl.yelpcdn.com/bphoto/UegkNxFG2pPBfAyEdAlF8Q/o.jpg", "is_closed": false, "url": "https://www.yelp.com/biz/macchiato-espresso-bar-new-york-4?adjust_creative=h5HwbyQ0TYvQjBo6Ys5Bgw&utm_campaign=yelp_api_v3&utm_medium=api_v3_business_search&utm_source=h5HwbyQ0TYvQjBo6Ys5Bgw", "review_count": 89, "categories": [{"alias": "cafes", "title": "Cafes"}], "rating": 3.5, "coordinates": {"latitude": 40.760190629332, "longitude": -73.976823216597}, "transactions": ["pickup", "delivery"], "price": "$", "location": {"address1": "666 5th Ave", "address2": null, "address3": "", "city": "New York", "zip_code": "10103", "country": "US", "state": "NY", "display_address": ["666 5th Ave", "New York, NY 10103"]}, "phone": "+12122626600", "display_phone": "(212) 262-6600", "distance": 97.17908788804367}, {"id": "Rw2j7gCaWuSUMBvlK3CA7Q", "alias": "teresas-brick-oven-pizza-and-cafe-new-york-3", "name": "Teresa's Brick Oven Pizza & Cafe", "image_url": "https://s3-media2.fl.yelpcdn.com/bphoto/w0rmvkNlABT4BjLOIxG2OQ/o.jpg", "is_closed": false, "url": "https://www.yelp.com/biz/teresas-brick-oven-pizza-and-cafe-new-york-3?adjust_creative=h5HwbyQ0TYvQjBo6Ys5Bgw&utm_campaign=yelp_api_v3&utm_medium=api_v3_business_search&utm_source=h5HwbyQ0TYvQjBo6Ys5Bgw", "review_count": 108, "categories": [{"alias": "sandwiches", "title": "Sandwiches"}, {"alias": "pizza", "title": "Pizza"}, {"alias": "cafes", "title": "Cafes"}], "rating": 3.0, "coordinates": {"latitude": 40.76013, "longitude": -73.97879}, "transactions": ["pickup", "delivery"], "price": "$", "location": {"address1": "51 W 51st St", "address2": null, "address3": null, "city": "New York", "zip_code": "10019", "country": "US", "state": "NY", "display_address": ["51 W 51st St", "New York, NY 10019"]}, "phone": "+12122657988", "display_phone": "(212) 265-7988", "distance": 108.73625259001406}, {"id": "L7meLea5RPy1G_TYCbEsew", "alias": "simply-foods-new-york-2", "name": "Simply Foods", "image_url": "https://s3-media2.fl.yelpcdn.com/bphoto/MK3m5282MeTaq7cNrPn1MA/o.jpg", "is_closed": false, "url": "https://www.yelp.com/biz/simply-foods-new-york-2?adjust_creative=h5HwbyQ0TYvQjBo6Ys5Bgw&utm_campaign=yelp_api_v3&utm_medium=api_v3_business_search&utm_source=h5HwbyQ0TYvQjBo6Ys5Bgw", "review_count": 52, "categories": [{"alias": "sandwiches", "title": "Sandwiches"}], "rating": 3.0, "coordinates": {"latitude": 40.7594414, "longitude": -73.9770813}, "transactions": ["pickup", "delivery"], "price": "$", "location": {"address1": "5 W 51st St", "address2": "", "address3": "Btwn 5th & 6th Ave", "city": "New York", "zip_code": "10019", "country": "US", "state": "NY", "display_address": ["5 W 51st St", "Btwn 5th & 6th Ave", "New York, NY 10019"]}, "phone": "+12129776641", "display_phone": "(212) 977-6641", "distance": 131.4388354157572}, {"id": "dwq7d6w1DD_D5jjPWQo-XA", "alias": "johnny-utahs-new-york", "name": "Johnny Utah's", "image_url": "https://s3-media1.fl.yelpcdn.com/bphoto/1Hj4Iblrfit8YYqApXVbvQ/o.jpg", "is_closed": false, "url": "https://www.yelp.com/biz/johnny-utahs-new-york?adjust_creative=h5HwbyQ0TYvQjBo6Ys5Bgw&utm_campaign=yelp_api_v3&utm_medium=api_v3_business_search&utm_source=h5HwbyQ0TYvQjBo6Ys5Bgw", "review_count": 775, "categories": [{"alias": "tex-mex", "title": "Tex-Mex"}, {"alias": "newamerican", "title": "American (New)"}], "rating": 2.5, "coordinates": {"latitude": 40.7600021362305, "longitude": -73.978157043457}, "transactions": ["pickup", "delivery"], "price": "$$", "location": {"address1": "25 W 51st St", "address2": "", "address3": "", "city": "New York", "zip_code": "10019", "country": "US", "state": "NY", "display_address": ["25 W 51st St", "New York, NY 10019"]}, "phone": "+12122658824", "display_phone": "(212) 265-8824", "distance": 94.55639781399836}, {"id": "cwOZnBiQ7nKNyJFhqUIrqA", "alias": "coco-gourmet-deli-new-york-2", "name": "Coco Gourmet Deli", "image_url": "", "is_closed": false, "url": "https://www.yelp.com/biz/coco-gourmet-deli-new-york-2?adjust_creative=h5HwbyQ0TYvQjBo6Ys5Bgw&utm_campaign=yelp_api_v3&utm_medium=api_v3_business_search&utm_source=h5HwbyQ0TYvQjBo6Ys5Bgw", "review_count": 2, "categories": [{"alias": "delis", "title": "Delis"}], "rating": 2.0, "coordinates": {"latitude": 40.7594845, "longitude": -73.9772001}, "transactions": [], "location": {"address1": "5 W 51st St", "address2": "", "address3": "", "city": "New York", "zip_code": "10019", "country": "US", "state": "NY", "display_address": ["5 W 51st St", "New York, NY 10019"]}, "phone": "+12129776641", "display_phone": "(212) 977-6641", "distance": 131.4388354157572}, {"id": "ftVW4vG7LJRbZdaTwPhlag", "alias": "simply-food-new-york-2", "name": "Simply Food", "image_url": "", "is_closed": false, "url": "https://www.yelp.com/biz/simply-food-new-york-2?adjust_creative=h5HwbyQ0TYvQjBo6Ys5Bgw&utm_campaign=yelp_api_v3&utm_medium=api_v3_business_search&utm_source=h5HwbyQ0TYvQjBo6Ys5Bgw", "review_count": 1, "categories": [{"alias": "cafes", "title": "Cafes"}], "rating": 2.0, "coordinates": {"latitude": 40.75959, "longitude": -73.9775}, "transactions": ["pickup", "delivery"], "location": {"address1": "5 W 51st St", "address2": "", "address3": "", "city": "New York", "zip_code": "10020", "country": "US", "state": "NY", "display_address": ["5 W 51st St", "New York, NY 10020"]}, "phone": "+12129776641", "display_phone": "(212) 977-6641", "distance": 131.4388354157572}]