[{"id": "r-EDS_eO70HUgDmOk5_8Qw", "alias": "juniper-bar-new-york", "name": "Juniper Bar", "image_url": "https://s3-media4.fl.yelpcdn.com/bphoto/6IbrhA4fiQqOuM2bbg20Lg/o.jpg", "is_closed": false, "url": "https://www.yelp.com/biz/juniper-bar-new-york?adjust_creative=HdhkN5EEH6lAqE3kwhsHEQ&utm_campaign=yelp_api_v3&utm_medium=api_v3_business_search&utm_source=HdhkN5EEH6lAqE3kwhsHEQ", "review_count": 574, "categories": [{"alias": "cocktailbars", "title": "Cocktail Bars"}, {"alias": "newamerican", "title": "American (New)"}, {"alias": "breakfast_brunch", "title": "Breakfast & Brunch"}], "rating": 4.0, "coordinates": {"latitude": 40.752344, "longitude": -73.9914045}, "transactions": ["restaurant_reservation"], "price": "$$", "location": {"address1": "237 W 35th St", "address2": null, "address3": "", "city": "New York", "zip_code": "10001", "country": "US", "state": "NY", "display_address": ["237 W 35th St", "New York, NY 10001"]}, "phone": "+12129672511", "display_phone": "(212) 967-2511", "distance": 62.77434321317139}, {"id": "g512kssHLLTdDbUJHTmJFw", "alias": "stick-to-my-pot-potsticker-new-york", "name": "Stick To My Pot Potsticker", "image_url": "https://s3-media3.fl.yelpcdn.com/bphoto/ViOo2mtdHPvjonQQNG6Ebg/o.jpg", "is_closed": false, "url": "https://www.yelp.com/biz/stick-to-my-pot-potsticker-new-york?adjust_creative=HdhkN5EEH6lAqE3kwhsHEQ&utm_campaign=yelp_api_v3&utm_medium=api_v3_business_search&utm_source=HdhkN5EEH6lAqE3kwhsHEQ", "review_count": 121, "categories": [{"alias": "chinese", "title": "Chinese"}], "rating": 4.5, "coordinates": {"latitude": 40.75202, "longitude": -73.99121}, "transactions": ["delivery", "pickup"], "price": "$", "location": {"address1": "224 W 35th St", "address2": "", "address3": null, "city": "New York", "zip_code": "10001", "country": "US", "state": "NY", "display_address": ["224 W 35th St", "New York, NY 10001"]}, "phone": "+16468222003", "display_phone": "(646) 822-2003", "distance": 24.42280222777856}, {"id": "NPG2jp4C61RJbmbA35p6xA", "alias": "john-sullivans-new-york", "name": "John Sullivan's", "image_url": "https://s3-media4.fl.yelpcdn.com/bphoto/zRVLcpjebW5npVWXcGOUQQ/o.jpg", "is_closed": false, "url": "https://www.yelp.com/biz/john-sullivans-new-york?adjust_creative=HdhkN5EEH6lAqE3kwhsHEQ&utm_campaign=yelp_api_v3&utm_medium=api_v3_business_search&utm_source=HdhkN5EEH6lAqE3kwhsHEQ", "review_count": 222, "categories": [{"alias": "irish", "title": "Irish"}, {"alias": "irish_pubs", "title": "Irish Pub"}], "rating": 4.0, "coordinates": {"latitude": 40.7517735073233, "longitude": -73.9905076101422}, "transactions": [], "price": "$$", "location": {"address1": "210 W 35th St", "address2": "", "address3": "", "city": "New York", "zip_code": "10001", "country": "US", "state": "NY", "display_address": ["210 W 35th St", "New York, NY 10001"]}, "phone": "+12129937223", "display_phone": "(212) 993-7223", "distance": 58.67848690500746}, {"id": "Qj5Wvq6jufSFgJd4dDb_Sg", "alias": "cafe-nunez-new-york", "name": "Cafe Nunez", "image_url": "https://s3-media2.fl.yelpcdn.com/bphoto/yoqJdjJy3ukAuI0I9e08iw/o.jpg", "is_closed": false, "url": "https://www.yelp.com/biz/cafe-nunez-new-york?adjust_creative=HdhkN5EEH6lAqE3kwhsHEQ&utm_campaign=yelp_api_v3&utm_medium=api_v3_business_search&utm_source=HdhkN5EEH6lAqE3kwhsHEQ", "review_count": 459, "categories": [{"alias": "latin", "title": "Latin American"}, {"alias": "hookah_bars", "title": "Hookah Bars"}, {"alias": "newamerican", "title": "American (New)"}], "rating": 3.0, "coordinates": {"latitude": 40.752133, "longitude": -73.991849}, "transactions": ["restaurant_reservation", "delivery", "pickup"], "price": "$$", "location": {"address1": "240 W 35th St", "address2": "", "address3": "", "city": "New York", "zip_code": "10001", "country": "US", "state": "NY", "display_address": ["240 W 35th St", "New York, NY 10001"]}, "phone": "+12125647444", "display_phone": "(212) 564-7444", "distance": 65.77126680598734}, {"id": "njpz2-Vd-EnoFu5YiIBTVA", "alias": "delmonicos-kitchen-new-york-3", "name": "Delmonico's Kitchen", "image_url": "https://s3-media4.fl.yelpcdn.com/bphoto/ZJYihNOMAEE8CbVIRdhTYw/o.jpg", "is_closed": false, "url": "https://www.yelp.com/biz/delmonicos-kitchen-new-york-3?adjust_creative=HdhkN5EEH6lAqE3kwhsHEQ&utm_campaign=yelp_api_v3&utm_medium=api_v3_business_search&utm_source=HdhkN5EEH6lAqE3kwhsHEQ", "review_count": 333, "categories": [{"alias": "steak", "title": "Steakhouses"}], "rating": 3.5, "coordinates": {"latitude": 40.752533, "longitude": -73.9899368}, "transactions": ["delivery", "pickup"], "price": "$$$", "location": {"address1": "207 W 36th St", "address2": "", "address3": "", "city": "New York", "zip_code": "10018", "country": "US", "state": "NY", "display_address": ["207 W 36th St", "New York, NY 10018"]}, "phone": "+12126955220", "display_phone": "(212) 695-5220", "distance": 126.38284707210548}, {"id": "UnFe6mLcCdHVyyDxnIBkAA", "alias": "ambo-new-york", "name": "Ambo", "image_url": "https://s3-media1.fl.yelpcdn.com/bphoto/vBU5YMfjyZBNLKVWVMAluw/o.jpg", "is_closed": false, "url": "https://www.yelp.com/biz/ambo-new-york?adjust_creative=HdhkN5EEH6lAqE3kwhsHEQ&utm_campaign=yelp_api_v3&utm_medium=api_v3_business_search&utm_source=HdhkN5EEH6lAqE3kwhsHEQ", "review_count": 119, "categories": [{"alias": "indpak", "title": "Indian"}, {"alias": "gluten_free", "title": "Gluten-Free"}, {"alias": "salad", "title": "Salad"}], "rating": 4.0, "coordinates": {"latitude": 40.751997, "longitude": -73.991211}, "transactions": ["delivery", "pickup"], "price": "$$", "location": {"address1": "224 W 35th St", "address2": "", "address3": null, "city": "New York", "zip_code": "10001", "country": "US", "state": "NY", "display_address": ["224 W 35th St", "New York, NY 10001"]}, "phone": "+16464764214", "display_phone": "(646) 476-4214", "distance": 21.868416352982848}, {"id": "niNtyKnlmST660DV-Qj_Ug", "alias": "flavors-of-italy-bistro-new-york", "name": "Flavors of Italy Bistro", "image_url": "https://s3-media2.fl.yelpcdn.com/bphoto/mUgf5vqKvLuO1Ci1Dx3J-g/o.jpg", "is_closed": false, "url": "https://www.yelp.com/biz/flavors-of-italy-bistro-new-york?adjust_creative=HdhkN5EEH6lAqE3kwhsHEQ&utm_campaign=yelp_api_v3&utm_medium=api_v3_business_search&utm_source=HdhkN5EEH6lAqE3kwhsHEQ", "review_count": 9, "categories": [{"alias": "pizza", "title": "Pizza"}], "rating": 4.5, "coordinates": {"latitude": 40.75185, "longitude": -73.991314}, "transactions": ["delivery", "pickup"], "location": {"address1": "224 W 35th St", "address2": "", "address3": null, "city": "New York", "zip_code": "10001", "country": "US", "state": "NY", "display_address": ["224 W 35th St", "New York, NY 10001"]}, "phone": "+12126951115", "display_phone": "(212) 695-1115", "distance": 10.832106696509342}, {"id": "h--B7M-Sfs1Y8hhlPay0Qw", "alias": "my-bellys-playlist-new-york-8", "name": "My Belly's Playlist", "image_url": "https://s3-media1.fl.yelpcdn.com/bphoto/1-5nQ1dXypTZ5DyGg-PhQw/o.jpg", "is_closed": false, "url": "https://www.yelp.com/biz/my-bellys-playlist-new-york-8?adjust_creative=HdhkN5EEH6lAqE3kwhsHEQ&utm_campaign=yelp_api_v3&utm_medium=api_v3_business_search&utm_source=HdhkN5EEH6lAqE3kwhsHEQ", "review_count": 67, "categories": [{"alias": "sandwiches", "title": "Sandwiches"}, {"alias": "newamerican", "title": "American (New)"}, {"alias": "chicken_wings", "title": "Chicken Wings"}], "rating": 4.0, "coordinates": {"latitude": 40.751792, "longitude": -73.991027}, "transactions": ["delivery", "pickup"], "price": "$$", "location": {"address1": "218 West 35th St", "address2": "", "address3": null, "city": "New York", "zip_code": "10001", "country": "US", "state": "NY", "display_address": ["218 West 35th St", "New York, NY 10001"]}, "phone": "+19178321209", "display_phone": "(917) 832-1209", "distance": 14.40198473690652}, {"id": "1s0SM5zh7QEMlqjIM7XYpQ", "alias": "versa-new-york", "name": "VERSA", "image_url": "https://s3-media3.fl.yelpcdn.com/bphoto/nAJZFv-zn3G1Wv3iWTcFJQ/o.jpg", "is_closed": false, "url": "https://www.yelp.com/biz/versa-new-york?adjust_creative=HdhkN5EEH6lAqE3kwhsHEQ&utm_campaign=yelp_api_v3&utm_medium=api_v3_business_search&utm_source=HdhkN5EEH6lAqE3kwhsHEQ", "review_count": 152, "categories": [{"alias": "newamerican", "title": "American (New)"}, {"alias": "gastropubs", "title": "Gastropubs"}, {"alias": "cocktailbars", "title": "Cocktail Bars"}], "rating": 4.0, "coordinates": {"latitude": 40.75183, "longitude": -73.99099}, "transactions": [], "location": {"address1": "218 W 35th St", "address2": "Fl 5", "address3": "", "city": "New York", "zip_code": "10001", "country": "US", "state": "NY", "display_address": ["218 W 35th St", "Fl 5", "New York, NY 10001"]}, "phone": "+16468502850", "display_phone": "(646) 850-2850", "distance": 14.40198473690652}, {"id": "j1S3NUrkB3BVT49n_e76NQ", "alias": "best-bagel-and-coffee-new-york", "name": "Best Bagel & Coffee", "image_url": "https://s3-media2.fl.yelpcdn.com/bphoto/9-8DVzhwfzFS5GUCq3O6NA/o.jpg", "is_closed": false, "url": "https://www.yelp.com/biz/best-bagel-and-coffee-new-york?adjust_creative=HdhkN5EEH6lAqE3kwhsHEQ&utm_campaign=yelp_api_v3&utm_medium=api_v3_business_search&utm_source=HdhkN5EEH6lAqE3kwhsHEQ", "review_count": 3304, "categories": [{"alias": "bagels", "title": "Bagels"}, {"alias": "coffee", "title": "Coffee & Tea"}, {"alias": "breakfast_brunch", "title": "Breakfast & Brunch"}], "rating": 4.5, "coordinates": {"latitude": 40.7522683, "longitude": -73.9910861}, "transactions": [], "price": "$", "location": {"address1": "225 W 35th St", "address2": "", "address3": "", "city": "New York", "zip_code": "10001", "country": "US", "state": "NY", "display_address": ["225 W 35th St", "New York, NY 10001"]}, "phone": "+12125644409", "display_phone": "(212) 564-4409", "distance": 52.954481192736004}, {"id": "JRb2McjoVMZTd5npZW-vJg", "alias": "dig-new-york-18", "name": "Dig", "image_url": "https://s3-media3.fl.yelpcdn.com/bphoto/mgs7cl_nchaMtT_c4-rR_w/o.jpg", "is_closed": false, "url": "https://www.yelp.com/biz/dig-new-york-18?adjust_creative=HdhkN5EEH6lAqE3kwhsHEQ&utm_campaign=yelp_api_v3&utm_medium=api_v3_business_search&utm_source=HdhkN5EEH6lAqE3kwhsHEQ", "review_count": 48, "categories": [{"alias": "tradamerican", "title": "American (Traditional)"}], "rating": 4.5, "coordinates": {"latitude": 40.75179, "longitude": -73.98983}, "transactions": [], "price": "$$", "location": {"address1": "463 7th Ave", "address2": null, "address3": "", "city": "New York", "zip_code": "10018", "country": "US", "state": "NY", "display_address": ["463 7th Ave", "New York, NY 10018"]}, "phone": "+16469734448", "display_phone": "(646) 973-4448", "distance": 117.03019265730926}, {"id": "nkT08Tewf6TLaysiuiF8Ow", "alias": "pig-n-whistle-new-york-11", "name": "Pig n Whistle", "image_url": "https://s3-media1.fl.yelpcdn.com/bphoto/dFo62aYLufYcNtc5FRjW_A/o.jpg", "is_closed": false, "url": "https://www.yelp.com/biz/pig-n-whistle-new-york-11?adjust_creative=HdhkN5EEH6lAqE3kwhsHEQ&utm_campaign=yelp_api_v3&utm_medium=api_v3_business_search&utm_source=HdhkN5EEH6lAqE3kwhsHEQ", "review_count": 197, "categories": [{"alias": "pubs", "title": "Pubs"}, {"alias": "newamerican", "title": "American (New)"}, {"alias": "sportsbars", "title": "Sports Bars"}], "rating": 3.0, "coordinates": {"latitude": 40.7523995, "longitude": -73.9901114}, "transactions": ["delivery"], "price": "$$", "location": {"address1": "202 W 36th St", "address2": "", "address3": "", "city": "New York", "zip_code": "10018", "country": "US", "state": "NY", "display_address": ["202 W 36th St", "New York, NY 10018"]}, "phone": "+12122394820", "display_phone": "(212) 239-4820", "distance": 113.5658103771201}, {"id": "Ys9iYSjuFDpZj7B1X07v5g", "alias": "liberty-bagels-midtown-new-york-3", "name": "Liberty Bagels Midtown", "image_url": "https://s3-media2.fl.yelpcdn.com/bphoto/2jy1ZxUhQKAL9EI4354_xw/o.jpg", "is_closed": false, "url": "https://www.yelp.com/biz/liberty-bagels-midtown-new-york-3?adjust_creative=HdhkN5EEH6lAqE3kwhsHEQ&utm_campaign=yelp_api_v3&utm_medium=api_v3_business_search&utm_source=HdhkN5EEH6lAqE3kwhsHEQ", "review_count": 483, "categories": [{"alias": "breakfast_brunch", "title": "Breakfast & Brunch"}, {"alias": "bagels", "title": "Bagels"}, {"alias": "sandwiches", "title": "Sandwiches"}], "rating": 4.5, "coordinates": {"latitude": 40.75255, "longitude": -73.99249}, "transactions": ["delivery", "pickup"], "price": "$", "location": {"address1": "260 W 35th St", "address2": "", "address3": null, "city": "New York", "zip_code": "10001", "country": "US", "state": "NY", "display_address": ["260 W 35th St", "New York, NY 10001"]}, "phone": "+12122791124", "display_phone": "(212) 279-1124", "distance": 135.7357697770632}, {"id": "CE5Beh9rjU1xU1AE3xBsvg", "alias": "rowlands-bar-and-grill-new-york-3", "name": "Rowland's Bar & Grill", "image_url": "https://s3-media2.fl.yelpcdn.com/bphoto/uDieDLpW3QJ61M_i74pp4A/o.jpg", "is_closed": false, "url": "https://www.yelp.com/biz/rowlands-bar-and-grill-new-york-3?adjust_creative=HdhkN5EEH6lAqE3kwhsHEQ&utm_campaign=yelp_api_v3&utm_medium=api_v3_business_search&utm_source=HdhkN5EEH6lAqE3kwhsHEQ", "review_count": 81, "categories": [{"alias": "bars", "title": "Bars"}, {"alias": "tradamerican", "title": "American (Traditional)"}], "rating": 3.5, "coordinates": {"latitude": 40.750966, "longitude": -73.989962}, "transactions": [], "price": "$$", "location": {"address1": "Macy's Herald Sq", "address2": "151 W 34th St, Lower Level", "address3": null, "city": "New York", "zip_code": "10001", "country": "US", "state": "NY", "display_address": ["Macy's Herald Sq", "151 W 34th St, Lower Level", "New York, NY 10001"]}, "phone": "+12128683001", "display_phone": "(212) 868-3001", "distance": 139.7925433449389}, {"id": "L-bZryvO_AQKoVXGLJ0VGg", "alias": "tgi-fridays-new-york-20", "name": "TGI Fridays", "image_url": "https://s3-media3.fl.yelpcdn.com/bphoto/IPca-NSd0lLzNFg24Pmccg/o.jpg", "is_closed": false, "url": "https://www.yelp.com/biz/tgi-fridays-new-york-20?adjust_creative=HdhkN5EEH6lAqE3kwhsHEQ&utm_campaign=yelp_api_v3&utm_medium=api_v3_business_search&utm_source=HdhkN5EEH6lAqE3kwhsHEQ", "review_count": 173, "categories": [{"alias": "tradamerican", "title": "American (Traditional)"}], "rating": 1.5, "coordinates": {"latitude": 40.7514915, "longitude": -73.9910736}, "transactions": [], "price": "$$", "location": {"address1": "211 W 34th St", "address2": "", "address3": "", "city": "New York", "zip_code": "10001", "country": "US", "state": "NY", "display_address": ["211 W 34th St", "New York, NY 10001"]}, "phone": "+12125640539", "display_phone": "(212) 564-0539", "distance": 27.454829623383553}, {"id": "Dhd5Ur9e8X0uK4OLfVvw3g", "alias": "shake-shack-new-york-44", "name": "Shake Shack", "image_url": "https://s3-media2.fl.yelpcdn.com/bphoto/RVM42Rxc3xYA3Q5TZwzLlQ/o.jpg", "is_closed": false, "url": "https://www.yelp.com/biz/shake-shack-new-york-44?adjust_creative=HdhkN5EEH6lAqE3kwhsHEQ&utm_campaign=yelp_api_v3&utm_medium=api_v3_business_search&utm_source=HdhkN5EEH6lAqE3kwhsHEQ", "review_count": 159, "categories": [{"alias": "burgers", "title": "Burgers"}, {"alias": "hotdogs", "title": "Fast Food"}, {"alias": "breakfast_brunch", "title": "Breakfast & Brunch"}], "rating": 3.5, "coordinates": {"latitude": 40.7506085432919, "longitude": -73.9921478247893}, "transactions": ["delivery"], "price": "$$", "location": {"address1": "1 Pennsylvania Plz", "address2": "Lower Concourse", "address3": "Penn Station", "city": "New York", "zip_code": "10119", "country": "US", "state": "NY", "display_address": ["1 Pennsylvania Plz", "Lower Concourse", "Penn Station", "New York, NY 10119"]}, "phone": "+16462029715", "display_phone": "(646) 202-9715", "distance": 118.03240673857701}, {"id": "J17UnrHP-kDBaaQzhIUWLQ", "alias": "roses-pizza-new-york", "name": "Rose's Pizza", "image_url": "https://s3-media3.fl.yelpcdn.com/bphoto/-CqW-iIRnnr7r1TkvAPw4Q/o.jpg", "is_closed": false, "url": "https://www.yelp.com/biz/roses-pizza-new-york?adjust_creative=HdhkN5EEH6lAqE3kwhsHEQ&utm_campaign=yelp_api_v3&utm_medium=api_v3_business_search&utm_source=HdhkN5EEH6lAqE3kwhsHEQ", "review_count": 275, "categories": [{"alias": "pizza", "title": "Pizza"}, {"alias": "italian", "title": "Italian"}], "rating": 3.5, "coordinates": {"latitude": 40.751159, "longitude": -73.9922235}, "transactions": ["delivery", "pickup"], "price": "$", "location": {"address1": "1 Penn Plz", "address2": null, "address3": "", "city": "New York", "zip_code": "10119", "country": "US", "state": "NY", "display_address": ["1 Penn Plz", "New York, NY 10119"]}, "phone": "+12126297455", "display_phone": "(212) 629-7455", "distance": 111.67781538277796}, {"id": "niE9HCQD-lhFwbajU6DlkA", "alias": "manhattan-soup-man-new-york", "name": "Manhattan Soup Man", "image_url": "https://s3-media3.fl.yelpcdn.com/bphoto/sHW25Z8YNjqALh90IboX5g/o.jpg", "is_closed": false, "url": "https://www.yelp.com/biz/manhattan-soup-man-new-york?adjust_creative=HdhkN5EEH6lAqE3kwhsHEQ&utm_campaign=yelp_api_v3&utm_medium=api_v3_business_search&utm_source=HdhkN5EEH6lAqE3kwhsHEQ", "review_count": 2, "categories": [{"alias": "soup", "title": "Soup"}], "rating": 4.0, "coordinates": {"latitude": 40.751172, "longitude": -73.992242}, "transactions": [], "location": {"address1": "1 Penn Plz", "address2": "", "address3": "", "city": "New York", "zip_code": "10119", "country": "US", "state": "NY", "display_address": ["1 Penn Plz", "New York, NY 10119"]}, "phone": "+12126310521", "display_phone": "(212) 631-0521", "distance": 111.97362069871883}, {"id": "XWtuNUqtd4RH70uZUZagDw", "alias": "bread-and-butter-new-york-10", "name": "Bread and Butter", "image_url": "https://s3-media4.fl.yelpcdn.com/bphoto/-iTr3rC5NH5dXAVosCW9QQ/o.jpg", "is_closed": false, "url": "https://www.yelp.com/biz/bread-and-butter-new-york-10?adjust_creative=HdhkN5EEH6lAqE3kwhsHEQ&utm_campaign=yelp_api_v3&utm_medium=api_v3_business_search&utm_source=HdhkN5EEH6lAqE3kwhsHEQ", "review_count": 75, "categories": [{"alias": "delis", "title": "Delis"}], "rating": 2.5, "coordinates": {"latitude": 40.7518918650105, "longitude": -73.9900231361389}, "transactions": ["delivery", "pickup"], "price": "$$", "location": {"address1": "462 7th Ave", "address2": "", "address3": null, "city": "New York", "zip_code": "10018", "country": "US", "state": "NY", "display_address": ["462 7th Ave", "New York, NY 10018"]}, "phone": "+12128680444", "display_phone": "(212) 868-0444", "distance": 99.93041032619986}, {"id": "sDajjybHSYFw8gTVbknPGA", "alias": "jack-doyles-bar-and-restaurant-new-york", "name": "Jack Doyle's Bar & Restaurant", "image_url": "https://s3-media4.fl.yelpcdn.com/bphoto/46eVvthYVkODJrUiRQmE_A/o.jpg", "is_closed": false, "url": "https://www.yelp.com/biz/jack-doyles-bar-and-restaurant-new-york?adjust_creative=HdhkN5EEH6lAqE3kwhsHEQ&utm_campaign=yelp_api_v3&utm_medium=api_v3_business_search&utm_source=HdhkN5EEH6lAqE3kwhsHEQ", "review_count": 331, "categories": [{"alias": "tradamerican", "title": "American (Traditional)"}, {"alias": "pubs", "title": "Pubs"}, {"alias": "irish", "title": "Irish"}], "rating": 4.0, "coordinates": {"latitude": 40.752132, "longitude": -73.991852}, "transactions": [], "price": "$$", "location": {"address1": "240 W 35th St", "address2": "", "address3": "", "city": "New York", "zip_code": "10001", "country": "US", "state": "NY", "display_address": ["240 W 35th St", "New York, NY 10001"]}, "phone": "+12122681255", "display_phone": "(212) 268-1255", "distance": 65.77126680598734}, {"id": "_MwxN8ai-KUfLIG7_cPCUg", "alias": "taco-bell-cantina-new-york-5", "name": "Taco Bell Cantina", "image_url": "https://s3-media2.fl.yelpcdn.com/bphoto/1K8nOUGd-1IANEQ9Q8Rk0Q/o.jpg", "is_closed": false, "url": "https://www.yelp.com/biz/taco-bell-cantina-new-york-5?adjust_creative=HdhkN5EEH6lAqE3kwhsHEQ&utm_campaign=yelp_api_v3&utm_medium=api_v3_business_search&utm_source=HdhkN5EEH6lAqE3kwhsHEQ", "review_count": 30, "categories": [{"alias": "tacos", "title": "Tacos"}, {"alias": "breakfast_brunch", "title": "Breakfast & Brunch"}], "rating": 3.0, "coordinates": {"latitude": 40.753013, "longitude": -73.992432}, "transactions": ["delivery", "pickup"], "location": {"address1": "500 8th Avenue", "address2": "", "address3": null, "city": "New York", "zip_code": "10018", "country": "US", "state": "NY", "display_address": ["500 8th Avenue", "New York, NY 10018"]}, "phone": "+19292323040", "display_phone": "(929) 232-3040", "distance": 172.52355967461534}, {"id": "ypGzLFySw_JBin1noTz2Nw", "alias": "hale-and-hearty-soups-new-york-14", "name": "Hale and Hearty Soups", "image_url": "https://s3-media3.fl.yelpcdn.com/bphoto/KUf3Bz9G2ukjSULcQZiF0Q/o.jpg", "is_closed": false, "url": "https://www.yelp.com/biz/hale-and-hearty-soups-new-york-14?adjust_creative=HdhkN5EEH6lAqE3kwhsHEQ&utm_campaign=yelp_api_v3&utm_medium=api_v3_business_search&utm_source=HdhkN5EEH6lAqE3kwhsHEQ", "review_count": 152, "categories": [{"alias": "sandwiches", "title": "Sandwiches"}, {"alias": "soup", "title": "Soup"}, {"alias": "salad", "title": "Salad"}], "rating": 3.0, "coordinates": {"latitude": 40.75191, "longitude": -73.99019}, "transactions": ["delivery", "pickup"], "price": "$", "location": {"address1": "462 7th Ave", "address2": "", "address3": "", "city": "New York", "zip_code": "10018", "country": "US", "state": "NY", "display_address": ["462 7th Ave", "New York, NY 10018"]}, "phone": "+12129710605", "display_phone": "(212) 971-0605", "distance": 72.23718100710032}, {"id": "Nl_nRhMMHZNy5sLFT_XpDg", "alias": "market-crates-new-york-3", "name": "Market Crates", "image_url": "https://s3-media4.fl.yelpcdn.com/bphoto/mX6zcqA4S9LkDDP5d2VK8w/o.jpg", "is_closed": false, "url": "https://www.yelp.com/biz/market-crates-new-york-3?adjust_creative=HdhkN5EEH6lAqE3kwhsHEQ&utm_campaign=yelp_api_v3&utm_medium=api_v3_business_search&utm_source=HdhkN5EEH6lAqE3kwhsHEQ", "review_count": 78, "categories": [{"alias": "sandwiches", "title": "Sandwiches"}, {"alias": "breakfast_brunch", "title": "Breakfast & Brunch"}], "rating": 4.0, "coordinates": {"latitude": 40.7519475038549, "longitude": -73.9912122761374}, "transactions": ["delivery", "pickup"], "price": "$$", "location": {"address1": "224 W 35th St", "address2": "", "address3": null, "city": "New York", "zip_code": "10001", "country": "US", "state": "NY", "display_address": ["224 W 35th St", "New York, NY 10001"]}, "phone": "+12126956922", "display_phone": "(212) 695-6922", "distance": 16.372538311706624}, {"id": "wYF0OH03xAg3825796Gvag", "alias": "als-delicatessen-new-york", "name": "als delicatessen", "image_url": "", "is_closed": false, "url": "https://www.yelp.com/biz/als-delicatessen-new-york?adjust_creative=HdhkN5EEH6lAqE3kwhsHEQ&utm_campaign=yelp_api_v3&utm_medium=api_v3_business_search&utm_source=HdhkN5EEH6lAqE3kwhsHEQ", "review_count": 1, "categories": [{"alias": "delis", "title": "Delis"}], "rating": 5.0, "coordinates": {"latitude": 40.7514519594097, "longitude": -73.9903148263693}, "transactions": [], "price": "$", "location": {"address1": "453-461 Fashion Ave", "address2": "", "address3": "", "city": "New York", "zip_code": "10001", "country": "US", "state": "NY", "display_address": ["453-461 Fashion Ave", "New York, NY 10001"]}, "phone": "", "display_phone": "", "distance": 84.27671171655315}, {"id": "sUl6cvAilF87Q8gRIzUJdw", "alias": "penn-plates-manhattan", "name": "Penn Plates", "image_url": "https://s3-media1.fl.yelpcdn.com/bphoto/K5A-VXpikkZCoVx7g5_WQQ/o.jpg", "is_closed": false, "url": "https://www.yelp.com/biz/penn-plates-manhattan?adjust_creative=HdhkN5EEH6lAqE3kwhsHEQ&utm_campaign=yelp_api_v3&utm_medium=api_v3_business_search&utm_source=HdhkN5EEH6lAqE3kwhsHEQ", "review_count": 6, "categories": [{"alias": "food_court", "title": "Food Court"}], "rating": 3.5, "coordinates": {"latitude": 40.7512627, "longitude": -73.9923498}, "transactions": [], "price": "$$", "location": {"address1": "One Penn Plaza - Park E", "address2": "", "address3": "", "city": "Manhattan", "zip_code": "10001", "country": "US", "state": "NY", "display_address": ["One Penn Plaza - Park E", "Manhattan, NY 10001"]}, "phone": "+12125299262", "display_phone": "(212) 529-9262", "distance": 113.58602690650183}, {"id": "qs1aolxd2bPxv2aGoUtIPg", "alias": "andrews-coffee-shop-new-york-11", "name": "Andrews Coffee Shop", "image_url": "https://s3-media2.fl.yelpcdn.com/bphoto/Zu2M3OW8AUAiyBe-A_LfOg/o.jpg", "is_closed": false, "url": "https://www.yelp.com/biz/andrews-coffee-shop-new-york-11?adjust_creative=HdhkN5EEH6lAqE3kwhsHEQ&utm_campaign=yelp_api_v3&utm_medium=api_v3_business_search&utm_source=HdhkN5EEH6lAqE3kwhsHEQ", "review_count": 398, "categories": [{"alias": "tradamerican", "title": "American (Traditional)"}, {"alias": "breakfast_brunch", "title": "Breakfast & Brunch"}, {"alias": "cafes", "title": "Cafes"}], "rating": 3.0, "coordinates": {"latitude": 40.7517535734003, "longitude": -73.9899742755447}, "transactions": ["delivery", "pickup"], "price": "$$", "location": {"address1": "463 7th Ave", "address2": "", "address3": "", "city": "New York", "zip_code": "10018", "country": "US", "state": "NY", "display_address": ["463 7th Ave", "New York, NY 10018"]}, "phone": "+12126951962", "display_phone": "(212) 695-1962", "distance": 103.6585654270312}, {"id": "PetO4CfZ1k36oMJL3Oc0Wg", "alias": "wasabi-sushi-and-bento-new-york-8", "name": "Wasabi Sushi & Bento", "image_url": "https://s3-media1.fl.yelpcdn.com/bphoto/METsG7-DgJq3vYb1PRcpfA/o.jpg", "is_closed": false, "url": "https://www.yelp.com/biz/wasabi-sushi-and-bento-new-york-8?adjust_creative=HdhkN5EEH6lAqE3kwhsHEQ&utm_campaign=yelp_api_v3&utm_medium=api_v3_business_search&utm_source=HdhkN5EEH6lAqE3kwhsHEQ", "review_count": 91, "categories": [{"alias": "sushi", "title": "Sushi Bars"}, {"alias": "japanese", "title": "Japanese"}], "rating": 3.0, "coordinates": {"latitude": 40.7506085432919, "longitude": -73.9921478247893}, "transactions": ["delivery", "pickup"], "price": "$$", "location": {"address1": "1 Pennsylvania Plz", "address2": "", "address3": null, "city": "New York", "zip_code": "10119", "country": "US", "state": "NY", "display_address": ["1 Pennsylvania Plz", "New York, NY 10119"]}, "phone": "+16466494433", "display_phone": "(646) 649-4433", "distance": 118.03240673857701}, {"id": "WGo6s0sSqjLwM4sGtrUlJg", "alias": "penn-sushi-new-york", "name": "Penn Sushi", "image_url": "https://s3-media1.fl.yelpcdn.com/bphoto/guYRMEW7fZgjL8htsqOkzA/o.jpg", "is_closed": false, "url": "https://www.yelp.com/biz/penn-sushi-new-york?adjust_creative=HdhkN5EEH6lAqE3kwhsHEQ&utm_campaign=yelp_api_v3&utm_medium=api_v3_business_search&utm_source=HdhkN5EEH6lAqE3kwhsHEQ", "review_count": 52, "categories": [{"alias": "sushi", "title": "Sushi Bars"}], "rating": 3.5, "coordinates": {"latitude": 40.750671, "longitude": -73.992108}, "transactions": [], "price": "$$", "location": {"address1": "2 Penn Plz", "address2": "", "address3": "Penn Station", "city": "New York", "zip_code": "10121", "country": "US", "state": "NY", "display_address": ["2 Penn Plz", "Penn Station", "New York, NY 10121"]}, "phone": "+12125645496", "display_phone": "(212) 564-5496", "distance": 146.89887825764362}, {"id": "0QGtlNv6I6CqyWV_06CqOQ", "alias": "dali-market-new-york-2", "name": "Dali Market", "image_url": "https://s3-media2.fl.yelpcdn.com/bphoto/e3uW_SohtFFzU_tC4fSzDg/o.jpg", "is_closed": false, "url": "https://www.yelp.com/biz/dali-market-new-york-2?adjust_creative=HdhkN5EEH6lAqE3kwhsHEQ&utm_campaign=yelp_api_v3&utm_medium=api_v3_business_search&utm_source=HdhkN5EEH6lAqE3kwhsHEQ", "review_count": 44, "categories": [{"alias": "delis", "title": "Delis"}, {"alias": "salad", "title": "Salad"}, {"alias": "sandwiches", "title": "Sandwiches"}], "rating": 3.0, "coordinates": {"latitude": 40.7514272007144, "longitude": -73.9900483231033}, "transactions": ["delivery", "pickup"], "price": "$", "location": {"address1": "461 7th Ave", "address2": "", "address3": "", "city": "New York", "zip_code": "10001", "country": "US", "state": "NY", "display_address": ["461 7th Ave", "New York, NY 10001"]}, "phone": "+12125645544", "display_phone": "(212) 564-5544", "distance": 105.7717950427762}, {"id": "hH4pRZCcFh6Pa9jXipGRGg", "alias": "als-delicatessen-and-catering-new-york", "name": "Al's Delicatessen & Catering", "image_url": "https://s3-media2.fl.yelpcdn.com/bphoto/trulX4K4UKbms7kE3nk9rA/o.jpg", "is_closed": false, "url": "https://www.yelp.com/biz/als-delicatessen-and-catering-new-york?adjust_creative=HdhkN5EEH6lAqE3kwhsHEQ&utm_campaign=yelp_api_v3&utm_medium=api_v3_business_search&utm_source=HdhkN5EEH6lAqE3kwhsHEQ", "review_count": 87, "categories": [{"alias": "delis", "title": "Delis"}], "rating": 3.0, "coordinates": {"latitude": 40.7514120264046, "longitude": -73.9905788311319}, "transactions": [], "price": "$", "location": {"address1": "458 7th Ave", "address2": "", "address3": "", "city": "New York", "zip_code": "10001", "country": "US", "state": "NY", "display_address": ["458 7th Ave", "New York, NY 10001"]}, "phone": "+12125945682", "display_phone": "(212) 594-5682", "distance": 68.06032707904232}, {"id": "Yej0KDMSAXfGZPzn8BhmDw", "alias": "cafe-metro-new-york-26", "name": "Cafe Metro", "image_url": "https://s3-media3.fl.yelpcdn.com/bphoto/BYVXNPIh9OHh1Uh8h_VqOw/o.jpg", "is_closed": false, "url": "https://www.yelp.com/biz/cafe-metro-new-york-26?adjust_creative=HdhkN5EEH6lAqE3kwhsHEQ&utm_campaign=yelp_api_v3&utm_medium=api_v3_business_search&utm_source=HdhkN5EEH6lAqE3kwhsHEQ", "review_count": 4, "categories": [{"alias": "salad", "title": "Salad"}, {"alias": "hotdogs", "title": "Fast Food"}, {"alias": "sandwiches", "title": "Sandwiches"}], "rating": 4.0, "coordinates": {"latitude": 40.752085, "longitude": -73.991849}, "transactions": ["delivery", "pickup"], "location": {"address1": "240 W 35th St", "address2": "", "address3": null, "city": "New York", "zip_code": "10001", "country": "US", "state": "NY", "display_address": ["240 W 35th St", "New York, NY 10001"]}, "phone": "+12123988788", "display_phone": "(212) 398-8788", "distance": 62.92522994252551}, {"id": "WnM3R1wRMRg6Dv9BZ7WpDg", "alias": "pret-a-manger-new-york-92", "name": "Pret a Manger", "image_url": "https://s3-media3.fl.yelpcdn.com/bphoto/sqoKCF6Fjn7gty2H_XQY2A/o.jpg", "is_closed": false, "url": "https://www.yelp.com/biz/pret-a-manger-new-york-92?adjust_creative=HdhkN5EEH6lAqE3kwhsHEQ&utm_campaign=yelp_api_v3&utm_medium=api_v3_business_search&utm_source=HdhkN5EEH6lAqE3kwhsHEQ", "review_count": 14, "categories": [{"alias": "coffee", "title": "Coffee & Tea"}, {"alias": "sandwiches", "title": "Sandwiches"}], "rating": 3.0, "coordinates": {"latitude": 40.7516241, "longitude": -73.9924959}, "transactions": [], "location": {"address1": "1 Penn Plz", "address2": "", "address3": "", "city": "New York", "zip_code": "10119", "country": "US", "state": "NY", "display_address": ["1 Penn Plz", "New York, NY 10119"]}, "phone": "+16465901382", "display_phone": "(646) 590-1382", "distance": 118.03240673857701}, {"id": "CwCUPYFapqYwauq-Cuk2gA", "alias": "burger-king-new-york-57", "name": "Burger King", "image_url": "https://s3-media4.fl.yelpcdn.com/bphoto/lnp3_WBg9QACo0wYl1yBgQ/o.jpg", "is_closed": false, "url": "https://www.yelp.com/biz/burger-king-new-york-57?adjust_creative=HdhkN5EEH6lAqE3kwhsHEQ&utm_campaign=yelp_api_v3&utm_medium=api_v3_business_search&utm_source=HdhkN5EEH6lAqE3kwhsHEQ", "review_count": 32, "categories": [{"alias": "burgers", "title": "Burgers"}, {"alias": "hotdogs", "title": "Fast Food"}], "rating": 3.0, "coordinates": {"latitude": 40.75219, "longitude": -73.98999}, "transactions": ["delivery"], "price": "$", "location": {"address1": "474 7th Ave", "address2": "", "address3": "", "city": "New York", "zip_code": "10018", "country": "US", "state": "NY", "display_address": ["474 7th Ave", "New York, NY 10018"]}, "phone": "", "display_phone": "", "distance": 102.62028652786735}, {"id": "7BelpLrSPIj7OndEWdqe8w", "alias": "moes-falafel-new-york", "name": "Moe's Falafel", "image_url": "https://s3-media1.fl.yelpcdn.com/bphoto/zsUYcYoFg4-cUJYiCQvRmw/o.jpg", "is_closed": false, "url": "https://www.yelp.com/biz/moes-falafel-new-york?adjust_creative=HdhkN5EEH6lAqE3kwhsHEQ&utm_campaign=yelp_api_v3&utm_medium=api_v3_business_search&utm_source=HdhkN5EEH6lAqE3kwhsHEQ", "review_count": 3, "categories": [{"alias": "falafel", "title": "Falafel"}], "rating": 1.5, "coordinates": {"latitude": 40.7522877, "longitude": -73.9897059}, "transactions": [], "location": {"address1": "36th St & 7th Ave", "address2": "", "address3": "", "city": "New York", "zip_code": "10018", "country": "US", "state": "NY", "display_address": ["36th St & 7th Ave", "New York, NY 10018"]}, "phone": "", "display_phone": "", "distance": 137.27901931642472}, {"id": "1_8euaDCiNmzQRh3WFGlow", "alias": "jimmys-new-york-style-pizza-new-york", "name": "Jimmy's New York Style Pizza", "image_url": "https://s3-media3.fl.yelpcdn.com/bphoto/xN3pOAUUUVf_7ucqsIJ5hw/o.jpg", "is_closed": false, "url": "https://www.yelp.com/biz/jimmys-new-york-style-pizza-new-york?adjust_creative=HdhkN5EEH6lAqE3kwhsHEQ&utm_campaign=yelp_api_v3&utm_medium=api_v3_business_search&utm_source=HdhkN5EEH6lAqE3kwhsHEQ", "review_count": 1, "categories": [{"alias": "pizza", "title": "Pizza"}], "rating": 3.0, "coordinates": {"latitude": 40.7509918, "longitude": -73.9906235}, "transactions": [], "location": {"address1": "34th & 7th Avenue", "address2": "", "address3": "", "city": "New York", "zip_code": "10119", "country": "US", "state": "NY", "display_address": ["34th & 7th Avenue", "New York, NY 10119"]}, "phone": "", "display_phone": "", "distance": 101.6371986528805}, {"id": "zGr7wWZkz4BulSakGM0UgQ", "alias": "charleys-philly-steaks-new-york", "name": "Charley's Philly Steaks", "image_url": "https://s3-media2.fl.yelpcdn.com/bphoto/0yPjk0skiDF0H21Ywa02Jw/o.jpg", "is_closed": false, "url": "https://www.yelp.com/biz/charleys-philly-steaks-new-york?adjust_creative=HdhkN5EEH6lAqE3kwhsHEQ&utm_campaign=yelp_api_v3&utm_medium=api_v3_business_search&utm_source=HdhkN5EEH6lAqE3kwhsHEQ", "review_count": 18, "categories": [{"alias": "sandwiches", "title": "Sandwiches"}], "rating": 2.5, "coordinates": {"latitude": 40.7506085432919, "longitude": -73.9921478247893}, "transactions": ["delivery", "pickup"], "price": "$", "location": {"address1": "1 Pennsylvania Plz", "address2": "", "address3": "", "city": "New York", "zip_code": "10119", "country": "US", "state": "NY", "display_address": ["1 Pennsylvania Plz", "New York, NY 10119"]}, "phone": "+12125947817", "display_phone": "(212) 594-7817", "distance": 118.03240673857701}, {"id": "c69VFUE3CCYJ0Gqj-g4Vow", "alias": "starbucks-pickup-new-york", "name": "Starbucks Pickup", "image_url": "https://s3-media4.fl.yelpcdn.com/bphoto/9PAUR3ncwMyJdfbxSp_A5A/o.jpg", "is_closed": false, "url": "https://www.yelp.com/biz/starbucks-pickup-new-york?adjust_creative=HdhkN5EEH6lAqE3kwhsHEQ&utm_campaign=yelp_api_v3&utm_medium=api_v3_business_search&utm_source=HdhkN5EEH6lAqE3kwhsHEQ", "review_count": 2, "categories": [{"alias": "coffee", "title": "Coffee & Tea"}, {"alias": "hotdogs", "title": "Fast Food"}], "rating": 5.0, "coordinates": {"latitude": 40.751182, "longitude": -73.992163}, "transactions": [], "location": {"address1": "1 Penn Plz", "address2": "", "address3": null, "city": "New York", "zip_code": "10001", "country": "US", "state": "NY", "display_address": ["1 Penn Plz", "New York, NY 10001"]}, "phone": "", "display_phone": "", "distance": 106.1307156446686}, {"id": "I0l1s9BmxP3j2EVQ34Zlhg", "alias": "chickpea-new-york-6", "name": "Chickpea", "image_url": "https://s3-media3.fl.yelpcdn.com/bphoto/GrqCyr0d1ObwwdJhv059DQ/o.jpg", "is_closed": false, "url": "https://www.yelp.com/biz/chickpea-new-york-6?adjust_creative=HdhkN5EEH6lAqE3kwhsHEQ&utm_campaign=yelp_api_v3&utm_medium=api_v3_business_search&utm_source=HdhkN5EEH6lAqE3kwhsHEQ", "review_count": 36, "categories": [{"alias": "mideastern", "title": "Middle Eastern"}], "rating": 2.5, "coordinates": {"latitude": 40.7517158998249, "longitude": -73.9924692973588}, "transactions": ["pickup"], "price": "$$", "location": {"address1": "1 Penn Plz", "address2": "", "address3": null, "city": "New York", "zip_code": "10001", "country": "US", "state": "NY", "display_address": ["1 Penn Plz", "New York, NY 10001"]}, "phone": "+12122440101", "display_phone": "(212) 244-0101", "distance": 118.03240673857701}, {"id": "vhVufzeB0Rp1Tf3LpRLAOw", "alias": "chickpea-newark", "name": "chickpea", "image_url": "https://s3-media1.fl.yelpcdn.com/bphoto/dnwjmCHfIqaui_FKS9TTwQ/o.jpg", "is_closed": false, "url": "https://www.yelp.com/biz/chickpea-newark?adjust_creative=HdhkN5EEH6lAqE3kwhsHEQ&utm_campaign=yelp_api_v3&utm_medium=api_v3_business_search&utm_source=HdhkN5EEH6lAqE3kwhsHEQ", "review_count": 3, "categories": [{"alias": "mideastern", "title": "Middle Eastern"}], "rating": 2.0, "coordinates": {"latitude": 40.752032, "longitude": -73.992797}, "transactions": ["pickup"], "price": "$", "location": {"address1": "Penn Station", "address2": "", "address3": "34th Street", "city": "Newark", "zip_code": "07102", "country": "US", "state": "NJ", "display_address": ["Penn Station", "34th Street", "Newark, NJ 07102"]}, "phone": "+12122440101", "display_phone": "(212) 244-0101", "distance": 136.69183788220866}, {"id": "of_O6oo2Q0J6J3uJx_vGsg", "alias": "le-bon-cafe-new-york", "name": "Le Bon Cafe", "image_url": "https://s3-media1.fl.yelpcdn.com/bphoto/xwcRf_TmHb8OOVkK3fPF_Q/o.jpg", "is_closed": false, "url": "https://www.yelp.com/biz/le-bon-cafe-new-york?adjust_creative=HdhkN5EEH6lAqE3kwhsHEQ&utm_campaign=yelp_api_v3&utm_medium=api_v3_business_search&utm_source=HdhkN5EEH6lAqE3kwhsHEQ", "review_count": 27, "categories": [{"alias": "cafes", "title": "Cafes"}], "rating": 3.0, "coordinates": {"latitude": 40.7516241, "longitude": -73.9924959}, "transactions": ["delivery", "pickup"], "price": "$", "location": {"address1": "1 Penn Plaza Concourse Level", "address2": "Ste 1612", "address3": "", "city": "New York", "zip_code": "10119", "country": "US", "state": "NY", "display_address": ["1 Penn Plaza Concourse Level", "Ste 1612", "New York, NY 10119"]}, "phone": "+12129475555", "display_phone": "(212) 947-5555", "distance": 122.07285802224489}, {"id": "AD_HiwvqM2sOryUBVdiTRg", "alias": "subway-new-york-404", "name": "Subway", "image_url": "https://s3-media2.fl.yelpcdn.com/bphoto/FeXokMh39aiiTSogbc352g/o.jpg", "is_closed": false, "url": "https://www.yelp.com/biz/subway-new-york-404?adjust_creative=HdhkN5EEH6lAqE3kwhsHEQ&utm_campaign=yelp_api_v3&utm_medium=api_v3_business_search&utm_source=HdhkN5EEH6lAqE3kwhsHEQ", "review_count": 10, "categories": [{"alias": "sandwiches", "title": "Sandwiches"}], "rating": 1.5, "coordinates": {"latitude": 40.751569, "longitude": -73.992564}, "transactions": ["delivery", "pickup"], "price": "$", "location": {"address1": "One Penn Plaza", "address2": "", "address3": "", "city": "New York", "zip_code": "10119", "country": "US", "state": "NY", "display_address": ["One Penn Plaza", "New York, NY 10119"]}, "phone": "+12122394212", "display_phone": "(212) 239-4212", "distance": 117.47115332765499}, {"id": "rPMjnhve3w6NYZk74Bs3Dg", "alias": "lenwich-new-york-16", "name": "Lenwich", "image_url": "https://s3-media3.fl.yelpcdn.com/bphoto/8U4HFNpLRSjZNRvpLfLI5g/o.jpg", "is_closed": false, "url": "https://www.yelp.com/biz/lenwich-new-york-16?adjust_creative=HdhkN5EEH6lAqE3kwhsHEQ&utm_campaign=yelp_api_v3&utm_medium=api_v3_business_search&utm_source=HdhkN5EEH6lAqE3kwhsHEQ", "review_count": 119, "categories": [{"alias": "sandwiches", "title": "Sandwiches"}, {"alias": "salad", "title": "Salad"}, {"alias": "breakfast_brunch", "title": "Breakfast & Brunch"}], "rating": 3.0, "coordinates": {"latitude": 40.750688, "longitude": -73.991541}, "transactions": ["delivery"], "price": "$", "location": {"address1": "1 Penn Plz", "address2": "", "address3": "", "city": "New York", "zip_code": "10119", "country": "US", "state": "NY", "display_address": ["1 Penn Plz", "New York, NY 10119"]}, "phone": "+16463900005", "display_phone": "(646) 390-0005", "distance": 126.92382301521327}, {"id": "FtI8OKz6P1qiwQkJ1ulP_g", "alias": "barclay-paris-pastries-new-york", "name": "Barclay Paris Pastries", "image_url": "https://s3-media3.fl.yelpcdn.com/bphoto/OWGYYPOGCB7AQ4DYwAAgRw/o.jpg", "is_closed": false, "url": "https://www.yelp.com/biz/barclay-paris-pastries-new-york?adjust_creative=HdhkN5EEH6lAqE3kwhsHEQ&utm_campaign=yelp_api_v3&utm_medium=api_v3_business_search&utm_source=HdhkN5EEH6lAqE3kwhsHEQ", "review_count": 2, "categories": [{"alias": "bakeries", "title": "Bakeries"}, {"alias": "french", "title": "French"}], "rating": 1.0, "coordinates": {"latitude": 40.751865, "longitude": -73.991707}, "transactions": ["delivery"], "location": {"address1": "225 W 34th St", "address2": "Fl 9", "address3": "", "city": "New York", "zip_code": "10122", "country": "US", "state": "NY", "display_address": ["225 W 34th St", "Fl 9", "New York, NY 10122"]}, "phone": "+19175252486", "display_phone": "(917) 525-2486", "distance": 41.250567607544156}, {"id": "jhuueCartwhFmYXq0qYRWw", "alias": "nespresso-boutique-at-macys-new-york", "name": "Nespresso Boutique at Macy's", "image_url": "https://s3-media3.fl.yelpcdn.com/bphoto/FPoZyfWLFH9iQrYJJPW-Bw/o.jpg", "is_closed": false, "url": "https://www.yelp.com/biz/nespresso-boutique-at-macys-new-york?adjust_creative=HdhkN5EEH6lAqE3kwhsHEQ&utm_campaign=yelp_api_v3&utm_medium=api_v3_business_search&utm_source=HdhkN5EEH6lAqE3kwhsHEQ", "review_count": 38, "categories": [{"alias": "cafes", "title": "Cafes"}, {"alias": "coffee", "title": "Coffee & Tea"}, {"alias": "coffeeroasteries", "title": "Coffee Roasteries"}], "rating": 4.0, "coordinates": {"latitude": 40.7509596, "longitude": -73.9903932}, "transactions": [], "price": "$$", "location": {"address1": "151 W 34th St", "address2": "8th Floor", "address3": "", "city": "New York", "zip_code": "10001", "country": "US", "state": "NY", "display_address": ["151 W 34th St", "8th Floor", "New York, NY 10001"]}, "phone": "+18005621465", "display_phone": "(800) 562-1465", "distance": 115.74945851344904}, {"id": "sZdRC-wbIEzWR2LRWdL6Fw", "alias": "carusos-new-york", "name": "Caruso's", "image_url": "", "is_closed": false, "url": "https://www.yelp.com/biz/carusos-new-york?adjust_creative=HdhkN5EEH6lAqE3kwhsHEQ&utm_campaign=yelp_api_v3&utm_medium=api_v3_business_search&utm_source=HdhkN5EEH6lAqE3kwhsHEQ", "review_count": 8, "categories": [{"alias": "pizza", "title": "Pizza"}], "rating": 2.0, "coordinates": {"latitude": 40.7506500184536, "longitude": -73.9899433404207}, "transactions": [], "location": {"address1": "162 W 34th St", "address2": "", "address3": "", "city": "New York", "zip_code": "10001", "country": "US", "state": "NY", "display_address": ["162 W 34th St", "New York, NY 10001"]}, "phone": "+12126300350", "display_phone": "(212) 630-0350", "distance": 138.9843729131713}, {"id": "u768cfsaa2mm5wP9XnSO2g", "alias": "pret-a-manger-new-york-69", "name": "Pret A Manger", "image_url": "https://s3-media2.fl.yelpcdn.com/bphoto/eSFtx1MDCZiPPW5pjfuVDA/o.jpg", "is_closed": false, "url": "https://www.yelp.com/biz/pret-a-manger-new-york-69?adjust_creative=HdhkN5EEH6lAqE3kwhsHEQ&utm_campaign=yelp_api_v3&utm_medium=api_v3_business_search&utm_source=HdhkN5EEH6lAqE3kwhsHEQ", "review_count": 77, "categories": [{"alias": "coffee", "title": "Coffee & Tea"}, {"alias": "breakfast_brunch", "title": "Breakfast & Brunch"}, {"alias": "sandwiches", "title": "Sandwiches"}], "rating": 3.5, "coordinates": {"latitude": 40.751229, "longitude": -73.992226}, "transactions": [], "price": "$", "location": {"address1": "1 Penn Plz", "address2": "", "address3": "Penn Station", "city": "New York", "zip_code": "10119", "country": "US", "state": "NY", "display_address": ["1 Penn Plz", "Penn Station", "New York, NY 10119"]}, "phone": "+12122442820", "display_phone": "(212) 244-2820", "distance": 107.0441716246168}, {"id": "_2lPJTEsaf8x1_RaYOcr2A", "alias": "cafe-n-more-new-york", "name": "Cafe 'n' More", "image_url": "", "is_closed": false, "url": "https://www.yelp.com/biz/cafe-n-more-new-york?adjust_creative=HdhkN5EEH6lAqE3kwhsHEQ&utm_campaign=yelp_api_v3&utm_medium=api_v3_business_search&utm_source=HdhkN5EEH6lAqE3kwhsHEQ", "review_count": 1, "categories": [{"alias": "cafes", "title": "Cafes"}], "rating": 1.0, "coordinates": {"latitude": 40.7511286, "longitude": -73.992471}, "transactions": [], "location": {"address1": "1 Penn Plz", "address2": "", "address3": "Lobby", "city": "New York", "zip_code": "10119", "country": "US", "state": "NY", "display_address": ["1 Penn Plz", "Lobby", "New York, NY 10119"]}, "phone": "+12125647979", "display_phone": "(212) 564-7979", "distance": 130.32055470552731}]