[{"id": "OPF4oIeKxo_DQXX4qQ0a1g", "alias": "adelines-speakeasy-kitchen-bar-cumberland-2", "name": "Adeline's Speakeasy Kitchen Bar", "image_url": "https://s3-media3.fl.yelpcdn.com/bphoto/Q6EODUePFyyMb6Z7zQAfXA/o.jpg", "is_closed": false, "url": "https://www.yelp.com/biz/adelines-speakeasy-kitchen-bar-cumberland-2?adjust_creative=pzvBKuEUl0Vl1jtHQqJaog&utm_campaign=yelp_api_v3&utm_medium=api_v3_business_search&utm_source=pzvBKuEUl0Vl1jtHQqJaog", "review_count": 96, "categories": [{"alias": "newamerican", "title": "American (New)"}, {"alias": "speakeasies", "title": "Speakeasies"}], "rating": 3.5, "coordinates": {"latitude": 41.957393, "longitude": -71.443717}, "transactions": ["delivery"], "price": "$$", "location": {"address1": "2352 Mendon Rd", "address2": "", "address3": "", "city": "Cumberland", "zip_code": "02864", "country": "US", "state": "RI", "display_address": ["2352 Mendon Rd", "Cumberland, RI 02864"]}, "phone": "+14014050073", "display_phone": "(401) 405-0073", "distance": 970.9891696146979}, {"id": "-KVb_NboQvs6vw0Lye7lmg", "alias": "gottaq-smokehouse-bbq-cumberland-2", "name": "GottaQ Smokehouse BBQ", "image_url": "https://s3-media1.fl.yelpcdn.com/bphoto/CtzkLsROkm3uYAoVxgBQoA/o.jpg", "is_closed": false, "url": "https://www.yelp.com/biz/gottaq-smokehouse-bbq-cumberland-2?adjust_creative=pzvBKuEUl0Vl1jtHQqJaog&utm_campaign=yelp_api_v3&utm_medium=api_v3_business_search&utm_source=pzvBKuEUl0Vl1jtHQqJaog", "review_count": 138, "categories": [{"alias": "foodtrucks", "title": "Food Trucks"}, {"alias": "bbq", "title": "Barbeque"}, {"alias": "catering", "title": "Caterers"}], "rating": 4.0, "coordinates": {"latitude": 41.9506914460398, "longitude": -71.4420672135692}, "transactions": [], "price": "$$", "location": {"address1": "2000 Mendon Rd", "address2": "Ste 10", "address3": "", "city": "Cumberland", "zip_code": "02864", "country": "US", "state": "RI", "display_address": ["2000 Mendon Rd", "Ste 10", "Cumberland, RI 02864"]}, "phone": "+14014754227", "display_phone": "(401) 475-4227", "distance": 763.6627197900311}, {"id": "bypemJ_Tjow9ffxHn4RIiw", "alias": "trattoria-romana-lincoln", "name": "Trattoria Romana", "image_url": "https://s3-media1.fl.yelpcdn.com/bphoto/GF-PsKPk213zGsGfgTDFMA/o.jpg", "is_closed": false, "url": "https://www.yelp.com/biz/trattoria-romana-lincoln?adjust_creative=pzvBKuEUl0Vl1jtHQqJaog&utm_campaign=yelp_api_v3&utm_medium=api_v3_business_search&utm_source=pzvBKuEUl0Vl1jtHQqJaog", "review_count": 322, "categories": [{"alias": "italian", "title": "Italian"}, {"alias": "desserts", "title": "Desserts"}, {"alias": "beerbar", "title": "Beer Bar"}], "rating": 4.0, "coordinates": {"latitude": 41.933994, "longitude": -71.474129}, "transactions": [], "price": "$$", "location": {"address1": "3 Wake Robin Rd", "address2": "Ste 1", "address3": "", "city": "Lincoln", "zip_code": "02865", "country": "US", "state": "RI", "display_address": ["3 Wake Robin Rd", "Ste 1", "Lincoln, RI 02865"]}, "phone": "+14013336700", "display_phone": "(401) 333-6700", "distance": 2647.169525760398}, {"id": "07dZuMLl4EN6nzwfhsNVCA", "alias": "bollywood-grill-cumberland-2", "name": "Bollywood Grill", "image_url": "https://s3-media3.fl.yelpcdn.com/bphoto/oEg90kQOCXm1C-yWG47Wcg/o.jpg", "is_closed": false, "url": "https://www.yelp.com/biz/bollywood-grill-cumberland-2?adjust_creative=pzvBKuEUl0Vl1jtHQqJaog&utm_campaign=yelp_api_v3&utm_medium=api_v3_business_search&utm_source=pzvBKuEUl0Vl1jtHQqJaog", "review_count": 167, "categories": [{"alias": "indpak", "title": "Indian"}], "rating": 4.0, "coordinates": {"latitude": 41.943979, "longitude": -71.436724}, "transactions": ["delivery", "pickup"], "price": "$$", "location": {"address1": "1764 Mendon Rd", "address2": "Ste 3 & 4", "address3": "", "city": "Cumberland", "zip_code": "02864", "country": "US", "state": "RI", "display_address": ["1764 Mendon Rd", "Ste 3 & 4", "Cumberland, RI 02864"]}, "phone": "+14014751477", "display_phone": "(401) 475-1477", "distance": 1417.3254586240294}, {"id": "CSRtIjGOdNKLgOY8umV5rQ", "alias": "cumberland-house-of-pizza-cumberland-3", "name": "Cumberland House of Pizza", "image_url": "https://s3-media2.fl.yelpcdn.com/bphoto/X3fgYQK0spVNiX2sYpplhA/o.jpg", "is_closed": false, "url": "https://www.yelp.com/biz/cumberland-house-of-pizza-cumberland-3?adjust_creative=pzvBKuEUl0Vl1jtHQqJaog&utm_campaign=yelp_api_v3&utm_medium=api_v3_business_search&utm_source=pzvBKuEUl0Vl1jtHQqJaog", "review_count": 118, "categories": [{"alias": "pizza", "title": "Pizza"}], "rating": 4.0, "coordinates": {"latitude": 41.95862, "longitude": -71.44327}, "transactions": ["delivery"], "price": "$", "location": {"address1": "2360 Mendon Rd", "address2": "Ste A", "address3": "", "city": "Cumberland", "zip_code": "02864", "country": "US", "state": "RI", "display_address": ["2360 Mendon Rd", "Ste A", "Cumberland, RI 02864"]}, "phone": "+14016582626", "display_phone": "(401) 658-2626", "distance": 1026.9577342758714}, {"id": "fWWXFPfFX690DQxjM4jZqw", "alias": "azalea-asian-cuisine-and-sushi-bar-cumberland", "name": "Azalea Asian Cuisine & Sushi Bar", "image_url": "https://s3-media1.fl.yelpcdn.com/bphoto/egetq0njYhC91P4e-uL_Hg/o.jpg", "is_closed": false, "url": "https://www.yelp.com/biz/azalea-asian-cuisine-and-sushi-bar-cumberland?adjust_creative=pzvBKuEUl0Vl1jtHQqJaog&utm_campaign=yelp_api_v3&utm_medium=api_v3_business_search&utm_source=pzvBKuEUl0Vl1jtHQqJaog", "review_count": 2, "categories": [{"alias": "asianfusion", "title": "Asian Fusion"}, {"alias": "sushi", "title": "Sushi Bars"}], "rating": 4.5, "coordinates": {"latitude": 41.944039, "longitude": -71.436896}, "transactions": [], "location": {"address1": "1764 Mendon Rd", "address2": null, "address3": "", "city": "Cumberland", "zip_code": "02864", "country": "US", "state": "RI", "display_address": ["1764 Mendon Rd", "Cumberland, RI 02864"]}, "phone": "+14013334700", "display_phone": "(401) 333-4700", "distance": 1398.135607772731}, {"id": "PE1UwRZAOfJ6SUqUhdfLxQ", "alias": "fortune-house-cumberland-2", "name": "Fortune house", "image_url": "https://s3-media4.fl.yelpcdn.com/bphoto/0SOBIubDB83xWMAxeutpNQ/o.jpg", "is_closed": false, "url": "https://www.yelp.com/biz/fortune-house-cumberland-2?adjust_creative=pzvBKuEUl0Vl1jtHQqJaog&utm_campaign=yelp_api_v3&utm_medium=api_v3_business_search&utm_source=pzvBKuEUl0Vl1jtHQqJaog", "review_count": 73, "categories": [{"alias": "desserts", "title": "Desserts"}, {"alias": "soup", "title": "Soup"}, {"alias": "szechuan", "title": "Szechuan"}], "rating": 3.5, "coordinates": {"latitude": 41.9447487, "longitude": -71.4368377}, "transactions": ["delivery"], "price": "$$", "location": {"address1": "1800 Mendon Rd", "address2": "Ste F", "address3": "", "city": "Cumberland", "zip_code": "02864", "country": "US", "state": "RI", "display_address": ["1800 Mendon Rd", "Ste F", "Cumberland, RI 02864"]}, "phone": "+14013339976", "display_phone": "(401) 333-9976", "distance": 1226.0224417421628}, {"id": "rPZMmSmvp1QbhdFzbFwH2Q", "alias": "mickey-gs-clam-shack-cumberland", "name": "Mickey G's Clam Shack", "image_url": "https://s3-media3.fl.yelpcdn.com/bphoto/BgDmNcnPxMkpxzfvv-tCrw/o.jpg", "is_closed": false, "url": "https://www.yelp.com/biz/mickey-gs-clam-shack-cumberland?adjust_creative=pzvBKuEUl0Vl1jtHQqJaog&utm_campaign=yelp_api_v3&utm_medium=api_v3_business_search&utm_source=pzvBKuEUl0Vl1jtHQqJaog", "review_count": 5, "categories": [{"alias": "foodstands", "title": "Food Stands"}], "rating": 5.0, "coordinates": {"latitude": 41.9666667, "longitude": -71.4327778}, "transactions": [], "location": {"address1": "", "address2": "", "address3": "", "city": "Cumberland", "zip_code": "", "country": "US", "state": "RI", "display_address": ["Cumberland, RI"]}, "phone": "", "display_phone": "", "distance": 2346.4231753686868}, {"id": "UzEkpP5bLZBPWqf8DZvlWg", "alias": "trattoria-express-lincoln", "name": "Trattoria Express", "image_url": "https://s3-media3.fl.yelpcdn.com/bphoto/IxzabhL9N9x2dsk0hKE4tQ/o.jpg", "is_closed": false, "url": "https://www.yelp.com/biz/trattoria-express-lincoln?adjust_creative=pzvBKuEUl0Vl1jtHQqJaog&utm_campaign=yelp_api_v3&utm_medium=api_v3_business_search&utm_source=pzvBKuEUl0Vl1jtHQqJaog", "review_count": 32, "categories": [{"alias": "italian", "title": "Italian"}, {"alias": "wine_bars", "title": "Wine Bars"}], "rating": 3.0, "coordinates": {"latitude": 41.9339609, "longitude": -71.4744429}, "transactions": ["delivery"], "price": "$$", "location": {"address1": "3 Wake Robin Rd", "address2": "Ste 3", "address3": "", "city": "Lincoln", "zip_code": "02865", "country": "US", "state": "RI", "display_address": ["3 Wake Robin Rd", "Ste 3", "Lincoln, RI 02865"]}, "phone": "+14013335261", "display_phone": "(401) 333-5261", "distance": 2668.312069169451}, {"id": "yGb4ckkMHjRMME5-MqXZgA", "alias": "everybodys-favorite-family-restaurant-cumberland", "name": "Everybody's Favorite Family Restaurant", "image_url": "https://s3-media2.fl.yelpcdn.com/bphoto/6cCi35fNsi0zcUZ3oPxPvA/o.jpg", "is_closed": false, "url": "https://www.yelp.com/biz/everybodys-favorite-family-restaurant-cumberland?adjust_creative=pzvBKuEUl0Vl1jtHQqJaog&utm_campaign=yelp_api_v3&utm_medium=api_v3_business_search&utm_source=pzvBKuEUl0Vl1jtHQqJaog", "review_count": 18, "categories": [{"alias": "tradamerican", "title": "American (Traditional)"}], "rating": 4.0, "coordinates": {"latitude": 41.9348460082467, "longitude": -71.4287196491346}, "transactions": ["delivery"], "price": "$", "location": {"address1": "1370 Mendon Rd", "address2": "", "address3": "", "city": "Cumberland", "zip_code": "02864", "country": "US", "state": "RI", "display_address": ["1370 Mendon Rd", "Cumberland, RI 02864"]}, "phone": "+14013335035", "display_phone": "(401) 333-5035", "distance": 2495.91088178137}, {"id": "IbirWhzuLj33ZxmzycKtzQ", "alias": "pizzeria-romana-lincoln-2", "name": "Pizzeria Romana", "image_url": "https://s3-media1.fl.yelpcdn.com/bphoto/YHs2oJau_h7dIuyiMuXXdg/o.jpg", "is_closed": false, "url": "https://www.yelp.com/biz/pizzeria-romana-lincoln-2?adjust_creative=pzvBKuEUl0Vl1jtHQqJaog&utm_campaign=yelp_api_v3&utm_medium=api_v3_business_search&utm_source=pzvBKuEUl0Vl1jtHQqJaog", "review_count": 71, "categories": [{"alias": "italian", "title": "Italian"}, {"alias": "pizza", "title": "Pizza"}], "rating": 3.5, "coordinates": {"latitude": 41.93499, "longitude": -71.47451}, "transactions": [], "price": "$$", "location": {"address1": "3 Wake Robin Rd", "address2": "", "address3": "", "city": "Lincoln", "zip_code": "02865", "country": "US", "state": "RI", "display_address": ["3 Wake Robin Rd", "Lincoln, RI 02865"]}, "phone": "+14013055848", "display_phone": "(401) 305-5848", "distance": 2677.893780437621}, {"id": "hTJnzDxgMcVMnFegEu7cmg", "alias": "eggs-up-family-restaurant-cumberland", "name": "Eggs-Up Family Restaurant", "image_url": "https://s3-media4.fl.yelpcdn.com/bphoto/Z7zRZTrC-VUNPj0UCkIIRg/o.jpg", "is_closed": false, "url": "https://www.yelp.com/biz/eggs-up-family-restaurant-cumberland?adjust_creative=pzvBKuEUl0Vl1jtHQqJaog&utm_campaign=yelp_api_v3&utm_medium=api_v3_business_search&utm_source=pzvBKuEUl0Vl1jtHQqJaog", "review_count": 59, "categories": [{"alias": "breakfast_brunch", "title": "Breakfast & Brunch"}], "rating": 4.0, "coordinates": {"latitude": 41.9585444, "longitude": -71.4432466}, "transactions": ["delivery"], "price": "$", "location": {"address1": "2378 Mendon Rd", "address2": "", "address3": "", "city": "Cumberland", "zip_code": "02864", "country": "US", "state": "RI", "display_address": ["2378 Mendon Rd", "Cumberland, RI 02864"]}, "phone": "+14016582424", "display_phone": "(401) 658-2424", "distance": 1060.2032512868998}, {"id": "qUUUaPnfRIxzvLnubQbKsw", "alias": "tr-ginger-lincoln", "name": "TR Ginger", "image_url": "", "is_closed": false, "url": "https://www.yelp.com/biz/tr-ginger-lincoln?adjust_creative=pzvBKuEUl0Vl1jtHQqJaog&utm_campaign=yelp_api_v3&utm_medium=api_v3_business_search&utm_source=pzvBKuEUl0Vl1jtHQqJaog", "review_count": 10, "categories": [{"alias": "italian", "title": "Italian"}], "rating": 3.0, "coordinates": {"latitude": 41.9347839, "longitude": -71.4741898}, "transactions": ["delivery"], "price": "$$$", "location": {"address1": "3 Wake Robin Rd", "address2": "", "address3": "", "city": "Lincoln", "zip_code": "02865", "country": "US", "state": "RI", "display_address": ["3 Wake Robin Rd", "Lincoln, RI 02865"]}, "phone": "+14013335261", "display_phone": "(401) 333-5261", "distance": 2677.893780437621}, {"id": "G_UJIRODfjFJ_TUjIt-I6Q", "alias": "chipotle-mexican-grill-lincoln-6", "name": "Chipotle Mexican Grill", "image_url": "https://s3-media1.fl.yelpcdn.com/bphoto/SOd3PrVk_lwckRtAHKgZSQ/o.jpg", "is_closed": false, "url": "https://www.yelp.com/biz/chipotle-mexican-grill-lincoln-6?adjust_creative=pzvBKuEUl0Vl1jtHQqJaog&utm_campaign=yelp_api_v3&utm_medium=api_v3_business_search&utm_source=pzvBKuEUl0Vl1jtHQqJaog", "review_count": 12, "categories": [{"alias": "mexican", "title": "Mexican"}, {"alias": "hotdogs", "title": "Fast Food"}], "rating": 2.5, "coordinates": {"latitude": 41.935763, "longitude": -71.475613}, "transactions": [], "price": "$", "location": {"address1": "622 George Washington Hwy", "address2": "", "address3": null, "city": "Lincoln", "zip_code": "02865", "country": "US", "state": "RI", "display_address": ["622 George Washington Hwy", "Lincoln, RI 02865"]}, "phone": "+14013333531", "display_phone": "(401) 333-3531", "distance": 2606.656447240256}, {"id": "RnSWcBw1RNyhOumTp4MJcQ", "alias": "djp-marques-food-truck-cumberland", "name": "DJP Marques Food Truck", "image_url": "https://s3-media4.fl.yelpcdn.com/bphoto/N7-ILTtME_6Hl03ZIB4CYg/o.jpg", "is_closed": false, "url": "https://www.yelp.com/biz/djp-marques-food-truck-cumberland?adjust_creative=pzvBKuEUl0Vl1jtHQqJaog&utm_campaign=yelp_api_v3&utm_medium=api_v3_business_search&utm_source=pzvBKuEUl0Vl1jtHQqJaog", "review_count": 2, "categories": [{"alias": "foodtrucks", "title": "Food Trucks"}, {"alias": "portuguese", "title": "Portuguese"}, {"alias": "sandwiches", "title": "Sandwiches"}], "rating": 4.5, "coordinates": {"latitude": 41.902425, "longitude": -71.392164}, "transactions": [], "location": {"address1": "130 Broad St", "address2": "", "address3": null, "city": "Cumberland", "zip_code": "02864", "country": "US", "state": "RI", "display_address": ["130 Broad St", "Cumberland, RI 02864"]}, "phone": "+14017443010", "display_phone": "(401) 744-3010", "distance": 7261.366346842978}, {"id": "3BaaKYH_BPRSdEYprDWXbw", "alias": "subway-cumberland-20", "name": "Subway", "image_url": "https://s3-media2.fl.yelpcdn.com/bphoto/pNcum1sXS3V3wNVkeQCljA/o.jpg", "is_closed": false, "url": "https://www.yelp.com/biz/subway-cumberland-20?adjust_creative=pzvBKuEUl0Vl1jtHQqJaog&utm_campaign=yelp_api_v3&utm_medium=api_v3_business_search&utm_source=pzvBKuEUl0Vl1jtHQqJaog", "review_count": 5, "categories": [{"alias": "sandwiches", "title": "Sandwiches"}], "rating": 4.0, "coordinates": {"latitude": 41.9512685169961, "longitude": -71.442005843713}, "transactions": ["delivery", "pickup"], "price": "$", "location": {"address1": "2130 Mendon Rd", "address2": "Ste 2", "address3": "", "city": "Cumberland", "zip_code": "02864", "country": "US", "state": "RI", "display_address": ["2130 Mendon Rd", "Ste 2", "Cumberland, RI 02864"]}, "phone": "+14013336710", "display_phone": "(401) 333-6710", "distance": 771.505432930821}, {"id": "XOG5apyi_VF0-EGaAuomdA", "alias": "ronzio-pizza-and-subs-cumberland", "name": "Ronzio Pizza & Subs", "image_url": "https://s3-media4.fl.yelpcdn.com/bphoto/2LtXeOyTnLf0PnG2spq9Zg/o.jpg", "is_closed": false, "url": "https://www.yelp.com/biz/ronzio-pizza-and-subs-cumberland?adjust_creative=pzvBKuEUl0Vl1jtHQqJaog&utm_campaign=yelp_api_v3&utm_medium=api_v3_business_search&utm_source=pzvBKuEUl0Vl1jtHQqJaog", "review_count": 14, "categories": [{"alias": "pizza", "title": "Pizza"}], "rating": 2.5, "coordinates": {"latitude": 41.943603, "longitude": -71.435731}, "transactions": ["delivery", "pickup"], "price": "$", "location": {"address1": "1700 Mendon Rd", "address2": "", "address3": "", "city": "Cumberland", "zip_code": "02864", "country": "US", "state": "RI", "display_address": ["1700 Mendon Rd", "Cumberland, RI 02864"]}, "phone": "+14013339118", "display_phone": "(401) 333-9118", "distance": 1557.896581807061}, {"id": "EqW9pRUckTxZdnNH_WgWVw", "alias": "reds-street-kitchen-warren", "name": "Red's Street Kitchen", "image_url": "https://s3-media1.fl.yelpcdn.com/bphoto/PVyAJAT1dJLgxcBwfoBn0g/o.jpg", "is_closed": false, "url": "https://www.yelp.com/biz/reds-street-kitchen-warren?adjust_creative=pzvBKuEUl0Vl1jtHQqJaog&utm_campaign=yelp_api_v3&utm_medium=api_v3_business_search&utm_source=pzvBKuEUl0Vl1jtHQqJaog", "review_count": 14, "categories": [{"alias": "foodtrucks", "title": "Food Trucks"}, {"alias": "portuguese", "title": "Portuguese"}, {"alias": "cheesesteaks", "title": "Cheesesteaks"}], "rating": 4.0, "coordinates": {"latitude": 41.725138, "longitude": -71.282295}, "transactions": [], "location": {"address1": "691 Main St", "address2": "", "address3": null, "city": "Warren", "zip_code": "02885", "country": "US", "state": "RI", "display_address": ["691 Main St", "Warren, RI 02885"]}, "phone": "+14012126933", "display_phone": "(401) 212-6933", "distance": 28722.78329673012}, {"id": "h_RHqDh5Titn_LLoFMiYxQ", "alias": "mcdonalds-cumberland", "name": "McDonald's", "image_url": "https://s3-media2.fl.yelpcdn.com/bphoto/c1n3FhlLGLCNargdGRWMVg/o.jpg", "is_closed": false, "url": "https://www.yelp.com/biz/mcdonalds-cumberland?adjust_creative=pzvBKuEUl0Vl1jtHQqJaog&utm_campaign=yelp_api_v3&utm_medium=api_v3_business_search&utm_source=pzvBKuEUl0Vl1jtHQqJaog", "review_count": 15, "categories": [{"alias": "hotdogs", "title": "Fast Food"}, {"alias": "burgers", "title": "Burgers"}, {"alias": "coffee", "title": "Coffee & Tea"}], "rating": 2.0, "coordinates": {"latitude": 41.9435280051235, "longitude": -71.4361893385649}, "transactions": ["delivery"], "price": "$", "location": {"address1": "1754 Mendon Rd", "address2": "", "address3": "", "city": "Cumberland", "zip_code": "02864", "country": "US", "state": "RI", "display_address": ["1754 Mendon Rd", "Cumberland, RI 02864"]}, "phone": "+14013343177", "display_phone": "(401) 334-3177", "distance": 1481.4359793692768}, {"id": "f1mOF5lDzpFjfnvkCBGfYA", "alias": "mcdonalds-lincoln-17", "name": "McDonald's", "image_url": "https://s3-media1.fl.yelpcdn.com/bphoto/XZBr38r29t3Ntm1O7nUMzQ/o.jpg", "is_closed": false, "url": "https://www.yelp.com/biz/mcdonalds-lincoln-17?adjust_creative=pzvBKuEUl0Vl1jtHQqJaog&utm_campaign=yelp_api_v3&utm_medium=api_v3_business_search&utm_source=pzvBKuEUl0Vl1jtHQqJaog", "review_count": 13, "categories": [{"alias": "burgers", "title": "Burgers"}, {"alias": "hotdogs", "title": "Fast Food"}, {"alias": "coffee", "title": "Coffee & Tea"}], "rating": 3.0, "coordinates": {"latitude": 41.9360739090089, "longitude": -71.4748674631119}, "transactions": [], "price": "$", "location": {"address1": "622 Geroge Washington Hwy", "address2": "", "address3": "", "city": "Lincoln", "zip_code": "02865", "country": "US", "state": "RI", "display_address": ["622 Geroge Washington Hwy", "Lincoln, RI 02865"]}, "phone": "+14013330850", "display_phone": "(401) 333-0850", "distance": 2537.118956522575}, {"id": "1kN8p4irqeH5eG8_CQVQlQ", "alias": "dennis-market-lincoln", "name": "Dennis Market", "image_url": "", "is_closed": false, "url": "https://www.yelp.com/biz/dennis-market-lincoln?adjust_creative=pzvBKuEUl0Vl1jtHQqJaog&utm_campaign=yelp_api_v3&utm_medium=api_v3_business_search&utm_source=pzvBKuEUl0Vl1jtHQqJaog", "review_count": 4, "categories": [{"alias": "delis", "title": "Delis"}, {"alias": "convenience", "title": "Convenience Stores"}, {"alias": "salad", "title": "Salad"}], "rating": 2.5, "coordinates": {"latitude": 41.9664195924997, "longitude": -71.4734841138124}, "transactions": [], "location": {"address1": "361 Old River Rd", "address2": "", "address3": "", "city": "Lincoln", "zip_code": "02838", "country": "US", "state": "RI", "display_address": ["361 Old River Rd", "Lincoln, RI 02838"]}, "phone": "", "display_phone": "", "distance": 2542.9547784046295}, {"id": "-RVtCW9MogCL4N0Xl2pnVw", "alias": "burger-king-cumberland-3", "name": "Burger King", "image_url": "https://s3-media3.fl.yelpcdn.com/bphoto/T1CpaBKneYSkYUbS3EIw_g/o.jpg", "is_closed": false, "url": "https://www.yelp.com/biz/burger-king-cumberland-3?adjust_creative=pzvBKuEUl0Vl1jtHQqJaog&utm_campaign=yelp_api_v3&utm_medium=api_v3_business_search&utm_source=pzvBKuEUl0Vl1jtHQqJaog", "review_count": 1, "categories": [{"alias": "burgers", "title": "Burgers"}, {"alias": "hotdogs", "title": "Fast Food"}], "rating": 1.0, "coordinates": {"latitude": 41.94219, "longitude": -71.43442}, "transactions": [], "price": "$", "location": {"address1": "1715 Mendon Rd", "address2": "", "address3": "", "city": "Cumberland", "zip_code": "02864", "country": "US", "state": "RI", "display_address": ["1715 Mendon Rd", "Cumberland, RI 02864"]}, "phone": "", "display_phone": "", "distance": 1679.8116139170677}, {"id": "WgNLJn4dSN8PHL_5A5pgLQ", "alias": "denis-market-manville-2", "name": "Denis Market", "image_url": "https://s3-media2.fl.yelpcdn.com/bphoto/_Mz6Pm3FDRJ040d_VKtuXg/o.jpg", "is_closed": false, "url": "https://www.yelp.com/biz/denis-market-manville-2?adjust_creative=pzvBKuEUl0Vl1jtHQqJaog&utm_campaign=yelp_api_v3&utm_medium=api_v3_business_search&utm_source=pzvBKuEUl0Vl1jtHQqJaog", "review_count": 6, "categories": [{"alias": "convenience", "title": "Convenience Stores"}, {"alias": "pizza", "title": "Pizza"}, {"alias": "sandwiches", "title": "Sandwiches"}], "rating": 2.0, "coordinates": {"latitude": 41.9662018, "longitude": -71.4733487}, "transactions": ["delivery", "pickup"], "price": "$$", "location": {"address1": "359 Old River Rd", "address2": "", "address3": "", "city": "Manville", "zip_code": "02838", "country": "US", "state": "RI", "display_address": ["359 Old River Rd", "Manville, RI 02838"]}, "phone": "+14017623737", "display_phone": "(401) 762-3737", "distance": 2510.3725504988206}, {"id": "JIhRVJ4BAWPH9NZ0u-7Wzw", "alias": "flip-n-roll-fall-river", "name": "Flip N Roll", "image_url": "https://s3-media1.fl.yelpcdn.com/bphoto/A3l1k85peGnmCC17j-Bmhg/o.jpg", "is_closed": false, "url": "https://www.yelp.com/biz/flip-n-roll-fall-river?adjust_creative=pzvBKuEUl0Vl1jtHQqJaog&utm_campaign=yelp_api_v3&utm_medium=api_v3_business_search&utm_source=pzvBKuEUl0Vl1jtHQqJaog", "review_count": 1, "categories": [{"alias": "foodtrucks", "title": "Food Trucks"}, {"alias": "tradamerican", "title": "American (Traditional)"}, {"alias": "portuguese", "title": "Portuguese"}], "rating": 1.0, "coordinates": {"latitude": 41.68687, "longitude": -71.17062}, "transactions": [], "price": "$$", "location": {"address1": "", "address2": "", "address3": "", "city": "Fall River", "zip_code": "02724", "country": "US", "state": "MA", "display_address": ["Fall River, MA 02724"]}, "phone": "", "display_phone": "", "distance": 37108.83486148176}, {"id": "Io4C5tUwnb_YzeaMXHBqBA", "alias": "shuckin-truck-narragansett-2", "name": "Shuckin Truck", "image_url": "https://s3-media2.fl.yelpcdn.com/bphoto/r7QRORfe9UYVS7GGzUm9DQ/o.jpg", "is_closed": false, "url": "https://www.yelp.com/biz/shuckin-truck-narragansett-2?adjust_creative=pzvBKuEUl0Vl1jtHQqJaog&utm_campaign=yelp_api_v3&utm_medium=api_v3_business_search&utm_source=pzvBKuEUl0Vl1jtHQqJaog", "review_count": 24, "categories": [{"alias": "foodtrucks", "title": "Food Trucks"}, {"alias": "seafood", "title": "Seafood"}], "rating": 4.5, "coordinates": {"latitude": 41.4274482727051, "longitude": -71.4597778320313}, "transactions": [], "price": "$$", "location": {"address1": "", "address2": "", "address3": "", "city": "Narragansett", "zip_code": "02882", "country": "US", "state": "RI", "display_address": ["Narragansett, RI 02882"]}, "phone": "+14017415953", "display_phone": "(401) 741-5953", "distance": 61498.43879041125}, {"id": "usP9czUkDGcyC7CSseiMdw", "alias": "shuck-food-truck-boston-2", "name": "Shuck Food Truck", "image_url": "https://s3-media2.fl.yelpcdn.com/bphoto/vh62vEgAkPe1IC7D00fF2A/o.jpg", "is_closed": false, "url": "https://www.yelp.com/biz/shuck-food-truck-boston-2?adjust_creative=pzvBKuEUl0Vl1jtHQqJaog&utm_campaign=yelp_api_v3&utm_medium=api_v3_business_search&utm_source=pzvBKuEUl0Vl1jtHQqJaog", "review_count": 27, "categories": [{"alias": "foodtrucks", "title": "Food Trucks"}, {"alias": "seafood", "title": "Seafood"}, {"alias": "tradamerican", "title": "American (Traditional)"}], "rating": 4.5, "coordinates": {"latitude": 42.64758, "longitude": -71.32212}, "transactions": [], "location": {"address1": "", "address2": "", "address3": null, "city": "Boston", "zip_code": "01854", "country": "US", "state": "MA", "display_address": ["Boston, MA 01854"]}, "phone": "+19789446618", "display_phone": "(978) 944-6618", "distance": 77646.97317234705}, {"id": "324pp6avrBFbzw059DoHsA", "alias": "roadies-raleigh", "name": "Roadies", "image_url": "https://s3-media2.fl.yelpcdn.com/bphoto/3zJZmmgIOYrfKoAOp9Du1w/o.jpg", "is_closed": false, "url": "https://www.yelp.com/biz/roadies-raleigh?adjust_creative=pzvBKuEUl0Vl1jtHQqJaog&utm_campaign=yelp_api_v3&utm_medium=api_v3_business_search&utm_source=pzvBKuEUl0Vl1jtHQqJaog", "review_count": 10, "categories": [{"alias": "foodtrucks", "title": "Food Trucks"}, {"alias": "seafood", "title": "Seafood"}], "rating": 4.5, "coordinates": {"latitude": 35.67575, "longitude": -78.66424}, "transactions": [], "price": "$", "location": {"address1": "", "address2": null, "address3": "", "city": "Raleigh", "zip_code": "27603", "country": "US", "state": "NC", "display_address": ["Raleigh, NC 27603"]}, "phone": "+13476136489", "display_phone": "(347) 613-6489", "distance": 937939.353337901}]