[{"id": "wqQ-cLMbLmxzc_p4jjDSxw", "alias": "the-old-creamery-cummington-2", "name": "The Old Creamery", "image_url": "https://s3-media3.fl.yelpcdn.com/bphoto/suPv8fzXhQdsR8elaUVfzg/o.jpg", "is_closed": false, "url": "https://www.yelp.com/biz/the-old-creamery-cummington-2?adjust_creative=HdhkN5EEH6lAqE3kwhsHEQ&utm_campaign=yelp_api_v3&utm_medium=api_v3_business_search&utm_source=HdhkN5EEH6lAqE3kwhsHEQ", "review_count": 31, "categories": [{"alias": "grocery", "title": "Grocery"}, {"alias": "bakeries", "title": "Bakeries"}, {"alias": "sandwiches", "title": "Sandwiches"}], "rating": 4.5, "coordinates": {"latitude": 42.464115, "longitude": -72.90535}, "transactions": [], "price": "$$", "location": {"address1": "445 Berkshire Trl", "address2": "", "address3": "", "city": "Cummington", "zip_code": "01026", "country": "US", "state": "MA", "display_address": ["445 Berkshire Trl", "Cummington, MA 01026"]}, "phone": "+14136345560", "display_phone": "(413) 634-5560", "distance": 1424.3652887682579}, {"id": "IRDbtfi_STNrrinh1V3csg", "alias": "the-rabbit-hole-worthington-3", "name": "The Rabbit Hole", "image_url": "https://s3-media1.fl.yelpcdn.com/bphoto/EdhUcHZXdrg_qRpOyqAsSw/o.jpg", "is_closed": false, "url": "https://www.yelp.com/biz/the-rabbit-hole-worthington-3?adjust_creative=HdhkN5EEH6lAqE3kwhsHEQ&utm_campaign=yelp_api_v3&utm_medium=api_v3_business_search&utm_source=HdhkN5EEH6lAqE3kwhsHEQ", "review_count": 5, "categories": [{"alias": "newamerican", "title": "American (New)"}], "rating": 4.0, "coordinates": {"latitude": 42.40078, "longitude": -72.93759}, "transactions": [], "location": {"address1": "144 Huntington Rd", "address2": null, "address3": "", "city": "Worthington", "zip_code": "01098", "country": "US", "state": "MA", "display_address": ["144 Huntington Rd", "Worthington, MA 01098"]}, "phone": "+14132380144", "display_phone": "(413) 238-0144", "distance": 7889.110042305446}, {"id": "Hz8ENDohZ-ZY2MooPz8-Eg", "alias": "spruce-corner-restaurant-goshen", "name": "Spruce Corner Restaurant", "image_url": "https://s3-media3.fl.yelpcdn.com/bphoto/Vf9B0rulKSpqtTS-E_lQrA/o.jpg", "is_closed": false, "url": "https://www.yelp.com/biz/spruce-corner-restaurant-goshen?adjust_creative=HdhkN5EEH6lAqE3kwhsHEQ&utm_campaign=yelp_api_v3&utm_medium=api_v3_business_search&utm_source=HdhkN5EEH6lAqE3kwhsHEQ", "review_count": 11, "categories": [{"alias": "tradamerican", "title": "American (Traditional)"}], "rating": 4.0, "coordinates": {"latitude": 42.45618, "longitude": -72.832747}, "transactions": [], "price": "$$", "location": {"address1": "188 Berkshire Trl W", "address2": "", "address3": "", "city": "Goshen", "zip_code": "01032", "country": "US", "state": "MA", "display_address": ["188 Berkshire Trl W", "Goshen, MA 01032"]}, "phone": "+14132683188", "display_phone": "(413) 268-3188", "distance": 7363.454479278864}, {"id": "rCi5XRAlbjFJBD05OWfR1A", "alias": "velvet-restaurant-worthington-2", "name": "Velvet Restaurant", "image_url": "https://s3-media3.fl.yelpcdn.com/bphoto/UlVYHq_A04HTAXFdC6ALBA/o.jpg", "is_closed": false, "url": "https://www.yelp.com/biz/velvet-restaurant-worthington-2?adjust_creative=HdhkN5EEH6lAqE3kwhsHEQ&utm_campaign=yelp_api_v3&utm_medium=api_v3_business_search&utm_source=HdhkN5EEH6lAqE3kwhsHEQ", "review_count": 6, "categories": [{"alias": "bars", "title": "Bars"}, {"alias": "newamerican", "title": "American (New)"}], "rating": 4.0, "coordinates": {"latitude": 42.40855, "longitude": -72.94236}, "transactions": [], "location": {"address1": "113 Ridge Rd", "address2": null, "address3": "", "city": "Worthington", "zip_code": "01098", "country": "US", "state": "MA", "display_address": ["113 Ridge Rd", "Worthington, MA 01098"]}, "phone": "+14132384492", "display_phone": "(413) 238-4492", "distance": 7123.700317179531}, {"id": "aw0FDqkiYDIE33KmHW7YHQ", "alias": "listons-bar-and-grill-worthington", "name": "Listons Bar & Grill", "image_url": "https://s3-media2.fl.yelpcdn.com/bphoto/Zw2va6P_vOdum1skN8J6cQ/o.jpg", "is_closed": false, "url": "https://www.yelp.com/biz/listons-bar-and-grill-worthington?adjust_creative=HdhkN5EEH6lAqE3kwhsHEQ&utm_campaign=yelp_api_v3&utm_medium=api_v3_business_search&utm_source=HdhkN5EEH6lAqE3kwhsHEQ", "review_count": 7, "categories": [{"alias": "sportsbars", "title": "Sports Bars"}, {"alias": "tradamerican", "title": "American (Traditional)"}], "rating": 4.5, "coordinates": {"latitude": 42.42713, "longitude": -72.95322}, "transactions": [], "location": {"address1": "324 Old North Rd Rte 143", "address2": "", "address3": null, "city": "Worthington", "zip_code": "01098", "country": "US", "state": "MA", "display_address": ["324 Old North Rd Rte 143", "Worthington, MA 01098"]}, "phone": "+14132385353", "display_phone": "(413) 238-5353", "distance": 5491.208459040299}, {"id": "jwLPIWGACP3mDVqh-mflQw", "alias": "the-blue-rock-shelburne-falls-3", "name": "The Blue Rock", "image_url": "https://s3-media4.fl.yelpcdn.com/bphoto/-WTcjD8LT2yr9p1hu191fw/o.jpg", "is_closed": false, "url": "https://www.yelp.com/biz/the-blue-rock-shelburne-falls-3?adjust_creative=HdhkN5EEH6lAqE3kwhsHEQ&utm_campaign=yelp_api_v3&utm_medium=api_v3_business_search&utm_source=HdhkN5EEH6lAqE3kwhsHEQ", "review_count": 45, "categories": [{"alias": "newamerican", "title": "American (New)"}, {"alias": "cocktailbars", "title": "Cocktail Bars"}, {"alias": "beerbar", "title": "Beer Bar"}], "rating": 4.5, "coordinates": {"latitude": 42.6031535, "longitude": -72.7412502}, "transactions": [], "price": "$$", "location": {"address1": "1 Ashfield St", "address2": null, "address3": "", "city": "Shelburne Falls", "zip_code": "01370", "country": "US", "state": "MA", "display_address": ["1 Ashfield St", "Shelburne Falls, MA 01370"]}, "phone": "+14136258133", "display_phone": "(413) 625-8133", "distance": 20707.655005279474}, {"id": "1FDg-B7ddSPoZirUJXsdtQ", "alias": "the-ashfield-lake-house-ashfield", "name": "The Ashfield Lake House", "image_url": "https://s3-media4.fl.yelpcdn.com/bphoto/YK6BItbmmR7rbQZzniZojQ/o.jpg", "is_closed": false, "url": "https://www.yelp.com/biz/the-ashfield-lake-house-ashfield?adjust_creative=HdhkN5EEH6lAqE3kwhsHEQ&utm_campaign=yelp_api_v3&utm_medium=api_v3_business_search&utm_source=HdhkN5EEH6lAqE3kwhsHEQ", "review_count": 38, "categories": [{"alias": "bars", "title": "Bars"}, {"alias": "tradamerican", "title": "American (Traditional)"}, {"alias": "comfortfood", "title": "Comfort Food"}], "rating": 3.0, "coordinates": {"latitude": 42.53083, "longitude": -72.8026299}, "transactions": [], "price": "$$", "location": {"address1": "141 Buckland Rd", "address2": "", "address3": "", "city": "Ashfield", "zip_code": "01330", "country": "US", "state": "MA", "display_address": ["141 Buckland Rd", "Ashfield, MA 01330"]}, "phone": "+14136280158", "display_phone": "(413) 628-0158", "distance": 12009.638161203808}, {"id": "cjeDbBpMLrjHMIeqHwU_jg", "alias": "west-end-pub-shelburne-falls", "name": "West End Pub", "image_url": "https://s3-media4.fl.yelpcdn.com/bphoto/AAWFoSbAVa7VtXW6U7uLVQ/o.jpg", "is_closed": false, "url": "https://www.yelp.com/biz/west-end-pub-shelburne-falls?adjust_creative=HdhkN5EEH6lAqE3kwhsHEQ&utm_campaign=yelp_api_v3&utm_medium=api_v3_business_search&utm_source=HdhkN5EEH6lAqE3kwhsHEQ", "review_count": 101, "categories": [{"alias": "tradamerican", "title": "American (Traditional)"}, {"alias": "pubs", "title": "Pubs"}, {"alias": "burgers", "title": "Burgers"}], "rating": 4.0, "coordinates": {"latitude": 42.603919, "longitude": -72.7413603}, "transactions": [], "price": "$$", "location": {"address1": "16 State St", "address2": "", "address3": "", "city": "Shelburne Falls", "zip_code": "01370", "country": "US", "state": "MA", "display_address": ["16 State St", "Shelburne Falls, MA 01370"]}, "phone": "+14136256216", "display_phone": "(413) 625-6216", "distance": 20859.63136194453}, {"id": "JIUMuy58yl_k85Y_Fig7LQ", "alias": "el-sotano-shelburne", "name": "El Sotano", "image_url": "https://s3-media2.fl.yelpcdn.com/bphoto/CRDJumiKXIQXUhF2PlMGlA/o.jpg", "is_closed": false, "url": "https://www.yelp.com/biz/el-sotano-shelburne?adjust_creative=HdhkN5EEH6lAqE3kwhsHEQ&utm_campaign=yelp_api_v3&utm_medium=api_v3_business_search&utm_source=HdhkN5EEH6lAqE3kwhsHEQ", "review_count": 25, "categories": [{"alias": "mexican", "title": "Mexican"}], "rating": 4.5, "coordinates": {"latitude": 42.603818, "longitude": -72.739733}, "transactions": [], "location": {"address1": "10 Bridge St", "address2": null, "address3": "", "city": "Shelburne", "zip_code": "01370", "country": "US", "state": "MA", "display_address": ["10 Bridge St", "Shelburne, MA 01370"]}, "phone": "+14134893754", "display_phone": "(413) 489-3754", "distance": 20945.2132192641}, {"id": "FzEewR1sdPRNgIqTvxfh7Q", "alias": "haflinger-haus-restaurant-tavern-and-inn-adams", "name": "Haflinger Haus Restaurant Tavern & Inn", "image_url": "https://s3-media2.fl.yelpcdn.com/bphoto/mNj8-QpVU52UbZt8wOqZ8A/o.jpg", "is_closed": false, "url": "https://www.yelp.com/biz/haflinger-haus-restaurant-tavern-and-inn-adams?adjust_creative=HdhkN5EEH6lAqE3kwhsHEQ&utm_campaign=yelp_api_v3&utm_medium=api_v3_business_search&utm_source=HdhkN5EEH6lAqE3kwhsHEQ", "review_count": 40, "categories": [{"alias": "austrian", "title": "Austrian"}, {"alias": "tradamerican", "title": "American (Traditional)"}], "rating": 4.0, "coordinates": {"latitude": 42.618738, "longitude": -73.121827}, "transactions": [], "price": "$$", "location": {"address1": "17 Commercial St", "address2": null, "address3": "", "city": "Adams", "zip_code": "01220", "country": "US", "state": "MA", "display_address": ["17 Commercial St", "Adams, MA 01220"]}, "phone": "+14137432221", "display_phone": "(413) 743-2221", "distance": 23295.521914546003}, {"id": "oLM42PUJliWpu1_UN-G1fQ", "alias": "hearty-eats-shelburne-falls", "name": "Hearty Eats", "image_url": "https://s3-media4.fl.yelpcdn.com/bphoto/wjyt8KlfCKutpxkYg6F70Q/o.jpg", "is_closed": false, "url": "https://www.yelp.com/biz/hearty-eats-shelburne-falls?adjust_creative=HdhkN5EEH6lAqE3kwhsHEQ&utm_campaign=yelp_api_v3&utm_medium=api_v3_business_search&utm_source=HdhkN5EEH6lAqE3kwhsHEQ", "review_count": 79, "categories": [{"alias": "fishnchips", "title": "Fish & Chips"}, {"alias": "noodles", "title": "Noodles"}, {"alias": "indpak", "title": "Indian"}], "rating": 4.5, "coordinates": {"latitude": 42.6036331, "longitude": -72.7393198}, "transactions": [], "price": "$$", "location": {"address1": "24 Bridge St", "address2": null, "address3": "", "city": "Shelburne Falls", "zip_code": "01370", "country": "US", "state": "MA", "display_address": ["24 Bridge St", "Shelburne Falls, MA 01370"]}, "phone": "+14136256460", "display_phone": "(413) 625-6460", "distance": 20955.08229220153}, {"id": "NE3t2ECJh8NDDsUbrlhwYQ", "alias": "mollisons-windy-hill-sugar-shack-worthington", "name": "Mollison's Windy Hill Sugar Shack", "image_url": "https://s3-media4.fl.yelpcdn.com/bphoto/4qQPuYhpx4YYjIR2a6o29A/o.jpg", "is_closed": false, "url": "https://www.yelp.com/biz/mollisons-windy-hill-sugar-shack-worthington?adjust_creative=HdhkN5EEH6lAqE3kwhsHEQ&utm_campaign=yelp_api_v3&utm_medium=api_v3_business_search&utm_source=HdhkN5EEH6lAqE3kwhsHEQ", "review_count": 2, "categories": [{"alias": "breakfast_brunch", "title": "Breakfast & Brunch"}], "rating": 4.5, "coordinates": {"latitude": 42.394454581771, "longitude": -72.9491633361976}, "transactions": [], "price": "$", "location": {"address1": "1 W Sam Hill Rd", "address2": "", "address3": "", "city": "Worthington", "zip_code": "01098", "country": "US", "state": "MA", "display_address": ["1 W Sam Hill Rd", "Worthington, MA 01098"]}, "phone": "+14132385869", "display_phone": "(413) 238-5869", "distance": 8782.984241015934}, {"id": "6E4Wd60NQcqPCGYtiKvbWg", "alias": "gypsy-apple-bistro-shelburne-falls", "name": "Gypsy Apple Bistro", "image_url": "https://s3-media4.fl.yelpcdn.com/bphoto/KyaQbCFI5yX1AnN-9q-bIg/o.jpg", "is_closed": false, "url": "https://www.yelp.com/biz/gypsy-apple-bistro-shelburne-falls?adjust_creative=HdhkN5EEH6lAqE3kwhsHEQ&utm_campaign=yelp_api_v3&utm_medium=api_v3_business_search&utm_source=HdhkN5EEH6lAqE3kwhsHEQ", "review_count": 37, "categories": [{"alias": "french", "title": "French"}, {"alias": "bars", "title": "Bars"}], "rating": 4.5, "coordinates": {"latitude": 42.6034651, "longitude": -72.7377135}, "transactions": [], "price": "$$$", "location": {"address1": "65 Bridge St", "address2": "", "address3": "", "city": "Shelburne Falls", "zip_code": "01370", "country": "US", "state": "MA", "display_address": ["65 Bridge St", "Shelburne Falls, MA 01370"]}, "phone": "+14136256345", "display_phone": "(413) 625-6345", "distance": 21003.471578265664}, {"id": "rHXDd-R9ztUJxKRMj2Ziqw", "alias": "goshen-snack-bar-williamsburg", "name": "Goshen Snack Bar", "image_url": "", "is_closed": false, "url": "https://www.yelp.com/biz/goshen-snack-bar-williamsburg?adjust_creative=HdhkN5EEH6lAqE3kwhsHEQ&utm_campaign=yelp_api_v3&utm_medium=api_v3_business_search&utm_source=HdhkN5EEH6lAqE3kwhsHEQ", "review_count": 1, "categories": [{"alias": "hotdogs", "title": "Fast Food"}], "rating": 5.0, "coordinates": {"latitude": 42.443226, "longitude": -72.815647}, "transactions": [], "location": {"address1": "47 Ball Rd", "address2": null, "address3": null, "city": "Williamsburg", "zip_code": "01096", "country": "US", "state": "MA", "display_address": ["47 Ball Rd", "Williamsburg, MA 01096"]}, "phone": "+14132689240", "display_phone": "(413) 268-9240", "distance": 9112.731420979591}, {"id": "cSqUvTVIVcf0SxF2OnzQ4A", "alias": "delicatesse-shelburne-falls", "name": "Delicatesse", "image_url": "https://s3-media3.fl.yelpcdn.com/bphoto/QwYRU6Kwi9XUtW7cU1TMyw/o.jpg", "is_closed": false, "url": "https://www.yelp.com/biz/delicatesse-shelburne-falls?adjust_creative=HdhkN5EEH6lAqE3kwhsHEQ&utm_campaign=yelp_api_v3&utm_medium=api_v3_business_search&utm_source=HdhkN5EEH6lAqE3kwhsHEQ", "review_count": 15, "categories": [{"alias": "delis", "title": "Delis"}, {"alias": "cafes", "title": "Cafes"}, {"alias": "bagels", "title": "Bagels"}], "rating": 5.0, "coordinates": {"latitude": 42.6037749, "longitude": -72.7402612}, "transactions": [], "location": {"address1": "8 Bridge St", "address2": "", "address3": null, "city": "Shelburne Falls", "zip_code": "01370", "country": "US", "state": "MA", "display_address": ["8 Bridge St", "Shelburne Falls, MA 01370"]}, "phone": "+14134893257", "display_phone": "(413) 489-3257", "distance": 20921.398311876612}, {"id": "wkIOjcec-3uGidfIXcOpJA", "alias": "elmers-store-restaurant-ashfield", "name": "Elmer's Store Restaurant", "image_url": "https://s3-media3.fl.yelpcdn.com/bphoto/2AgISV-Z2E7y_ISdmkzroA/o.jpg", "is_closed": false, "url": "https://www.yelp.com/biz/elmers-store-restaurant-ashfield?adjust_creative=HdhkN5EEH6lAqE3kwhsHEQ&utm_campaign=yelp_api_v3&utm_medium=api_v3_business_search&utm_source=HdhkN5EEH6lAqE3kwhsHEQ", "review_count": 45, "categories": [{"alias": "breakfast_brunch", "title": "Breakfast & Brunch"}, {"alias": "bars", "title": "Bars"}], "rating": 4.0, "coordinates": {"latitude": 42.5261756, "longitude": -72.7924932}, "transactions": [], "price": "$$", "location": {"address1": "396 Main St", "address2": null, "address3": "", "city": "Ashfield", "zip_code": "01330", "country": "US", "state": "MA", "display_address": ["396 Main St", "Ashfield, MA 01330"]}, "phone": "+14136284003", "display_phone": "(413) 628-4003", "distance": 12174.14488831278}, {"id": "E0BNgyLQy3WUwFSnMLaQpA", "alias": "high-hopes-farm-worthington", "name": "High Hopes Farm", "image_url": "https://s3-media2.fl.yelpcdn.com/bphoto/VlgVhYdSvdonXZaV59JGtQ/o.jpg", "is_closed": false, "url": "https://www.yelp.com/biz/high-hopes-farm-worthington?adjust_creative=HdhkN5EEH6lAqE3kwhsHEQ&utm_campaign=yelp_api_v3&utm_medium=api_v3_business_search&utm_source=HdhkN5EEH6lAqE3kwhsHEQ", "review_count": 4, "categories": [{"alias": "breakfast_brunch", "title": "Breakfast & Brunch"}], "rating": 5.0, "coordinates": {"latitude": 42.3418042, "longitude": -72.8882095}, "transactions": [], "price": "$$", "location": {"address1": "1132 Huntington Rd", "address2": "", "address3": "", "city": "Worthington", "zip_code": "01098", "country": "US", "state": "MA", "display_address": ["1132 Huntington Rd", "Worthington, MA 01098"]}, "phone": "+14132385919", "display_phone": "(413) 238-5919", "distance": 14543.032241531755}, {"id": "b4-4eClP0ksWjfBUMkI1-A", "alias": "becket-general-store-becket-2", "name": "Becket General Store", "image_url": "https://s3-media2.fl.yelpcdn.com/bphoto/O1QiC8MXq3W-AcqbU7FaFQ/o.jpg", "is_closed": false, "url": "https://www.yelp.com/biz/becket-general-store-becket-2?adjust_creative=HdhkN5EEH6lAqE3kwhsHEQ&utm_campaign=yelp_api_v3&utm_medium=api_v3_business_search&utm_source=HdhkN5EEH6lAqE3kwhsHEQ", "review_count": 11, "categories": [{"alias": "breakfast_brunch", "title": "Breakfast & Brunch"}, {"alias": "pizza", "title": "Pizza"}, {"alias": "bars", "title": "Bars"}], "rating": 4.5, "coordinates": {"latitude": 42.3275317514641, "longitude": -73.0836283305567}, "transactions": [], "location": {"address1": "3235 Main St", "address2": "", "address3": null, "city": "Becket", "zip_code": "01223", "country": "US", "state": "MA", "display_address": ["3235 Main St", "Becket, MA 01223"]}, "phone": "+14136236026", "display_phone": "(413) 623-6026", "distance": 20797.310493872144}, {"id": "_9sO066L6e1kjQRf2jzd7g", "alias": "countrypie-pizza-company-ashfield", "name": "Countrypie Pizza Company", "image_url": "https://s3-media2.fl.yelpcdn.com/bphoto/YIZ24sof1VTPO1xtqCK6cg/o.jpg", "is_closed": false, "url": "https://www.yelp.com/biz/countrypie-pizza-company-ashfield?adjust_creative=HdhkN5EEH6lAqE3kwhsHEQ&utm_campaign=yelp_api_v3&utm_medium=api_v3_business_search&utm_source=HdhkN5EEH6lAqE3kwhsHEQ", "review_count": 30, "categories": [{"alias": "pizza", "title": "Pizza"}], "rating": 4.5, "coordinates": {"latitude": 42.526902, "longitude": -72.794253}, "transactions": [], "price": "$", "location": {"address1": "343 Main St", "address2": "", "address3": "", "city": "Ashfield", "zip_code": "01330", "country": "US", "state": "MA", "display_address": ["343 Main St", "Ashfield, MA 01330"]}, "phone": "+14136284488", "display_phone": "(413) 628-4488", "distance": 12093.044941366385}, {"id": "5pMuo6RdZ6JZF0E_Dl1eDQ", "alias": "home-club-hinsdale", "name": "Home Club", "image_url": "", "is_closed": false, "url": "https://www.yelp.com/biz/home-club-hinsdale?adjust_creative=HdhkN5EEH6lAqE3kwhsHEQ&utm_campaign=yelp_api_v3&utm_medium=api_v3_business_search&utm_source=HdhkN5EEH6lAqE3kwhsHEQ", "review_count": 1, "categories": [{"alias": "restaurants", "title": "Restaurants"}], "rating": 5.0, "coordinates": {"latitude": 42.4343329668045, "longitude": -73.1187625229359}, "transactions": [], "price": "$", "location": {"address1": "213 South St", "address2": "", "address3": "", "city": "Hinsdale", "zip_code": "01235", "country": "US", "state": "MA", "display_address": ["213 South St", "Hinsdale, MA 01235"]}, "phone": "+14136550167", "display_phone": "(413) 655-0167", "distance": 16756.606790636335}, {"id": "q_XWxF3s5hTEnPiLbgmzjQ", "alias": "ajs-trailside-pub-adams", "name": "AJs trailside pub", "image_url": "https://s3-media2.fl.yelpcdn.com/bphoto/3soC_sfncbguc2LWX6Y1UQ/o.jpg", "is_closed": false, "url": "https://www.yelp.com/biz/ajs-trailside-pub-adams?adjust_creative=HdhkN5EEH6lAqE3kwhsHEQ&utm_campaign=yelp_api_v3&utm_medium=api_v3_business_search&utm_source=HdhkN5EEH6lAqE3kwhsHEQ", "review_count": 5, "categories": [{"alias": "tradamerican", "title": "American (Traditional)"}, {"alias": "pubs", "title": "Pubs"}], "rating": 3.0, "coordinates": {"latitude": 42.6217931885812, "longitude": -73.1190310791135}, "transactions": [], "location": {"address1": "12 Pleasant St", "address2": "", "address3": null, "city": "Adams", "zip_code": "01220", "country": "US", "state": "MA", "display_address": ["12 Pleasant St", "Adams, MA 01220"]}, "phone": "+14137437831", "display_phone": "(413) 743-7831", "distance": 23403.61268971421}, {"id": "GrjITzOl6sPP8DSv1RWxnw", "alias": "baked-shelburne-falls", "name": "Baked", "image_url": "https://s3-media4.fl.yelpcdn.com/bphoto/d3lzR8hA5CWajBKGBPND2A/o.jpg", "is_closed": false, "url": "https://www.yelp.com/biz/baked-shelburne-falls?adjust_creative=HdhkN5EEH6lAqE3kwhsHEQ&utm_campaign=yelp_api_v3&utm_medium=api_v3_business_search&utm_source=HdhkN5EEH6lAqE3kwhsHEQ", "review_count": 42, "categories": [{"alias": "cafes", "title": "Cafes"}, {"alias": "breakfast_brunch", "title": "Breakfast & Brunch"}, {"alias": "bakeries", "title": "Bakeries"}], "rating": 4.0, "coordinates": {"latitude": 42.6032697149586, "longitude": -72.7398762962963}, "transactions": [], "price": "$", "location": {"address1": "4 Deerfield Ave", "address2": "", "address3": null, "city": "Shelburne Falls", "zip_code": "01370", "country": "US", "state": "MA", "display_address": ["4 Deerfield Ave", "Shelburne Falls, MA 01370"]}, "phone": "+14134893139", "display_phone": "(413) 489-3139", "distance": 20894.29645388964}, {"id": "0xEKvNlbiPjEpNXeX02LJA", "alias": "buckland-pizza-shelburne-falls", "name": "Buckland Pizza", "image_url": "https://s3-media2.fl.yelpcdn.com/bphoto/n1hVQ3vVJQjfRA_Nfzt3og/o.jpg", "is_closed": false, "url": "https://www.yelp.com/biz/buckland-pizza-shelburne-falls?adjust_creative=HdhkN5EEH6lAqE3kwhsHEQ&utm_campaign=yelp_api_v3&utm_medium=api_v3_business_search&utm_source=HdhkN5EEH6lAqE3kwhsHEQ", "review_count": 22, "categories": [{"alias": "pizza", "title": "Pizza"}], "rating": 3.5, "coordinates": {"latitude": 42.6038289562622, "longitude": -72.7414358539614}, "transactions": [], "price": "$$", "location": {"address1": "13 State St", "address2": "", "address3": "", "city": "Shelburne Falls", "zip_code": "01370", "country": "US", "state": "MA", "display_address": ["13 State St", "Shelburne Falls, MA 01370"]}, "phone": "+14136256342", "display_phone": "(413) 625-6342", "distance": 20830.79182875073}, {"id": "bcJyzsejMPVlVLCjFJJDfw", "alias": "corner-lunch-adams", "name": "Corner Lunch", "image_url": "https://s3-media3.fl.yelpcdn.com/bphoto/cYVpOToipW6un16LK7S1FQ/o.jpg", "is_closed": false, "url": "https://www.yelp.com/biz/corner-lunch-adams?adjust_creative=HdhkN5EEH6lAqE3kwhsHEQ&utm_campaign=yelp_api_v3&utm_medium=api_v3_business_search&utm_source=HdhkN5EEH6lAqE3kwhsHEQ", "review_count": 5, "categories": [{"alias": "newamerican", "title": "American (New)"}], "rating": 4.0, "coordinates": {"latitude": 42.62182, "longitude": -73.11519}, "transactions": [], "price": "$", "location": {"address1": "50 Summer St", "address2": "", "address3": "", "city": "Adams", "zip_code": "01220", "country": "US", "state": "MA", "display_address": ["50 Summer St", "Adams, MA 01220"]}, "phone": "+14137439725", "display_phone": "(413) 743-9725", "distance": 23188.437201828383}, {"id": "YbZg252i3vJ9wmf-gsgUog", "alias": "panda-garden-williamsburg", "name": "Panda Garden", "image_url": "https://s3-media1.fl.yelpcdn.com/bphoto/GR__trIJi5zuhynUKh7owA/o.jpg", "is_closed": false, "url": "https://www.yelp.com/biz/panda-garden-williamsburg?adjust_creative=HdhkN5EEH6lAqE3kwhsHEQ&utm_campaign=yelp_api_v3&utm_medium=api_v3_business_search&utm_source=HdhkN5EEH6lAqE3kwhsHEQ", "review_count": 29, "categories": [{"alias": "chinese", "title": "Chinese"}], "rating": 3.0, "coordinates": {"latitude": 42.4294774979353, "longitude": -72.7925515919924}, "transactions": ["pickup", "delivery"], "price": "$$", "location": {"address1": "49 Main St", "address2": "", "address3": "", "city": "Williamsburg", "zip_code": "01096", "country": "US", "state": "MA", "display_address": ["49 Main St", "Williamsburg, MA 01096"]}, "phone": "+14132688811", "display_phone": "(413) 268-8811", "distance": 18638.020745704733}, {"id": "7V3RX-SPaYFt5aytErDK0g", "alias": "the-red-bucket-sugar-shack-worthington", "name": "The Red Bucket Sugar Shack", "image_url": "https://s3-media4.fl.yelpcdn.com/bphoto/dbHPKnAevuDhxLkRQIYEDw/o.jpg", "is_closed": false, "url": "https://www.yelp.com/biz/the-red-bucket-sugar-shack-worthington?adjust_creative=HdhkN5EEH6lAqE3kwhsHEQ&utm_campaign=yelp_api_v3&utm_medium=api_v3_business_search&utm_source=HdhkN5EEH6lAqE3kwhsHEQ", "review_count": 9, "categories": [{"alias": "breakfast_brunch", "title": "Breakfast & Brunch"}, {"alias": "tradamerican", "title": "American (Traditional)"}], "rating": 4.0, "coordinates": {"latitude": 42.344486, "longitude": -72.919398}, "transactions": [], "price": "$", "location": {"address1": "584 Kinnebrook Rd", "address2": "", "address3": "", "city": "Worthington", "zip_code": "01098", "country": "US", "state": "MA", "display_address": ["584 Kinnebrook Rd", "Worthington, MA 01098"]}, "phone": "+14132387710", "display_phone": "(413) 238-7710", "distance": 14015.776459978331}, {"id": "TIm9N1EDtxj_WR95fwR5Ow", "alias": "a-1-hilltown-pizza-williamsburg", "name": "A-1 Hilltown Pizza", "image_url": "https://s3-media3.fl.yelpcdn.com/bphoto/SjPcoIjB8ZpuMJKMc9pyhw/o.jpg", "is_closed": false, "url": "https://www.yelp.com/biz/a-1-hilltown-pizza-williamsburg?adjust_creative=HdhkN5EEH6lAqE3kwhsHEQ&utm_campaign=yelp_api_v3&utm_medium=api_v3_business_search&utm_source=HdhkN5EEH6lAqE3kwhsHEQ", "review_count": 12, "categories": [{"alias": "pizza", "title": "Pizza"}], "rating": 3.5, "coordinates": {"latitude": 42.391134, "longitude": -72.724329}, "transactions": [], "price": "$$", "location": {"address1": "35 Main St", "address2": "", "address3": "", "city": "Williamsburg", "zip_code": "01096", "country": "US", "state": "MA", "display_address": ["35 Main St", "Williamsburg, MA 01096"]}, "phone": "+14132680202", "display_phone": "(413) 268-0202", "distance": 18353.21252010958}, {"id": "gf47Yv8PnATBDgkZ6rBI-w", "alias": "strawbale-cafe-westhampton-4", "name": "Strawbale Cafe", "image_url": "https://s3-media4.fl.yelpcdn.com/bphoto/Nvl_epjAp9rcnQwhjocLXg/o.jpg", "is_closed": false, "url": "https://www.yelp.com/biz/strawbale-cafe-westhampton-4?adjust_creative=HdhkN5EEH6lAqE3kwhsHEQ&utm_campaign=yelp_api_v3&utm_medium=api_v3_business_search&utm_source=HdhkN5EEH6lAqE3kwhsHEQ", "review_count": 30, "categories": [{"alias": "breakfast_brunch", "title": "Breakfast & Brunch"}, {"alias": "cafes", "title": "Cafes"}, {"alias": "bakeries", "title": "Bakeries"}], "rating": 4.5, "coordinates": {"latitude": 42.323103, "longitude": -72.754566}, "transactions": [], "price": "$$", "location": {"address1": "188 N Rd", "address2": "", "address3": "Hanging Mountain Farm", "city": "Westhampton", "zip_code": "01027", "country": "US", "state": "MA", "display_address": ["188 N Rd", "Hanging Mountain Farm", "Westhampton, MA 01027"]}, "phone": "+14135273210", "display_phone": "(413) 527-3210", "distance": 21310.455446397627}, {"id": "vie_fCh-eUqGfKNiNVjFow", "alias": "foxtown-diner-shelburne-falls", "name": "Foxtown Diner", "image_url": "https://s3-media2.fl.yelpcdn.com/bphoto/6w_uOYWUsL-1xZUOZtd9BA/o.jpg", "is_closed": false, "url": "https://www.yelp.com/biz/foxtown-diner-shelburne-falls?adjust_creative=HdhkN5EEH6lAqE3kwhsHEQ&utm_campaign=yelp_api_v3&utm_medium=api_v3_business_search&utm_source=HdhkN5EEH6lAqE3kwhsHEQ", "review_count": 35, "categories": [{"alias": "sandwiches", "title": "Sandwiches"}, {"alias": "breakfast_brunch", "title": "Breakfast & Brunch"}, {"alias": "burgers", "title": "Burgers"}], "rating": 4.0, "coordinates": {"latitude": 42.603473, "longitude": -72.739337}, "transactions": [], "price": "$", "location": {"address1": "25 Bridge St", "address2": "", "address3": "", "city": "Shelburne Falls", "zip_code": "01370", "country": "US", "state": "MA", "display_address": ["25 Bridge St", "Shelburne Falls, MA 01370"]}, "phone": "+14136256606", "display_phone": "(413) 625-6606", "distance": 20945.15727950721}, {"id": "pZ5Q3wPrBLmHXmV6LKlpcg", "alias": "mcdonalds-adams-4", "name": "McDonald's", "image_url": "https://s3-media2.fl.yelpcdn.com/bphoto/dPKXKZX9SRSCG9YORg2u7Q/o.jpg", "is_closed": false, "url": "https://www.yelp.com/biz/mcdonalds-adams-4?adjust_creative=HdhkN5EEH6lAqE3kwhsHEQ&utm_campaign=yelp_api_v3&utm_medium=api_v3_business_search&utm_source=HdhkN5EEH6lAqE3kwhsHEQ", "review_count": 2, "categories": [{"alias": "coffee", "title": "Coffee & Tea"}, {"alias": "burgers", "title": "Burgers"}, {"alias": "hotdogs", "title": "Fast Food"}], "rating": 2.0, "coordinates": {"latitude": 42.6198977, "longitude": -73.1200694}, "transactions": [], "price": "$", "location": {"address1": "2 Commercial St", "address2": null, "address3": null, "city": "Adams", "zip_code": "01220", "country": "US", "state": "MA", "display_address": ["2 Commercial St", "Adams, MA 01220"]}, "phone": "+14137434678", "display_phone": "(413) 743-4678", "distance": 23263.559067121987}, {"id": "qqA8YX58xnmEXLyanHfdUg", "alias": "stufd-food-truck-brooklyn", "name": "Stuf'd Food Truck", "image_url": "https://s3-media2.fl.yelpcdn.com/bphoto/_Wn0i-tLIOFinw8BPAqxPA/o.jpg", "is_closed": false, "url": "https://www.yelp.com/biz/stufd-food-truck-brooklyn?adjust_creative=HdhkN5EEH6lAqE3kwhsHEQ&utm_campaign=yelp_api_v3&utm_medium=api_v3_business_search&utm_source=HdhkN5EEH6lAqE3kwhsHEQ", "review_count": 4, "categories": [{"alias": "sandwiches", "title": "Sandwiches"}, {"alias": "foodtrucks", "title": "Food Trucks"}], "rating": 4.0, "coordinates": {"latitude": 40.7124539, "longitude": -73.9287374}, "transactions": [], "location": {"address1": "178 Varick Ave", "address2": "", "address3": null, "city": "Brooklyn", "zip_code": "11237", "country": "US", "state": "NY", "display_address": ["178 Varick Ave", "Brooklyn, NY 11237"]}, "phone": "+18457091808", "display_phone": "(845) 709-1808", "distance": 212711.27327726257}]