[{"id": "Tl4vnrf3G4sSXzpSgvKczQ", "alias": "tables-at-the-farm-palmer", "name": "Tables at the Farm", "image_url": "https://s3-media1.fl.yelpcdn.com/bphoto/gpx2Q9o1H7Ijnpc2GYyF5w/o.jpg", "is_closed": false, "url": "https://www.yelp.com/biz/tables-at-the-farm-palmer?adjust_creative=asslzE1UV0XuKI953B1vtw&utm_campaign=yelp_api_v3&utm_medium=api_v3_business_search&utm_source=asslzE1UV0XuKI953B1vtw", "review_count": 19, "categories": [{"alias": "breakfast_brunch", "title": "Breakfast & Brunch"}, {"alias": "tradamerican", "title": "American (Traditional)"}], "rating": 4.0, "coordinates": {"latitude": 42.192764, "longitude": -72.35028967}, "transactions": [], "location": {"address1": "3092 Palmer St", "address2": "Ma-181", "address3": "", "city": "Palmer", "zip_code": "01069", "country": "US", "state": "MA", "display_address": ["3092 Palmer St", "Ma-181", "Palmer, MA 01069"]}, "phone": "+14133242986", "display_phone": "(413) 324-2986", "distance": 1643.4783632697452}, {"id": "HQEBY4lEJxmn6G5tDYWEVg", "alias": "russos-lakeside-seafood-and-steakhouse-palmer", "name": "Russo's Lakeside Seafood & Steakhouse", "image_url": "https://s3-media3.fl.yelpcdn.com/bphoto/cE5L8cxQbGhT18yqnV8RWw/o.jpg", "is_closed": false, "url": "https://www.yelp.com/biz/russos-lakeside-seafood-and-steakhouse-palmer?adjust_creative=asslzE1UV0XuKI953B1vtw&utm_campaign=yelp_api_v3&utm_medium=api_v3_business_search&utm_source=asslzE1UV0XuKI953B1vtw", "review_count": 45, "categories": [{"alias": "seafood", "title": "Seafood"}, {"alias": "steak", "title": "Steakhouses"}], "rating": 4.0, "coordinates": {"latitude": 42.210545, "longitude": -72.307816}, "transactions": ["delivery", "pickup"], "price": "$$", "location": {"address1": "702 River St", "address2": "", "address3": "", "city": "Palmer", "zip_code": "01069", "country": "US", "state": "MA", "display_address": ["702 River St", "Palmer, MA 01069"]}, "phone": "+14132892360", "display_phone": "(413) 289-2360", "distance": 2560.771226291208}, {"id": "uAyUmojSQXzAhpTrOyF00A", "alias": "steaming-tender-restaurant-palmer", "name": "Steaming Tender Restaurant", "image_url": "https://s3-media4.fl.yelpcdn.com/bphoto/jSMFp3L69snOsgsKQWS5Cg/o.jpg", "is_closed": false, "url": "https://www.yelp.com/biz/steaming-tender-restaurant-palmer?adjust_creative=asslzE1UV0XuKI953B1vtw&utm_campaign=yelp_api_v3&utm_medium=api_v3_business_search&utm_source=asslzE1UV0XuKI953B1vtw", "review_count": 221, "categories": [{"alias": "tradamerican", "title": "American (Traditional)"}, {"alias": "bars", "title": "Bars"}, {"alias": "breakfast_brunch", "title": "Breakfast & Brunch"}], "rating": 4.0, "coordinates": {"latitude": 42.15578, "longitude": -72.3292}, "transactions": [], "price": "$$", "location": {"address1": "28 Depot St", "address2": "", "address3": "", "city": "Palmer", "zip_code": "01069", "country": "US", "state": "MA", "display_address": ["28 Depot St", "Palmer, MA 01069"]}, "phone": "+14132832744", "display_phone": "(413) 283-2744", "distance": 4247.385732642458}, {"id": "T04Zol_-RBaQowkVUSlWGw", "alias": "yummy-asian-cuisine-palmer", "name": "Yummy Asian cuisine", "image_url": "https://s3-media2.fl.yelpcdn.com/bphoto/_nUjtBsR4HG_B5HWhWqDaw/o.jpg", "is_closed": false, "url": "https://www.yelp.com/biz/yummy-asian-cuisine-palmer?adjust_creative=asslzE1UV0XuKI953B1vtw&utm_campaign=yelp_api_v3&utm_medium=api_v3_business_search&utm_source=asslzE1UV0XuKI953B1vtw", "review_count": 24, "categories": [{"alias": "asianfusion", "title": "Asian Fusion"}], "rating": 4.5, "coordinates": {"latitude": 42.15904, "longitude": -72.3289999}, "transactions": [], "price": "$$", "location": {"address1": "1033 Thorndike St", "address2": null, "address3": "", "city": "Palmer", "zip_code": "01069", "country": "US", "state": "MA", "display_address": ["1033 Thorndike St", "Palmer, MA 01069"]}, "phone": "+14132836888", "display_phone": "(413) 283-6888", "distance": 3945.243484757405}, {"id": "FhaArV8Sex3wL-Wyv6MQuw", "alias": "gin-mill-palmer", "name": "Gin Mill", "image_url": "https://s3-media1.fl.yelpcdn.com/bphoto/hzab8IojP7MVbmN__a9RtQ/o.jpg", "is_closed": false, "url": "https://www.yelp.com/biz/gin-mill-palmer?adjust_creative=asslzE1UV0XuKI953B1vtw&utm_campaign=yelp_api_v3&utm_medium=api_v3_business_search&utm_source=asslzE1UV0XuKI953B1vtw", "review_count": 11, "categories": [{"alias": "divebars", "title": "Dive Bars"}, {"alias": "tradamerican", "title": "American (Traditional)"}], "rating": 4.5, "coordinates": {"latitude": 42.213802, "longitude": -72.344717}, "transactions": [], "price": "$", "location": {"address1": "3095 Main St", "address2": "", "address3": "", "city": "Palmer", "zip_code": "01069", "country": "US", "state": "MA", "display_address": ["3095 Main St", "Palmer, MA 01069"]}, "phone": "+14132832014", "display_phone": "(413) 283-2014", "distance": 2527.141605300391}, {"id": "5XNM4ZhQAO64mQcEatrFpw", "alias": "angels-1376-palmer-restaurant-palmer", "name": "Angel's 1376 Palmer Restaurant", "image_url": "https://s3-media3.fl.yelpcdn.com/bphoto/1t1QlFaiIZlpnq_n4DQQzQ/o.jpg", "is_closed": false, "url": "https://www.yelp.com/biz/angels-1376-palmer-restaurant-palmer?adjust_creative=asslzE1UV0XuKI953B1vtw&utm_campaign=yelp_api_v3&utm_medium=api_v3_business_search&utm_source=asslzE1UV0XuKI953B1vtw", "review_count": 30, "categories": [{"alias": "breakfast_brunch", "title": "Breakfast & Brunch"}], "rating": 4.5, "coordinates": {"latitude": 42.1563998023598, "longitude": -72.3289753496647}, "transactions": [], "location": {"address1": "1376 Main St", "address2": "", "address3": null, "city": "Palmer", "zip_code": "01069", "country": "US", "state": "MA", "display_address": ["1376 Main St", "Palmer, MA 01069"]}, "phone": "+14132896956", "display_phone": "(413) 289-6956", "distance": 4187.6634290791035}, {"id": "QAYlKRxw_hdSe8PjkVbgrg", "alias": "alvin-rondeaus-dairy-bar-palmer", "name": "Alvin Rondeau's Dairy Bar", "image_url": "https://s3-media2.fl.yelpcdn.com/bphoto/P7hATNpoqavOsVP2iG9akg/o.jpg", "is_closed": false, "url": "https://www.yelp.com/biz/alvin-rondeaus-dairy-bar-palmer?adjust_creative=asslzE1UV0XuKI953B1vtw&utm_campaign=yelp_api_v3&utm_medium=api_v3_business_search&utm_source=asslzE1UV0XuKI953B1vtw", "review_count": 33, "categories": [{"alias": "foodstands", "title": "Food Stands"}, {"alias": "hotdog", "title": "Hot Dogs"}, {"alias": "seafood", "title": "Seafood"}], "rating": 4.0, "coordinates": {"latitude": 42.21143, "longitude": -72.3027}, "transactions": [], "price": "$", "location": {"address1": "1300 Ware St", "address2": "", "address3": "", "city": "Palmer", "zip_code": "01069", "country": "US", "state": "MA", "display_address": ["1300 Ware St", "Palmer, MA 01069"]}, "phone": "+14132835281", "display_phone": "(413) 283-5281", "distance": 2947.3449452902296}, {"id": "r_Zv8AQJ7V8_Bc5H275Zmw", "alias": "wen-ming-house-palmer", "name": "Wen Ming House", "image_url": "https://s3-media4.fl.yelpcdn.com/bphoto/_uqi-cjB7PvInUbkDJWcLQ/o.jpg", "is_closed": false, "url": "https://www.yelp.com/biz/wen-ming-house-palmer?adjust_creative=asslzE1UV0XuKI953B1vtw&utm_campaign=yelp_api_v3&utm_medium=api_v3_business_search&utm_source=asslzE1UV0XuKI953B1vtw", "review_count": 56, "categories": [{"alias": "sushi", "title": "Sushi Bars"}, {"alias": "chinese", "title": "Chinese"}, {"alias": "japanese", "title": "Japanese"}], "rating": 4.5, "coordinates": {"latitude": 42.1581185, "longitude": -72.3303866}, "transactions": [], "price": "$$", "location": {"address1": "1427 N Main St", "address2": "", "address3": "", "city": "Palmer", "zip_code": "01069", "country": "US", "state": "MA", "display_address": ["1427 N Main St", "Palmer, MA 01069"]}, "phone": "+14132896478", "display_phone": "(413) 289-6478", "distance": 3996.9478752666423}, {"id": "PDWsw_neHOTUg8EKhdW8IA", "alias": "apollo-1-pizza-palmer", "name": "Apollo 1 Pizza", "image_url": "https://s3-media4.fl.yelpcdn.com/bphoto/zafy9Uw4USWs6hZGoBxr1Q/o.jpg", "is_closed": false, "url": "https://www.yelp.com/biz/apollo-1-pizza-palmer?adjust_creative=asslzE1UV0XuKI953B1vtw&utm_campaign=yelp_api_v3&utm_medium=api_v3_business_search&utm_source=asslzE1UV0XuKI953B1vtw", "review_count": 42, "categories": [{"alias": "pizza", "title": "Pizza"}], "rating": 3.5, "coordinates": {"latitude": 42.163029, "longitude": -72.341228}, "transactions": [], "price": "$$", "location": {"address1": "1581 N Main St", "address2": "", "address3": "", "city": "Palmer", "zip_code": "01069", "country": "US", "state": "MA", "display_address": ["1581 N Main St", "Palmer, MA 01069"]}, "phone": "+14132839939", "display_phone": "(413) 283-9939", "distance": 3592.907326082653}, {"id": "B64xV_p3vrtrcyRoFK2DIQ", "alias": "burgundy-brook-cafe-three-rivers", "name": "Burgundy Brook Cafe", "image_url": "https://s3-media2.fl.yelpcdn.com/bphoto/RPDX7aqpoHYxn2gLVQ4OCw/o.jpg", "is_closed": false, "url": "https://www.yelp.com/biz/burgundy-brook-cafe-three-rivers?adjust_creative=asslzE1UV0XuKI953B1vtw&utm_campaign=yelp_api_v3&utm_medium=api_v3_business_search&utm_source=asslzE1UV0XuKI953B1vtw", "review_count": 100, "categories": [{"alias": "delis", "title": "Delis"}, {"alias": "sandwiches", "title": "Sandwiches"}, {"alias": "breakfast_brunch", "title": "Breakfast & Brunch"}], "rating": 3.5, "coordinates": {"latitude": 42.180909, "longitude": -72.363095}, "transactions": [], "price": "$$", "location": {"address1": "2048 Main St", "address2": null, "address3": null, "city": "Three Rivers", "zip_code": "01080", "country": "US", "state": "MA", "display_address": ["2048 Main St", "Three Rivers, MA 01080"]}, "phone": "+14132896359", "display_phone": "(413) 289-6359", "distance": 3128.7971181104513}, {"id": "5Cx_U0_NCW4GQfpeaf50rw", "alias": "radars-pub-three-rivers", "name": "Radar's Pub", "image_url": "https://s3-media1.fl.yelpcdn.com/bphoto/bygx9tBJhB56ciwwoDxBYw/o.jpg", "is_closed": false, "url": "https://www.yelp.com/biz/radars-pub-three-rivers?adjust_creative=asslzE1UV0XuKI953B1vtw&utm_campaign=yelp_api_v3&utm_medium=api_v3_business_search&utm_source=asslzE1UV0XuKI953B1vtw", "review_count": 3, "categories": [{"alias": "seafood", "title": "Seafood"}, {"alias": "sandwiches", "title": "Sandwiches"}, {"alias": "burgers", "title": "Burgers"}], "rating": 2.5, "coordinates": {"latitude": 42.180993, "longitude": -72.3629807308316}, "transactions": [], "location": {"address1": "2052 Main St", "address2": "", "address3": null, "city": "Three Rivers", "zip_code": "01080", "country": "US", "state": "MA", "display_address": ["2052 Main St", "Three Rivers, MA 01080"]}, "phone": "+14132836989", "display_phone": "(413) 283-6989", "distance": 3116.1096169714688}, {"id": "DeSyCZVRHBSBr1MUq34uQQ", "alias": "day-and-night-diner-palmer", "name": "Day & Night Diner", "image_url": "https://s3-media1.fl.yelpcdn.com/bphoto/e0MxzR5XQ_BYUKAcqEcy1g/o.jpg", "is_closed": false, "url": "https://www.yelp.com/biz/day-and-night-diner-palmer?adjust_creative=asslzE1UV0XuKI953B1vtw&utm_campaign=yelp_api_v3&utm_medium=api_v3_business_search&utm_source=asslzE1UV0XuKI953B1vtw", "review_count": 22, "categories": [{"alias": "diners", "title": "Diners"}], "rating": 3.0, "coordinates": {"latitude": 42.15815, "longitude": -72.3315}, "transactions": [], "price": "$", "location": {"address1": "1456 N Main St", "address2": "", "address3": "", "city": "Palmer", "zip_code": "01069", "country": "US", "state": "MA", "display_address": ["1456 N Main St", "Palmer, MA 01069"]}, "phone": "+14132834536", "display_phone": "(413) 283-4536", "distance": 3988.0018655020735}, {"id": "Fl_AW8AT7kHFFzDsTGwwvQ", "alias": "roadside-pizza-and-grinders-palmer", "name": "Roadside Pizza & Grinders", "image_url": "https://s3-media3.fl.yelpcdn.com/bphoto/hjglCEymUsObTMuhYn7ytA/o.jpg", "is_closed": false, "url": "https://www.yelp.com/biz/roadside-pizza-and-grinders-palmer?adjust_creative=asslzE1UV0XuKI953B1vtw&utm_campaign=yelp_api_v3&utm_medium=api_v3_business_search&utm_source=asslzE1UV0XuKI953B1vtw", "review_count": 19, "categories": [{"alias": "pizza", "title": "Pizza"}, {"alias": "burgers", "title": "Burgers"}, {"alias": "sandwiches", "title": "Sandwiches"}], "rating": 3.5, "coordinates": {"latitude": 42.1592066, "longitude": -72.3291096}, "transactions": [], "price": "$", "location": {"address1": "1037 Thorndike St", "address2": "", "address3": "", "city": "Palmer", "zip_code": "01069", "country": "US", "state": "MA", "display_address": ["1037 Thorndike St", "Palmer, MA 01069"]}, "phone": "+14132891111", "display_phone": "(413) 289-1111", "distance": 3875.4689567076507}, {"id": "mT-H7hC-8x0mMu7alu_InA", "alias": "jenny-chans-chinese-restaurant-palmer", "name": "Jenny Chan's Chinese Restaurant", "image_url": "", "is_closed": false, "url": "https://www.yelp.com/biz/jenny-chans-chinese-restaurant-palmer?adjust_creative=asslzE1UV0XuKI953B1vtw&utm_campaign=yelp_api_v3&utm_medium=api_v3_business_search&utm_source=asslzE1UV0XuKI953B1vtw", "review_count": 7, "categories": [{"alias": "chinese", "title": "Chinese"}], "rating": 1.5, "coordinates": {"latitude": 42.15904, "longitude": -72.3289999}, "transactions": [], "price": "$", "location": {"address1": "1033 Thorndike St", "address2": "", "address3": "", "city": "Palmer", "zip_code": "01069", "country": "US", "state": "MA", "display_address": ["1033 Thorndike St", "Palmer, MA 01069"]}, "phone": "+14132891008", "display_phone": "(413) 289-1008", "distance": 3945.243484757405}, {"id": "5iQpqjcmYJVWLR8gEUHqEg", "alias": "tang-chinese-restaurant-palmer", "name": "Tang Chinese Restaurant", "image_url": "https://s3-media4.fl.yelpcdn.com/bphoto/L7UePEGADkjZb2pPbS8IcA/o.jpg", "is_closed": false, "url": "https://www.yelp.com/biz/tang-chinese-restaurant-palmer?adjust_creative=asslzE1UV0XuKI953B1vtw&utm_campaign=yelp_api_v3&utm_medium=api_v3_business_search&utm_source=asslzE1UV0XuKI953B1vtw", "review_count": 12, "categories": [{"alias": "chinese", "title": "Chinese"}], "rating": 3.5, "coordinates": {"latitude": 42.162835, "longitude": -72.340593}, "transactions": [], "price": "$", "location": {"address1": "1581 N Main St", "address2": "", "address3": "", "city": "Palmer", "zip_code": "01069", "country": "US", "state": "MA", "display_address": ["1581 N Main St", "Palmer, MA 01069"]}, "phone": "+14132832988", "display_phone": "(413) 283-2988", "distance": 3589.732550094285}, {"id": "x7yFaf0pMFT-YVl_wEQF5w", "alias": "friendlys-palmer-2", "name": "Friendly's", "image_url": "https://s3-media3.fl.yelpcdn.com/bphoto/7hjR8G0ItbLVVEoI_EpXNQ/o.jpg", "is_closed": false, "url": "https://www.yelp.com/biz/friendlys-palmer-2?adjust_creative=asslzE1UV0XuKI953B1vtw&utm_campaign=yelp_api_v3&utm_medium=api_v3_business_search&utm_source=asslzE1UV0XuKI953B1vtw", "review_count": 32, "categories": [{"alias": "burgers", "title": "Burgers"}, {"alias": "icecream", "title": "Ice Cream & Frozen Yogurt"}, {"alias": "tradamerican", "title": "American (Traditional)"}], "rating": 2.5, "coordinates": {"latitude": 42.16064453125, "longitude": -72.3360443115234}, "transactions": [], "price": "$$", "location": {"address1": "1519 N Main St", "address2": "", "address3": "", "city": "Palmer", "zip_code": "01069", "country": "US", "state": "MA", "display_address": ["1519 N Main St", "Palmer, MA 01069"]}, "phone": "+14132837648", "display_phone": "(413) 283-7648", "distance": 3760.1467427630864}, {"id": "ylq0USkDk2_iHropwVHUww", "alias": "paramount-pizza-iii-palmer", "name": "Paramount Pizza III", "image_url": "https://s3-media1.fl.yelpcdn.com/bphoto/yYWMGT8h6YZnQ6mdTIpQvA/o.jpg", "is_closed": false, "url": "https://www.yelp.com/biz/paramount-pizza-iii-palmer?adjust_creative=asslzE1UV0XuKI953B1vtw&utm_campaign=yelp_api_v3&utm_medium=api_v3_business_search&utm_source=asslzE1UV0XuKI953B1vtw", "review_count": 11, "categories": [{"alias": "pizza", "title": "Pizza"}, {"alias": "sandwiches", "title": "Sandwiches"}, {"alias": "salad", "title": "Salad"}], "rating": 3.0, "coordinates": {"latitude": 42.162611056323, "longitude": -72.3424604978476}, "transactions": [], "price": "$$", "location": {"address1": "1620 N Main St", "address2": "", "address3": "", "city": "Palmer", "zip_code": "01069", "country": "US", "state": "MA", "display_address": ["1620 N Main St", "Palmer, MA 01069"]}, "phone": "+14132835555", "display_phone": "(413) 283-5555", "distance": 3655.7054973027716}, {"id": "yKsnnipj8FuKdgfxR_yKgQ", "alias": "northend-pizza-and-wings-palmer", "name": "Northend Pizza & Wings", "image_url": "", "is_closed": false, "url": "https://www.yelp.com/biz/northend-pizza-and-wings-palmer?adjust_creative=asslzE1UV0XuKI953B1vtw&utm_campaign=yelp_api_v3&utm_medium=api_v3_business_search&utm_source=asslzE1UV0XuKI953B1vtw", "review_count": 2, "categories": [{"alias": "chicken_wings", "title": "Chicken Wings"}, {"alias": "pizza", "title": "Pizza"}], "rating": 3.0, "coordinates": {"latitude": 42.1627883911133, "longitude": -72.3428649902344}, "transactions": [], "location": {"address1": "1620 N Main St", "address2": null, "address3": null, "city": "Palmer", "zip_code": "01069", "country": "US", "state": "MA", "display_address": ["1620 N Main St", "Palmer, MA 01069"]}, "phone": "+14132835555", "display_phone": "(413) 283-5555", "distance": 3636.259741198879}, {"id": "MwToLNoS7ocAP983G30vrg", "alias": "wendys-palmer-2", "name": "Wendy's", "image_url": "https://s3-media3.fl.yelpcdn.com/bphoto/xOLby4pZ-wowdApIyQMYkw/o.jpg", "is_closed": false, "url": "https://www.yelp.com/biz/wendys-palmer-2?adjust_creative=asslzE1UV0XuKI953B1vtw&utm_campaign=yelp_api_v3&utm_medium=api_v3_business_search&utm_source=asslzE1UV0XuKI953B1vtw", "review_count": 5, "categories": [{"alias": "burgers", "title": "Burgers"}, {"alias": "hotdogs", "title": "Fast Food"}], "rating": 2.0, "coordinates": {"latitude": 42.17377, "longitude": -72.32249}, "transactions": [], "price": "$", "location": {"address1": "1213 Thorndyke St", "address2": "", "address3": "", "city": "Palmer", "zip_code": "01069", "country": "US", "state": "MA", "display_address": ["1213 Thorndyke St", "Palmer, MA 01069"]}, "phone": "+14132833037", "display_phone": "(413) 283-3037", "distance": 2326.9116359670566}, {"id": "DqykbdUgYwboKgNhqjuAIA", "alias": "dominos-pizza-palmer", "name": "Domino's Pizza", "image_url": "", "is_closed": false, "url": "https://www.yelp.com/biz/dominos-pizza-palmer?adjust_creative=asslzE1UV0XuKI953B1vtw&utm_campaign=yelp_api_v3&utm_medium=api_v3_business_search&utm_source=asslzE1UV0XuKI953B1vtw", "review_count": 3, "categories": [{"alias": "chicken_wings", "title": "Chicken Wings"}, {"alias": "pizza", "title": "Pizza"}, {"alias": "sandwiches", "title": "Sandwiches"}], "rating": 3.5, "coordinates": {"latitude": 42.1744194030762, "longitude": -72.3206405639648}, "transactions": [], "price": "$", "location": {"address1": "1219 Thorndike St", "address2": null, "address3": null, "city": "Palmer", "zip_code": "01069", "country": "US", "state": "MA", "display_address": ["1219 Thorndike St", "Palmer, MA 01069"]}, "phone": "+14132896245", "display_phone": "(413) 289-6245", "distance": 2288.835241340712}, {"id": "i36ybHMGuHOgH7BN7cFN1A", "alias": "mcdonalds-palmer-4", "name": "McDonald's", "image_url": "https://s3-media3.fl.yelpcdn.com/bphoto/OHjM5Gi4Hm6A4yeWkbCCgg/o.jpg", "is_closed": false, "url": "https://www.yelp.com/biz/mcdonalds-palmer-4?adjust_creative=asslzE1UV0XuKI953B1vtw&utm_campaign=yelp_api_v3&utm_medium=api_v3_business_search&utm_source=asslzE1UV0XuKI953B1vtw", "review_count": 6, "categories": [{"alias": "coffee", "title": "Coffee & Tea"}, {"alias": "burgers", "title": "Burgers"}, {"alias": "hotdogs", "title": "Fast Food"}], "rating": 3.0, "coordinates": {"latitude": 42.1744, "longitude": -72.32263}, "transactions": [], "price": "$", "location": {"address1": "1184 Thorndike St", "address2": null, "address3": null, "city": "Palmer", "zip_code": "01069", "country": "US", "state": "MA", "display_address": ["1184 Thorndike St", "Palmer, MA 01069"]}, "phone": "+14132839095", "display_phone": "(413) 283-9095", "distance": 2260.205238747159}, {"id": "KJa-iIuKduViaLU8jAcfMg", "alias": "subway-palmer-5", "name": "Subway", "image_url": "https://s3-media2.fl.yelpcdn.com/bphoto/nSFpWOT8ZkmJFpuhQ_CdRA/o.jpg", "is_closed": false, "url": "https://www.yelp.com/biz/subway-palmer-5?adjust_creative=asslzE1UV0XuKI953B1vtw&utm_campaign=yelp_api_v3&utm_medium=api_v3_business_search&utm_source=asslzE1UV0XuKI953B1vtw", "review_count": 3, "categories": [{"alias": "sandwiches", "title": "Sandwiches"}], "rating": 1.5, "coordinates": {"latitude": 42.1588369288609, "longitude": -72.3281560129118}, "transactions": [], "price": "$", "location": {"address1": "1049 Thorndike St", "address2": "", "address3": "", "city": "Palmer", "zip_code": "01069", "country": "US", "state": "MA", "display_address": ["1049 Thorndike St", "Palmer, MA 01069"]}, "phone": "+14132834570", "display_phone": "(413) 283-4570", "distance": 3918.0413889598685}, {"id": "Io4C5tUwnb_YzeaMXHBqBA", "alias": "shuckin-truck-narragansett-2", "name": "Shuckin Truck", "image_url": "https://s3-media2.fl.yelpcdn.com/bphoto/r7QRORfe9UYVS7GGzUm9DQ/o.jpg", "is_closed": false, "url": "https://www.yelp.com/biz/shuckin-truck-narragansett-2?adjust_creative=asslzE1UV0XuKI953B1vtw&utm_campaign=yelp_api_v3&utm_medium=api_v3_business_search&utm_source=asslzE1UV0XuKI953B1vtw", "review_count": 24, "categories": [{"alias": "foodtrucks", "title": "Food Trucks"}, {"alias": "seafood", "title": "Seafood"}], "rating": 4.5, "coordinates": {"latitude": 41.4274482727051, "longitude": -71.4597778320313}, "transactions": [], "price": "$$", "location": {"address1": "", "address2": "", "address3": "", "city": "Narragansett", "zip_code": "02882", "country": "US", "state": "RI", "display_address": ["Narragansett, RI 02882"]}, "phone": "+14017415953", "display_phone": "(401) 741-5953", "distance": 112604.74176112372}, {"id": "qqA8YX58xnmEXLyanHfdUg", "alias": "stufd-food-truck-brooklyn", "name": "Stuf'd Food Truck", "image_url": "https://s3-media2.fl.yelpcdn.com/bphoto/_Wn0i-tLIOFinw8BPAqxPA/o.jpg", "is_closed": false, "url": "https://www.yelp.com/biz/stufd-food-truck-brooklyn?adjust_creative=asslzE1UV0XuKI953B1vtw&utm_campaign=yelp_api_v3&utm_medium=api_v3_business_search&utm_source=asslzE1UV0XuKI953B1vtw", "review_count": 4, "categories": [{"alias": "sandwiches", "title": "Sandwiches"}, {"alias": "foodtrucks", "title": "Food Trucks"}], "rating": 4.0, "coordinates": {"latitude": 40.7124539, "longitude": -73.9287374}, "transactions": [], "location": {"address1": "178 Varick Ave", "address2": "", "address3": null, "city": "Brooklyn", "zip_code": "11237", "country": "US", "state": "NY", "display_address": ["178 Varick Ave", "Brooklyn, NY 11237"]}, "phone": "+18457091808", "display_phone": "(845) 709-1808", "distance": 211898.32223017007}]