[{"id": "jtX2ilfxvT5P0ix8kDiJrA", "alias": "the-hanger-cafe-lexington", "name": "The Hanger Cafe", "image_url": "https://s3-media4.fl.yelpcdn.com/bphoto/eYye4-fyEmA8ywNoGemwow/o.jpg", "is_closed": false, "url": "https://www.yelp.com/biz/the-hanger-cafe-lexington?adjust_creative=HdhkN5EEH6lAqE3kwhsHEQ&utm_campaign=yelp_api_v3&utm_medium=api_v3_business_search&utm_source=HdhkN5EEH6lAqE3kwhsHEQ", "review_count": 1, "categories": [{"alias": "cafes", "title": "Cafes"}], "rating": 5.0, "coordinates": {"latitude": 42.465748, "longitude": -71.264553}, "transactions": [], "location": {"address1": "103 Hartwell Ave", "address2": "", "address3": null, "city": "Lexington", "zip_code": "02421", "country": "US", "state": "MA", "display_address": ["103 Hartwell Ave", "Lexington, MA 02421"]}, "phone": "", "display_phone": "", "distance": 1576.1860354558007}, {"id": "li_Ba23hOchCAIKaLE5NVg", "alias": "pizza-mia-hanscom-air-force-base", "name": "Pizza Mia", "image_url": "https://s3-media2.fl.yelpcdn.com/bphoto/n8Py36key-YOX8y6oYAeoQ/o.jpg", "is_closed": false, "url": "https://www.yelp.com/biz/pizza-mia-hanscom-air-force-base?adjust_creative=HdhkN5EEH6lAqE3kwhsHEQ&utm_campaign=yelp_api_v3&utm_medium=api_v3_business_search&utm_source=HdhkN5EEH6lAqE3kwhsHEQ", "review_count": 8, "categories": [{"alias": "pizza", "title": "Pizza"}], "rating": 3.5, "coordinates": {"latitude": 42.4607081713039, "longitude": -71.2778266273651}, "transactions": ["delivery"], "location": {"address1": "98 Barksdale St", "address2": "", "address3": null, "city": "Hanscom Air Force Base", "zip_code": "01731", "country": "US", "state": "MA", "display_address": ["98 Barksdale St", "Hanscom Air Force Base, MA 01731"]}, "phone": "+17812746000", "display_phone": "(781) 274-6000", "distance": 423.777372366017}, {"id": "YByVjJAotMMB1KwduACZlQ", "alias": "sunco-gourmet-bedford", "name": "SunCo Gourmet", "image_url": "https://s3-media4.fl.yelpcdn.com/bphoto/fqcv_nvnvKwzBVRmkpLR1Q/o.jpg", "is_closed": false, "url": "https://www.yelp.com/biz/sunco-gourmet-bedford?adjust_creative=HdhkN5EEH6lAqE3kwhsHEQ&utm_campaign=yelp_api_v3&utm_medium=api_v3_business_search&utm_source=HdhkN5EEH6lAqE3kwhsHEQ", "review_count": 2, "categories": [{"alias": "pizza", "title": "Pizza"}, {"alias": "sandwiches", "title": "Sandwiches"}, {"alias": "tradamerican", "title": "American (Traditional)"}], "rating": 4.5, "coordinates": {"latitude": 42.463415, "longitude": -71.276792}, "transactions": [], "location": {"address1": "Hanscom Air Force Base", "address2": "Bldg 1531", "address3": "", "city": "Bedford", "zip_code": "01731", "country": "US", "state": "MA", "display_address": ["Hanscom Air Force Base", "Bldg 1531", "Bedford, MA 01731"]}, "phone": "+17818625329", "display_phone": "(781) 862-5329", "distance": 734.7947760181245}, {"id": "mf4iQmyh4oxssF4YhWfC-g", "alias": "w-xyz-bar-lexington", "name": "W XYZ Bar", "image_url": "https://s3-media1.fl.yelpcdn.com/bphoto/6gMDn2e5lWN8QsGLV4ctsg/o.jpg", "is_closed": false, "url": "https://www.yelp.com/biz/w-xyz-bar-lexington?adjust_creative=HdhkN5EEH6lAqE3kwhsHEQ&utm_campaign=yelp_api_v3&utm_medium=api_v3_business_search&utm_source=HdhkN5EEH6lAqE3kwhsHEQ", "review_count": 5, "categories": [{"alias": "venues", "title": "Venues & Event Spaces"}, {"alias": "tapasmallplates", "title": "Tapas/Small Plates"}, {"alias": "cocktailbars", "title": "Cocktail Bars"}], "rating": 4.0, "coordinates": {"latitude": 42.44519, "longitude": -71.2603}, "transactions": [], "location": {"address1": "727 Marrett Road - A", "address2": "Aloft Lexington", "address3": "", "city": "Lexington", "zip_code": "02421", "country": "US", "state": "MA", "display_address": ["727 Marrett Road - A", "Aloft Lexington", "Lexington, MA 02421"]}, "phone": "+17817611700", "display_phone": "(781) 761-1700", "distance": 2063.036533989984}, {"id": "VZDBxROIfvir7XHGQQu-Wg", "alias": "cafe-at-lexington-crossing-lexington", "name": "Cafe At Lexington Crossing", "image_url": "https://s3-media2.fl.yelpcdn.com/bphoto/hObvVrs3fO9DQyMCeRYicw/o.jpg", "is_closed": false, "url": "https://www.yelp.com/biz/cafe-at-lexington-crossing-lexington?adjust_creative=HdhkN5EEH6lAqE3kwhsHEQ&utm_campaign=yelp_api_v3&utm_medium=api_v3_business_search&utm_source=HdhkN5EEH6lAqE3kwhsHEQ", "review_count": 3, "categories": [{"alias": "cafes", "title": "Cafes"}], "rating": 3.5, "coordinates": {"latitude": 42.4687309, "longitude": -71.2624969}, "transactions": ["delivery"], "price": "$", "location": {"address1": "81 Hartwell Ave", "address2": null, "address3": "", "city": "Lexington", "zip_code": "02421", "country": "US", "state": "MA", "display_address": ["81 Hartwell Ave", "Lexington, MA 02421"]}, "phone": "+17815386854", "display_phone": "(781) 538-6854", "distance": 1883.3302829416687}, {"id": "PdQo0wFfXE3RTV8JbV7aaQ", "alias": "froots-bedford", "name": "Froots", "image_url": "https://s3-media1.fl.yelpcdn.com/bphoto/dKwoloLr5bunp094DHqRRg/o.jpg", "is_closed": false, "url": "https://www.yelp.com/biz/froots-bedford?adjust_creative=HdhkN5EEH6lAqE3kwhsHEQ&utm_campaign=yelp_api_v3&utm_medium=api_v3_business_search&utm_source=HdhkN5EEH6lAqE3kwhsHEQ", "review_count": 8, "categories": [{"alias": "juicebars", "title": "Juice Bars & Smoothies"}, {"alias": "sandwiches", "title": "Sandwiches"}, {"alias": "sushi", "title": "Sushi Bars"}], "rating": 3.5, "coordinates": {"latitude": 42.4635100364685, "longitude": -71.2840792536736}, "transactions": [], "price": "$$", "location": {"address1": "100 Eglin St", "address2": "Ste 1709B", "address3": "", "city": "Bedford", "zip_code": "01731", "country": "US", "state": "MA", "display_address": ["100 Eglin St", "Ste 1709B", "Bedford, MA 01731"]}, "phone": "+17818639900", "display_phone": "(781) 863-9900", "distance": 920.5945558344889}, {"id": "rkVtswrgylGp37n0JC6DuA", "alias": "a-and-p-pizza-and-sub-shop-hanscom-afb", "name": "A & P Pizza & Sub Shop", "image_url": "", "is_closed": false, "url": "https://www.yelp.com/biz/a-and-p-pizza-and-sub-shop-hanscom-afb?adjust_creative=HdhkN5EEH6lAqE3kwhsHEQ&utm_campaign=yelp_api_v3&utm_medium=api_v3_business_search&utm_source=HdhkN5EEH6lAqE3kwhsHEQ", "review_count": 2, "categories": [{"alias": "pizza", "title": "Pizza"}], "rating": 2.5, "coordinates": {"latitude": 42.46153, "longitude": -71.27786}, "transactions": [], "price": "$", "location": {"address1": "1534 Barksdale", "address2": "", "address3": "", "city": "Hanscom AFB", "zip_code": "01731", "country": "US", "state": "MA", "display_address": ["1534 Barksdale", "Hanscom AFB, MA 01731"]}, "phone": "+17812740133", "display_phone": "(781) 274-0133", "distance": 470.786624860501}, {"id": "95VmyEI4IbRUvCr6A7cRiA", "alias": "sun-valley-subs-bedford", "name": "Sun Valley Subs", "image_url": "https://s3-media4.fl.yelpcdn.com/bphoto/NTOQOtX4154AkR_XnTyCPg/o.jpg", "is_closed": false, "url": "https://www.yelp.com/biz/sun-valley-subs-bedford?adjust_creative=HdhkN5EEH6lAqE3kwhsHEQ&utm_campaign=yelp_api_v3&utm_medium=api_v3_business_search&utm_source=HdhkN5EEH6lAqE3kwhsHEQ", "review_count": 26, "categories": [{"alias": "sandwiches", "title": "Sandwiches"}], "rating": 2.5, "coordinates": {"latitude": 42.47356, "longitude": -71.2647}, "transactions": ["delivery"], "price": "$", "location": {"address1": "57 Summer St", "address2": "", "address3": "", "city": "Bedford", "zip_code": "01730", "country": "US", "state": "MA", "display_address": ["57 Summer St", "Bedford, MA 01730"]}, "phone": "+17812758015", "display_phone": "(781) 275-8015", "distance": 2202.7145060031316}, {"id": "cx4QKEzhymlVLsLezHba7Q", "alias": "subway-hanscom-air-force-base", "name": "Subway", "image_url": "", "is_closed": false, "url": "https://www.yelp.com/biz/subway-hanscom-air-force-base?adjust_creative=HdhkN5EEH6lAqE3kwhsHEQ&utm_campaign=yelp_api_v3&utm_medium=api_v3_business_search&utm_source=HdhkN5EEH6lAqE3kwhsHEQ", "review_count": 5, "categories": [{"alias": "sandwiches", "title": "Sandwiches"}], "rating": 1.5, "coordinates": {"latitude": 42.4630798331113, "longitude": -71.2876417619324}, "transactions": [], "price": "$", "location": {"address1": "151575 Grenier St", "address2": "", "address3": "", "city": "Hanscom Air Force Base", "zip_code": "01731", "country": "US", "state": "MA", "display_address": ["151575 Grenier St", "Hanscom Air Force Base, MA 01731"]}, "phone": "+17812747970", "display_phone": "(781) 274-7970", "distance": 910.2777742580079}, {"id": "SCaZAkaJfxv0vMrRz3C3JQ", "alias": "mcdonalds-lexington-8", "name": "McDonald's", "image_url": "https://s3-media1.fl.yelpcdn.com/bphoto/4XfCuktvQ_KOJDXLMEPU3g/o.jpg", "is_closed": false, "url": "https://www.yelp.com/biz/mcdonalds-lexington-8?adjust_creative=HdhkN5EEH6lAqE3kwhsHEQ&utm_campaign=yelp_api_v3&utm_medium=api_v3_business_search&utm_source=HdhkN5EEH6lAqE3kwhsHEQ", "review_count": 18, "categories": [{"alias": "hotdogs", "title": "Fast Food"}, {"alias": "burgers", "title": "Burgers"}, {"alias": "coffee", "title": "Coffee & Tea"}], "rating": 2.0, "coordinates": {"latitude": 42.4402244596992, "longitude": -71.2574368715286}, "transactions": ["delivery"], "price": "$", "location": {"address1": "690 Marrett Rd", "address2": "", "address3": "", "city": "Lexington", "zip_code": "02421", "country": "US", "state": "MA", "display_address": ["690 Marrett Rd", "Lexington, MA 02421"]}, "phone": "+17818611144", "display_phone": "(781) 861-1144", "distance": 2639.363321931282}]