[{"id": "Xk6_V-Sd08xSFqaQUCvZbw", "alias": "wicked-wing-ware", "name": "Wicked Wing", "image_url": "https://s3-media4.fl.yelpcdn.com/bphoto/jSg8-20Gf49RhkksAP3Iwg/o.jpg", "is_closed": false, "url": "https://www.yelp.com/biz/wicked-wing-ware?adjust_creative=asslzE1UV0XuKI953B1vtw&utm_campaign=yelp_api_v3&utm_medium=api_v3_business_search&utm_source=asslzE1UV0XuKI953B1vtw", "review_count": 34, "categories": [{"alias": "chicken_wings", "title": "Chicken Wings"}, {"alias": "breweries", "title": "Breweries"}, {"alias": "cocktailbars", "title": "Cocktail Bars"}], "rating": 4.0, "coordinates": {"latitude": 42.2672853535435, "longitude": -72.2480573767605}, "transactions": [], "location": {"address1": "136 Pleasant St", "address2": "", "address3": null, "city": "Ware", "zip_code": "01082", "country": "US", "state": "MA", "display_address": ["136 Pleasant St", "Ware, MA 01082"]}, "phone": "+14132770020", "display_phone": "(413) 277-0020", "distance": 4580.462826026159}, {"id": "w7OhIPtYkrCNLt8P2uIavA", "alias": "hanna-devines-restaurant-ware", "name": "Hanna Devine's Restaurant", "image_url": "https://s3-media3.fl.yelpcdn.com/bphoto/y0x0A04JfuP0gNbBhQAbOQ/o.jpg", "is_closed": false, "url": "https://www.yelp.com/biz/hanna-devines-restaurant-ware?adjust_creative=asslzE1UV0XuKI953B1vtw&utm_campaign=yelp_api_v3&utm_medium=api_v3_business_search&utm_source=asslzE1UV0XuKI953B1vtw", "review_count": 65, "categories": [{"alias": "seafood", "title": "Seafood"}, {"alias": "beer_and_wine", "title": "Beer, Wine & Spirits"}, {"alias": "newamerican", "title": "American (New)"}], "rating": 3.5, "coordinates": {"latitude": 42.2605129935206, "longitude": -72.2413601052226}, "transactions": [], "price": "$$", "location": {"address1": "91 Main St", "address2": "", "address3": null, "city": "Ware", "zip_code": "01082", "country": "US", "state": "MA", "display_address": ["91 Main St", "Ware, MA 01082"]}, "phone": "+14132770707", "display_phone": "(413) 277-0707", "distance": 5512.968091657701}, {"id": "ekTKSMIx3hd5XXNmFeT-Bg", "alias": "salem-cross-inn-west-brookfield", "name": "Salem Cross Inn", "image_url": "https://s3-media4.fl.yelpcdn.com/bphoto/2OJ_dw5_3VL5zyJvN1czrA/o.jpg", "is_closed": false, "url": "https://www.yelp.com/biz/salem-cross-inn-west-brookfield?adjust_creative=asslzE1UV0XuKI953B1vtw&utm_campaign=yelp_api_v3&utm_medium=api_v3_business_search&utm_source=asslzE1UV0XuKI953B1vtw", "review_count": 113, "categories": [{"alias": "venues", "title": "Venues & Event Spaces"}, {"alias": "tradamerican", "title": "American (Traditional)"}], "rating": 4.0, "coordinates": {"latitude": 42.2460335987962, "longitude": -72.1747081086731}, "transactions": [], "price": "$$$", "location": {"address1": "260 W Main St Rt 9", "address2": "", "address3": "", "city": "West Brookfield", "zip_code": "01585", "country": "US", "state": "MA", "display_address": ["260 W Main St Rt 9", "West Brookfield, MA 01585"]}, "phone": "+15088672345", "display_phone": "(508) 867-2345", "distance": 10571.324325447069}, {"id": "_M9tO4EUkGSL4mtSnECcrA", "alias": "teresas-restaurant-ware", "name": "Teresa's Restaurant", "image_url": "https://s3-media2.fl.yelpcdn.com/bphoto/O7o53uFX5smk1gOJzuoCzw/o.jpg", "is_closed": false, "url": "https://www.yelp.com/biz/teresas-restaurant-ware?adjust_creative=asslzE1UV0XuKI953B1vtw&utm_campaign=yelp_api_v3&utm_medium=api_v3_business_search&utm_source=asslzE1UV0XuKI953B1vtw", "review_count": 48, "categories": [{"alias": "pizza", "title": "Pizza"}, {"alias": "italian", "title": "Italian"}, {"alias": "venues", "title": "Venues & Event Spaces"}], "rating": 3.5, "coordinates": {"latitude": 42.24245, "longitude": -72.274393}, "transactions": [], "price": "$$", "location": {"address1": "315 Palmer Rd", "address2": "", "address3": "", "city": "Ware", "zip_code": "01082", "country": "US", "state": "MA", "display_address": ["315 Palmer Rd", "Ware, MA 01082"]}, "phone": "+14139677601", "display_phone": "(413) 967-7601", "distance": 6577.891627116461}, {"id": "HQEBY4lEJxmn6G5tDYWEVg", "alias": "russos-lakeside-seafood-and-steakhouse-palmer", "name": "Russo's Lakeside Seafood & Steakhouse", "image_url": "https://s3-media3.fl.yelpcdn.com/bphoto/cE5L8cxQbGhT18yqnV8RWw/o.jpg", "is_closed": false, "url": "https://www.yelp.com/biz/russos-lakeside-seafood-and-steakhouse-palmer?adjust_creative=asslzE1UV0XuKI953B1vtw&utm_campaign=yelp_api_v3&utm_medium=api_v3_business_search&utm_source=asslzE1UV0XuKI953B1vtw", "review_count": 45, "categories": [{"alias": "seafood", "title": "Seafood"}, {"alias": "steak", "title": "Steakhouses"}], "rating": 4.0, "coordinates": {"latitude": 42.210545, "longitude": -72.307816}, "transactions": ["delivery", "pickup"], "price": "$$", "location": {"address1": "702 River St", "address2": "", "address3": "", "city": "Palmer", "zip_code": "01069", "country": "US", "state": "MA", "display_address": ["702 River St", "Palmer, MA 01069"]}, "phone": "+14132892360", "display_phone": "(413) 289-2360", "distance": 10387.698896811693}, {"id": "M5Simi8q6gjwA9yngORcwg", "alias": "lazers-pizza-and-roast-beef-ware-2", "name": "Lazer's Pizza & Roast Beef", "image_url": "https://s3-media4.fl.yelpcdn.com/bphoto/4k1itVfqoWojH6QJtS4isA/o.jpg", "is_closed": false, "url": "https://www.yelp.com/biz/lazers-pizza-and-roast-beef-ware-2?adjust_creative=asslzE1UV0XuKI953B1vtw&utm_campaign=yelp_api_v3&utm_medium=api_v3_business_search&utm_source=asslzE1UV0XuKI953B1vtw", "review_count": 27, "categories": [{"alias": "pizza", "title": "Pizza"}], "rating": 4.5, "coordinates": {"latitude": 42.2599814229054, "longitude": -72.2400694034169}, "transactions": [], "price": "$", "location": {"address1": "41 Main St", "address2": "", "address3": "", "city": "Ware", "zip_code": "01082", "country": "US", "state": "MA", "display_address": ["41 Main St", "Ware, MA 01082"]}, "phone": "+14139673181", "display_phone": "(413) 967-3181", "distance": 5621.8370302856565}, {"id": "Tl4vnrf3G4sSXzpSgvKczQ", "alias": "tables-at-the-farm-palmer", "name": "Tables at the Farm", "image_url": "https://s3-media1.fl.yelpcdn.com/bphoto/gpx2Q9o1H7Ijnpc2GYyF5w/o.jpg", "is_closed": false, "url": "https://www.yelp.com/biz/tables-at-the-farm-palmer?adjust_creative=asslzE1UV0XuKI953B1vtw&utm_campaign=yelp_api_v3&utm_medium=api_v3_business_search&utm_source=asslzE1UV0XuKI953B1vtw", "review_count": 19, "categories": [{"alias": "breakfast_brunch", "title": "Breakfast & Brunch"}, {"alias": "tradamerican", "title": "American (Traditional)"}], "rating": 4.0, "coordinates": {"latitude": 42.192764, "longitude": -72.35028967}, "transactions": [], "location": {"address1": "3092 Palmer St", "address2": "Ma-181", "address3": "", "city": "Palmer", "zip_code": "01069", "country": "US", "state": "MA", "display_address": ["3092 Palmer St", "Ma-181", "Palmer, MA 01069"]}, "phone": "+14133242986", "display_phone": "(413) 324-2986", "distance": 12297.583818022893}, {"id": "nB8kYU2SLIJHpHy3HskVDA", "alias": "mexicali-cantina-grill-ware", "name": "Mexicali Cantina Grill", "image_url": "https://s3-media3.fl.yelpcdn.com/bphoto/--DwcVl27eu8ZhHc0vgjZg/o.jpg", "is_closed": false, "url": "https://www.yelp.com/biz/mexicali-cantina-grill-ware?adjust_creative=asslzE1UV0XuKI953B1vtw&utm_campaign=yelp_api_v3&utm_medium=api_v3_business_search&utm_source=asslzE1UV0XuKI953B1vtw", "review_count": 67, "categories": [{"alias": "mexican", "title": "Mexican"}], "rating": 3.5, "coordinates": {"latitude": 42.2555114, "longitude": -72.2521185}, "transactions": [], "price": "$$", "location": {"address1": "146 West St", "address2": "", "address3": "", "city": "Ware", "zip_code": "01082", "country": "US", "state": "MA", "display_address": ["146 West St", "Ware, MA 01082"]}, "phone": "+14132770925", "display_phone": "(413) 277-0925", "distance": 5573.773038767491}, {"id": "1rd3Z8l2Ldh5GS2nhNintA", "alias": "rose32-bread-gilbertville", "name": "Rose32 Bread", "image_url": "https://s3-media1.fl.yelpcdn.com/bphoto/CYAKfGeh5XCrTses4exOhw/o.jpg", "is_closed": false, "url": "https://www.yelp.com/biz/rose32-bread-gilbertville?adjust_creative=asslzE1UV0XuKI953B1vtw&utm_campaign=yelp_api_v3&utm_medium=api_v3_business_search&utm_source=asslzE1UV0XuKI953B1vtw", "review_count": 85, "categories": [{"alias": "bakeries", "title": "Bakeries"}, {"alias": "breakfast_brunch", "title": "Breakfast & Brunch"}, {"alias": "tradamerican", "title": "American (Traditional)"}], "rating": 4.5, "coordinates": {"latitude": 42.304067, "longitude": -72.211452}, "transactions": [], "price": "$$", "location": {"address1": "412 Main St", "address2": "", "address3": "", "city": "Gilbertville", "zip_code": "01031", "country": "US", "state": "MA", "display_address": ["412 Main St", "Gilbertville, MA 01031"]}, "phone": "+14134779930", "display_phone": "(413) 477-9930", "distance": 5566.738642902893}, {"id": "PtAMmv9zA1q6y2NuKQNtPA", "alias": "pig-park-bbq-ware", "name": "Pig Park BBQ", "image_url": "https://s3-media2.fl.yelpcdn.com/bphoto/Iwqx3PvTvW2yy2hGxH5R8Q/o.jpg", "is_closed": false, "url": "https://www.yelp.com/biz/pig-park-bbq-ware?adjust_creative=asslzE1UV0XuKI953B1vtw&utm_campaign=yelp_api_v3&utm_medium=api_v3_business_search&utm_source=asslzE1UV0XuKI953B1vtw", "review_count": 13, "categories": [{"alias": "bbq", "title": "Barbeque"}], "rating": 4.0, "coordinates": {"latitude": 42.2599379693609, "longitude": -72.2281836193848}, "transactions": [], "price": "$$", "location": {"address1": "97 East St Rt 9", "address2": "", "address3": "Various Locations", "city": "Ware", "zip_code": "01082", "country": "US", "state": "MA", "display_address": ["97 East St Rt 9", "Various Locations", "Ware, MA 01082"]}, "phone": "+14135444712", "display_phone": "(413) 544-4712", "distance": 6235.204839370137}, {"id": "ZNH4DMILk2mdeYDM5GDfVw", "alias": "wrights-fish-and-chips-ware", "name": "Wrights Fish & Chips", "image_url": "", "is_closed": false, "url": "https://www.yelp.com/biz/wrights-fish-and-chips-ware?adjust_creative=asslzE1UV0XuKI953B1vtw&utm_campaign=yelp_api_v3&utm_medium=api_v3_business_search&utm_source=asslzE1UV0XuKI953B1vtw", "review_count": 3, "categories": [{"alias": "fishnchips", "title": "Fish & Chips"}], "rating": 3.0, "coordinates": {"latitude": 51.8108, "longitude": -0.02983}, "transactions": [], "location": {"address1": "3 East Street", "address2": "", "address3": "", "city": "Ware", "zip_code": "SG12 9HJ", "country": "GB", "state": "HRT", "display_address": ["3 East Street", "Ware SG12 9HJ", "United Kingdom"]}, "phone": "+441920462888", "display_phone": "+44 1920 462888", "distance": 5644.224242004788}, {"id": "8r4ilmXIWyFI5Xu_zR5ILA", "alias": "asian-garden-ware", "name": "Asian Garden", "image_url": "https://s3-media4.fl.yelpcdn.com/bphoto/E45FppSufn2iRvshzJY6Yw/o.jpg", "is_closed": false, "url": "https://www.yelp.com/biz/asian-garden-ware?adjust_creative=asslzE1UV0XuKI953B1vtw&utm_campaign=yelp_api_v3&utm_medium=api_v3_business_search&utm_source=asslzE1UV0XuKI953B1vtw", "review_count": 24, "categories": [{"alias": "chinese", "title": "Chinese"}, {"alias": "asianfusion", "title": "Asian Fusion"}], "rating": 4.0, "coordinates": {"latitude": 42.255543, "longitude": -72.249445}, "transactions": [], "price": "$$", "location": {"address1": "124 West St", "address2": "Ste 4", "address3": "", "city": "Ware", "zip_code": "01082", "country": "US", "state": "MA", "display_address": ["124 West St", "Ste 4", "Ware, MA 01082"]}, "phone": "+14132770725", "display_phone": "(413) 277-0725", "distance": 5629.676794465022}, {"id": "USutlpAeiWDKGUnbOxz_HA", "alias": "debbie-wong-ware", "name": "Debbie Wong", "image_url": "https://s3-media4.fl.yelpcdn.com/bphoto/e5sprMEJfRyWwY1CoJryiQ/o.jpg", "is_closed": false, "url": "https://www.yelp.com/biz/debbie-wong-ware?adjust_creative=asslzE1UV0XuKI953B1vtw&utm_campaign=yelp_api_v3&utm_medium=api_v3_business_search&utm_source=asslzE1UV0XuKI953B1vtw", "review_count": 23, "categories": [{"alias": "chinese", "title": "Chinese"}], "rating": 4.0, "coordinates": {"latitude": 42.2601, "longitude": -72.24562}, "transactions": [], "price": "$$", "location": {"address1": "54 W Main St", "address2": "", "address3": "", "city": "Ware", "zip_code": "01082", "country": "US", "state": "MA", "display_address": ["54 W Main St", "Ware, MA 01082"]}, "phone": "+14139673336", "display_phone": "(413) 967-3336", "distance": 5353.689124963604}, {"id": "E4RyhqBNIZ6AvdFTNRrmUQ", "alias": "mccarthys-pub-belchertown", "name": "McCarthy's Pub", "image_url": "https://s3-media3.fl.yelpcdn.com/bphoto/rItSlXr6jR0p5dkjXzgz1g/o.jpg", "is_closed": false, "url": "https://www.yelp.com/biz/mccarthys-pub-belchertown?adjust_creative=asslzE1UV0XuKI953B1vtw&utm_campaign=yelp_api_v3&utm_medium=api_v3_business_search&utm_source=asslzE1UV0XuKI953B1vtw", "review_count": 51, "categories": [{"alias": "bars", "title": "Bars"}, {"alias": "irish", "title": "Irish"}], "rating": 4.0, "coordinates": {"latitude": 42.2802, "longitude": -72.4032299}, "transactions": [], "price": "$$", "location": {"address1": "5 E Walnut St", "address2": null, "address3": "", "city": "Belchertown", "zip_code": "01007", "country": "US", "state": "MA", "display_address": ["5 E Walnut St", "Belchertown, MA 01007"]}, "phone": "+14133236420", "display_phone": "(413) 323-6420", "distance": 10492.621390422142}, {"id": "ytaSuRAfFw7NyjugZlGSkQ", "alias": "crystal-springs-dairy-bar-ware", "name": "Crystal Springs Dairy Bar", "image_url": "https://s3-media4.fl.yelpcdn.com/bphoto/ByMuRu-K-s8EeeqHKW_BGA/o.jpg", "is_closed": false, "url": "https://www.yelp.com/biz/crystal-springs-dairy-bar-ware?adjust_creative=asslzE1UV0XuKI953B1vtw&utm_campaign=yelp_api_v3&utm_medium=api_v3_business_search&utm_source=asslzE1UV0XuKI953B1vtw", "review_count": 15, "categories": [{"alias": "icecream", "title": "Ice Cream & Frozen Yogurt"}, {"alias": "breakfast_brunch", "title": "Breakfast & Brunch"}], "rating": 4.0, "coordinates": {"latitude": 42.2543680923477, "longitude": -72.2541291419154}, "transactions": [], "price": "$", "location": {"address1": "166 West St", "address2": "", "address3": "", "city": "Ware", "zip_code": "01082", "country": "US", "state": "MA", "display_address": ["166 West St", "Ware, MA 01082"]}, "phone": "+14139676190", "display_phone": "(413) 967-6190", "distance": 5642.991853938969}, {"id": "tvP1MXfXcaJKD8pGyO31Mw", "alias": "matts-breakfast-nook-west-brookfield", "name": "Matt's Breakfast Nook", "image_url": "https://s3-media3.fl.yelpcdn.com/bphoto/BBidKu4IzxWx95_oclff3w/o.jpg", "is_closed": false, "url": "https://www.yelp.com/biz/matts-breakfast-nook-west-brookfield?adjust_creative=asslzE1UV0XuKI953B1vtw&utm_campaign=yelp_api_v3&utm_medium=api_v3_business_search&utm_source=asslzE1UV0XuKI953B1vtw", "review_count": 1, "categories": [{"alias": "breakfast_brunch", "title": "Breakfast & Brunch"}], "rating": 5.0, "coordinates": {"latitude": 42.2351378, "longitude": -72.1417457}, "transactions": [], "location": {"address1": "8 E Main St", "address2": "", "address3": null, "city": "West Brookfield", "zip_code": "01585", "country": "US", "state": "MA", "display_address": ["8 E Main St", "West Brookfield, MA 01585"]}, "phone": "+15086371166", "display_phone": "(508) 637-1166", "distance": 13492.776422855417}, {"id": "Ul1WGrfWjffNRGfMmBkihg", "alias": "ware-cafe-and-catering-services-ware", "name": "Ware Cafe & Catering Services", "image_url": "https://s3-media3.fl.yelpcdn.com/bphoto/J9Tsr8IiCAe_0-QYes39-g/o.jpg", "is_closed": false, "url": "https://www.yelp.com/biz/ware-cafe-and-catering-services-ware?adjust_creative=asslzE1UV0XuKI953B1vtw&utm_campaign=yelp_api_v3&utm_medium=api_v3_business_search&utm_source=asslzE1UV0XuKI953B1vtw", "review_count": 15, "categories": [{"alias": "cafes", "title": "Cafes"}, {"alias": "catering", "title": "Caterers"}], "rating": 4.5, "coordinates": {"latitude": 42.26047, "longitude": -72.24379}, "transactions": [], "price": "$", "location": {"address1": "24 W Main St", "address2": "", "address3": "", "city": "Ware", "zip_code": "01082", "country": "US", "state": "MA", "display_address": ["24 W Main St", "Ware, MA 01082"]}, "phone": "+14139674611", "display_phone": "(413) 967-4611", "distance": 5406.790871501674}, {"id": "uLvlyJle6VxAdZyw5wGqKg", "alias": "astronaut-pizza-house-ware", "name": "Astronaut Pizza House", "image_url": "https://s3-media1.fl.yelpcdn.com/bphoto/hnCmjlVlZG-RPFldt0QL7A/o.jpg", "is_closed": false, "url": "https://www.yelp.com/biz/astronaut-pizza-house-ware?adjust_creative=asslzE1UV0XuKI953B1vtw&utm_campaign=yelp_api_v3&utm_medium=api_v3_business_search&utm_source=asslzE1UV0XuKI953B1vtw", "review_count": 8, "categories": [{"alias": "pizza", "title": "Pizza"}], "rating": 2.5, "coordinates": {"latitude": 42.251477, "longitude": -72.258679}, "transactions": [], "price": "$$", "location": {"address1": "197 West St", "address2": "", "address3": "", "city": "Ware", "zip_code": "01082", "country": "US", "state": "MA", "display_address": ["197 West St", "Ware, MA 01082"]}, "phone": "+14139675685", "display_phone": "(413) 967-5685", "distance": 5810.017758945797}, {"id": "AlqOI5JtcvjDua4CERhGMA", "alias": "antonios-pizza-belchertown-2", "name": "Antonio's Pizza", "image_url": "https://s3-media2.fl.yelpcdn.com/bphoto/Yg3GSQ3svSFiBOFwTJM_eg/o.jpg", "is_closed": false, "url": "https://www.yelp.com/biz/antonios-pizza-belchertown-2?adjust_creative=asslzE1UV0XuKI953B1vtw&utm_campaign=yelp_api_v3&utm_medium=api_v3_business_search&utm_source=asslzE1UV0XuKI953B1vtw", "review_count": 69, "categories": [{"alias": "pizza", "title": "Pizza"}], "rating": 4.0, "coordinates": {"latitude": 42.2898815960091, "longitude": -72.4088935579308}, "transactions": [], "price": "$$", "location": {"address1": "31 Federal St", "address2": "", "address3": "", "city": "Belchertown", "zip_code": "01007", "country": "US", "state": "MA", "display_address": ["31 Federal St", "Belchertown, MA 01007"]}, "phone": "+14133236844", "display_phone": "(413) 323-6844", "distance": 10757.184956957715}, {"id": "Oa9YXvAs50RB-Xhc2BwXlg", "alias": "mimis-coffeehouse-of-hardwick-hardwick", "name": "Mimi's CoffeeHouse Of Hardwick", "image_url": "https://s3-media4.fl.yelpcdn.com/bphoto/NMlDkOX7whn4nYEiejmeSg/o.jpg", "is_closed": false, "url": "https://www.yelp.com/biz/mimis-coffeehouse-of-hardwick-hardwick?adjust_creative=asslzE1UV0XuKI953B1vtw&utm_campaign=yelp_api_v3&utm_medium=api_v3_business_search&utm_source=asslzE1UV0XuKI953B1vtw", "review_count": 3, "categories": [{"alias": "coffee", "title": "Coffee & Tea"}, {"alias": "breakfast_brunch", "title": "Breakfast & Brunch"}, {"alias": "sandwiches", "title": "Sandwiches"}], "rating": 4.5, "coordinates": {"latitude": 42.3486171468542, "longitude": -72.1993167786787}, "transactions": [], "price": "$$", "location": {"address1": "14 Barre Rd", "address2": "", "address3": null, "city": "Hardwick", "zip_code": "01037", "country": "US", "state": "MA", "display_address": ["14 Barre Rd", "Hardwick, MA 01037"]}, "phone": "+14134771144", "display_phone": "(413) 477-1144", "distance": 8391.166773947763}, {"id": "I0zvQlGF1--ymQeJcxTO2A", "alias": "nikos-pizza-ware", "name": "Niko's Pizza", "image_url": "https://s3-media4.fl.yelpcdn.com/bphoto/icDNBI1khs1fOAC3cVhvZw/o.jpg", "is_closed": false, "url": "https://www.yelp.com/biz/nikos-pizza-ware?adjust_creative=asslzE1UV0XuKI953B1vtw&utm_campaign=yelp_api_v3&utm_medium=api_v3_business_search&utm_source=asslzE1UV0XuKI953B1vtw", "review_count": 6, "categories": [{"alias": "pizza", "title": "Pizza"}, {"alias": "greek", "title": "Greek"}], "rating": 4.0, "coordinates": {"latitude": 42.260562, "longitude": -72.242328}, "transactions": [], "price": "$$", "location": {"address1": "118 Main St", "address2": "", "address3": null, "city": "Ware", "zip_code": "01082", "country": "US", "state": "MA", "display_address": ["118 Main St", "Ware, MA 01082"]}, "phone": "+14139670436", "display_phone": "(413) 967-0436", "distance": 5464.034630596884}, {"id": "vk2DFcUOZPFd9TprRxmCoQ", "alias": "min-fen-kitchen-belchertown-2", "name": "Min Fen Kitchen", "image_url": "https://s3-media3.fl.yelpcdn.com/bphoto/sOURdtV6vvpwfx4UbMRCwQ/o.jpg", "is_closed": false, "url": "https://www.yelp.com/biz/min-fen-kitchen-belchertown-2?adjust_creative=asslzE1UV0XuKI953B1vtw&utm_campaign=yelp_api_v3&utm_medium=api_v3_business_search&utm_source=asslzE1UV0XuKI953B1vtw", "review_count": 12, "categories": [{"alias": "chinese", "title": "Chinese"}], "rating": 3.5, "coordinates": {"latitude": 42.277134, "longitude": -72.401396}, "transactions": [], "price": "$", "location": {"address1": "11 Main St", "address2": "", "address3": "", "city": "Belchertown", "zip_code": "01007", "country": "US", "state": "MA", "display_address": ["11 Main St", "Belchertown, MA 01007"]}, "phone": "+14133238228", "display_phone": "(413) 323-8228", "distance": 10422.108131440038}, {"id": "ca3CuO8cgZFfGWYE-t25Qg", "alias": "lins-garden-west-brookfield", "name": "Lin's Garden", "image_url": "https://s3-media4.fl.yelpcdn.com/bphoto/rWLFqA6Nvg7NGPsGDcSTXw/o.jpg", "is_closed": false, "url": "https://www.yelp.com/biz/lins-garden-west-brookfield?adjust_creative=asslzE1UV0XuKI953B1vtw&utm_campaign=yelp_api_v3&utm_medium=api_v3_business_search&utm_source=asslzE1UV0XuKI953B1vtw", "review_count": 38, "categories": [{"alias": "chinese", "title": "Chinese"}, {"alias": "soup", "title": "Soup"}, {"alias": "ramen", "title": "Ramen"}], "rating": 3.5, "coordinates": {"latitude": 42.233873, "longitude": -72.157657}, "transactions": ["delivery", "pickup"], "price": "$$", "location": {"address1": "152 W Main St", "address2": null, "address3": null, "city": "West Brookfield", "zip_code": "01585", "country": "US", "state": "MA", "display_address": ["152 W Main St", "West Brookfield, MA 01585"]}, "phone": "+15088674499", "display_phone": "(508) 867-4499", "distance": 12514.057318200661}, {"id": "KnJIbX__Sh1jW2XOu1wfQA", "alias": "united-china-restaurant-ware", "name": "United China Restaurant", "image_url": "https://s3-media2.fl.yelpcdn.com/bphoto/uYRYVKANPSbSYi59nvdg-Q/o.jpg", "is_closed": false, "url": "https://www.yelp.com/biz/united-china-restaurant-ware?adjust_creative=asslzE1UV0XuKI953B1vtw&utm_campaign=yelp_api_v3&utm_medium=api_v3_business_search&utm_source=asslzE1UV0XuKI953B1vtw", "review_count": 10, "categories": [{"alias": "chinese", "title": "Chinese"}], "rating": 2.5, "coordinates": {"latitude": 42.25453, "longitude": -72.25311}, "transactions": [], "price": "$", "location": {"address1": "164 West St", "address2": "", "address3": "", "city": "Ware", "zip_code": "01082", "country": "US", "state": "MA", "display_address": ["164 West St", "Ware, MA 01082"]}, "phone": "+14139670311", "display_phone": "(413) 967-0311", "distance": 5643.518477784438}, {"id": "FhaArV8Sex3wL-Wyv6MQuw", "alias": "gin-mill-palmer", "name": "Gin Mill", "image_url": "https://s3-media1.fl.yelpcdn.com/bphoto/hzab8IojP7MVbmN__a9RtQ/o.jpg", "is_closed": false, "url": "https://www.yelp.com/biz/gin-mill-palmer?adjust_creative=asslzE1UV0XuKI953B1vtw&utm_campaign=yelp_api_v3&utm_medium=api_v3_business_search&utm_source=asslzE1UV0XuKI953B1vtw", "review_count": 11, "categories": [{"alias": "divebars", "title": "Dive Bars"}, {"alias": "tradamerican", "title": "American (Traditional)"}], "rating": 4.5, "coordinates": {"latitude": 42.213802, "longitude": -72.344717}, "transactions": [], "price": "$", "location": {"address1": "3095 Main St", "address2": "", "address3": "", "city": "Palmer", "zip_code": "01069", "country": "US", "state": "MA", "display_address": ["3095 Main St", "Palmer, MA 01069"]}, "phone": "+14132832014", "display_phone": "(413) 283-2014", "distance": 11149.433604617449}, {"id": "lQwRGkdMNvY6e_Zo1RSDVQ", "alias": "villas-pizza-restaurant-ware", "name": "Villa's Pizza Restaurant", "image_url": "https://s3-media2.fl.yelpcdn.com/bphoto/MHYLDAcp33fb74RF2IZojg/o.jpg", "is_closed": false, "url": "https://www.yelp.com/biz/villas-pizza-restaurant-ware?adjust_creative=asslzE1UV0XuKI953B1vtw&utm_campaign=yelp_api_v3&utm_medium=api_v3_business_search&utm_source=asslzE1UV0XuKI953B1vtw", "review_count": 4, "categories": [{"alias": "pizza", "title": "Pizza"}], "rating": 3.5, "coordinates": {"latitude": 42.26092, "longitude": -72.2427}, "transactions": [], "price": "$", "location": {"address1": "123 Main St", "address2": "", "address3": "", "city": "Ware", "zip_code": "01082", "country": "US", "state": "MA", "display_address": ["123 Main St", "Ware, MA 01082"]}, "phone": "+14139674490", "display_phone": "(413) 967-4490", "distance": 5424.130780711185}, {"id": "r9-dhj_D6aMgxqIEIIzxLQ", "alias": "hardwick-house-of-pizza-gilbertville", "name": "Hardwick House of Pizza", "image_url": "https://s3-media3.fl.yelpcdn.com/bphoto/U1v5kFxk8Fot1l3t8QEiWQ/o.jpg", "is_closed": false, "url": "https://www.yelp.com/biz/hardwick-house-of-pizza-gilbertville?adjust_creative=asslzE1UV0XuKI953B1vtw&utm_campaign=yelp_api_v3&utm_medium=api_v3_business_search&utm_source=asslzE1UV0XuKI953B1vtw", "review_count": 6, "categories": [{"alias": "pizza", "title": "Pizza"}], "rating": 2.0, "coordinates": {"latitude": 42.3129577, "longitude": -72.2049821}, "transactions": [], "price": "$", "location": {"address1": "2 Main", "address2": "", "address3": null, "city": "Gilbertville", "zip_code": "01031", "country": "US", "state": "MA", "display_address": ["2 Main", "Gilbertville, MA 01031"]}, "phone": "+14134776001", "display_phone": "(413) 477-6001", "distance": 6200.073203061595}, {"id": "F0kbFudS4Fj_UT0cJPn4Tg", "alias": "wong-garden-belchertown", "name": "Wong Garden", "image_url": "https://s3-media4.fl.yelpcdn.com/bphoto/NIF9q-xwMzYkmFyE2BCJDQ/o.jpg", "is_closed": false, "url": "https://www.yelp.com/biz/wong-garden-belchertown?adjust_creative=asslzE1UV0XuKI953B1vtw&utm_campaign=yelp_api_v3&utm_medium=api_v3_business_search&utm_source=asslzE1UV0XuKI953B1vtw", "review_count": 30, "categories": [{"alias": "chinese", "title": "Chinese"}], "rating": 3.0, "coordinates": {"latitude": 42.2887515, "longitude": -72.406968}, "transactions": [], "price": "$", "location": {"address1": "147 N Main St", "address2": null, "address3": null, "city": "Belchertown", "zip_code": "01007", "country": "US", "state": "MA", "display_address": ["147 N Main St", "Belchertown, MA 01007"]}, "phone": "+14133236200", "display_phone": "(413) 323-6200", "distance": 10658.246114832942}, {"id": "QAYlKRxw_hdSe8PjkVbgrg", "alias": "alvin-rondeaus-dairy-bar-palmer", "name": "Alvin Rondeau's Dairy Bar", "image_url": "https://s3-media2.fl.yelpcdn.com/bphoto/P7hATNpoqavOsVP2iG9akg/o.jpg", "is_closed": false, "url": "https://www.yelp.com/biz/alvin-rondeaus-dairy-bar-palmer?adjust_creative=asslzE1UV0XuKI953B1vtw&utm_campaign=yelp_api_v3&utm_medium=api_v3_business_search&utm_source=asslzE1UV0XuKI953B1vtw", "review_count": 33, "categories": [{"alias": "foodstands", "title": "Food Stands"}, {"alias": "hotdog", "title": "Hot Dogs"}, {"alias": "seafood", "title": "Seafood"}], "rating": 4.0, "coordinates": {"latitude": 42.21143, "longitude": -72.3027}, "transactions": [], "price": "$", "location": {"address1": "1300 Ware St", "address2": "", "address3": "", "city": "Palmer", "zip_code": "01069", "country": "US", "state": "MA", "display_address": ["1300 Ware St", "Palmer, MA 01069"]}, "phone": "+14132835281", "display_phone": "(413) 283-5281", "distance": 10181.548490638772}, {"id": "qZ2mUZB1EFz2-Was9kft2Q", "alias": "ye-olde-tavern-west-brookfield-3", "name": "Ye Olde Tavern", "image_url": "https://s3-media2.fl.yelpcdn.com/bphoto/feqtvkBcHvmzmclvTYA-WQ/o.jpg", "is_closed": false, "url": "https://www.yelp.com/biz/ye-olde-tavern-west-brookfield-3?adjust_creative=asslzE1UV0XuKI953B1vtw&utm_campaign=yelp_api_v3&utm_medium=api_v3_business_search&utm_source=asslzE1UV0XuKI953B1vtw", "review_count": 31, "categories": [{"alias": "pizza", "title": "Pizza"}], "rating": 3.5, "coordinates": {"latitude": 42.2349328, "longitude": -72.1419567}, "transactions": [], "price": "$$", "location": {"address1": "7 E Main St", "address2": "", "address3": "", "city": "West Brookfield", "zip_code": "01585", "country": "US", "state": "MA", "display_address": ["7 E Main St", "West Brookfield, MA 01585"]}, "phone": "+15088679709", "display_phone": "(508) 867-9709", "distance": 13492.847914450262}, {"id": "gDTCV0OBNL7Kk3c3_rg4Fg", "alias": "almeidas-country-cafe-belchertown", "name": "Almeida's Country Cafe", "image_url": "https://s3-media3.fl.yelpcdn.com/bphoto/O3Uw2mulEZDPQ3_SlcGlJw/o.jpg", "is_closed": false, "url": "https://www.yelp.com/biz/almeidas-country-cafe-belchertown?adjust_creative=asslzE1UV0XuKI953B1vtw&utm_campaign=yelp_api_v3&utm_medium=api_v3_business_search&utm_source=asslzE1UV0XuKI953B1vtw", "review_count": 29, "categories": [{"alias": "breakfast_brunch", "title": "Breakfast & Brunch"}, {"alias": "coffee", "title": "Coffee & Tea"}, {"alias": "cafes", "title": "Cafes"}], "rating": 4.0, "coordinates": {"latitude": 42.2690146, "longitude": -72.415876}, "transactions": [], "price": "$", "location": {"address1": "146 State St", "address2": "", "address3": "", "city": "Belchertown", "zip_code": "01007", "country": "US", "state": "MA", "display_address": ["146 State St", "Belchertown, MA 01007"]}, "phone": "+14133236360", "display_phone": "(413) 323-6360", "distance": 11821.041918680568}, {"id": "_NBRK7gTiowu-v2oMO1q_w", "alias": "bistro-21-belchertown", "name": "Bistro 21", "image_url": "", "is_closed": false, "url": "https://www.yelp.com/biz/bistro-21-belchertown?adjust_creative=asslzE1UV0XuKI953B1vtw&utm_campaign=yelp_api_v3&utm_medium=api_v3_business_search&utm_source=asslzE1UV0XuKI953B1vtw", "review_count": 17, "categories": [{"alias": "newamerican", "title": "American (New)"}, {"alias": "bars", "title": "Bars"}], "rating": 2.5, "coordinates": {"latitude": 42.2433781, "longitude": -72.409838}, "transactions": [], "price": "$$", "location": {"address1": "330 Chauncey Walker St", "address2": "", "address3": "", "city": "Belchertown", "zip_code": "01007", "country": "US", "state": "MA", "display_address": ["330 Chauncey Walker St", "Belchertown, MA 01007"]}, "phone": "+14133234888", "display_phone": "(413) 323-4888", "distance": 12552.84543239366}, {"id": "2BIeNbfudbD_sPWyDv0pNQ", "alias": "masons-grille-warren", "name": "Mason's Grille", "image_url": "https://s3-media2.fl.yelpcdn.com/bphoto/KA3N3PP2O1OO_iykU_NoDw/o.jpg", "is_closed": false, "url": "https://www.yelp.com/biz/masons-grille-warren?adjust_creative=asslzE1UV0XuKI953B1vtw&utm_campaign=yelp_api_v3&utm_medium=api_v3_business_search&utm_source=asslzE1UV0XuKI953B1vtw", "review_count": 16, "categories": [{"alias": "breakfast_brunch", "title": "Breakfast & Brunch"}], "rating": 4.0, "coordinates": {"latitude": 42.2128038938205, "longitude": -72.1945668384433}, "transactions": [], "price": "$", "location": {"address1": "14 Milton Fountain Way", "address2": "", "address3": null, "city": "Warren", "zip_code": "01083", "country": "US", "state": "MA", "display_address": ["14 Milton Fountain Way", "Warren, MA 01083"]}, "phone": "+14134368042", "display_phone": "(413) 436-8042", "distance": 12067.671105567482}, {"id": "vzN_ZSBdj5m3hppudN541Q", "alias": "chubbys-belchertown", "name": "Chubby'S", "image_url": "https://s3-media2.fl.yelpcdn.com/bphoto/Ivz9D71Jim0K_BscNuemEw/o.jpg", "is_closed": false, "url": "https://www.yelp.com/biz/chubbys-belchertown?adjust_creative=asslzE1UV0XuKI953B1vtw&utm_campaign=yelp_api_v3&utm_medium=api_v3_business_search&utm_source=asslzE1UV0XuKI953B1vtw", "review_count": 11, "categories": [{"alias": "icecream", "title": "Ice Cream & Frozen Yogurt"}, {"alias": "tradamerican", "title": "American (Traditional)"}], "rating": 2.5, "coordinates": {"latitude": 42.2719, "longitude": -72.41029}, "transactions": [], "price": "$$", "location": {"address1": "2 Stadler St", "address2": "", "address3": "", "city": "Belchertown", "zip_code": "01007", "country": "US", "state": "MA", "display_address": ["2 Stadler St", "Belchertown, MA 01007"]}, "phone": "+14133236861", "display_phone": "(413) 323-6861", "distance": 11276.682442819501}, {"id": "pJ_sOJl6j4NULj38TLlSpg", "alias": "la-trattoria-pizzeria-and-ristorante-belchertown", "name": "La Trattoria Pizzeria & Ristorante", "image_url": "", "is_closed": false, "url": "https://www.yelp.com/biz/la-trattoria-pizzeria-and-ristorante-belchertown?adjust_creative=asslzE1UV0XuKI953B1vtw&utm_campaign=yelp_api_v3&utm_medium=api_v3_business_search&utm_source=asslzE1UV0XuKI953B1vtw", "review_count": 15, "categories": [{"alias": "italian", "title": "Italian"}, {"alias": "pizza", "title": "Pizza"}], "rating": 4.0, "coordinates": {"latitude": 42.271956, "longitude": -72.410926}, "transactions": [], "price": "$", "location": {"address1": "37 State St", "address2": "", "address3": "", "city": "Belchertown", "zip_code": "01007", "country": "US", "state": "MA", "display_address": ["37 State St", "Belchertown, MA 01007"]}, "phone": "+14133230706", "display_phone": "(413) 323-0706", "distance": 11334.665286810941}, {"id": "s8ifd_imgK2jH0m0eZDntQ", "alias": "georges-pizza-and-subs-west-brookfield", "name": "George's Pizza and Subs", "image_url": "https://s3-media4.fl.yelpcdn.com/bphoto/Ch0ooY7hZwaElbMHeHk4Yw/o.jpg", "is_closed": false, "url": "https://www.yelp.com/biz/georges-pizza-and-subs-west-brookfield?adjust_creative=asslzE1UV0XuKI953B1vtw&utm_campaign=yelp_api_v3&utm_medium=api_v3_business_search&utm_source=asslzE1UV0XuKI953B1vtw", "review_count": 27, "categories": [{"alias": "salad", "title": "Salad"}, {"alias": "pizza", "title": "Pizza"}, {"alias": "sandwiches", "title": "Sandwiches"}], "rating": 3.5, "coordinates": {"latitude": 42.2348093, "longitude": -72.1424106}, "transactions": [], "price": "$", "location": {"address1": "4 East Main St", "address2": "", "address3": "", "city": "West Brookfield", "zip_code": "01585", "country": "US", "state": "MA", "display_address": ["4 East Main St", "West Brookfield, MA 01585"]}, "phone": "+15088678100", "display_phone": "(508) 867-8100", "distance": 13469.202996933725}, {"id": "oCq_1uSutCa1PgUrnplA9w", "alias": "kristinas-kafe-and-bakery-belchertown", "name": "Kristina's Kafe and Bakery", "image_url": "https://s3-media1.fl.yelpcdn.com/bphoto/qM1fvwP0mKdskWc8TeZaOA/o.jpg", "is_closed": false, "url": "https://www.yelp.com/biz/kristinas-kafe-and-bakery-belchertown?adjust_creative=asslzE1UV0XuKI953B1vtw&utm_campaign=yelp_api_v3&utm_medium=api_v3_business_search&utm_source=asslzE1UV0XuKI953B1vtw", "review_count": 71, "categories": [{"alias": "bakeries", "title": "Bakeries"}, {"alias": "breakfast_brunch", "title": "Breakfast & Brunch"}, {"alias": "sandwiches", "title": "Sandwiches"}], "rating": 4.0, "coordinates": {"latitude": 42.28034, "longitude": -72.40398}, "transactions": [], "price": "$$", "location": {"address1": "9 N Main St", "address2": "", "address3": "", "city": "Belchertown", "zip_code": "01007", "country": "US", "state": "MA", "display_address": ["9 N Main St", "Belchertown, MA 01007"]}, "phone": "+14133235733", "display_phone": "(413) 323-5733", "distance": 10537.447342922951}, {"id": "CUhWTw6pJoTt81sMf1d2jQ", "alias": "the-belchertown-pizza-shop-belchertown-2", "name": "The Belchertown Pizza Shop", "image_url": "https://s3-media1.fl.yelpcdn.com/bphoto/hYRDG0r-R9o82ZtplReY9A/o.jpg", "is_closed": false, "url": "https://www.yelp.com/biz/the-belchertown-pizza-shop-belchertown-2?adjust_creative=asslzE1UV0XuKI953B1vtw&utm_campaign=yelp_api_v3&utm_medium=api_v3_business_search&utm_source=asslzE1UV0XuKI953B1vtw", "review_count": 21, "categories": [{"alias": "pizza", "title": "Pizza"}, {"alias": "desserts", "title": "Desserts"}, {"alias": "salad", "title": "Salad"}], "rating": 2.5, "coordinates": {"latitude": 42.2770346, "longitude": -72.4008884}, "transactions": [], "price": "$$", "location": {"address1": "4 Park St", "address2": "", "address3": "", "city": "Belchertown", "zip_code": "01007", "country": "US", "state": "MA", "display_address": ["4 Park St", "Belchertown, MA 01007"]}, "phone": "+14133230300", "display_phone": "(413) 323-0300", "distance": 10384.694704181817}, {"id": "PZolckom78iMsIJY-lKb_g", "alias": "checkers-general-store-and-deli-belchertown", "name": "Checkers General Store & Deli", "image_url": "https://s3-media1.fl.yelpcdn.com/bphoto/JwOLm9DtfNR2wNS-II-3_g/o.jpg", "is_closed": false, "url": "https://www.yelp.com/biz/checkers-general-store-and-deli-belchertown?adjust_creative=asslzE1UV0XuKI953B1vtw&utm_campaign=yelp_api_v3&utm_medium=api_v3_business_search&utm_source=asslzE1UV0XuKI953B1vtw", "review_count": 8, "categories": [{"alias": "grocery", "title": "Grocery"}, {"alias": "delis", "title": "Delis"}, {"alias": "beer_and_wine", "title": "Beer, Wine & Spirits"}], "rating": 3.0, "coordinates": {"latitude": 42.2723345449639, "longitude": -72.4103921048211}, "transactions": ["pickup"], "price": "$", "location": {"address1": "2 Stadler St", "address2": "", "address3": "", "city": "Belchertown", "zip_code": "01007", "country": "US", "state": "MA", "display_address": ["2 Stadler St", "Belchertown, MA 01007"]}, "phone": "+14133234599", "display_phone": "(413) 323-4599", "distance": 11280.433149559245}, {"id": "6G7I24vIiyLp4_7nSNICew", "alias": "whistle-stop-restaurant-hardwick", "name": "Whistle Stop Restaurant", "image_url": "https://s3-media4.fl.yelpcdn.com/bphoto/co5S3IgUc4H4d2Nf597Nlw/o.jpg", "is_closed": false, "url": "https://www.yelp.com/biz/whistle-stop-restaurant-hardwick?adjust_creative=asslzE1UV0XuKI953B1vtw&utm_campaign=yelp_api_v3&utm_medium=api_v3_business_search&utm_source=asslzE1UV0XuKI953B1vtw", "review_count": 3, "categories": [{"alias": "tradamerican", "title": "American (Traditional)"}, {"alias": "breakfast_brunch", "title": "Breakfast & Brunch"}, {"alias": "sandwiches", "title": "Sandwiches"}], "rating": 2.0, "coordinates": {"latitude": 42.30823, "longitude": -72.21081}, "transactions": [], "price": "$", "location": {"address1": "248 Main", "address2": "", "address3": "", "city": "Hardwick", "zip_code": "01037", "country": "US", "state": "MA", "display_address": ["248 Main", "Hardwick, MA 01037"]}, "phone": "+14134778888", "display_phone": "(413) 477-8888", "distance": 5660.495441504942}, {"id": "Dh1VmD7hHemz_J1iysZs_A", "alias": "subway-belchertown-3", "name": "Subway", "image_url": "https://s3-media1.fl.yelpcdn.com/bphoto/ToB9Q7CWePLRA8IBmfANBA/o.jpg", "is_closed": false, "url": "https://www.yelp.com/biz/subway-belchertown-3?adjust_creative=asslzE1UV0XuKI953B1vtw&utm_campaign=yelp_api_v3&utm_medium=api_v3_business_search&utm_source=asslzE1UV0XuKI953B1vtw", "review_count": 3, "categories": [{"alias": "sandwiches", "title": "Sandwiches"}], "rating": 3.0, "coordinates": {"latitude": 42.2886725, "longitude": -72.4075052577242}, "transactions": [], "price": "$", "location": {"address1": "145 N Main St", "address2": "", "address3": "", "city": "Belchertown", "zip_code": "01007", "country": "US", "state": "MA", "display_address": ["145 N Main St", "Belchertown, MA 01007"]}, "phone": "+14133234735", "display_phone": "(413) 323-4735", "distance": 10661.097791279846}, {"id": "Lwjwq2MI6EBw-adaJCv4zQ", "alias": "roadhouse-cafe-belchertown", "name": "Roadhouse Cafe", "image_url": "https://s3-media4.fl.yelpcdn.com/bphoto/pX6Z4TaChsSy3q0PHpP1EQ/o.jpg", "is_closed": false, "url": "https://www.yelp.com/biz/roadhouse-cafe-belchertown?adjust_creative=asslzE1UV0XuKI953B1vtw&utm_campaign=yelp_api_v3&utm_medium=api_v3_business_search&utm_source=asslzE1UV0XuKI953B1vtw", "review_count": 78, "categories": [{"alias": "breakfast_brunch", "title": "Breakfast & Brunch"}, {"alias": "cafes", "title": "Cafes"}], "rating": 3.0, "coordinates": {"latitude": 42.29843, "longitude": -72.41532}, "transactions": [], "price": "$$", "location": {"address1": "178 Federal St", "address2": "", "address3": "", "city": "Belchertown", "zip_code": "01007", "country": "US", "state": "MA", "display_address": ["178 Federal St", "Belchertown, MA 01007"]}, "phone": "+14133236175", "display_phone": "(413) 323-6175", "distance": 11213.973573614048}, {"id": "n_s_vnPID1VDUO53PGE7qQ", "alias": "mcdonalds-ware", "name": "McDonald's", "image_url": "https://s3-media3.fl.yelpcdn.com/bphoto/A9Nkl7yHbhRSf4DzmMWoTg/o.jpg", "is_closed": false, "url": "https://www.yelp.com/biz/mcdonalds-ware?adjust_creative=asslzE1UV0XuKI953B1vtw&utm_campaign=yelp_api_v3&utm_medium=api_v3_business_search&utm_source=asslzE1UV0XuKI953B1vtw", "review_count": 8, "categories": [{"alias": "coffee", "title": "Coffee & Tea"}, {"alias": "burgers", "title": "Burgers"}, {"alias": "hotdogs", "title": "Fast Food"}], "rating": 2.0, "coordinates": {"latitude": 42.2569839, "longitude": -72.2498621}, "transactions": [], "price": "$", "location": {"address1": "117 West St", "address2": "", "address3": "", "city": "Ware", "zip_code": "01082", "country": "US", "state": "MA", "display_address": ["117 West St", "Ware, MA 01082"]}, "phone": "+14139673485", "display_phone": "(413) 967-3485", "distance": 5502.362879380193}, {"id": "JDJEMD0M4Q0l31-YS0mC-w", "alias": "northeast-pizza-west-brookfield", "name": "Northeast Pizza", "image_url": "https://s3-media2.fl.yelpcdn.com/bphoto/JY4uYYJAdshPFLYGjWeFjw/o.jpg", "is_closed": false, "url": "https://www.yelp.com/biz/northeast-pizza-west-brookfield?adjust_creative=asslzE1UV0XuKI953B1vtw&utm_campaign=yelp_api_v3&utm_medium=api_v3_business_search&utm_source=asslzE1UV0XuKI953B1vtw", "review_count": 12, "categories": [{"alias": "pizza", "title": "Pizza"}], "rating": 2.0, "coordinates": {"latitude": 42.2389831542969, "longitude": -72.1653747558594}, "transactions": [], "price": "$", "location": {"address1": "208 W Main St", "address2": null, "address3": null, "city": "West Brookfield", "zip_code": "01585", "country": "US", "state": "MA", "display_address": ["208 W Main St", "West Brookfield, MA 01585"]}, "phone": "+15088679567", "display_phone": "(508) 867-9567", "distance": 11651.480224876608}, {"id": "kURqF15vnpJMKlzO9yOQjw", "alias": "subway-w-brookfield", "name": "Subway", "image_url": "https://s3-media1.fl.yelpcdn.com/bphoto/0a4AVwVVylrCsUo6T_Or7A/o.jpg", "is_closed": false, "url": "https://www.yelp.com/biz/subway-w-brookfield?adjust_creative=asslzE1UV0XuKI953B1vtw&utm_campaign=yelp_api_v3&utm_medium=api_v3_business_search&utm_source=asslzE1UV0XuKI953B1vtw", "review_count": 3, "categories": [{"alias": "sandwiches", "title": "Sandwiches"}], "rating": 1.5, "coordinates": {"latitude": 42.2341074710016, "longitude": -72.1557967975961}, "transactions": [], "price": "$", "location": {"address1": "143 W Main St", "address2": null, "address3": null, "city": "W Brookfield", "zip_code": "01585", "country": "US", "state": "MA", "display_address": ["143 W Main St", "W Brookfield, MA 01585"]}, "phone": "+15088673433", "display_phone": "(508) 867-3433", "distance": 12610.645462416662}, {"id": "7xfUwsnwfiI-FppHfXeq8w", "alias": "mcdonalds-belchertown", "name": "McDonald's", "image_url": "https://s3-media3.fl.yelpcdn.com/bphoto/vEDcWwtTZSaulesDaa94JA/o.jpg", "is_closed": false, "url": "https://www.yelp.com/biz/mcdonalds-belchertown?adjust_creative=asslzE1UV0XuKI953B1vtw&utm_campaign=yelp_api_v3&utm_medium=api_v3_business_search&utm_source=asslzE1UV0XuKI953B1vtw", "review_count": 12, "categories": [{"alias": "hotdogs", "title": "Fast Food"}, {"alias": "burgers", "title": "Burgers"}, {"alias": "coffee", "title": "Coffee & Tea"}], "rating": 1.5, "coordinates": {"latitude": 42.2883518825547, "longitude": -72.4062457680702}, "transactions": [], "price": "$", "location": {"address1": "148 N Main St", "address2": "", "address3": "", "city": "Belchertown", "zip_code": "01007", "country": "US", "state": "MA", "display_address": ["148 N Main St", "Belchertown, MA 01007"]}, "phone": "+14133236498", "display_phone": "(413) 323-6498", "distance": 10563.3504898663}, {"id": "Io4C5tUwnb_YzeaMXHBqBA", "alias": "shuckin-truck-narragansett-2", "name": "Shuckin Truck", "image_url": "https://s3-media2.fl.yelpcdn.com/bphoto/r7QRORfe9UYVS7GGzUm9DQ/o.jpg", "is_closed": false, "url": "https://www.yelp.com/biz/shuckin-truck-narragansett-2?adjust_creative=asslzE1UV0XuKI953B1vtw&utm_campaign=yelp_api_v3&utm_medium=api_v3_business_search&utm_source=asslzE1UV0XuKI953B1vtw", "review_count": 24, "categories": [{"alias": "foodtrucks", "title": "Food Trucks"}, {"alias": "seafood", "title": "Seafood"}], "rating": 4.5, "coordinates": {"latitude": 41.4274482727051, "longitude": -71.4597778320313}, "transactions": [], "price": "$$", "location": {"address1": "", "address2": "", "address3": "", "city": "Narragansett", "zip_code": "02882", "country": "US", "state": "RI", "display_address": ["Narragansett, RI 02882"]}, "phone": "+14017415953", "display_phone": "(401) 741-5953", "distance": 119851.13036403971}, {"id": "qqA8YX58xnmEXLyanHfdUg", "alias": "stufd-food-truck-brooklyn", "name": "Stuf'd Food Truck", "image_url": "https://s3-media2.fl.yelpcdn.com/bphoto/_Wn0i-tLIOFinw8BPAqxPA/o.jpg", "is_closed": false, "url": "https://www.yelp.com/biz/stufd-food-truck-brooklyn?adjust_creative=asslzE1UV0XuKI953B1vtw&utm_campaign=yelp_api_v3&utm_medium=api_v3_business_search&utm_source=asslzE1UV0XuKI953B1vtw", "review_count": 4, "categories": [{"alias": "sandwiches", "title": "Sandwiches"}, {"alias": "foodtrucks", "title": "Food Trucks"}], "rating": 4.0, "coordinates": {"latitude": 40.7124539, "longitude": -73.9287374}, "transactions": [], "location": {"address1": "178 Varick Ave", "address2": "", "address3": null, "city": "Brooklyn", "zip_code": "11237", "country": "US", "state": "NY", "display_address": ["178 Varick Ave", "Brooklyn, NY 11237"]}, "phone": "+18457091808", "display_phone": "(845) 709-1808", "distance": 223801.31683637752}]