[{"id": "1FDg-B7ddSPoZirUJXsdtQ", "alias": "the-ashfield-lake-house-ashfield", "name": "The Ashfield Lake House", "image_url": "https://s3-media4.fl.yelpcdn.com/bphoto/YK6BItbmmR7rbQZzniZojQ/o.jpg", "is_closed": false, "url": "https://www.yelp.com/biz/the-ashfield-lake-house-ashfield?adjust_creative=ywY5UnLZrNrRl2b93Ruy_g&utm_campaign=yelp_api_v3&utm_medium=api_v3_business_search&utm_source=ywY5UnLZrNrRl2b93Ruy_g", "review_count": 38, "categories": [{"alias": "bars", "title": "Bars"}, {"alias": "tradamerican", "title": "American (Traditional)"}, {"alias": "comfortfood", "title": "Comfort Food"}], "rating": 3.0, "coordinates": {"latitude": 42.53083, "longitude": -72.8026299}, "transactions": [], "price": "$$", "location": {"address1": "141 Buckland Rd", "address2": "", "address3": "", "city": "Ashfield", "zip_code": "01330", "country": "US", "state": "MA", "display_address": ["141 Buckland Rd", "Ashfield, MA 01330"]}, "phone": "+14136280158", "display_phone": "(413) 628-0158", "distance": 2018.3160965957754}, {"id": "jwLPIWGACP3mDVqh-mflQw", "alias": "the-blue-rock-shelburne-falls-3", "name": "The Blue Rock", "image_url": "https://s3-media4.fl.yelpcdn.com/bphoto/-WTcjD8LT2yr9p1hu191fw/o.jpg", "is_closed": false, "url": "https://www.yelp.com/biz/the-blue-rock-shelburne-falls-3?adjust_creative=ywY5UnLZrNrRl2b93Ruy_g&utm_campaign=yelp_api_v3&utm_medium=api_v3_business_search&utm_source=ywY5UnLZrNrRl2b93Ruy_g", "review_count": 45, "categories": [{"alias": "newamerican", "title": "American (New)"}, {"alias": "cocktailbars", "title": "Cocktail Bars"}, {"alias": "beerbar", "title": "Beer Bar"}], "rating": 4.5, "coordinates": {"latitude": 42.6031535, "longitude": -72.7412502}, "transactions": [], "price": "$$", "location": {"address1": "1 Ashfield St", "address2": null, "address3": "", "city": "Shelburne Falls", "zip_code": "01370", "country": "US", "state": "MA", "display_address": ["1 Ashfield St", "Shelburne Falls, MA 01370"]}, "phone": "+14136258133", "display_phone": "(413) 625-8133", "distance": 11247.44615886665}, {"id": "wkIOjcec-3uGidfIXcOpJA", "alias": "elmers-store-restaurant-ashfield", "name": "Elmer's Store Restaurant", "image_url": "https://s3-media3.fl.yelpcdn.com/bphoto/2AgISV-Z2E7y_ISdmkzroA/o.jpg", "is_closed": false, "url": "https://www.yelp.com/biz/elmers-store-restaurant-ashfield?adjust_creative=ywY5UnLZrNrRl2b93Ruy_g&utm_campaign=yelp_api_v3&utm_medium=api_v3_business_search&utm_source=ywY5UnLZrNrRl2b93Ruy_g", "review_count": 45, "categories": [{"alias": "breakfast_brunch", "title": "Breakfast & Brunch"}, {"alias": "bars", "title": "Bars"}], "rating": 4.0, "coordinates": {"latitude": 42.5261756, "longitude": -72.7924932}, "transactions": [], "price": "$$", "location": {"address1": "396 Main St", "address2": null, "address3": "", "city": "Ashfield", "zip_code": "01330", "country": "US", "state": "MA", "display_address": ["396 Main St", "Ashfield, MA 01330"]}, "phone": "+14136284003", "display_phone": "(413) 628-4003", "distance": 1916.428085944821}, {"id": "_9sO066L6e1kjQRf2jzd7g", "alias": "countrypie-pizza-company-ashfield", "name": "Countrypie Pizza Company", "image_url": "https://s3-media2.fl.yelpcdn.com/bphoto/YIZ24sof1VTPO1xtqCK6cg/o.jpg", "is_closed": false, "url": "https://www.yelp.com/biz/countrypie-pizza-company-ashfield?adjust_creative=ywY5UnLZrNrRl2b93Ruy_g&utm_campaign=yelp_api_v3&utm_medium=api_v3_business_search&utm_source=ywY5UnLZrNrRl2b93Ruy_g", "review_count": 30, "categories": [{"alias": "pizza", "title": "Pizza"}], "rating": 4.5, "coordinates": {"latitude": 42.526902, "longitude": -72.794253}, "transactions": [], "price": "$", "location": {"address1": "343 Main St", "address2": "", "address3": "", "city": "Ashfield", "zip_code": "01330", "country": "US", "state": "MA", "display_address": ["343 Main St", "Ashfield, MA 01330"]}, "phone": "+14136284488", "display_phone": "(413) 628-4488", "distance": 1879.9398256319025}, {"id": "IRDbtfi_STNrrinh1V3csg", "alias": "the-rabbit-hole-worthington-3", "name": "The Rabbit Hole", "image_url": "https://s3-media1.fl.yelpcdn.com/bphoto/EdhUcHZXdrg_qRpOyqAsSw/o.jpg", "is_closed": false, "url": "https://www.yelp.com/biz/the-rabbit-hole-worthington-3?adjust_creative=ywY5UnLZrNrRl2b93Ruy_g&utm_campaign=yelp_api_v3&utm_medium=api_v3_business_search&utm_source=ywY5UnLZrNrRl2b93Ruy_g", "review_count": 5, "categories": [{"alias": "newamerican", "title": "American (New)"}], "rating": 4.0, "coordinates": {"latitude": 42.40078, "longitude": -72.93759}, "transactions": [], "location": {"address1": "144 Huntington Rd", "address2": null, "address3": "", "city": "Worthington", "zip_code": "01098", "country": "US", "state": "MA", "display_address": ["144 Huntington Rd", "Worthington, MA 01098"]}, "phone": "+14132380144", "display_phone": "(413) 238-0144", "distance": 16428.101104540237}, {"id": "rCi5XRAlbjFJBD05OWfR1A", "alias": "velvet-restaurant-worthington-2", "name": "Velvet Restaurant", "image_url": "https://s3-media3.fl.yelpcdn.com/bphoto/UlVYHq_A04HTAXFdC6ALBA/o.jpg", "is_closed": false, "url": "https://www.yelp.com/biz/velvet-restaurant-worthington-2?adjust_creative=ywY5UnLZrNrRl2b93Ruy_g&utm_campaign=yelp_api_v3&utm_medium=api_v3_business_search&utm_source=ywY5UnLZrNrRl2b93Ruy_g", "review_count": 7, "categories": [{"alias": "bars", "title": "Bars"}, {"alias": "newamerican", "title": "American (New)"}], "rating": 4.0, "coordinates": {"latitude": 42.40855, "longitude": -72.94236}, "transactions": [], "location": {"address1": "113 Ridge Rd", "address2": null, "address3": "", "city": "Worthington", "zip_code": "01098", "country": "US", "state": "MA", "display_address": ["113 Ridge Rd", "Worthington, MA 01098"]}, "phone": "+14132384492", "display_phone": "(413) 238-4492", "distance": 16034.239529588987}, {"id": "oLM42PUJliWpu1_UN-G1fQ", "alias": "hearty-eats-shelburne-falls", "name": "Hearty Eats", "image_url": "https://s3-media4.fl.yelpcdn.com/bphoto/wjyt8KlfCKutpxkYg6F70Q/o.jpg", "is_closed": false, "url": "https://www.yelp.com/biz/hearty-eats-shelburne-falls?adjust_creative=ywY5UnLZrNrRl2b93Ruy_g&utm_campaign=yelp_api_v3&utm_medium=api_v3_business_search&utm_source=ywY5UnLZrNrRl2b93Ruy_g", "review_count": 79, "categories": [{"alias": "fishnchips", "title": "Fish & Chips"}, {"alias": "noodles", "title": "Noodles"}, {"alias": "indpak", "title": "Indian"}], "rating": 4.5, "coordinates": {"latitude": 42.6036331, "longitude": -72.7393198}, "transactions": [], "price": "$$", "location": {"address1": "24 Bridge St", "address2": null, "address3": "", "city": "Shelburne Falls", "zip_code": "01370", "country": "US", "state": "MA", "display_address": ["24 Bridge St", "Shelburne Falls, MA 01370"]}, "phone": "+14136256460", "display_phone": "(413) 625-6460", "distance": 11483.75661756917}, {"id": "JIUMuy58yl_k85Y_Fig7LQ", "alias": "el-sotano-shelburne", "name": "El Sotano", "image_url": "https://s3-media2.fl.yelpcdn.com/bphoto/CRDJumiKXIQXUhF2PlMGlA/o.jpg", "is_closed": false, "url": "https://www.yelp.com/biz/el-sotano-shelburne?adjust_creative=ywY5UnLZrNrRl2b93Ruy_g&utm_campaign=yelp_api_v3&utm_medium=api_v3_business_search&utm_source=ywY5UnLZrNrRl2b93Ruy_g", "review_count": 25, "categories": [{"alias": "mexican", "title": "Mexican"}], "rating": 4.5, "coordinates": {"latitude": 42.603818, "longitude": -72.739733}, "transactions": [], "location": {"address1": "10 Bridge St", "address2": null, "address3": "", "city": "Shelburne", "zip_code": "01370", "country": "US", "state": "MA", "display_address": ["10 Bridge St", "Shelburne, MA 01370"]}, "phone": "+14134893754", "display_phone": "(413) 489-3754", "distance": 11484.955675039564}, {"id": "6E4Wd60NQcqPCGYtiKvbWg", "alias": "gypsy-apple-bistro-shelburne-falls", "name": "Gypsy Apple Bistro", "image_url": "https://s3-media4.fl.yelpcdn.com/bphoto/KyaQbCFI5yX1AnN-9q-bIg/o.jpg", "is_closed": false, "url": "https://www.yelp.com/biz/gypsy-apple-bistro-shelburne-falls?adjust_creative=ywY5UnLZrNrRl2b93Ruy_g&utm_campaign=yelp_api_v3&utm_medium=api_v3_business_search&utm_source=ywY5UnLZrNrRl2b93Ruy_g", "review_count": 37, "categories": [{"alias": "french", "title": "French"}, {"alias": "bars", "title": "Bars"}], "rating": 4.5, "coordinates": {"latitude": 42.6034651, "longitude": -72.7377135}, "transactions": [], "price": "$$$", "location": {"address1": "65 Bridge St", "address2": "", "address3": "", "city": "Shelburne Falls", "zip_code": "01370", "country": "US", "state": "MA", "display_address": ["65 Bridge St", "Shelburne Falls, MA 01370"]}, "phone": "+14136256345", "display_phone": "(413) 625-6345", "distance": 11510.389294152632}, {"id": "cjeDbBpMLrjHMIeqHwU_jg", "alias": "west-end-pub-shelburne-falls", "name": "West End Pub", "image_url": "https://s3-media4.fl.yelpcdn.com/bphoto/AAWFoSbAVa7VtXW6U7uLVQ/o.jpg", "is_closed": false, "url": "https://www.yelp.com/biz/west-end-pub-shelburne-falls?adjust_creative=ywY5UnLZrNrRl2b93Ruy_g&utm_campaign=yelp_api_v3&utm_medium=api_v3_business_search&utm_source=ywY5UnLZrNrRl2b93Ruy_g", "review_count": 101, "categories": [{"alias": "tradamerican", "title": "American (Traditional)"}, {"alias": "pubs", "title": "Pubs"}, {"alias": "burgers", "title": "Burgers"}], "rating": 4.0, "coordinates": {"latitude": 42.603919, "longitude": -72.7413603}, "transactions": [], "price": "$$", "location": {"address1": "16 State St", "address2": "", "address3": "", "city": "Shelburne Falls", "zip_code": "01370", "country": "US", "state": "MA", "display_address": ["16 State St", "Shelburne Falls, MA 01370"]}, "phone": "+14136256216", "display_phone": "(413) 625-6216", "distance": 11429.222204594802}, {"id": "Hz8ENDohZ-ZY2MooPz8-Eg", "alias": "spruce-corner-restaurant-goshen", "name": "Spruce Corner Restaurant", "image_url": "https://s3-media3.fl.yelpcdn.com/bphoto/Vf9B0rulKSpqtTS-E_lQrA/o.jpg", "is_closed": false, "url": "https://www.yelp.com/biz/spruce-corner-restaurant-goshen?adjust_creative=ywY5UnLZrNrRl2b93Ruy_g&utm_campaign=yelp_api_v3&utm_medium=api_v3_business_search&utm_source=ywY5UnLZrNrRl2b93Ruy_g", "review_count": 11, "categories": [{"alias": "tradamerican", "title": "American (Traditional)"}], "rating": 4.0, "coordinates": {"latitude": 42.45618, "longitude": -72.832747}, "transactions": [], "price": "$$", "location": {"address1": "188 Berkshire Trl W", "address2": "", "address3": "", "city": "Goshen", "zip_code": "01032", "country": "US", "state": "MA", "display_address": ["188 Berkshire Trl W", "Goshen, MA 01032"]}, "phone": "+14132683188", "display_phone": "(413) 268-3188", "distance": 6722.196147285632}, {"id": "wqQ-cLMbLmxzc_p4jjDSxw", "alias": "the-old-creamery-cummington-2", "name": "The Old Creamery", "image_url": "https://s3-media3.fl.yelpcdn.com/bphoto/suPv8fzXhQdsR8elaUVfzg/o.jpg", "is_closed": false, "url": "https://www.yelp.com/biz/the-old-creamery-cummington-2?adjust_creative=ywY5UnLZrNrRl2b93Ruy_g&utm_campaign=yelp_api_v3&utm_medium=api_v3_business_search&utm_source=ywY5UnLZrNrRl2b93Ruy_g", "review_count": 31, "categories": [{"alias": "grocery", "title": "Grocery"}, {"alias": "bakeries", "title": "Bakeries"}, {"alias": "sandwiches", "title": "Sandwiches"}], "rating": 4.5, "coordinates": {"latitude": 42.464115, "longitude": -72.90535}, "transactions": [], "price": "$$", "location": {"address1": "445 Berkshire Trl", "address2": "", "address3": "", "city": "Cummington", "zip_code": "01026", "country": "US", "state": "MA", "display_address": ["445 Berkshire Trl", "Cummington, MA 01026"]}, "phone": "+14136345560", "display_phone": "(413) 634-5560", "distance": 9648.282282602438}, {"id": "aw0FDqkiYDIE33KmHW7YHQ", "alias": "listons-bar-and-grill-worthington", "name": "Listons Bar & Grill", "image_url": "https://s3-media2.fl.yelpcdn.com/bphoto/Zw2va6P_vOdum1skN8J6cQ/o.jpg", "is_closed": false, "url": "https://www.yelp.com/biz/listons-bar-and-grill-worthington?adjust_creative=ywY5UnLZrNrRl2b93Ruy_g&utm_campaign=yelp_api_v3&utm_medium=api_v3_business_search&utm_source=ywY5UnLZrNrRl2b93Ruy_g", "review_count": 7, "categories": [{"alias": "sportsbars", "title": "Sports Bars"}, {"alias": "tradamerican", "title": "American (Traditional)"}], "rating": 4.5, "coordinates": {"latitude": 42.42713, "longitude": -72.95322}, "transactions": [], "location": {"address1": "324 Old North Rd Rte 143", "address2": "", "address3": null, "city": "Worthington", "zip_code": "01098", "country": "US", "state": "MA", "display_address": ["324 Old North Rd Rte 143", "Worthington, MA 01098"]}, "phone": "+14132385353", "display_phone": "(413) 238-5353", "distance": 15245.335437630376}, {"id": "bfNy4CK-UWtNIIfzVXeZ-A", "alias": "wolfies-restaurant-south-deerfield", "name": "Wolfie's Restaurant", "image_url": "https://s3-media2.fl.yelpcdn.com/bphoto/6mdshhOQiXEPBs8xUe9O7A/o.jpg", "is_closed": false, "url": "https://www.yelp.com/biz/wolfies-restaurant-south-deerfield?adjust_creative=ywY5UnLZrNrRl2b93Ruy_g&utm_campaign=yelp_api_v3&utm_medium=api_v3_business_search&utm_source=ywY5UnLZrNrRl2b93Ruy_g", "review_count": 92, "categories": [{"alias": "tradamerican", "title": "American (Traditional)"}, {"alias": "bars", "title": "Bars"}, {"alias": "chicken_wings", "title": "Chicken Wings"}], "rating": 3.5, "coordinates": {"latitude": 42.4768333435059, "longitude": -72.6083679199219}, "transactions": ["delivery"], "price": "$$", "location": {"address1": "52 S Main St", "address2": "", "address3": "", "city": "South Deerfield", "zip_code": "01373", "country": "US", "state": "MA", "display_address": ["52 S Main St", "South Deerfield, MA 01373"]}, "phone": "+14136657068", "display_phone": "(413) 665-7068", "distance": 16970.324283810667}, {"id": "1SuRjphJzX8b9mhicrjGSA", "alias": "the-waxwing-hatfield", "name": "The Waxwing", "image_url": "https://s3-media2.fl.yelpcdn.com/bphoto/QWAmNTvZfp7mBBSPK0Camw/o.jpg", "is_closed": false, "url": "https://www.yelp.com/biz/the-waxwing-hatfield?adjust_creative=ywY5UnLZrNrRl2b93Ruy_g&utm_campaign=yelp_api_v3&utm_medium=api_v3_business_search&utm_source=ywY5UnLZrNrRl2b93Ruy_g", "review_count": 1, "categories": [{"alias": "seafood", "title": "Seafood"}, {"alias": "mediterranean", "title": "Mediterranean"}, {"alias": "cocktailbars", "title": "Cocktail Bars"}], "rating": 5.0, "coordinates": {"latitude": 42.37246, "longitude": -72.63478}, "transactions": [], "location": {"address1": "34 West St", "address2": "", "address3": null, "city": "Hatfield", "zip_code": "01088", "country": "US", "state": "MA", "display_address": ["34 West St", "Hatfield, MA 01088"]}, "phone": "+14132476113", "display_phone": "(413) 247-6113", "distance": 21276.657376195973}, {"id": "cSqUvTVIVcf0SxF2OnzQ4A", "alias": "delicatesse-shelburne-falls", "name": "Delicatesse", "image_url": "https://s3-media3.fl.yelpcdn.com/bphoto/QwYRU6Kwi9XUtW7cU1TMyw/o.jpg", "is_closed": false, "url": "https://www.yelp.com/biz/delicatesse-shelburne-falls?adjust_creative=ywY5UnLZrNrRl2b93Ruy_g&utm_campaign=yelp_api_v3&utm_medium=api_v3_business_search&utm_source=ywY5UnLZrNrRl2b93Ruy_g", "review_count": 15, "categories": [{"alias": "delis", "title": "Delis"}, {"alias": "cafes", "title": "Cafes"}, {"alias": "bagels", "title": "Bagels"}], "rating": 5.0, "coordinates": {"latitude": 42.6037749, "longitude": -72.7402612}, "transactions": [], "location": {"address1": "8 Bridge St", "address2": "", "address3": null, "city": "Shelburne Falls", "zip_code": "01370", "country": "US", "state": "MA", "display_address": ["8 Bridge St", "Shelburne Falls, MA 01370"]}, "phone": "+14134893257", "display_phone": "(413) 489-3257", "distance": 11465.05955336162}, {"id": "GrjITzOl6sPP8DSv1RWxnw", "alias": "baked-shelburne-falls", "name": "Baked", "image_url": "https://s3-media4.fl.yelpcdn.com/bphoto/d3lzR8hA5CWajBKGBPND2A/o.jpg", "is_closed": false, "url": "https://www.yelp.com/biz/baked-shelburne-falls?adjust_creative=ywY5UnLZrNrRl2b93Ruy_g&utm_campaign=yelp_api_v3&utm_medium=api_v3_business_search&utm_source=ywY5UnLZrNrRl2b93Ruy_g", "review_count": 42, "categories": [{"alias": "cafes", "title": "Cafes"}, {"alias": "breakfast_brunch", "title": "Breakfast & Brunch"}, {"alias": "bakeries", "title": "Bakeries"}], "rating": 4.0, "coordinates": {"latitude": 42.6032697149586, "longitude": -72.7398762962963}, "transactions": [], "price": "$", "location": {"address1": "4 Deerfield Ave", "address2": "", "address3": null, "city": "Shelburne Falls", "zip_code": "01370", "country": "US", "state": "MA", "display_address": ["4 Deerfield Ave", "Shelburne Falls, MA 01370"]}, "phone": "+14134893139", "display_phone": "(413) 489-3139", "distance": 11426.04335036374}, {"id": "O-cuf9gqctm096VCcM79Lg", "alias": "conway-inn-conway", "name": "Conway Inn", "image_url": "https://s3-media2.fl.yelpcdn.com/bphoto/PkYRlRCqQCTdb2bqT10Y3A/o.jpg", "is_closed": false, "url": "https://www.yelp.com/biz/conway-inn-conway?adjust_creative=ywY5UnLZrNrRl2b93Ruy_g&utm_campaign=yelp_api_v3&utm_medium=api_v3_business_search&utm_source=ywY5UnLZrNrRl2b93Ruy_g", "review_count": 6, "categories": [{"alias": "bars", "title": "Bars"}, {"alias": "pizza", "title": "Pizza"}], "rating": 4.5, "coordinates": {"latitude": 42.5087199, "longitude": -72.69772}, "transactions": [], "price": "$", "location": {"address1": "43 Main", "address2": "", "address3": "", "city": "Conway", "zip_code": "01341", "country": "US", "state": "MA", "display_address": ["43 Main", "Conway, MA 01341"]}, "phone": "+14133694428", "display_phone": "(413) 369-4428", "distance": 9152.284496579781}, {"id": "rHXDd-R9ztUJxKRMj2Ziqw", "alias": "goshen-snack-bar-williamsburg", "name": "Goshen Snack Bar", "image_url": "", "is_closed": false, "url": "https://www.yelp.com/biz/goshen-snack-bar-williamsburg?adjust_creative=ywY5UnLZrNrRl2b93Ruy_g&utm_campaign=yelp_api_v3&utm_medium=api_v3_business_search&utm_source=ywY5UnLZrNrRl2b93Ruy_g", "review_count": 1, "categories": [{"alias": "hotdogs", "title": "Fast Food"}], "rating": 5.0, "coordinates": {"latitude": 42.443226, "longitude": -72.815647}, "transactions": [], "location": {"address1": "47 Ball Rd", "address2": null, "address3": null, "city": "Williamsburg", "zip_code": "01096", "country": "US", "state": "MA", "display_address": ["47 Ball Rd", "Williamsburg, MA 01096"]}, "phone": "+14132689240", "display_phone": "(413) 268-9240", "distance": 7895.967893196249}, {"id": "VvAcjLH87MhtrZC67tPpww", "alias": "cold-river-cafe-and-restaurant-charlemont", "name": "Cold River Cafe & Restaurant", "image_url": "https://s3-media2.fl.yelpcdn.com/bphoto/PV_66NvbKtHue0PFwzD6Eg/o.jpg", "is_closed": false, "url": "https://www.yelp.com/biz/cold-river-cafe-and-restaurant-charlemont?adjust_creative=ywY5UnLZrNrRl2b93Ruy_g&utm_campaign=yelp_api_v3&utm_medium=api_v3_business_search&utm_source=ywY5UnLZrNrRl2b93Ruy_g", "review_count": 48, "categories": [{"alias": "breakfast_brunch", "title": "Breakfast & Brunch"}, {"alias": "cafes", "title": "Cafes"}, {"alias": "pizza", "title": "Pizza"}], "rating": 3.5, "coordinates": {"latitude": 42.62666, "longitude": -72.88171}, "transactions": [], "price": "$$", "location": {"address1": "31A Main St", "address2": "", "address3": "", "city": "Charlemont", "zip_code": "01339", "country": "US", "state": "MA", "display_address": ["31A Main St", "Charlemont, MA 01339"]}, "phone": "+14133390000", "display_phone": "(413) 339-0000", "distance": 13855.235351226142}, {"id": "NE3t2ECJh8NDDsUbrlhwYQ", "alias": "mollisons-windy-hill-sugar-shack-worthington", "name": "Mollison's Windy Hill Sugar Shack", "image_url": "https://s3-media4.fl.yelpcdn.com/bphoto/4qQPuYhpx4YYjIR2a6o29A/o.jpg", "is_closed": false, "url": "https://www.yelp.com/biz/mollisons-windy-hill-sugar-shack-worthington?adjust_creative=ywY5UnLZrNrRl2b93Ruy_g&utm_campaign=yelp_api_v3&utm_medium=api_v3_business_search&utm_source=ywY5UnLZrNrRl2b93Ruy_g", "review_count": 2, "categories": [{"alias": "breakfast_brunch", "title": "Breakfast & Brunch"}], "rating": 4.5, "coordinates": {"latitude": 42.394454581771, "longitude": -72.9491633361976}, "transactions": [], "price": "$", "location": {"address1": "1 W Sam Hill Rd", "address2": "", "address3": "", "city": "Worthington", "zip_code": "01098", "country": "US", "state": "MA", "display_address": ["1 W Sam Hill Rd", "Worthington, MA 01098"]}, "phone": "+14132385869", "display_phone": "(413) 238-5869", "distance": 17574.969365013643}, {"id": "jilRIDbiEEtDhi4hnV6Oug", "alias": "local-burgy-williamsburg", "name": "Local Burgy", "image_url": "https://s3-media2.fl.yelpcdn.com/bphoto/V9kmP6sTF9MSAXbNKLptZw/o.jpg", "is_closed": false, "url": "https://www.yelp.com/biz/local-burgy-williamsburg?adjust_creative=ywY5UnLZrNrRl2b93Ruy_g&utm_campaign=yelp_api_v3&utm_medium=api_v3_business_search&utm_source=ywY5UnLZrNrRl2b93Ruy_g", "review_count": 23, "categories": [{"alias": "bbq", "title": "Barbeque"}, {"alias": "foodstands", "title": "Food Stands"}, {"alias": "burgers", "title": "Burgers"}], "rating": 4.5, "coordinates": {"latitude": 42.3818416889538, "longitude": -72.7114339380672}, "transactions": [], "price": "$$", "location": {"address1": "93 Main St", "address2": "", "address3": null, "city": "Williamsburg", "zip_code": "01039", "country": "US", "state": "MA", "display_address": ["93 Main St", "Williamsburg, MA 01039"]}, "phone": "+14132688300", "display_phone": "(413) 268-8300", "distance": 16747.132461476827}, {"id": "75CHObb-0bxspwAaWcHsyw", "alias": "the-whately-inn-whately", "name": "The Whately Inn", "image_url": "https://s3-media3.fl.yelpcdn.com/bphoto/TkyLjBwFpK2kdenqUkKi0g/o.jpg", "is_closed": false, "url": "https://www.yelp.com/biz/the-whately-inn-whately?adjust_creative=ywY5UnLZrNrRl2b93Ruy_g&utm_campaign=yelp_api_v3&utm_medium=api_v3_business_search&utm_source=ywY5UnLZrNrRl2b93Ruy_g", "review_count": 60, "categories": [{"alias": "french", "title": "French"}, {"alias": "tradamerican", "title": "American (Traditional)"}], "rating": 3.5, "coordinates": {"latitude": 42.4398746, "longitude": -72.6349179}, "transactions": [], "price": "$$$", "location": {"address1": "193 Chestnut Plain Rd", "address2": "", "address3": "", "city": "Whately", "zip_code": "01093", "country": "US", "state": "MA", "display_address": ["193 Chestnut Plain Rd", "Whately, MA 01093"]}, "phone": "+14136653044", "display_phone": "(413) 665-3044", "distance": 16499.4793037921}, {"id": "0xEKvNlbiPjEpNXeX02LJA", "alias": "buckland-pizza-shelburne-falls", "name": "Buckland Pizza", "image_url": "https://s3-media2.fl.yelpcdn.com/bphoto/n1hVQ3vVJQjfRA_Nfzt3og/o.jpg", "is_closed": false, "url": "https://www.yelp.com/biz/buckland-pizza-shelburne-falls?adjust_creative=ywY5UnLZrNrRl2b93Ruy_g&utm_campaign=yelp_api_v3&utm_medium=api_v3_business_search&utm_source=ywY5UnLZrNrRl2b93Ruy_g", "review_count": 22, "categories": [{"alias": "pizza", "title": "Pizza"}], "rating": 3.5, "coordinates": {"latitude": 42.6038289562622, "longitude": -72.7414358539614}, "transactions": [], "price": "$$", "location": {"address1": "13 State St", "address2": "", "address3": "", "city": "Shelburne Falls", "zip_code": "01370", "country": "US", "state": "MA", "display_address": ["13 State St", "Shelburne Falls, MA 01370"]}, "phone": "+14136256342", "display_phone": "(413) 625-6342", "distance": 11400.354201130202}, {"id": "M-DCwXS6_O-rOVJAxr3ofw", "alias": "kobe-hibachi-sushi-and-bar-greenfield-2", "name": "Kobe Hibachi Sushi and Bar", "image_url": "https://s3-media1.fl.yelpcdn.com/bphoto/zBcLhfB-95e9l01Zykb7Cg/o.jpg", "is_closed": false, "url": "https://www.yelp.com/biz/kobe-hibachi-sushi-and-bar-greenfield-2?adjust_creative=ywY5UnLZrNrRl2b93Ruy_g&utm_campaign=yelp_api_v3&utm_medium=api_v3_business_search&utm_source=ywY5UnLZrNrRl2b93Ruy_g", "review_count": 54, "categories": [{"alias": "japanese", "title": "Japanese"}, {"alias": "sushi", "title": "Sushi Bars"}, {"alias": "cocktailbars", "title": "Cocktail Bars"}], "rating": 3.5, "coordinates": {"latitude": 42.5863135, "longitude": -72.6271816}, "transactions": ["pickup"], "price": "$$", "location": {"address1": "254 Mohawk Trl", "address2": null, "address3": "", "city": "Greenfield", "zip_code": "01301", "country": "US", "state": "MA", "display_address": ["254 Mohawk Trl", "Greenfield, MA 01301"]}, "phone": "+14137728888", "display_phone": "(413) 772-8888", "distance": 16906.18541288366}, {"id": "RjcmsCplUC_ZFvaJb2nfMA", "alias": "gianni-figs-ristorante-deerfield", "name": "Gianni Fig's Ristorante", "image_url": "https://s3-media1.fl.yelpcdn.com/bphoto/SWZ-jpqvOAfR3OM4KI_rLg/o.jpg", "is_closed": false, "url": "https://www.yelp.com/biz/gianni-figs-ristorante-deerfield?adjust_creative=ywY5UnLZrNrRl2b93Ruy_g&utm_campaign=yelp_api_v3&utm_medium=api_v3_business_search&utm_source=ywY5UnLZrNrRl2b93Ruy_g", "review_count": 30, "categories": [{"alias": "italian", "title": "Italian"}], "rating": 4.0, "coordinates": {"latitude": 42.4775047039286, "longitude": -72.609119691213}, "transactions": ["delivery"], "location": {"address1": "6 Elm St", "address2": "", "address3": null, "city": "Deerfield", "zip_code": "01373", "country": "US", "state": "MA", "display_address": ["6 Elm St", "Deerfield, MA 01373"]}, "phone": "+14133505940", "display_phone": "(413) 350-5940", "distance": 16895.91372736633}, {"id": "_19rex6zqPyQgsSAgqsFYg", "alias": "williamsburg-snack-bar-haydenville", "name": "Williamsburg Snack Bar", "image_url": "https://s3-media2.fl.yelpcdn.com/bphoto/2sme__nhtRSb_ViggNHK9g/o.jpg", "is_closed": false, "url": "https://www.yelp.com/biz/williamsburg-snack-bar-haydenville?adjust_creative=ywY5UnLZrNrRl2b93Ruy_g&utm_campaign=yelp_api_v3&utm_medium=api_v3_business_search&utm_source=ywY5UnLZrNrRl2b93Ruy_g", "review_count": 59, "categories": [{"alias": "sandwiches", "title": "Sandwiches"}], "rating": 4.5, "coordinates": {"latitude": 42.380499, "longitude": -72.707228}, "transactions": [], "price": "$", "location": {"address1": "109 Main St", "address2": "", "address3": "", "city": "Haydenville", "zip_code": "01039", "country": "US", "state": "MA", "display_address": ["109 Main St", "Haydenville, MA 01039"]}, "phone": "+14132687556", "display_phone": "(413) 268-7556", "distance": 17045.03017252348}, {"id": "owKxbDnhxlBpqhcfiBjGiA", "alias": "berkshire-pizzeria-charlemont", "name": "Berkshire Pizzeria", "image_url": "https://s3-media1.fl.yelpcdn.com/bphoto/devT5oL9Ji6IwzHm5rv5sA/o.jpg", "is_closed": false, "url": "https://www.yelp.com/biz/berkshire-pizzeria-charlemont?adjust_creative=ywY5UnLZrNrRl2b93Ruy_g&utm_campaign=yelp_api_v3&utm_medium=api_v3_business_search&utm_source=ywY5UnLZrNrRl2b93Ruy_g", "review_count": 36, "categories": [{"alias": "pizza", "title": "Pizza"}, {"alias": "breakfast_brunch", "title": "Breakfast & Brunch"}, {"alias": "wraps", "title": "Wraps"}], "rating": 4.0, "coordinates": {"latitude": 42.6270903, "longitude": -72.8787897}, "transactions": [], "price": "$", "location": {"address1": "72 Main St", "address2": "", "address3": "", "city": "Charlemont", "zip_code": "01339", "country": "US", "state": "MA", "display_address": ["72 Main St", "Charlemont, MA 01339"]}, "phone": "+14133375501", "display_phone": "(413) 337-5501", "distance": 13800.449016519122}, {"id": "2jbnnI5522q_T0pl-MuJXA", "alias": "bueno-y-sano-south-deerfield", "name": "Bueno Y Sano", "image_url": "https://s3-media1.fl.yelpcdn.com/bphoto/LGK_mCBWcVAPyyIenMDuBw/o.jpg", "is_closed": false, "url": "https://www.yelp.com/biz/bueno-y-sano-south-deerfield?adjust_creative=ywY5UnLZrNrRl2b93Ruy_g&utm_campaign=yelp_api_v3&utm_medium=api_v3_business_search&utm_source=ywY5UnLZrNrRl2b93Ruy_g", "review_count": 2, "categories": [{"alias": "mexican", "title": "Mexican"}], "rating": 5.0, "coordinates": {"latitude": 42.477567, "longitude": -72.608631}, "transactions": [], "location": {"address1": "3 Elm Streeet", "address2": null, "address3": "", "city": "South Deerfield", "zip_code": "01373", "country": "US", "state": "MA", "display_address": ["3 Elm Streeet", "South Deerfield, MA 01373"]}, "phone": "+14136654241", "display_phone": "(413) 665-4241", "distance": 16933.135184592342}, {"id": "W4sLmaC91ain7-EIW6rJhg", "alias": "99-restaurants-greenfield", "name": "99 Restaurants", "image_url": "https://s3-media1.fl.yelpcdn.com/bphoto/O1tqImdbBB0XmapA_c5vUQ/o.jpg", "is_closed": false, "url": "https://www.yelp.com/biz/99-restaurants-greenfield?adjust_creative=ywY5UnLZrNrRl2b93Ruy_g&utm_campaign=yelp_api_v3&utm_medium=api_v3_business_search&utm_source=ywY5UnLZrNrRl2b93Ruy_g", "review_count": 38, "categories": [{"alias": "pubs", "title": "Pubs"}, {"alias": "tradamerican", "title": "American (Traditional)"}], "rating": 4.0, "coordinates": {"latitude": 42.586313, "longitude": -72.623546}, "transactions": [], "price": "$$", "location": {"address1": "17 Colrain Rd", "address2": null, "address3": null, "city": "Greenfield", "zip_code": "01301", "country": "US", "state": "MA", "display_address": ["17 Colrain Rd", "Greenfield, MA 01301"]}, "phone": "+14137759997", "display_phone": "(413) 775-9997", "distance": 17194.837555926497}, {"id": "X_gLEwRckCC3wGGVIGhvuQ", "alias": "crazy-horse-lounge-charlemont", "name": "crazy horse lounge", "image_url": "https://s3-media2.fl.yelpcdn.com/bphoto/sh9BCRP3oQ9exZUdvJRQsw/o.jpg", "is_closed": false, "url": "https://www.yelp.com/biz/crazy-horse-lounge-charlemont?adjust_creative=ywY5UnLZrNrRl2b93Ruy_g&utm_campaign=yelp_api_v3&utm_medium=api_v3_business_search&utm_source=ywY5UnLZrNrRl2b93Ruy_g", "review_count": 1, "categories": [{"alias": "salad", "title": "Salad"}, {"alias": "cafes", "title": "Cafes"}], "rating": 3.0, "coordinates": {"latitude": 42.6225341098203, "longitude": -72.8777315857901}, "transactions": [], "location": {"address1": "66 S River Rd", "address2": "", "address3": "", "city": "Charlemont", "zip_code": "01339", "country": "US", "state": "MA", "display_address": ["66 S River Rd", "Charlemont, MA 01339"]}, "phone": "+14133396617", "display_phone": "(413) 339-6617", "distance": 13304.029495576127}, {"id": "YTfiTaawGtWf9CX5a64UNQ", "alias": "ciesluks-market-south-deerfield", "name": "Ciesluk's Market", "image_url": "https://s3-media4.fl.yelpcdn.com/bphoto/kMtgDkcjeQBIp-1SVychMw/o.jpg", "is_closed": false, "url": "https://www.yelp.com/biz/ciesluks-market-south-deerfield?adjust_creative=ywY5UnLZrNrRl2b93Ruy_g&utm_campaign=yelp_api_v3&utm_medium=api_v3_business_search&utm_source=ywY5UnLZrNrRl2b93Ruy_g", "review_count": 5, "categories": [{"alias": "grocery", "title": "Grocery"}, {"alias": "bakeries", "title": "Bakeries"}, {"alias": "delis", "title": "Delis"}], "rating": 4.5, "coordinates": {"latitude": 42.47767, "longitude": -72.60843}, "transactions": [], "location": {"address1": "55C N Main St", "address2": null, "address3": "", "city": "South Deerfield", "zip_code": "01373", "country": "US", "state": "MA", "display_address": ["55C N Main St", "South Deerfield, MA 01373"]}, "phone": "+14133973574", "display_phone": "(413) 397-3574", "distance": 16961.25261256897}, {"id": "QBdFoCiVYe2ZTwmTH8nIdQ", "alias": "damn-yankees-bbq-south-deerfield", "name": "Damn Yankees BBQ", "image_url": "https://s3-media1.fl.yelpcdn.com/bphoto/E-hdAq7izmIS7zdo860Org/o.jpg", "is_closed": false, "url": "https://www.yelp.com/biz/damn-yankees-bbq-south-deerfield?adjust_creative=ywY5UnLZrNrRl2b93Ruy_g&utm_campaign=yelp_api_v3&utm_medium=api_v3_business_search&utm_source=ywY5UnLZrNrRl2b93Ruy_g", "review_count": 25, "categories": [{"alias": "bbq", "title": "Barbeque"}], "rating": 3.5, "coordinates": {"latitude": 42.477924, "longitude": -72.61121}, "transactions": [], "price": "$$", "location": {"address1": "20 Elm St", "address2": "", "address3": "", "city": "South Deerfield", "zip_code": "01373", "country": "US", "state": "MA", "display_address": ["20 Elm St", "South Deerfield, MA 01373"]}, "phone": "+14132729347", "display_phone": "(413) 272-9347", "distance": 16718.29997894315}, {"id": "B9mlcSelTLSmYp3UQlMCxw", "alias": "holiday-pizza-south-deerfield", "name": "Holiday Pizza", "image_url": "https://s3-media2.fl.yelpcdn.com/bphoto/5UGIRfPb-Pw3YWCxfalkfw/o.jpg", "is_closed": false, "url": "https://www.yelp.com/biz/holiday-pizza-south-deerfield?adjust_creative=ywY5UnLZrNrRl2b93Ruy_g&utm_campaign=yelp_api_v3&utm_medium=api_v3_business_search&utm_source=ywY5UnLZrNrRl2b93Ruy_g", "review_count": 33, "categories": [{"alias": "pizza", "title": "Pizza"}, {"alias": "mediterranean", "title": "Mediterranean"}, {"alias": "italian", "title": "Italian"}], "rating": 4.5, "coordinates": {"latitude": 42.4771728515625, "longitude": -72.609130859375}, "transactions": ["delivery"], "price": "$", "location": {"address1": "3 Elm St", "address2": "Ste A", "address3": "", "city": "South Deerfield", "zip_code": "01373", "country": "US", "state": "MA", "display_address": ["3 Elm St", "Ste A", "South Deerfield, MA 01373"]}, "phone": "+14136658195", "display_phone": "(413) 665-8195", "distance": 16903.945830987235}, {"id": "Xw5Gz7kiqxN34K8vjslNAQ", "alias": "new-fortune-chinese-restaurant-greenfield", "name": "New Fortune Chinese Restaurant", "image_url": "https://s3-media2.fl.yelpcdn.com/bphoto/ftAnKqMowdiOo9CXaIgZAg/o.jpg", "is_closed": false, "url": "https://www.yelp.com/biz/new-fortune-chinese-restaurant-greenfield?adjust_creative=ywY5UnLZrNrRl2b93Ruy_g&utm_campaign=yelp_api_v3&utm_medium=api_v3_business_search&utm_source=ywY5UnLZrNrRl2b93Ruy_g", "review_count": 37, "categories": [{"alias": "chinese", "title": "Chinese"}, {"alias": "sushi", "title": "Sushi Bars"}, {"alias": "japanese", "title": "Japanese"}], "rating": 3.5, "coordinates": {"latitude": 42.587352, "longitude": -72.626241}, "transactions": ["delivery"], "price": "$$", "location": {"address1": "249 Mohawk Trl", "address2": "", "address3": "", "city": "Greenfield", "zip_code": "01301", "country": "US", "state": "MA", "display_address": ["249 Mohawk Trl", "Greenfield, MA 01301"]}, "phone": "+14137720838", "display_phone": "(413) 772-0838", "distance": 17054.741128309688}, {"id": "vie_fCh-eUqGfKNiNVjFow", "alias": "foxtown-diner-shelburne-falls", "name": "Foxtown Diner", "image_url": "https://s3-media2.fl.yelpcdn.com/bphoto/6w_uOYWUsL-1xZUOZtd9BA/o.jpg", "is_closed": false, "url": "https://www.yelp.com/biz/foxtown-diner-shelburne-falls?adjust_creative=ywY5UnLZrNrRl2b93Ruy_g&utm_campaign=yelp_api_v3&utm_medium=api_v3_business_search&utm_source=ywY5UnLZrNrRl2b93Ruy_g", "review_count": 35, "categories": [{"alias": "sandwiches", "title": "Sandwiches"}, {"alias": "breakfast_brunch", "title": "Breakfast & Brunch"}, {"alias": "burgers", "title": "Burgers"}], "rating": 4.0, "coordinates": {"latitude": 42.603473, "longitude": -72.739337}, "transactions": [], "price": "$", "location": {"address1": "25 Bridge St", "address2": "", "address3": "", "city": "Shelburne Falls", "zip_code": "01370", "country": "US", "state": "MA", "display_address": ["25 Bridge St", "Shelburne Falls, MA 01370"]}, "phone": "+14136256606", "display_phone": "(413) 625-6606", "distance": 11469.371389973248}, {"id": "35kzCz1iaCkTaJU63sDVaw", "alias": "smithsonian-cafe-and-chowder-house-west-hatfield", "name": "Smithsonian Cafe and Chowder House", "image_url": "https://s3-media4.fl.yelpcdn.com/bphoto/C4k2O-DbgIRb9ljmxwlHbg/o.jpg", "is_closed": false, "url": "https://www.yelp.com/biz/smithsonian-cafe-and-chowder-house-west-hatfield?adjust_creative=ywY5UnLZrNrRl2b93Ruy_g&utm_campaign=yelp_api_v3&utm_medium=api_v3_business_search&utm_source=ywY5UnLZrNrRl2b93Ruy_g", "review_count": 75, "categories": [{"alias": "tradamerican", "title": "American (Traditional)"}], "rating": 4.5, "coordinates": {"latitude": 42.3671380235461, "longitude": -72.6379209011793}, "transactions": ["delivery"], "price": "$", "location": {"address1": "1 W St", "address2": "", "address3": "", "city": "West Hatfield", "zip_code": "01088", "country": "US", "state": "MA", "display_address": ["1 W St", "West Hatfield, MA 01088"]}, "phone": "+14132475157", "display_phone": "(413) 247-5157", "distance": 21548.999915247638}, {"id": "TIm9N1EDtxj_WR95fwR5Ow", "alias": "a-1-hilltown-pizza-williamsburg", "name": "A-1 Hilltown Pizza", "image_url": "https://s3-media3.fl.yelpcdn.com/bphoto/SjPcoIjB8ZpuMJKMc9pyhw/o.jpg", "is_closed": false, "url": "https://www.yelp.com/biz/a-1-hilltown-pizza-williamsburg?adjust_creative=ywY5UnLZrNrRl2b93Ruy_g&utm_campaign=yelp_api_v3&utm_medium=api_v3_business_search&utm_source=ywY5UnLZrNrRl2b93Ruy_g", "review_count": 13, "categories": [{"alias": "pizza", "title": "Pizza"}], "rating": 3.5, "coordinates": {"latitude": 42.391134, "longitude": -72.724329}, "transactions": [], "price": "$$", "location": {"address1": "35 Main St", "address2": "", "address3": "", "city": "Williamsburg", "zip_code": "01096", "country": "US", "state": "MA", "display_address": ["35 Main St", "Williamsburg, MA 01096"]}, "phone": "+14132680202", "display_phone": "(413) 268-0202", "distance": 15339.385797382145}, {"id": "F60ZshsheJZSuxb3fpeFtw", "alias": "china-gourmet-greenfield-2", "name": "China Gourmet", "image_url": "https://s3-media2.fl.yelpcdn.com/bphoto/dX3zEIx-W2C6hWmklUr6hA/o.jpg", "is_closed": false, "url": "https://www.yelp.com/biz/china-gourmet-greenfield-2?adjust_creative=ywY5UnLZrNrRl2b93Ruy_g&utm_campaign=yelp_api_v3&utm_medium=api_v3_business_search&utm_source=ywY5UnLZrNrRl2b93Ruy_g", "review_count": 68, "categories": [{"alias": "chinese", "title": "Chinese"}, {"alias": "japanese", "title": "Japanese"}], "rating": 3.0, "coordinates": {"latitude": 42.5846366882324, "longitude": -72.6142959594727}, "transactions": ["delivery"], "price": "$$", "location": {"address1": "78 Mohawk Trl", "address2": null, "address3": "", "city": "Greenfield", "zip_code": "01301", "country": "US", "state": "MA", "display_address": ["78 Mohawk Trl", "Greenfield, MA 01301"]}, "phone": "+14137742299", "display_phone": "(413) 774-2299", "distance": 17783.942156161072}, {"id": "DMv1r_XMkNj7G0n0X0bodA", "alias": "main-street-bar-and-grille-greenfield", "name": "Main Street Bar and Grille", "image_url": "https://s3-media1.fl.yelpcdn.com/bphoto/_y80dYCee_tMYms2n3dWWg/o.jpg", "is_closed": false, "url": "https://www.yelp.com/biz/main-street-bar-and-grille-greenfield?adjust_creative=ywY5UnLZrNrRl2b93Ruy_g&utm_campaign=yelp_api_v3&utm_medium=api_v3_business_search&utm_source=ywY5UnLZrNrRl2b93Ruy_g", "review_count": 7, "categories": [{"alias": "tradamerican", "title": "American (Traditional)"}, {"alias": "bars", "title": "Bars"}, {"alias": "burgers", "title": "Burgers"}], "rating": 3.5, "coordinates": {"latitude": 42.58773, "longitude": -72.60579}, "transactions": ["delivery"], "price": "$$", "location": {"address1": "94 Main St", "address2": "", "address3": "", "city": "Greenfield", "zip_code": "01301", "country": "US", "state": "MA", "display_address": ["94 Main St", "Greenfield, MA 01301"]}, "phone": "+14137746388", "display_phone": "(413) 774-6388", "distance": 18558.331313174356}, {"id": "h33tLUMqn4OoS_WWpryfOQ", "alias": "whately-diner-whately-2", "name": "Whately Diner", "image_url": "https://s3-media4.fl.yelpcdn.com/bphoto/DBvU4Xihx_181DNp9oyR8w/o.jpg", "is_closed": false, "url": "https://www.yelp.com/biz/whately-diner-whately-2?adjust_creative=ywY5UnLZrNrRl2b93Ruy_g&utm_campaign=yelp_api_v3&utm_medium=api_v3_business_search&utm_source=ywY5UnLZrNrRl2b93Ruy_g", "review_count": 102, "categories": [{"alias": "diners", "title": "Diners"}, {"alias": "tradamerican", "title": "American (Traditional)"}], "rating": 3.0, "coordinates": {"latitude": 42.4640578, "longitude": -72.618024}, "transactions": ["delivery"], "price": "$$", "location": {"address1": "372 State Rd", "address2": "", "address3": "", "city": "Whately", "zip_code": "01093", "country": "US", "state": "MA", "display_address": ["372 State Rd", "Whately, MA 01093"]}, "phone": "+14136653696", "display_phone": "(413) 665-3696", "distance": 16628.56824406376}, {"id": "5kNSVF1ZIFz1yu9U4r2bzw", "alias": "bakers-country-store-conway", "name": "Bakers Country Store", "image_url": "", "is_closed": false, "url": "https://www.yelp.com/biz/bakers-country-store-conway?adjust_creative=ywY5UnLZrNrRl2b93Ruy_g&utm_campaign=yelp_api_v3&utm_medium=api_v3_business_search&utm_source=ywY5UnLZrNrRl2b93Ruy_g", "review_count": 1, "categories": [{"alias": "breakfast_brunch", "title": "Breakfast & Brunch"}], "rating": 1.0, "coordinates": {"latitude": 42.50851, "longitude": -72.701994}, "transactions": [], "location": {"address1": "101 River St", "address2": "", "address3": "", "city": "Conway", "zip_code": "01341", "country": "US", "state": "MA", "display_address": ["101 River St", "Conway, MA 01341"]}, "phone": "+14133694936", "display_phone": "(413) 369-4936", "distance": 8804.408986936054}, {"id": "e8ZEjMpyR0yUdEdBdlYiJQ", "alias": "new-golden-china-restaurant-south-deerfield", "name": "New Golden China Restaurant", "image_url": "https://s3-media3.fl.yelpcdn.com/bphoto/8wVKYBzZqtc0BHauql8UvA/o.jpg", "is_closed": false, "url": "https://www.yelp.com/biz/new-golden-china-restaurant-south-deerfield?adjust_creative=ywY5UnLZrNrRl2b93Ruy_g&utm_campaign=yelp_api_v3&utm_medium=api_v3_business_search&utm_source=ywY5UnLZrNrRl2b93Ruy_g", "review_count": 17, "categories": [{"alias": "chinese", "title": "Chinese"}], "rating": 3.5, "coordinates": {"latitude": 42.4765968322754, "longitude": -72.6094131469727}, "transactions": ["delivery"], "price": "$$", "location": {"address1": "45 S Main St", "address2": "", "address3": "", "city": "South Deerfield", "zip_code": "01373", "country": "US", "state": "MA", "display_address": ["45 S Main St", "South Deerfield, MA 01373"]}, "phone": "+14136653365", "display_phone": "(413) 665-3365", "distance": 16897.138994506862}, {"id": "4qQyegUA1-1WFuY3MSmngw", "alias": "davenport-maple-farm-shelburne-falls", "name": "Davenport Maple Farm", "image_url": "https://s3-media3.fl.yelpcdn.com/bphoto/e-QMQdijvVHP6rbQDd4QAA/o.jpg", "is_closed": false, "url": "https://www.yelp.com/biz/davenport-maple-farm-shelburne-falls?adjust_creative=ywY5UnLZrNrRl2b93Ruy_g&utm_campaign=yelp_api_v3&utm_medium=api_v3_business_search&utm_source=ywY5UnLZrNrRl2b93Ruy_g", "review_count": 8, "categories": [{"alias": "breakfast_brunch", "title": "Breakfast & Brunch"}, {"alias": "waffles", "title": "Waffles"}], "rating": 3.5, "coordinates": {"latitude": 42.61168, "longitude": -72.70595}, "transactions": [], "price": "$$", "location": {"address1": "111 Tower Rd", "address2": null, "address3": null, "city": "Shelburne Falls", "zip_code": "01370", "country": "US", "state": "MA", "display_address": ["111 Tower Rd", "Shelburne Falls, MA 01370"]}, "phone": "+14136252866", "display_phone": "(413) 625-2866", "distance": 13473.357698623242}, {"id": "zKiHmDHXaZVVYVe4Qm1nTg", "alias": "hillside-pizza-south-deerfield", "name": "Hillside Pizza", "image_url": "https://s3-media3.fl.yelpcdn.com/bphoto/qkuJnc_RVLnY4uz3HXBbcg/o.jpg", "is_closed": false, "url": "https://www.yelp.com/biz/hillside-pizza-south-deerfield?adjust_creative=ywY5UnLZrNrRl2b93Ruy_g&utm_campaign=yelp_api_v3&utm_medium=api_v3_business_search&utm_source=ywY5UnLZrNrRl2b93Ruy_g", "review_count": 23, "categories": [{"alias": "pizza", "title": "Pizza"}], "rating": 4.5, "coordinates": {"latitude": 42.50779, "longitude": -72.606161}, "transactions": ["delivery"], "price": "$$", "location": {"address1": "265 Greenfield Rd", "address2": "", "address3": "", "city": "South Deerfield", "zip_code": "01373", "country": "US", "state": "MA", "display_address": ["265 Greenfield Rd", "South Deerfield, MA 01373"]}, "phone": "+14136655533", "display_phone": "(413) 665-5533", "distance": 16652.50847872216}, {"id": "b-LHyJufYxVTDZZYgsC5zg", "alias": "applebees-grill-bar-greenfield-2", "name": "Applebee's Grill + Bar", "image_url": "https://s3-media3.fl.yelpcdn.com/bphoto/uspV9fyAGPPDasqqxw9JuQ/o.jpg", "is_closed": false, "url": "https://www.yelp.com/biz/applebees-grill-bar-greenfield-2?adjust_creative=ywY5UnLZrNrRl2b93Ruy_g&utm_campaign=yelp_api_v3&utm_medium=api_v3_business_search&utm_source=ywY5UnLZrNrRl2b93Ruy_g", "review_count": 31, "categories": [{"alias": "tradamerican", "title": "American (Traditional)"}, {"alias": "sportsbars", "title": "Sports Bars"}, {"alias": "burgers", "title": "Burgers"}], "rating": 3.5, "coordinates": {"latitude": 42.585115, "longitude": -72.618677}, "transactions": [], "price": "$$", "location": {"address1": "141 Mohawk Trl", "address2": "", "address3": "", "city": "Greenfield", "zip_code": "01301", "country": "US", "state": "MA", "display_address": ["141 Mohawk Trl", "Greenfield, MA 01301"]}, "phone": "+14137720079", "display_phone": "(413) 772-0079", "distance": 17488.036620334642}, {"id": "pSPnC1hcf-CO-uMQJF0NQQ", "alias": "bba-deli-market-south-deerfield", "name": "BBA Deli Market", "image_url": "https://s3-media3.fl.yelpcdn.com/bphoto/G0HZIKIZczmS5vnYNRPpdw/o.jpg", "is_closed": false, "url": "https://www.yelp.com/biz/bba-deli-market-south-deerfield?adjust_creative=ywY5UnLZrNrRl2b93Ruy_g&utm_campaign=yelp_api_v3&utm_medium=api_v3_business_search&utm_source=ywY5UnLZrNrRl2b93Ruy_g", "review_count": 21, "categories": [{"alias": "delis", "title": "Delis"}, {"alias": "polish", "title": "Polish"}, {"alias": "gourmet", "title": "Specialty Food"}], "rating": 4.5, "coordinates": {"latitude": 42.472156, "longitude": -72.608634}, "transactions": ["delivery"], "price": "$", "location": {"address1": "39 Thayer St", "address2": "", "address3": "", "city": "South Deerfield", "zip_code": "01373", "country": "US", "state": "MA", "display_address": ["39 Thayer St", "South Deerfield, MA 01373"]}, "phone": "+14136659171", "display_phone": "(413) 665-9171", "distance": 17046.14799675524}, {"id": "YbZg252i3vJ9wmf-gsgUog", "alias": "panda-garden-williamsburg", "name": "Panda Garden", "image_url": "https://s3-media1.fl.yelpcdn.com/bphoto/GR__trIJi5zuhynUKh7owA/o.jpg", "is_closed": false, "url": "https://www.yelp.com/biz/panda-garden-williamsburg?adjust_creative=ywY5UnLZrNrRl2b93Ruy_g&utm_campaign=yelp_api_v3&utm_medium=api_v3_business_search&utm_source=ywY5UnLZrNrRl2b93Ruy_g", "review_count": 30, "categories": [{"alias": "chinese", "title": "Chinese"}], "rating": 3.0, "coordinates": {"latitude": 42.4294774979353, "longitude": -72.7925515919924}, "transactions": ["pickup", "delivery"], "price": "$$", "location": {"address1": "49 Main St", "address2": "", "address3": "", "city": "Williamsburg", "zip_code": "01096", "country": "US", "state": "MA", "display_address": ["49 Main St", "Williamsburg, MA 01096"]}, "phone": "+14132688811", "display_phone": "(413) 268-8811", "distance": 15558.696292756209}, {"id": "rSvNQylLO9N4UZxQ0yYnCQ", "alias": "shelburne-falls-coffee-roasters-shelburne-falls-2", "name": "Shelburne Falls Coffee Roasters", "image_url": "https://s3-media1.fl.yelpcdn.com/bphoto/M-wag8ZOGwBN2QvA3D9LyQ/o.jpg", "is_closed": false, "url": "https://www.yelp.com/biz/shelburne-falls-coffee-roasters-shelburne-falls-2?adjust_creative=ywY5UnLZrNrRl2b93Ruy_g&utm_campaign=yelp_api_v3&utm_medium=api_v3_business_search&utm_source=ywY5UnLZrNrRl2b93Ruy_g", "review_count": 34, "categories": [{"alias": "sandwiches", "title": "Sandwiches"}, {"alias": "coffeeroasteries", "title": "Coffee Roasteries"}, {"alias": "bagels", "title": "Bagels"}], "rating": 4.5, "coordinates": {"latitude": 42.610488, "longitude": -72.66992}, "transactions": [], "price": "$", "location": {"address1": "1207 Mohawk Trl", "address2": "", "address3": "", "city": "Shelburne Falls", "zip_code": "01370", "country": "US", "state": "MA", "display_address": ["1207 Mohawk Trl", "Shelburne Falls, MA 01370"]}, "phone": "+14136250116", "display_phone": "(413) 625-0116", "distance": 15626.317403701942}, {"id": "shdRdjPzsHQn5SXhsT9bVw", "alias": "toms-hot-dog-whately", "name": "Tom's Hot Dog", "image_url": "https://s3-media1.fl.yelpcdn.com/bphoto/8sAD2sXoHiFeNzO598_MaQ/o.jpg", "is_closed": false, "url": "https://www.yelp.com/biz/toms-hot-dog-whately?adjust_creative=ywY5UnLZrNrRl2b93Ruy_g&utm_campaign=yelp_api_v3&utm_medium=api_v3_business_search&utm_source=ywY5UnLZrNrRl2b93Ruy_g", "review_count": 34, "categories": [{"alias": "hotdog", "title": "Hot Dogs"}, {"alias": "burgers", "title": "Burgers"}, {"alias": "soup", "title": "Soup"}], "rating": 4.0, "coordinates": {"latitude": 42.4235720399516, "longitude": -72.6222722370316}, "transactions": ["delivery"], "price": "$", "location": {"address1": "61 State Rd Rte 5 And 10", "address2": "", "address3": "", "city": "Whately", "zip_code": "01093", "country": "US", "state": "MA", "display_address": ["61 State Rd Rte 5 And 10", "Whately, MA 01093"]}, "phone": "+14136652931", "display_phone": "(413) 665-2931", "distance": 18335.898085999863}, {"id": "NZHMfENo3z9WKmlntJzoQA", "alias": "primo-restaurant-and-pizzeria-south-deerfield", "name": "Primo Restaurant and Pizzeria", "image_url": "https://s3-media2.fl.yelpcdn.com/bphoto/6IziWJ7o2qxR7as40bhJ2Q/o.jpg", "is_closed": false, "url": "https://www.yelp.com/biz/primo-restaurant-and-pizzeria-south-deerfield?adjust_creative=ywY5UnLZrNrRl2b93Ruy_g&utm_campaign=yelp_api_v3&utm_medium=api_v3_business_search&utm_source=ywY5UnLZrNrRl2b93Ruy_g", "review_count": 32, "categories": [{"alias": "pizza", "title": "Pizza"}, {"alias": "italian", "title": "Italian"}, {"alias": "burgers", "title": "Burgers"}], "rating": 2.5, "coordinates": {"latitude": 42.47667, "longitude": -72.60749}, "transactions": ["delivery"], "price": "$", "location": {"address1": "4 Sugarloaf St", "address2": "", "address3": "", "city": "South Deerfield", "zip_code": "01373", "country": "US", "state": "MA", "display_address": ["4 Sugarloaf St", "South Deerfield, MA 01373"]}, "phone": "+14136653300", "display_phone": "(413) 665-3300", "distance": 16999.116896099084}, {"id": "uvI_sThbGPccd-NHZRBnQg", "alias": "bei-jing-house-greenfield", "name": "Bei Jing House", "image_url": "https://s3-media2.fl.yelpcdn.com/bphoto/8ORL1RDkXxxEgLrcS0ps9Q/o.jpg", "is_closed": false, "url": "https://www.yelp.com/biz/bei-jing-house-greenfield?adjust_creative=ywY5UnLZrNrRl2b93Ruy_g&utm_campaign=yelp_api_v3&utm_medium=api_v3_business_search&utm_source=ywY5UnLZrNrRl2b93Ruy_g", "review_count": 18, "categories": [{"alias": "chinese", "title": "Chinese"}], "rating": 3.0, "coordinates": {"latitude": 42.58685, "longitude": -72.60736}, "transactions": ["delivery"], "price": "$", "location": {"address1": "45 Main St", "address2": "", "address3": "", "city": "Greenfield", "zip_code": "01301", "country": "US", "state": "MA", "display_address": ["45 Main St", "Greenfield, MA 01301"]}, "phone": "+14137737885", "display_phone": "(413) 773-7885", "distance": 18413.78770665637}, {"id": "gCdtxabLxonlb7CtJK-Z-w", "alias": "d-angelo-greenfield-2", "name": "D'Angelo", "image_url": "https://s3-media2.fl.yelpcdn.com/bphoto/HHatphW_HpX1SDsDCrngDw/o.jpg", "is_closed": false, "url": "https://www.yelp.com/biz/d-angelo-greenfield-2?adjust_creative=ywY5UnLZrNrRl2b93Ruy_g&utm_campaign=yelp_api_v3&utm_medium=api_v3_business_search&utm_source=ywY5UnLZrNrRl2b93Ruy_g", "review_count": 10, "categories": [{"alias": "sandwiches", "title": "Sandwiches"}], "rating": 4.0, "coordinates": {"latitude": 42.5848445086586, "longitude": -72.6141382441874}, "transactions": [], "price": "$$", "location": {"address1": "68 Mohawk Trl", "address2": "", "address3": "", "city": "Greenfield", "zip_code": "01301", "country": "US", "state": "MA", "display_address": ["68 Mohawk Trl", "Greenfield, MA 01301"]}, "phone": "+14137742106", "display_phone": "(413) 774-2106", "distance": 17807.2535354082}, {"id": "cI-D75PC7akLsPQSrvYX2w", "alias": "deerfield-lunch-box-deerfield", "name": "Deerfield Lunch Box", "image_url": "https://s3-media4.fl.yelpcdn.com/bphoto/46kxxAh53yd4ygbpPSY7jQ/o.jpg", "is_closed": false, "url": "https://www.yelp.com/biz/deerfield-lunch-box-deerfield?adjust_creative=ywY5UnLZrNrRl2b93Ruy_g&utm_campaign=yelp_api_v3&utm_medium=api_v3_business_search&utm_source=ywY5UnLZrNrRl2b93Ruy_g", "review_count": 1, "categories": [{"alias": "hotdog", "title": "Hot Dogs"}, {"alias": "foodstands", "title": "Food Stands"}, {"alias": "burgers", "title": "Burgers"}], "rating": 2.0, "coordinates": {"latitude": 42.547239, "longitude": -72.605898}, "transactions": [], "location": {"address1": "79 Old Main St", "address2": "", "address3": "Historic Deerfield", "city": "Deerfield", "zip_code": "01342", "country": "US", "state": "MA", "display_address": ["79 Old Main St", "Historic Deerfield", "Deerfield, MA 01342"]}, "phone": "+14137757171", "display_phone": "(413) 775-7171", "distance": 17057.551366420987}, {"id": "eolu_9FB74AaXHlgwYwQyw", "alias": "goulds-sugar-house-shelburne-falls", "name": "Gould's Sugar House", "image_url": "https://s3-media2.fl.yelpcdn.com/bphoto/hZVhRfCmNWWgCkjJf5VWBw/o.jpg", "is_closed": false, "url": "https://www.yelp.com/biz/goulds-sugar-house-shelburne-falls?adjust_creative=ywY5UnLZrNrRl2b93Ruy_g&utm_campaign=yelp_api_v3&utm_medium=api_v3_business_search&utm_source=ywY5UnLZrNrRl2b93Ruy_g", "review_count": 44, "categories": [{"alias": "gourmet", "title": "Specialty Food"}, {"alias": "breakfast_brunch", "title": "Breakfast & Brunch"}], "rating": 4.5, "coordinates": {"latitude": 42.584024, "longitude": -72.708754}, "transactions": [], "price": "$$", "location": {"address1": "570 Mohawk Trl", "address2": "", "address3": "", "city": "Shelburne Falls", "zip_code": "01370", "country": "US", "state": "MA", "display_address": ["570 Mohawk Trl", "Shelburne Falls, MA 01370"]}, "phone": "+14136256170", "display_phone": "(413) 625-6170", "distance": 11319.259435211734}, {"id": "_bXSHicL1fVAG-RhwxJYPQ", "alias": "subway-south-deerfield-3", "name": "Subway", "image_url": "https://s3-media3.fl.yelpcdn.com/bphoto/X8kbX68KBbQAXsBH5t-8rw/o.jpg", "is_closed": false, "url": "https://www.yelp.com/biz/subway-south-deerfield-3?adjust_creative=ywY5UnLZrNrRl2b93Ruy_g&utm_campaign=yelp_api_v3&utm_medium=api_v3_business_search&utm_source=ywY5UnLZrNrRl2b93Ruy_g", "review_count": 2, "categories": [{"alias": "sandwiches", "title": "Sandwiches"}], "rating": 3.0, "coordinates": {"latitude": 42.4708609610147, "longitude": -72.6158315565979}, "transactions": [], "price": "$", "location": {"address1": "1 Greenfield Rd", "address2": null, "address3": null, "city": "South Deerfield", "zip_code": "01373", "country": "US", "state": "MA", "display_address": ["1 Greenfield Rd", "South Deerfield, MA 01373"]}, "phone": "+14136659830", "display_phone": "(413) 665-9830", "distance": 16562.202525889035}, {"id": "GozHnnsLBsvS2fbgyIugXw", "alias": "muffins-general-market-whately", "name": "Muffin's General Market", "image_url": "https://s3-media2.fl.yelpcdn.com/bphoto/I5w5JBJ5aHfLKOP1SWjgaQ/o.jpg", "is_closed": false, "url": "https://www.yelp.com/biz/muffins-general-market-whately?adjust_creative=ywY5UnLZrNrRl2b93Ruy_g&utm_campaign=yelp_api_v3&utm_medium=api_v3_business_search&utm_source=ywY5UnLZrNrRl2b93Ruy_g", "review_count": 7, "categories": [{"alias": "breakfast_brunch", "title": "Breakfast & Brunch"}, {"alias": "beer_and_wine", "title": "Beer, Wine & Spirits"}, {"alias": "delis", "title": "Delis"}], "rating": 4.0, "coordinates": {"latitude": 42.41856, "longitude": -72.62037}, "transactions": ["delivery", "pickup"], "price": "$", "location": {"address1": "28 State Rd", "address2": "", "address3": null, "city": "Whately", "zip_code": "01373", "country": "US", "state": "MA", "display_address": ["28 State Rd", "Whately, MA 01373"]}, "phone": "+14133973372", "display_phone": "(413) 397-3372", "distance": 18730.87553826448}, {"id": "HQstHLLH3MCV-VIvkEJ8Zw", "alias": "athens-pizza-greenfield", "name": "Athens Pizza", "image_url": "https://s3-media1.fl.yelpcdn.com/bphoto/Ui-xwzsHZrIndLoKz8KLHA/o.jpg", "is_closed": false, "url": "https://www.yelp.com/biz/athens-pizza-greenfield?adjust_creative=ywY5UnLZrNrRl2b93Ruy_g&utm_campaign=yelp_api_v3&utm_medium=api_v3_business_search&utm_source=ywY5UnLZrNrRl2b93Ruy_g", "review_count": 18, "categories": [{"alias": "pizza", "title": "Pizza"}], "rating": 2.5, "coordinates": {"latitude": 42.5869255065918, "longitude": -72.6082229614258}, "transactions": ["delivery"], "price": "$$", "location": {"address1": "25 Main St", "address2": "", "address3": "", "city": "Greenfield", "zip_code": "01301", "country": "US", "state": "MA", "display_address": ["25 Main St", "Greenfield, MA 01301"]}, "phone": "+14137743722", "display_phone": "(413) 774-3722", "distance": 18344.913224486598}, {"id": "-cTZN8UAmWz98p492Y_OMw", "alias": "friendlys-greenfield-2", "name": "Friendly's", "image_url": "https://s3-media3.fl.yelpcdn.com/bphoto/R8N4TORIBSgbhC1_DRsLZg/o.jpg", "is_closed": false, "url": "https://www.yelp.com/biz/friendlys-greenfield-2?adjust_creative=ywY5UnLZrNrRl2b93Ruy_g&utm_campaign=yelp_api_v3&utm_medium=api_v3_business_search&utm_source=ywY5UnLZrNrRl2b93Ruy_g", "review_count": 54, "categories": [{"alias": "icecream", "title": "Ice Cream & Frozen Yogurt"}, {"alias": "tradamerican", "title": "American (Traditional)"}, {"alias": "burgers", "title": "Burgers"}], "rating": 2.0, "coordinates": {"latitude": 42.5852699, "longitude": -72.6235962}, "transactions": [], "price": "$$", "location": {"address1": "200 Mohawk Trl", "address2": null, "address3": null, "city": "Greenfield", "zip_code": "01301", "country": "US", "state": "MA", "display_address": ["200 Mohawk Trl", "Greenfield, MA 01301"]}, "phone": "+14137745435", "display_phone": "(413) 774-5435", "distance": 17143.0613290586}, {"id": "VcKnHfkBxXSqPd_a1TJa2Q", "alias": "kfc-greenfield-4", "name": "KFC", "image_url": "https://s3-media4.fl.yelpcdn.com/bphoto/zRrjKWbYcRMZx7xjAgBC5g/o.jpg", "is_closed": false, "url": "https://www.yelp.com/biz/kfc-greenfield-4?adjust_creative=ywY5UnLZrNrRl2b93Ruy_g&utm_campaign=yelp_api_v3&utm_medium=api_v3_business_search&utm_source=ywY5UnLZrNrRl2b93Ruy_g", "review_count": 6, "categories": [{"alias": "hotdogs", "title": "Fast Food"}, {"alias": "chicken_wings", "title": "Chicken Wings"}, {"alias": "chickenshop", "title": "Chicken Shop"}], "rating": 1.5, "coordinates": {"latitude": 42.5857303098406, "longitude": -72.626232}, "transactions": ["delivery", "pickup"], "price": "$", "location": {"address1": "242 Mohawk Trl", "address2": null, "address3": null, "city": "Greenfield", "zip_code": "01301", "country": "US", "state": "MA", "display_address": ["242 Mohawk Trl", "Greenfield, MA 01301"]}, "phone": "+14137747869", "display_phone": "(413) 774-7869", "distance": 16970.151488643485}, {"id": "mlDZf-GdNIaW5ToE3AR9CA", "alias": "subway-greenfield-20", "name": "Subway", "image_url": "https://s3-media2.fl.yelpcdn.com/bphoto/J25dG23zDO2UgNa3-tc9fw/o.jpg", "is_closed": false, "url": "https://www.yelp.com/biz/subway-greenfield-20?adjust_creative=ywY5UnLZrNrRl2b93Ruy_g&utm_campaign=yelp_api_v3&utm_medium=api_v3_business_search&utm_source=ywY5UnLZrNrRl2b93Ruy_g", "review_count": 3, "categories": [{"alias": "sandwiches", "title": "Sandwiches"}], "rating": 2.0, "coordinates": {"latitude": 42.5873648, "longitude": -72.626196}, "transactions": [], "price": "$", "location": {"address1": "251 Mohawk Trail", "address2": "", "address3": "Greenfield Plz S C", "city": "Greenfield", "zip_code": "01301", "country": "US", "state": "MA", "display_address": ["251 Mohawk Trail", "Greenfield Plz S C", "Greenfield, MA 01301"]}, "phone": "+14137743636", "display_phone": "(413) 774-3636", "distance": 17058.65803779896}, {"id": "9gUZ2bgnsPRtihya9yvzVg", "alias": "taco-bell-greenfield", "name": "Taco Bell", "image_url": "https://s3-media1.fl.yelpcdn.com/bphoto/ogHV-spWv4efdk7MthVOLw/o.jpg", "is_closed": false, "url": "https://www.yelp.com/biz/taco-bell-greenfield?adjust_creative=ywY5UnLZrNrRl2b93Ruy_g&utm_campaign=yelp_api_v3&utm_medium=api_v3_business_search&utm_source=ywY5UnLZrNrRl2b93Ruy_g", "review_count": 14, "categories": [{"alias": "hotdogs", "title": "Fast Food"}, {"alias": "tacos", "title": "Tacos"}], "rating": 1.0, "coordinates": {"latitude": 42.586462, "longitude": -72.627696}, "transactions": [], "price": "$", "location": {"address1": "242 Mohawk Trail", "address2": "", "address3": "", "city": "Greenfield", "zip_code": "01301", "country": "US", "state": "MA", "display_address": ["242 Mohawk Trail", "Greenfield, MA 01301"]}, "phone": "+14137747869", "display_phone": "(413) 774-7869", "distance": 16902.87633374306}, {"id": "7IOS0bILt7y2-6eiiXxJRg", "alias": "mcdonalds-greenfield", "name": "McDonald's", "image_url": "https://s3-media4.fl.yelpcdn.com/bphoto/RUa3FiH2Cx7jHuH740Rw8Q/o.jpg", "is_closed": false, "url": "https://www.yelp.com/biz/mcdonalds-greenfield?adjust_creative=ywY5UnLZrNrRl2b93Ruy_g&utm_campaign=yelp_api_v3&utm_medium=api_v3_business_search&utm_source=ywY5UnLZrNrRl2b93Ruy_g", "review_count": 19, "categories": [{"alias": "hotdogs", "title": "Fast Food"}, {"alias": "burgers", "title": "Burgers"}, {"alias": "coffee", "title": "Coffee & Tea"}], "rating": 2.5, "coordinates": {"latitude": 42.5854669, "longitude": -72.6247290475385}, "transactions": [], "price": "$", "location": {"address1": "208 Mohawk Trl", "address2": "", "address3": "", "city": "Greenfield", "zip_code": "01301", "country": "US", "state": "MA", "display_address": ["208 Mohawk Trl", "Greenfield, MA 01301"]}, "phone": "+14137745311", "display_phone": "(413) 774-5311", "distance": 17065.33429679645}, {"id": "qqA8YX58xnmEXLyanHfdUg", "alias": "stufd-food-truck-brooklyn", "name": "Stuf'd Food Truck", "image_url": "https://s3-media2.fl.yelpcdn.com/bphoto/_Wn0i-tLIOFinw8BPAqxPA/o.jpg", "is_closed": false, "url": "https://www.yelp.com/biz/stufd-food-truck-brooklyn?adjust_creative=ywY5UnLZrNrRl2b93Ruy_g&utm_campaign=yelp_api_v3&utm_medium=api_v3_business_search&utm_source=ywY5UnLZrNrRl2b93Ruy_g", "review_count": 4, "categories": [{"alias": "sandwiches", "title": "Sandwiches"}, {"alias": "foodtrucks", "title": "Food Trucks"}], "rating": 4.0, "coordinates": {"latitude": 40.7124539, "longitude": -73.9287374}, "transactions": [], "location": {"address1": "178 Varick Ave", "address2": "", "address3": null, "city": "Brooklyn", "zip_code": "11237", "country": "US", "state": "NY", "display_address": ["178 Varick Ave", "Brooklyn, NY 11237"]}, "phone": "+18457091808", "display_phone": "(845) 709-1808", "distance": 220891.70534462074}]