[{"id": "jRkRfmnAWeioG1YSB0-V6A", "alias": "the-alvah-stone-montague", "name": "The Alvah Stone", "image_url": "https://s3-media2.fl.yelpcdn.com/bphoto/WZarGmnHvPAsgoIF5mKRqw/o.jpg", "is_closed": false, "url": "https://www.yelp.com/biz/the-alvah-stone-montague?adjust_creative=ywY5UnLZrNrRl2b93Ruy_g&utm_campaign=yelp_api_v3&utm_medium=api_v3_business_search&utm_source=ywY5UnLZrNrRl2b93Ruy_g", "review_count": 195, "categories": [{"alias": "bars", "title": "Bars"}, {"alias": "tradamerican", "title": "American (Traditional)"}, {"alias": "newamerican", "title": "American (New)"}], "rating": 4.0, "coordinates": {"latitude": 42.537929, "longitude": -72.5372039}, "transactions": ["restaurant_reservation", "delivery"], "price": "$$", "location": {"address1": "440 Greenfield Rd", "address2": null, "address3": "", "city": "Montague", "zip_code": "01351", "country": "US", "state": "MA", "display_address": ["440 Greenfield Rd", "Montague, MA 01351"]}, "phone": "+14133675345", "display_phone": "(413) 367-5345", "distance": 2185.1824434772693}, {"id": "WchQRtW_lbGEI8DLvLeUVw", "alias": "the-farm-table-bernardston", "name": "The Farm Table", "image_url": "https://s3-media4.fl.yelpcdn.com/bphoto/DGU-IEeKKTh1ByhQStXZuw/o.jpg", "is_closed": false, "url": "https://www.yelp.com/biz/the-farm-table-bernardston?adjust_creative=ywY5UnLZrNrRl2b93Ruy_g&utm_campaign=yelp_api_v3&utm_medium=api_v3_business_search&utm_source=ywY5UnLZrNrRl2b93Ruy_g", "review_count": 309, "categories": [{"alias": "newamerican", "title": "American (New)"}], "rating": 4.0, "coordinates": {"latitude": 42.658211, "longitude": -72.5619356}, "transactions": ["restaurant_reservation", "delivery"], "price": "$$", "location": {"address1": "219 South St", "address2": "", "address3": "", "city": "Bernardston", "zip_code": "01337", "country": "US", "state": "MA", "display_address": ["219 South St", "Bernardston, MA 01337"]}, "phone": "+14136485200", "display_phone": "(413) 648-5200", "distance": 12926.5932109447}, {"id": "vuakpKxCBDz6kezGY2Os8Q", "alias": "hope-and-olive-greenfield", "name": "Hope & Olive", "image_url": "https://s3-media1.fl.yelpcdn.com/bphoto/JXgp6DSGLyNQUmPdvjgbDA/o.jpg", "is_closed": false, "url": "https://www.yelp.com/biz/hope-and-olive-greenfield?adjust_creative=ywY5UnLZrNrRl2b93Ruy_g&utm_campaign=yelp_api_v3&utm_medium=api_v3_business_search&utm_source=ywY5UnLZrNrRl2b93Ruy_g", "review_count": 261, "categories": [{"alias": "tradamerican", "title": "American (Traditional)"}, {"alias": "bars", "title": "Bars"}], "rating": 4.0, "coordinates": {"latitude": 42.5862655639648, "longitude": -72.5992050170898}, "transactions": ["delivery"], "price": "$$", "location": {"address1": "44 Hope St", "address2": "", "address3": "", "city": "Greenfield", "zip_code": "01301", "country": "US", "state": "MA", "display_address": ["44 Hope St", "Greenfield, MA 01301"]}, "phone": "+14137743150", "display_phone": "(413) 774-3150", "distance": 8211.784861879389}, {"id": "I3UE0kzvpVOnfIGUYMzZyg", "alias": "the-lady-killigrew-cafe-montague", "name": "The Lady Killigrew Cafe", "image_url": "https://s3-media3.fl.yelpcdn.com/bphoto/3u0HBieTFTsTE-QN8Ng14w/o.jpg", "is_closed": false, "url": "https://www.yelp.com/biz/the-lady-killigrew-cafe-montague?adjust_creative=ywY5UnLZrNrRl2b93Ruy_g&utm_campaign=yelp_api_v3&utm_medium=api_v3_business_search&utm_source=ywY5UnLZrNrRl2b93Ruy_g", "review_count": 117, "categories": [{"alias": "coffee", "title": "Coffee & Tea"}, {"alias": "sandwiches", "title": "Sandwiches"}, {"alias": "desserts", "title": "Desserts"}], "rating": 4.5, "coordinates": {"latitude": 42.5377464294434, "longitude": -72.5371627807617}, "transactions": ["delivery"], "price": "$$", "location": {"address1": "440 Greenfield Rd", "address2": "", "address3": "", "city": "Montague", "zip_code": "01351", "country": "US", "state": "MA", "display_address": ["440 Greenfield Rd", "Montague, MA 01351"]}, "phone": "+14133679666", "display_phone": "(413) 367-9666", "distance": 2191.7457045851456}, {"id": "o9QX_uCqOVdwk3Gvy34Bng", "alias": "great-falls-harvest-turners-falls", "name": "Great Falls Harvest", "image_url": "https://s3-media4.fl.yelpcdn.com/bphoto/OkD_KkZ6Kve21zBRzA_kKg/o.jpg", "is_closed": false, "url": "https://www.yelp.com/biz/great-falls-harvest-turners-falls?adjust_creative=ywY5UnLZrNrRl2b93Ruy_g&utm_campaign=yelp_api_v3&utm_medium=api_v3_business_search&utm_source=ywY5UnLZrNrRl2b93Ruy_g", "review_count": 46, "categories": [{"alias": "diners", "title": "Diners"}, {"alias": "salad", "title": "Salad"}], "rating": 4.5, "coordinates": {"latitude": 42.6080433, "longitude": -72.5566357}, "transactions": [], "price": "$$", "location": {"address1": "50 3rd St", "address2": "", "address3": "", "city": "Turners Falls", "zip_code": "01376", "country": "US", "state": "MA", "display_address": ["50 3rd St", "Turners Falls, MA 01376"]}, "phone": "+14138630023", "display_phone": "(413) 863-0023", "distance": 7590.700467608943}, {"id": "RjcmsCplUC_ZFvaJb2nfMA", "alias": "gianni-figs-ristorante-deerfield", "name": "Gianni Fig's Ristorante", "image_url": "https://s3-media1.fl.yelpcdn.com/bphoto/SWZ-jpqvOAfR3OM4KI_rLg/o.jpg", "is_closed": false, "url": "https://www.yelp.com/biz/gianni-figs-ristorante-deerfield?adjust_creative=ywY5UnLZrNrRl2b93Ruy_g&utm_campaign=yelp_api_v3&utm_medium=api_v3_business_search&utm_source=ywY5UnLZrNrRl2b93Ruy_g", "review_count": 30, "categories": [{"alias": "italian", "title": "Italian"}], "rating": 4.0, "coordinates": {"latitude": 42.4775047039286, "longitude": -72.609119691213}, "transactions": ["delivery"], "location": {"address1": "6 Elm St", "address2": "", "address3": null, "city": "Deerfield", "zip_code": "01373", "country": "US", "state": "MA", "display_address": ["6 Elm St", "Deerfield, MA 01373"]}, "phone": "+14133505940", "display_phone": "(413) 350-5940", "distance": 11020.727548714853}, {"id": "Pi1vuMna90sAsd9KUnI-kQ", "alias": "riffs-north-turners-falls", "name": "Riff's North", "image_url": "https://s3-media3.fl.yelpcdn.com/bphoto/-P1r6baoRAmWRz18K-pwvA/o.jpg", "is_closed": false, "url": "https://www.yelp.com/biz/riffs-north-turners-falls?adjust_creative=ywY5UnLZrNrRl2b93Ruy_g&utm_campaign=yelp_api_v3&utm_medium=api_v3_business_search&utm_source=ywY5UnLZrNrRl2b93Ruy_g", "review_count": 71, "categories": [{"alias": "burgers", "title": "Burgers"}, {"alias": "tradamerican", "title": "American (Traditional)"}, {"alias": "sandwiches", "title": "Sandwiches"}], "rating": 4.5, "coordinates": {"latitude": 42.6060869184616, "longitude": -72.5584889575839}, "transactions": ["delivery"], "price": "$$", "location": {"address1": "166 Ave A", "address2": "", "address3": "", "city": "Turners Falls", "zip_code": "01376", "country": "US", "state": "MA", "display_address": ["166 Ave A", "Turners Falls, MA 01376"]}, "phone": "+14138633700", "display_phone": "(413) 863-3700", "distance": 7471.369744307304}, {"id": "bfNy4CK-UWtNIIfzVXeZ-A", "alias": "wolfies-restaurant-south-deerfield", "name": "Wolfie's Restaurant", "image_url": "https://s3-media2.fl.yelpcdn.com/bphoto/6mdshhOQiXEPBs8xUe9O7A/o.jpg", "is_closed": false, "url": "https://www.yelp.com/biz/wolfies-restaurant-south-deerfield?adjust_creative=ywY5UnLZrNrRl2b93Ruy_g&utm_campaign=yelp_api_v3&utm_medium=api_v3_business_search&utm_source=ywY5UnLZrNrRl2b93Ruy_g", "review_count": 92, "categories": [{"alias": "tradamerican", "title": "American (Traditional)"}, {"alias": "bars", "title": "Bars"}, {"alias": "chicken_wings", "title": "Chicken Wings"}], "rating": 3.5, "coordinates": {"latitude": 42.4768333435059, "longitude": -72.6083679199219}, "transactions": ["delivery"], "price": "$$", "location": {"address1": "52 S Main St", "address2": "", "address3": "", "city": "South Deerfield", "zip_code": "01373", "country": "US", "state": "MA", "display_address": ["52 S Main St", "South Deerfield, MA 01373"]}, "phone": "+14136657068", "display_phone": "(413) 665-7068", "distance": 11026.218047037357}, {"id": "rM26yhJCf8spmob1iCkpTA", "alias": "french-king-restaurant-and-motel-erving", "name": "French King Restaurant and Motel", "image_url": "https://s3-media3.fl.yelpcdn.com/bphoto/0JOjCjjQ6AgsODrtn77g0A/o.jpg", "is_closed": false, "url": "https://www.yelp.com/biz/french-king-restaurant-and-motel-erving?adjust_creative=ywY5UnLZrNrRl2b93Ruy_g&utm_campaign=yelp_api_v3&utm_medium=api_v3_business_search&utm_source=ywY5UnLZrNrRl2b93Ruy_g", "review_count": 25, "categories": [{"alias": "tradamerican", "title": "American (Traditional)"}, {"alias": "italian", "title": "Italian"}, {"alias": "lounges", "title": "Lounges"}], "rating": 3.5, "coordinates": {"latitude": 42.596912, "longitude": -72.493921}, "transactions": [], "price": "$$", "location": {"address1": "129 French King Hwy", "address2": "", "address3": "", "city": "Erving", "zip_code": "01344", "country": "US", "state": "MA", "display_address": ["129 French King Hwy", "Erving, MA 01344"]}, "phone": "+14134233328", "display_phone": "(413) 423-3328", "distance": 5735.6242623414455}, {"id": "SV4vcr74r6LG-LbTAKh1MA", "alias": "whistle-stop-cafe-millers-falls-2", "name": "Whistle Stop Cafe", "image_url": "https://s3-media3.fl.yelpcdn.com/bphoto/1SC0WPCzKgFjDuCI44q57Q/o.jpg", "is_closed": false, "url": "https://www.yelp.com/biz/whistle-stop-cafe-millers-falls-2?adjust_creative=ywY5UnLZrNrRl2b93Ruy_g&utm_campaign=yelp_api_v3&utm_medium=api_v3_business_search&utm_source=ywY5UnLZrNrRl2b93Ruy_g", "review_count": 7, "categories": [{"alias": "cafes", "title": "Cafes"}], "rating": 4.0, "coordinates": {"latitude": 42.5781478, "longitude": -72.4940642}, "transactions": ["delivery", "pickup"], "location": {"address1": "29 E Main St", "address2": "", "address3": null, "city": "Millers Falls", "zip_code": "01349", "country": "US", "state": "MA", "display_address": ["29 E Main St", "Millers Falls, MA 01349"]}, "phone": "+14138348174", "display_phone": "(413) 834-8174", "distance": 3790.8115489843217}, {"id": "ZrnKQkZYNw_otzzh6EIiHQ", "alias": "blue-heron-restaurant-sunderland", "name": "Blue Heron Restaurant", "image_url": "https://s3-media3.fl.yelpcdn.com/bphoto/IdK76wlrON2OqFado0LeKQ/o.jpg", "is_closed": false, "url": "https://www.yelp.com/biz/blue-heron-restaurant-sunderland?adjust_creative=ywY5UnLZrNrRl2b93Ruy_g&utm_campaign=yelp_api_v3&utm_medium=api_v3_business_search&utm_source=ywY5UnLZrNrRl2b93Ruy_g", "review_count": 116, "categories": [{"alias": "newamerican", "title": "American (New)"}], "rating": 4.0, "coordinates": {"latitude": 42.46719, "longitude": -72.57818}, "transactions": ["delivery"], "price": "$$$", "location": {"address1": "112 N Main St", "address2": "", "address3": "", "city": "Sunderland", "zip_code": "01375", "country": "US", "state": "MA", "display_address": ["112 N Main St", "Sunderland, MA 01375"]}, "phone": "+14136652102", "display_phone": "(413) 665-2102", "distance": 10376.024935326059}, {"id": "gntEo3k4A_B1BkdGnJI3Pw", "alias": "namaste-indian-nepalese-restaurant-greenfield", "name": "Namaste Indian/Nepalese Restaurant", "image_url": "https://s3-media4.fl.yelpcdn.com/bphoto/s1NNDn1n3dA345Qf_IDT9A/o.jpg", "is_closed": false, "url": "https://www.yelp.com/biz/namaste-indian-nepalese-restaurant-greenfield?adjust_creative=ywY5UnLZrNrRl2b93Ruy_g&utm_campaign=yelp_api_v3&utm_medium=api_v3_business_search&utm_source=ywY5UnLZrNrRl2b93Ruy_g", "review_count": 36, "categories": [{"alias": "indpak", "title": "Indian"}, {"alias": "himalayan", "title": "Himalayan/Nepalese"}], "rating": 4.0, "coordinates": {"latitude": 42.58832, "longitude": -72.60112}, "transactions": ["delivery", "pickup"], "price": "$$", "location": {"address1": "286 Main St", "address2": null, "address3": "", "city": "Greenfield", "zip_code": "01301", "country": "US", "state": "MA", "display_address": ["286 Main St", "Greenfield, MA 01301"]}, "phone": "+14133258232", "display_phone": "(413) 325-8232", "distance": 8465.3993725147}, {"id": "ExPrawZiMKFCtz9HV-Hw3Q", "alias": "the-peoples-pint-greenfield", "name": "The People's Pint", "image_url": "https://s3-media4.fl.yelpcdn.com/bphoto/tXW4H4plAEoPzXDNviVIGg/o.jpg", "is_closed": false, "url": "https://www.yelp.com/biz/the-peoples-pint-greenfield?adjust_creative=ywY5UnLZrNrRl2b93Ruy_g&utm_campaign=yelp_api_v3&utm_medium=api_v3_business_search&utm_source=ywY5UnLZrNrRl2b93Ruy_g", "review_count": 290, "categories": [{"alias": "tradamerican", "title": "American (Traditional)"}, {"alias": "breweries", "title": "Breweries"}], "rating": 4.0, "coordinates": {"latitude": 42.58858, "longitude": -72.60011}, "transactions": ["delivery"], "price": "$$", "location": {"address1": "24 Federal St", "address2": "", "address3": "", "city": "Greenfield", "zip_code": "01301", "country": "US", "state": "MA", "display_address": ["24 Federal St", "Greenfield, MA 01301"]}, "phone": "+14137730333", "display_phone": "(413) 773-0333", "distance": 8420.300555829806}, {"id": "e4NQleebi2maK-FwHhOPcw", "alias": "the-gill-tavern-gill", "name": "The Gill Tavern", "image_url": "https://s3-media4.fl.yelpcdn.com/bphoto/RcLFtAnwpIt0AK7Lrn0ptQ/o.jpg", "is_closed": false, "url": "https://www.yelp.com/biz/the-gill-tavern-gill?adjust_creative=ywY5UnLZrNrRl2b93Ruy_g&utm_campaign=yelp_api_v3&utm_medium=api_v3_business_search&utm_source=ywY5UnLZrNrRl2b93Ruy_g", "review_count": 64, "categories": [{"alias": "newamerican", "title": "American (New)"}], "rating": 4.0, "coordinates": {"latitude": 42.640793, "longitude": -72.499757}, "transactions": [], "price": "$$", "location": {"address1": "326 Main Rd", "address2": "", "address3": "", "city": "Gill", "zip_code": "01354", "country": "US", "state": "MA", "display_address": ["326 Main Rd", "Gill, MA 01354"]}, "phone": "+14138639006", "display_phone": "(413) 863-9006", "distance": 10441.29027479258}, {"id": "f7RXJjnUe_mTm-B0wEOshw", "alias": "petes-seafood-restaurant-greenfield", "name": "Pete's Seafood Restaurant", "image_url": "https://s3-media4.fl.yelpcdn.com/bphoto/jxzmJc-NN4wG9QarQEQvHg/o.jpg", "is_closed": false, "url": "https://www.yelp.com/biz/petes-seafood-restaurant-greenfield?adjust_creative=ywY5UnLZrNrRl2b93Ruy_g&utm_campaign=yelp_api_v3&utm_medium=api_v3_business_search&utm_source=ywY5UnLZrNrRl2b93Ruy_g", "review_count": 35, "categories": [{"alias": "seafood", "title": "Seafood"}], "rating": 4.5, "coordinates": {"latitude": 42.5895936, "longitude": -72.600997}, "transactions": ["delivery"], "price": "$$", "location": {"address1": "54 School St", "address2": "", "address3": "", "city": "Greenfield", "zip_code": "01301", "country": "US", "state": "MA", "display_address": ["54 School St", "Greenfield, MA 01301"]}, "phone": "+14137722153", "display_phone": "(413) 772-2153", "distance": 8533.977704142904}, {"id": "aqxqBtpWLmyEwWvgfLTxZA", "alias": "magpie-greenfield", "name": "Magpie", "image_url": "https://s3-media1.fl.yelpcdn.com/bphoto/L2HxqLlx7n0XbbsWFddCaQ/o.jpg", "is_closed": false, "url": "https://www.yelp.com/biz/magpie-greenfield?adjust_creative=ywY5UnLZrNrRl2b93Ruy_g&utm_campaign=yelp_api_v3&utm_medium=api_v3_business_search&utm_source=ywY5UnLZrNrRl2b93Ruy_g", "review_count": 99, "categories": [{"alias": "pizza", "title": "Pizza"}], "rating": 4.0, "coordinates": {"latitude": 42.5869828462601, "longitude": -72.6005423069}, "transactions": ["delivery"], "price": "$$", "location": {"address1": "21 Bank Row", "address2": "", "address3": "", "city": "Greenfield", "zip_code": "01301", "country": "US", "state": "MA", "display_address": ["21 Bank Row", "Greenfield, MA 01301"]}, "phone": "+14134753570", "display_phone": "(413) 475-3570", "distance": 8345.55403733846}, {"id": "bOvwjTfloZG0w4gqldRbxw", "alias": "the-rendezvous-turners-falls", "name": "The Rendezvous", "image_url": "https://s3-media1.fl.yelpcdn.com/bphoto/XHPigS2CPvkGi04kfh1tbQ/o.jpg", "is_closed": false, "url": "https://www.yelp.com/biz/the-rendezvous-turners-falls?adjust_creative=ywY5UnLZrNrRl2b93Ruy_g&utm_campaign=yelp_api_v3&utm_medium=api_v3_business_search&utm_source=ywY5UnLZrNrRl2b93Ruy_g", "review_count": 98, "categories": [{"alias": "newamerican", "title": "American (New)"}, {"alias": "musicvenues", "title": "Music Venues"}, {"alias": "burgers", "title": "Burgers"}], "rating": 4.0, "coordinates": {"latitude": 42.60748, "longitude": -72.55612}, "transactions": ["delivery", "pickup"], "price": "$$", "location": {"address1": "78 3rd St", "address2": "", "address3": "", "city": "Turners Falls", "zip_code": "01376", "country": "US", "state": "MA", "display_address": ["78 3rd St", "Turners Falls, MA 01376"]}, "phone": "+14138632866", "display_phone": "(413) 863-2866", "distance": 7517.500340345239}, {"id": "2QTT7kY9qMp88GbkAi2kRQ", "alias": "terrazza-greenfield-2", "name": "Terrazza", "image_url": "https://s3-media4.fl.yelpcdn.com/bphoto/GJYRmIwN23NA33b_qnYcoQ/o.jpg", "is_closed": false, "url": "https://www.yelp.com/biz/terrazza-greenfield-2?adjust_creative=ywY5UnLZrNrRl2b93Ruy_g&utm_campaign=yelp_api_v3&utm_medium=api_v3_business_search&utm_source=ywY5UnLZrNrRl2b93Ruy_g", "review_count": 29, "categories": [{"alias": "italian", "title": "Italian"}, {"alias": "lounges", "title": "Lounges"}, {"alias": "eventplanning", "title": "Party & Event Planning"}], "rating": 4.5, "coordinates": {"latitude": 42.618689, "longitude": -72.595328}, "transactions": ["delivery", "pickup"], "price": "$$", "location": {"address1": "244 Country Club Rd", "address2": null, "address3": null, "city": "Greenfield", "zip_code": "01301", "country": "US", "state": "MA", "display_address": ["244 Country Club Rd", "Greenfield, MA 01301"]}, "phone": "+14137720970", "display_phone": "(413) 772-0970", "distance": 10354.712406697477}, {"id": "OQvVnrwhOvA69-X7jIAnPg", "alias": "manna-house-greenfield", "name": "Manna House", "image_url": "https://s3-media2.fl.yelpcdn.com/bphoto/micyK8VUFzhW9_BmqmVSSA/o.jpg", "is_closed": false, "url": "https://www.yelp.com/biz/manna-house-greenfield?adjust_creative=ywY5UnLZrNrRl2b93Ruy_g&utm_campaign=yelp_api_v3&utm_medium=api_v3_business_search&utm_source=ywY5UnLZrNrRl2b93Ruy_g", "review_count": 45, "categories": [{"alias": "korean", "title": "Korean"}], "rating": 4.0, "coordinates": {"latitude": 42.5870285, "longitude": -72.6003113}, "transactions": ["delivery"], "price": "$$", "location": {"address1": "27 Bank Row", "address2": null, "address3": null, "city": "Greenfield", "zip_code": "01301", "country": "US", "state": "MA", "display_address": ["27 Bank Row", "Greenfield, MA 01301"]}, "phone": "+14137745955", "display_phone": "(413) 774-5955", "distance": 8338.44113617922}, {"id": "ESGUgUn3t-v1O4K5crrl6w", "alias": "black-cow-burger-bar-turners-falls", "name": "Black Cow Burger Bar", "image_url": "https://s3-media3.fl.yelpcdn.com/bphoto/NrX9m8XL7VxDQ4UvZvAccw/o.jpg", "is_closed": false, "url": "https://www.yelp.com/biz/black-cow-burger-bar-turners-falls?adjust_creative=ywY5UnLZrNrRl2b93Ruy_g&utm_campaign=yelp_api_v3&utm_medium=api_v3_business_search&utm_source=ywY5UnLZrNrRl2b93Ruy_g", "review_count": 97, "categories": [{"alias": "newamerican", "title": "American (New)"}, {"alias": "burgers", "title": "Burgers"}, {"alias": "hotdog", "title": "Hot Dogs"}], "rating": 4.0, "coordinates": {"latitude": 42.60748, "longitude": -72.55704}, "transactions": ["delivery", "pickup"], "price": "$$", "location": {"address1": "125 Ave A", "address2": "", "address3": "", "city": "Turners Falls", "zip_code": "01376", "country": "US", "state": "MA", "display_address": ["125 Ave A", "Turners Falls, MA 01376"]}, "phone": "+14138635183", "display_phone": "(413) 863-5183", "distance": 7557.61034503781}, {"id": "SvMeNEEWcJw0w6lmjgxdew", "alias": "titos-taqueria-greenfield", "name": "Tito's Taqueria", "image_url": "https://s3-media3.fl.yelpcdn.com/bphoto/wZBeQpxZsgDEmwK5EswnXQ/o.jpg", "is_closed": false, "url": "https://www.yelp.com/biz/titos-taqueria-greenfield?adjust_creative=ywY5UnLZrNrRl2b93Ruy_g&utm_campaign=yelp_api_v3&utm_medium=api_v3_business_search&utm_source=ywY5UnLZrNrRl2b93Ruy_g", "review_count": 3, "categories": [{"alias": "foodstands", "title": "Food Stands"}, {"alias": "mexican", "title": "Mexican"}], "rating": 4.5, "coordinates": {"latitude": 42.5927892, "longitude": -72.5978838}, "transactions": ["delivery", "pickup"], "location": {"address1": "145 Federal St", "address2": null, "address3": "", "city": "Greenfield", "zip_code": "01301", "country": "US", "state": "MA", "display_address": ["145 Federal St", "Greenfield, MA 01301"]}, "phone": "", "display_phone": "", "distance": 8526.953815258923}, {"id": "SAvy9WokbPywn-Q6bO9xaw", "alias": "thai-blue-ginger-greenfield", "name": "Thai Blue Ginger", "image_url": "https://s3-media2.fl.yelpcdn.com/bphoto/8OSPpAICVUhAW-ZcYhCo_w/o.jpg", "is_closed": false, "url": "https://www.yelp.com/biz/thai-blue-ginger-greenfield?adjust_creative=ywY5UnLZrNrRl2b93Ruy_g&utm_campaign=yelp_api_v3&utm_medium=api_v3_business_search&utm_source=ywY5UnLZrNrRl2b93Ruy_g", "review_count": 69, "categories": [{"alias": "thai", "title": "Thai"}], "rating": 4.0, "coordinates": {"latitude": 42.5881226929282, "longitude": -72.6008848324572}, "transactions": ["delivery", "pickup"], "price": "$$", "location": {"address1": "298 Main St", "address2": "", "address3": "", "city": "Greenfield", "zip_code": "01301", "country": "US", "state": "MA", "display_address": ["298 Main St", "Greenfield, MA 01301"]}, "phone": "+14137720921", "display_phone": "(413) 772-0921", "distance": 8437.628329848176}, {"id": "k8vXS4BM-dzeV3xRu2w15Q", "alias": "champneys-restaurant-and-tavern-deerfield", "name": "Champney's Restaurant & Tavern", "image_url": "https://s3-media3.fl.yelpcdn.com/bphoto/5PJAiYN018fAejDnsPipVw/o.jpg", "is_closed": false, "url": "https://www.yelp.com/biz/champneys-restaurant-and-tavern-deerfield?adjust_creative=ywY5UnLZrNrRl2b93Ruy_g&utm_campaign=yelp_api_v3&utm_medium=api_v3_business_search&utm_source=ywY5UnLZrNrRl2b93Ruy_g", "review_count": 58, "categories": [{"alias": "beer_and_wine", "title": "Beer, Wine & Spirits"}, {"alias": "tradamerican", "title": "American (Traditional)"}, {"alias": "breakfast_brunch", "title": "Breakfast & Brunch"}], "rating": 3.5, "coordinates": {"latitude": 42.547022, "longitude": -72.604508}, "transactions": ["delivery"], "price": "$$", "location": {"address1": "81 Old Main St", "address2": "", "address3": "", "city": "Deerfield", "zip_code": "01342", "country": "US", "state": "MA", "display_address": ["81 Old Main St", "Deerfield, MA 01342"]}, "phone": "+14137723087", "display_phone": "(413) 772-3087", "distance": 7423.910888307296}, {"id": "M-DCwXS6_O-rOVJAxr3ofw", "alias": "kobe-hibachi-sushi-and-bar-greenfield-2", "name": "Kobe Hibachi Sushi and Bar", "image_url": "https://s3-media1.fl.yelpcdn.com/bphoto/zBcLhfB-95e9l01Zykb7Cg/o.jpg", "is_closed": false, "url": "https://www.yelp.com/biz/kobe-hibachi-sushi-and-bar-greenfield-2?adjust_creative=ywY5UnLZrNrRl2b93Ruy_g&utm_campaign=yelp_api_v3&utm_medium=api_v3_business_search&utm_source=ywY5UnLZrNrRl2b93Ruy_g", "review_count": 54, "categories": [{"alias": "japanese", "title": "Japanese"}, {"alias": "sushi", "title": "Sushi Bars"}, {"alias": "cocktailbars", "title": "Cocktail Bars"}], "rating": 3.5, "coordinates": {"latitude": 42.5863135, "longitude": -72.6271816}, "transactions": ["pickup"], "price": "$$", "location": {"address1": "254 Mohawk Trl", "address2": null, "address3": "", "city": "Greenfield", "zip_code": "01301", "country": "US", "state": "MA", "display_address": ["254 Mohawk Trl", "Greenfield, MA 01301"]}, "phone": "+14137728888", "display_phone": "(413) 772-8888", "distance": 10197.545038790462}, {"id": "QBdFoCiVYe2ZTwmTH8nIdQ", "alias": "damn-yankees-bbq-south-deerfield", "name": "Damn Yankees BBQ", "image_url": "https://s3-media1.fl.yelpcdn.com/bphoto/E-hdAq7izmIS7zdo860Org/o.jpg", "is_closed": false, "url": "https://www.yelp.com/biz/damn-yankees-bbq-south-deerfield?adjust_creative=ywY5UnLZrNrRl2b93Ruy_g&utm_campaign=yelp_api_v3&utm_medium=api_v3_business_search&utm_source=ywY5UnLZrNrRl2b93Ruy_g", "review_count": 25, "categories": [{"alias": "bbq", "title": "Barbeque"}], "rating": 3.5, "coordinates": {"latitude": 42.477924, "longitude": -72.61121}, "transactions": [], "price": "$$", "location": {"address1": "20 Elm St", "address2": "", "address3": "", "city": "South Deerfield", "zip_code": "01373", "country": "US", "state": "MA", "display_address": ["20 Elm St", "South Deerfield, MA 01373"]}, "phone": "+14132729347", "display_phone": "(413) 272-9347", "distance": 11110.21559796771}, {"id": "EWCyLEMETdIUFOmwMSRxTQ", "alias": "mesa-verde-greenfield", "name": "Mesa Verde", "image_url": "https://s3-media4.fl.yelpcdn.com/bphoto/ok7I_ZBW8l4NdmeyyBtLBw/o.jpg", "is_closed": false, "url": "https://www.yelp.com/biz/mesa-verde-greenfield?adjust_creative=ywY5UnLZrNrRl2b93Ruy_g&utm_campaign=yelp_api_v3&utm_medium=api_v3_business_search&utm_source=ywY5UnLZrNrRl2b93Ruy_g", "review_count": 141, "categories": [{"alias": "mexican", "title": "Mexican"}], "rating": 4.0, "coordinates": {"latitude": 42.587334, "longitude": -72.602582}, "transactions": ["delivery"], "price": "$", "location": {"address1": "10 Fiske Ave", "address2": "", "address3": "", "city": "Greenfield", "zip_code": "01301", "country": "US", "state": "MA", "display_address": ["10 Fiske Ave", "Greenfield, MA 01301"]}, "phone": "+14137722531", "display_phone": "(413) 772-2531", "distance": 8511.65838569211}, {"id": "52Valo93JOiqpVPScUWEBg", "alias": "the-upper-bend-turners-falls-2", "name": "The Upper Bend", "image_url": "https://s3-media1.fl.yelpcdn.com/bphoto/7nJl1Sy_PZ5n5aK8w1eWcw/o.jpg", "is_closed": false, "url": "https://www.yelp.com/biz/the-upper-bend-turners-falls-2?adjust_creative=ywY5UnLZrNrRl2b93Ruy_g&utm_campaign=yelp_api_v3&utm_medium=api_v3_business_search&utm_source=ywY5UnLZrNrRl2b93Ruy_g", "review_count": 7, "categories": [{"alias": "breakfast_brunch", "title": "Breakfast & Brunch"}, {"alias": "coffee", "title": "Coffee & Tea"}, {"alias": "sandwiches", "title": "Sandwiches"}], "rating": 4.5, "coordinates": {"latitude": 42.6079845, "longitude": -72.55725217}, "transactions": [], "location": {"address1": "112 Avenue A", "address2": null, "address3": "", "city": "Turners Falls", "zip_code": "01376", "country": "US", "state": "MA", "display_address": ["112 Avenue A", "Turners Falls, MA 01376"]}, "phone": "+14138635270", "display_phone": "(413) 863-5270", "distance": 7612.337325546702}, {"id": "QG0drESFSFC-fICafjJbeA", "alias": "williams-sugar-house-deerfield", "name": "Williams Sugar House", "image_url": "https://s3-media1.fl.yelpcdn.com/bphoto/j_AOHIXm4lellRljT1Dmfg/o.jpg", "is_closed": false, "url": "https://www.yelp.com/biz/williams-sugar-house-deerfield?adjust_creative=ywY5UnLZrNrRl2b93Ruy_g&utm_campaign=yelp_api_v3&utm_medium=api_v3_business_search&utm_source=ywY5UnLZrNrRl2b93Ruy_g", "review_count": 7, "categories": [{"alias": "newamerican", "title": "American (New)"}], "rating": 4.0, "coordinates": {"latitude": 42.5378105789423, "longitude": -72.6030052453279}, "transactions": [], "price": "$$", "location": {"address1": "491 Greenfield Rd", "address2": "", "address3": "", "city": "Deerfield", "zip_code": "01342", "country": "US", "state": "MA", "display_address": ["491 Greenfield Rd", "Deerfield, MA 01342"]}, "phone": "+14137735186", "display_phone": "(413) 773-5186", "distance": 7330.878886106001}, {"id": "T-Ouo3opXRiUEyGoBT0aoA", "alias": "the-harp-irish-pub-amherst-2", "name": "The Harp Irish Pub", "image_url": "https://s3-media4.fl.yelpcdn.com/bphoto/C6s2T_vWP916-VZoHhMzjQ/o.jpg", "is_closed": false, "url": "https://www.yelp.com/biz/the-harp-irish-pub-amherst-2?adjust_creative=ywY5UnLZrNrRl2b93Ruy_g&utm_campaign=yelp_api_v3&utm_medium=api_v3_business_search&utm_source=ywY5UnLZrNrRl2b93Ruy_g", "review_count": 32, "categories": [{"alias": "irish_pubs", "title": "Irish Pub"}, {"alias": "seafood", "title": "Seafood"}], "rating": 4.0, "coordinates": {"latitude": 42.4156, "longitude": -72.5328399}, "transactions": ["delivery"], "price": "$$", "location": {"address1": "163 Sunderland Rd", "address2": "", "address3": "", "city": "Amherst", "zip_code": "01002", "country": "US", "state": "MA", "display_address": ["163 Sunderland Rd", "Amherst, MA 01002"]}, "phone": "+14138350050", "display_phone": "(413) 835-0050", "distance": 14740.595992486838}, {"id": "Kd7unePYbesshmVtrvTnMQ", "alias": "four-leaf-clover-bernardston", "name": "Four Leaf Clover", "image_url": "https://s3-media2.fl.yelpcdn.com/bphoto/GsADBXLF5s0nkpa7vjedeg/o.jpg", "is_closed": false, "url": "https://www.yelp.com/biz/four-leaf-clover-bernardston?adjust_creative=ywY5UnLZrNrRl2b93Ruy_g&utm_campaign=yelp_api_v3&utm_medium=api_v3_business_search&utm_source=ywY5UnLZrNrRl2b93Ruy_g", "review_count": 59, "categories": [{"alias": "tradamerican", "title": "American (Traditional)"}], "rating": 3.5, "coordinates": {"latitude": 42.6702041625977, "longitude": -72.5550842285156}, "transactions": [], "price": "$$", "location": {"address1": "19 South St", "address2": "", "address3": "", "city": "Bernardston", "zip_code": "01337", "country": "US", "state": "MA", "display_address": ["19 South St", "Bernardston, MA 01337"]}, "phone": "+14136489514", "display_phone": "(413) 648-9514", "distance": 14068.533443991682}, {"id": "l0NWu0BZldXF3jHhk9SDgQ", "alias": "el-greco-cafe-greenfield", "name": "El Greco Cafe", "image_url": "https://s3-media2.fl.yelpcdn.com/bphoto/FPblzw5Gsz41dTeeA7r32A/o.jpg", "is_closed": false, "url": "https://www.yelp.com/biz/el-greco-cafe-greenfield?adjust_creative=ywY5UnLZrNrRl2b93Ruy_g&utm_campaign=yelp_api_v3&utm_medium=api_v3_business_search&utm_source=ywY5UnLZrNrRl2b93Ruy_g", "review_count": 50, "categories": [{"alias": "greek", "title": "Greek"}, {"alias": "mediterranean", "title": "Mediterranean"}], "rating": 4.0, "coordinates": {"latitude": 42.587867, "longitude": -72.602179}, "transactions": ["delivery"], "price": "$", "location": {"address1": "233 Main St", "address2": "", "address3": "", "city": "Greenfield", "zip_code": "01301", "country": "US", "state": "MA", "display_address": ["233 Main St", "Greenfield, MA 01301"]}, "phone": "+14137742844", "display_phone": "(413) 774-2844", "distance": 8512.282112353141}, {"id": "ZYW34OE1yuNuSaPgXbK98g", "alias": "hangar-greenfield-greenfield", "name": "Hangar - Greenfield", "image_url": "https://s3-media3.fl.yelpcdn.com/bphoto/LshdcwdmAZYSse8fbuOqqw/o.jpg", "is_closed": false, "url": "https://www.yelp.com/biz/hangar-greenfield-greenfield?adjust_creative=ywY5UnLZrNrRl2b93Ruy_g&utm_campaign=yelp_api_v3&utm_medium=api_v3_business_search&utm_source=ywY5UnLZrNrRl2b93Ruy_g", "review_count": 28, "categories": [{"alias": "chicken_wings", "title": "Chicken Wings"}, {"alias": "pubs", "title": "Pubs"}], "rating": 3.5, "coordinates": {"latitude": 42.5889892578125, "longitude": -72.5999526977539}, "transactions": ["delivery", "pickup"], "price": "$$", "location": {"address1": "30 Federal St", "address2": "", "address3": null, "city": "Greenfield", "zip_code": "01301", "country": "US", "state": "MA", "display_address": ["30 Federal St", "Greenfield, MA 01301"]}, "phone": "+14137739464", "display_phone": "(413) 773-9464", "distance": 8427.68281623298}, {"id": "sZQnBWW8IPZUA1IVRLWjPg", "alias": "taylors-tavern-greenfield", "name": "Taylor's Tavern", "image_url": "https://s3-media1.fl.yelpcdn.com/bphoto/m7ro5xz5NB5--a5tW-7QtA/o.jpg", "is_closed": false, "url": "https://www.yelp.com/biz/taylors-tavern-greenfield?adjust_creative=ywY5UnLZrNrRl2b93Ruy_g&utm_campaign=yelp_api_v3&utm_medium=api_v3_business_search&utm_source=ywY5UnLZrNrRl2b93Ruy_g", "review_count": 51, "categories": [{"alias": "tradamerican", "title": "American (Traditional)"}, {"alias": "burgers", "title": "Burgers"}, {"alias": "sandwiches", "title": "Sandwiches"}], "rating": 3.5, "coordinates": {"latitude": 42.588072, "longitude": -72.6022799}, "transactions": ["delivery"], "price": "$$", "location": {"address1": "238 Main St", "address2": "", "address3": "", "city": "Greenfield", "zip_code": "01301", "country": "US", "state": "MA", "display_address": ["238 Main St", "Greenfield, MA 01301"]}, "phone": "+14137738313", "display_phone": "(413) 773-8313", "distance": 8531.332938257437}, {"id": "dEp2L6B4tFTHtK4NxWd83w", "alias": "turners-falls-pizza-house-turners-falls", "name": "Turners Falls Pizza House", "image_url": "https://s3-media2.fl.yelpcdn.com/bphoto/_xhngASvQO04GYK_oUGkMw/o.jpg", "is_closed": false, "url": "https://www.yelp.com/biz/turners-falls-pizza-house-turners-falls?adjust_creative=ywY5UnLZrNrRl2b93Ruy_g&utm_campaign=yelp_api_v3&utm_medium=api_v3_business_search&utm_source=ywY5UnLZrNrRl2b93Ruy_g", "review_count": 31, "categories": [{"alias": "pizza", "title": "Pizza"}, {"alias": "salad", "title": "Salad"}], "rating": 4.0, "coordinates": {"latitude": 42.60762, "longitude": -72.5569}, "transactions": ["delivery"], "price": "$", "location": {"address1": "119 Avenue A", "address2": "", "address3": "", "city": "Turners Falls", "zip_code": "01376", "country": "US", "state": "MA", "display_address": ["119 Avenue A", "Turners Falls, MA 01376"]}, "phone": "+14138638000", "display_phone": "(413) 863-8000", "distance": 7576.239249252839}, {"id": "kMygiwbWBt1mq_6iHHmu4A", "alias": "bonnie-bs-greenfield", "name": "Bonnie B's", "image_url": "https://s3-media3.fl.yelpcdn.com/bphoto/oX_Z6yc17Tq26UVSo4o4Ig/o.jpg", "is_closed": false, "url": "https://www.yelp.com/biz/bonnie-bs-greenfield?adjust_creative=ywY5UnLZrNrRl2b93Ruy_g&utm_campaign=yelp_api_v3&utm_medium=api_v3_business_search&utm_source=ywY5UnLZrNrRl2b93Ruy_g", "review_count": 19, "categories": [{"alias": "breakfast_brunch", "title": "Breakfast & Brunch"}, {"alias": "tradamerican", "title": "American (Traditional)"}], "rating": 4.5, "coordinates": {"latitude": 42.588116, "longitude": -72.602802}, "transactions": ["delivery", "pickup"], "location": {"address1": "204 Main St", "address2": "", "address3": null, "city": "Greenfield", "zip_code": "01301", "country": "US", "state": "MA", "display_address": ["204 Main St", "Greenfield, MA 01301"]}, "phone": "+14134753758", "display_phone": "(413) 475-3758", "distance": 8570.2355313676}, {"id": "uzplqOLK7sx5gV3DYURn1Q", "alias": "goten-of-japan-sunderland", "name": "Goten of Japan", "image_url": "https://s3-media1.fl.yelpcdn.com/bphoto/cGjbWaxmcdOjijjzYz5Rsw/o.jpg", "is_closed": false, "url": "https://www.yelp.com/biz/goten-of-japan-sunderland?adjust_creative=ywY5UnLZrNrRl2b93Ruy_g&utm_campaign=yelp_api_v3&utm_medium=api_v3_business_search&utm_source=ywY5UnLZrNrRl2b93Ruy_g", "review_count": 105, "categories": [{"alias": "sushi", "title": "Sushi Bars"}, {"alias": "teppanyaki", "title": "Teppanyaki"}], "rating": 4.0, "coordinates": {"latitude": 42.45876, "longitude": -72.5722}, "transactions": ["delivery"], "price": "$$", "location": {"address1": "104 Old Amherst Rd", "address2": "", "address3": "", "city": "Sunderland", "zip_code": "01375", "country": "US", "state": "MA", "display_address": ["104 Old Amherst Rd", "Sunderland, MA 01375"]}, "phone": "+14136653628", "display_phone": "(413) 665-3628", "distance": 10991.939085696451}, {"id": "gLypgJyGFwhiq_yQnFAuSw", "alias": "prondecki-s-pizza-erving", "name": "Prondecki\u2019s Pizza", "image_url": "https://s3-media1.fl.yelpcdn.com/bphoto/5Ll_Ubt1KtRGQ9lh_84hpA/o.jpg", "is_closed": false, "url": "https://www.yelp.com/biz/prondecki-s-pizza-erving?adjust_creative=ywY5UnLZrNrRl2b93Ruy_g&utm_campaign=yelp_api_v3&utm_medium=api_v3_business_search&utm_source=ywY5UnLZrNrRl2b93Ruy_g", "review_count": 2, "categories": [{"alias": "pizza", "title": "Pizza"}, {"alias": "sandwiches", "title": "Sandwiches"}], "rating": 3.0, "coordinates": {"latitude": 42.582573438486, "longitude": -72.4938782869538}, "transactions": [], "location": {"address1": "1 W High St", "address2": "", "address3": "", "city": "Erving", "zip_code": "01344", "country": "US", "state": "MA", "display_address": ["1 W High St", "Erving, MA 01344"]}, "phone": "+14134233907", "display_phone": "(413) 423-3907", "distance": 4233.284421531498}, {"id": "cU2qJ6cyv3U0Gj0xyFCVJw", "alias": "historic-catering-erving", "name": "Historic Catering", "image_url": "https://s3-media1.fl.yelpcdn.com/bphoto/BAolcB6t409QxK-E7OWmNg/o.jpg", "is_closed": false, "url": "https://www.yelp.com/biz/historic-catering-erving?adjust_creative=ywY5UnLZrNrRl2b93Ruy_g&utm_campaign=yelp_api_v3&utm_medium=api_v3_business_search&utm_source=ywY5UnLZrNrRl2b93Ruy_g", "review_count": 1, "categories": [{"alias": "catering", "title": "Caterers"}, {"alias": "salad", "title": "Salad"}, {"alias": "wraps", "title": "Wraps"}], "rating": 5.0, "coordinates": {"latitude": 42.6010286, "longitude": -72.4389351}, "transactions": [], "location": {"address1": "", "address2": "", "address3": null, "city": "Erving", "zip_code": "01344", "country": "US", "state": "MA", "display_address": ["Erving, MA 01344"]}, "phone": "+14134221130", "display_phone": "(413) 422-1130", "distance": 8551.784445494553}, {"id": "FrJpcCrHNe0zdZCkw9IEyw", "alias": "hubies-tavern-montague", "name": "Hubie's Tavern", "image_url": "https://s3-media4.fl.yelpcdn.com/bphoto/3gWQzRgsBTzOX445tOvReA/o.jpg", "is_closed": false, "url": "https://www.yelp.com/biz/hubies-tavern-montague?adjust_creative=ywY5UnLZrNrRl2b93Ruy_g&utm_campaign=yelp_api_v3&utm_medium=api_v3_business_search&utm_source=ywY5UnLZrNrRl2b93Ruy_g", "review_count": 14, "categories": [{"alias": "diners", "title": "Diners"}, {"alias": "bars", "title": "Bars"}], "rating": 3.5, "coordinates": {"latitude": 42.6085548, "longitude": -72.5566254}, "transactions": [], "price": "$", "location": {"address1": "66 Ave A", "address2": "", "address3": "", "city": "Montague", "zip_code": "01376", "country": "US", "state": "MA", "display_address": ["66 Ave A", "Montague, MA 01376"]}, "phone": "+14138638938", "display_phone": "(413) 863-8938", "distance": 7645.878503731677}, {"id": "8x750RlduCSBUMZoZ8sJ8Q", "alias": "wild-roots-sunderland", "name": "Wild Roots", "image_url": "https://s3-media1.fl.yelpcdn.com/bphoto/9SsPB5uUmMUjJBzkOcp6yA/o.jpg", "is_closed": false, "url": "https://www.yelp.com/biz/wild-roots-sunderland?adjust_creative=ywY5UnLZrNrRl2b93Ruy_g&utm_campaign=yelp_api_v3&utm_medium=api_v3_business_search&utm_source=ywY5UnLZrNrRl2b93Ruy_g", "review_count": 26, "categories": [{"alias": "juicebars", "title": "Juice Bars & Smoothies"}, {"alias": "breakfast_brunch", "title": "Breakfast & Brunch"}, {"alias": "sandwiches", "title": "Sandwiches"}], "rating": 4.5, "coordinates": {"latitude": 42.46628, "longitude": -72.58093}, "transactions": ["delivery", "pickup"], "price": "$$", "location": {"address1": "11 Bridge St", "address2": null, "address3": "", "city": "Sunderland", "zip_code": "01375", "country": "US", "state": "MA", "display_address": ["11 Bridge St", "Sunderland, MA 01375"]}, "phone": "+14133505911", "display_phone": "(413) 350-5911", "distance": 10562.402152060555}, {"id": "75CHObb-0bxspwAaWcHsyw", "alias": "the-whately-inn-whately", "name": "The Whately Inn", "image_url": "https://s3-media3.fl.yelpcdn.com/bphoto/TkyLjBwFpK2kdenqUkKi0g/o.jpg", "is_closed": false, "url": "https://www.yelp.com/biz/the-whately-inn-whately?adjust_creative=ywY5UnLZrNrRl2b93Ruy_g&utm_campaign=yelp_api_v3&utm_medium=api_v3_business_search&utm_source=ywY5UnLZrNrRl2b93Ruy_g", "review_count": 60, "categories": [{"alias": "french", "title": "French"}, {"alias": "tradamerican", "title": "American (Traditional)"}], "rating": 3.5, "coordinates": {"latitude": 42.4398746, "longitude": -72.6349179}, "transactions": [], "price": "$$$", "location": {"address1": "193 Chestnut Plain Rd", "address2": "", "address3": "", "city": "Whately", "zip_code": "01093", "country": "US", "state": "MA", "display_address": ["193 Chestnut Plain Rd", "Whately, MA 01093"]}, "phone": "+14136653044", "display_phone": "(413) 665-3044", "distance": 15543.880970590486}, {"id": "efnGUoB4SVkhsF9a2wjebg", "alias": "the-wagon-wheel-restaurant-gill", "name": "The Wagon Wheel Restaurant", "image_url": "https://s3-media1.fl.yelpcdn.com/bphoto/_ifEFpgX3i8RfdhHYMX1uQ/o.jpg", "is_closed": false, "url": "https://www.yelp.com/biz/the-wagon-wheel-restaurant-gill?adjust_creative=ywY5UnLZrNrRl2b93Ruy_g&utm_campaign=yelp_api_v3&utm_medium=api_v3_business_search&utm_source=ywY5UnLZrNrRl2b93Ruy_g", "review_count": 136, "categories": [{"alias": "burgers", "title": "Burgers"}, {"alias": "tradamerican", "title": "American (Traditional)"}], "rating": 4.0, "coordinates": {"latitude": 42.61201, "longitude": -72.54543}, "transactions": ["delivery"], "price": "$", "location": {"address1": "39 French King Hwy", "address2": "", "address3": "", "city": "Gill", "zip_code": "01354", "country": "US", "state": "MA", "display_address": ["39 French King Hwy", "Gill, MA 01354"]}, "phone": "+14138638210", "display_phone": "(413) 863-8210", "distance": 7624.73455234362}, {"id": "zKiHmDHXaZVVYVe4Qm1nTg", "alias": "hillside-pizza-south-deerfield", "name": "Hillside Pizza", "image_url": "https://s3-media3.fl.yelpcdn.com/bphoto/qkuJnc_RVLnY4uz3HXBbcg/o.jpg", "is_closed": false, "url": "https://www.yelp.com/biz/hillside-pizza-south-deerfield?adjust_creative=ywY5UnLZrNrRl2b93Ruy_g&utm_campaign=yelp_api_v3&utm_medium=api_v3_business_search&utm_source=ywY5UnLZrNrRl2b93Ruy_g", "review_count": 23, "categories": [{"alias": "pizza", "title": "Pizza"}], "rating": 4.5, "coordinates": {"latitude": 42.50779, "longitude": -72.606161}, "transactions": ["delivery"], "price": "$$", "location": {"address1": "265 Greenfield Rd", "address2": "", "address3": "", "city": "South Deerfield", "zip_code": "01373", "country": "US", "state": "MA", "display_address": ["265 Greenfield Rd", "South Deerfield, MA 01373"]}, "phone": "+14136655533", "display_phone": "(413) 665-5533", "distance": 8754.671369902071}, {"id": "Xw5Gz7kiqxN34K8vjslNAQ", "alias": "new-fortune-chinese-restaurant-greenfield", "name": "New Fortune Chinese Restaurant", "image_url": "https://s3-media2.fl.yelpcdn.com/bphoto/ftAnKqMowdiOo9CXaIgZAg/o.jpg", "is_closed": false, "url": "https://www.yelp.com/biz/new-fortune-chinese-restaurant-greenfield?adjust_creative=ywY5UnLZrNrRl2b93Ruy_g&utm_campaign=yelp_api_v3&utm_medium=api_v3_business_search&utm_source=ywY5UnLZrNrRl2b93Ruy_g", "review_count": 37, "categories": [{"alias": "chinese", "title": "Chinese"}, {"alias": "sushi", "title": "Sushi Bars"}, {"alias": "japanese", "title": "Japanese"}], "rating": 3.5, "coordinates": {"latitude": 42.587352, "longitude": -72.626241}, "transactions": ["delivery"], "price": "$$", "location": {"address1": "249 Mohawk Trl", "address2": "", "address3": "", "city": "Greenfield", "zip_code": "01301", "country": "US", "state": "MA", "display_address": ["249 Mohawk Trl", "Greenfield, MA 01301"]}, "phone": "+14137720838", "display_phone": "(413) 772-0838", "distance": 10214.062338081294}, {"id": "2jbnnI5522q_T0pl-MuJXA", "alias": "bueno-y-sano-south-deerfield", "name": "Bueno Y Sano", "image_url": "https://s3-media1.fl.yelpcdn.com/bphoto/LGK_mCBWcVAPyyIenMDuBw/o.jpg", "is_closed": false, "url": "https://www.yelp.com/biz/bueno-y-sano-south-deerfield?adjust_creative=ywY5UnLZrNrRl2b93Ruy_g&utm_campaign=yelp_api_v3&utm_medium=api_v3_business_search&utm_source=ywY5UnLZrNrRl2b93Ruy_g", "review_count": 2, "categories": [{"alias": "mexican", "title": "Mexican"}], "rating": 5.0, "coordinates": {"latitude": 42.477567, "longitude": -72.608631}, "transactions": [], "location": {"address1": "3 Elm Streeet", "address2": null, "address3": "", "city": "South Deerfield", "zip_code": "01373", "country": "US", "state": "MA", "display_address": ["3 Elm Streeet", "South Deerfield, MA 01373"]}, "phone": "+14136654241", "display_phone": "(413) 665-4241", "distance": 10987.488783677722}, {"id": "z8ibbohpxOO6gaJHb0krUA", "alias": "bridgeside-grille-sunderland-3", "name": "BridgeSide Grille", "image_url": "https://s3-media1.fl.yelpcdn.com/bphoto/KqszBqT0JeFVOheneOgKVQ/o.jpg", "is_closed": false, "url": "https://www.yelp.com/biz/bridgeside-grille-sunderland-3?adjust_creative=ywY5UnLZrNrRl2b93Ruy_g&utm_campaign=yelp_api_v3&utm_medium=api_v3_business_search&utm_source=ywY5UnLZrNrRl2b93Ruy_g", "review_count": 52, "categories": [{"alias": "tradamerican", "title": "American (Traditional)"}], "rating": 3.0, "coordinates": {"latitude": 42.465655, "longitude": -72.57859}, "transactions": ["delivery", "pickup"], "price": "$$", "location": {"address1": "9 Amherst Rd", "address2": "", "address3": "", "city": "Sunderland", "zip_code": "01375", "country": "US", "state": "MA", "display_address": ["9 Amherst Rd", "Sunderland, MA 01375"]}, "phone": "+14133978101", "display_phone": "(413) 397-8101", "distance": 10496.205429951742}, {"id": "6Our5yg2Ihzg4qrwbOuwEQ", "alias": "hattapons-thai-kitchen-greenfield", "name": "Hattapon's Thai Kitchen", "image_url": "https://s3-media1.fl.yelpcdn.com/bphoto/OpC4EP9sMq0DlHgDHmrxyA/o.jpg", "is_closed": false, "url": "https://www.yelp.com/biz/hattapons-thai-kitchen-greenfield?adjust_creative=ywY5UnLZrNrRl2b93Ruy_g&utm_campaign=yelp_api_v3&utm_medium=api_v3_business_search&utm_source=ywY5UnLZrNrRl2b93Ruy_g", "review_count": 34, "categories": [{"alias": "thai", "title": "Thai"}], "rating": 3.5, "coordinates": {"latitude": 42.587759, "longitude": -72.601574}, "transactions": ["delivery"], "price": "$", "location": {"address1": "265 Main St", "address2": "", "address3": "", "city": "Greenfield", "zip_code": "01301", "country": "US", "state": "MA", "display_address": ["265 Main St", "Greenfield, MA 01301"]}, "phone": "+14137745304", "display_phone": "(413) 774-5304", "distance": 8465.112144285904}, {"id": "lNVB5KVLp9rGBOchtlPewQ", "alias": "village-pizza-shop-greenfield", "name": "Village Pizza Shop", "image_url": "https://s3-media4.fl.yelpcdn.com/bphoto/Y-OXKHBaMYwMyxx7hz5VLg/o.jpg", "is_closed": false, "url": "https://www.yelp.com/biz/village-pizza-shop-greenfield?adjust_creative=ywY5UnLZrNrRl2b93Ruy_g&utm_campaign=yelp_api_v3&utm_medium=api_v3_business_search&utm_source=ywY5UnLZrNrRl2b93Ruy_g", "review_count": 55, "categories": [{"alias": "pizza", "title": "Pizza"}], "rating": 4.0, "coordinates": {"latitude": 42.586783, "longitude": -72.600916}, "transactions": ["delivery"], "price": "$$", "location": {"address1": "42 Bank Row St", "address2": "", "address3": "", "city": "Greenfield", "zip_code": "01301", "country": "US", "state": "MA", "display_address": ["42 Bank Row St", "Greenfield, MA 01301"]}, "phone": "+14137726209", "display_phone": "(413) 772-6209", "distance": 8361.008153744102}, {"id": "6a3mUieRgCSGXCJ4lmzvFA", "alias": "ce-ces-chinese-restaurant-turners-falls", "name": "Ce Ce's Chinese Restaurant", "image_url": "https://s3-media2.fl.yelpcdn.com/bphoto/iKuaw65YUP_av-lB2p37kA/o.jpg", "is_closed": false, "url": "https://www.yelp.com/biz/ce-ces-chinese-restaurant-turners-falls?adjust_creative=ywY5UnLZrNrRl2b93Ruy_g&utm_campaign=yelp_api_v3&utm_medium=api_v3_business_search&utm_source=ywY5UnLZrNrRl2b93Ruy_g", "review_count": 10, "categories": [{"alias": "chinese", "title": "Chinese"}], "rating": 4.0, "coordinates": {"latitude": 42.6078868144459, "longitude": -72.55670151079}, "transactions": ["delivery"], "price": "$$", "location": {"address1": "53 Avenue A", "address2": "", "address3": "", "city": "Turners Falls", "zip_code": "01376", "country": "US", "state": "MA", "display_address": ["53 Avenue A", "Turners Falls, MA 01376"]}, "phone": "+14138638988", "display_phone": "(413) 863-8988", "distance": 7577.758333171328}, {"id": "epqJjZou4WhvNHm3YI0yaw", "alias": "doves-nest-restaurant-sunderland", "name": "Dove's Nest Restaurant", "image_url": "https://s3-media2.fl.yelpcdn.com/bphoto/lZaim-3fpRBkNFOC81btZQ/o.jpg", "is_closed": false, "url": "https://www.yelp.com/biz/doves-nest-restaurant-sunderland?adjust_creative=ywY5UnLZrNrRl2b93Ruy_g&utm_campaign=yelp_api_v3&utm_medium=api_v3_business_search&utm_source=ywY5UnLZrNrRl2b93Ruy_g", "review_count": 24, "categories": [{"alias": "diners", "title": "Diners"}, {"alias": "breakfast_brunch", "title": "Breakfast & Brunch"}], "rating": 4.0, "coordinates": {"latitude": 42.4512326907386, "longitude": -72.5632996993883}, "transactions": [], "price": "$", "location": {"address1": "285 Amherst Rd", "address2": "", "address3": "", "city": "Sunderland", "zip_code": "01375", "country": "US", "state": "MA", "display_address": ["285 Amherst Rd", "Sunderland, MA 01375"]}, "phone": "+14136657969", "display_phone": "(413) 665-7969", "distance": 11442.220659876515}, {"id": "dDA3YpteWaTXQ63z6REGeg", "alias": "the-wok-deerfield", "name": "The Wok", "image_url": "https://s3-media1.fl.yelpcdn.com/bphoto/vbZOmgKk-TYSndB9Oa5tQw/o.jpg", "is_closed": false, "url": "https://www.yelp.com/biz/the-wok-deerfield?adjust_creative=ywY5UnLZrNrRl2b93Ruy_g&utm_campaign=yelp_api_v3&utm_medium=api_v3_business_search&utm_source=ywY5UnLZrNrRl2b93Ruy_g", "review_count": 22, "categories": [{"alias": "chinese", "title": "Chinese"}, {"alias": "seafood", "title": "Seafood"}, {"alias": "soup", "title": "Soup"}], "rating": 3.0, "coordinates": {"latitude": 42.56664, "longitude": -72.593}, "transactions": ["delivery"], "price": "$$", "location": {"address1": "723 Greenfield Rd", "address2": "", "address3": "", "city": "Deerfield", "zip_code": "01342", "country": "US", "state": "MA", "display_address": ["723 Greenfield Rd", "Deerfield, MA 01342"]}, "phone": "+14137743606", "display_phone": "(413) 774-3606", "distance": 6809.6528260783825}, {"id": "2ykfTFuQMBNreBEvDEkBGg", "alias": "robertos-pizzeria-greenfield", "name": "Roberto's Pizzeria", "image_url": "https://s3-media4.fl.yelpcdn.com/bphoto/RC3SdRAazT2BstJZNw67yw/o.jpg", "is_closed": false, "url": "https://www.yelp.com/biz/robertos-pizzeria-greenfield?adjust_creative=ywY5UnLZrNrRl2b93Ruy_g&utm_campaign=yelp_api_v3&utm_medium=api_v3_business_search&utm_source=ywY5UnLZrNrRl2b93Ruy_g", "review_count": 14, "categories": [{"alias": "pizza", "title": "Pizza"}], "rating": 4.5, "coordinates": {"latitude": 42.59002, "longitude": -72.59941}, "transactions": ["delivery"], "price": "$", "location": {"address1": "80 Federal St", "address2": "", "address3": "", "city": "Greenfield", "zip_code": "01301", "country": "US", "state": "MA", "display_address": ["80 Federal St", "Greenfield, MA 01301"]}, "phone": "+14137750155", "display_phone": "(413) 775-0155", "distance": 8442.074413413835}, {"id": "TdZplOy0Nm7kMNpnEgo_kA", "alias": "dimos-restaurant-sunderland", "name": "Dimo's Restaurant", "image_url": "", "is_closed": false, "url": "https://www.yelp.com/biz/dimos-restaurant-sunderland?adjust_creative=ywY5UnLZrNrRl2b93Ruy_g&utm_campaign=yelp_api_v3&utm_medium=api_v3_business_search&utm_source=ywY5UnLZrNrRl2b93Ruy_g", "review_count": 11, "categories": [{"alias": "tradamerican", "title": "American (Traditional)"}], "rating": 3.0, "coordinates": {"latitude": 42.467481, "longitude": -72.578504}, "transactions": [], "price": "$$", "location": {"address1": "118 N Main St", "address2": "", "address3": "", "city": "Sunderland", "zip_code": "01375", "country": "US", "state": "MA", "display_address": ["118 N Main St", "Sunderland, MA 01375"]}, "phone": "+14136654444", "display_phone": "(413) 665-4444", "distance": 10352.123105371888}, {"id": "DMv1r_XMkNj7G0n0X0bodA", "alias": "main-street-bar-and-grille-greenfield", "name": "Main Street Bar and Grille", "image_url": "https://s3-media1.fl.yelpcdn.com/bphoto/_y80dYCee_tMYms2n3dWWg/o.jpg", "is_closed": false, "url": "https://www.yelp.com/biz/main-street-bar-and-grille-greenfield?adjust_creative=ywY5UnLZrNrRl2b93Ruy_g&utm_campaign=yelp_api_v3&utm_medium=api_v3_business_search&utm_source=ywY5UnLZrNrRl2b93Ruy_g", "review_count": 7, "categories": [{"alias": "tradamerican", "title": "American (Traditional)"}, {"alias": "bars", "title": "Bars"}, {"alias": "burgers", "title": "Burgers"}], "rating": 3.5, "coordinates": {"latitude": 42.58773, "longitude": -72.60579}, "transactions": ["delivery"], "price": "$$", "location": {"address1": "94 Main St", "address2": "", "address3": "", "city": "Greenfield", "zip_code": "01301", "country": "US", "state": "MA", "display_address": ["94 Main St", "Greenfield, MA 01301"]}, "phone": "+14137746388", "display_phone": "(413) 774-6388", "distance": 8758.94522019863}, {"id": "EqDWkMchtI0Oaj03pd3T9Q", "alias": "leverett-village-coop-leverett", "name": "Leverett Village Coop", "image_url": "https://s3-media3.fl.yelpcdn.com/bphoto/4dd7y7ajwGHO_OoMEO5ZIg/o.jpg", "is_closed": false, "url": "https://www.yelp.com/biz/leverett-village-coop-leverett?adjust_creative=ywY5UnLZrNrRl2b93Ruy_g&utm_campaign=yelp_api_v3&utm_medium=api_v3_business_search&utm_source=ywY5UnLZrNrRl2b93Ruy_g", "review_count": 5, "categories": [{"alias": "bakeries", "title": "Bakeries"}, {"alias": "cafes", "title": "Cafes"}, {"alias": "breakfast_brunch", "title": "Breakfast & Brunch"}], "rating": 4.0, "coordinates": {"latitude": 42.494564, "longitude": -72.469718}, "transactions": [], "price": "$$", "location": {"address1": "180 Rattlesnake Gutter Rd", "address2": "", "address3": "", "city": "Leverett", "zip_code": "01054", "country": "US", "state": "MA", "display_address": ["180 Rattlesnake Gutter Rd", "Leverett, MA 01054"]}, "phone": "+14133679794", "display_phone": "(413) 367-9794", "distance": 6907.263079407472}, {"id": "F60ZshsheJZSuxb3fpeFtw", "alias": "china-gourmet-greenfield-2", "name": "China Gourmet", "image_url": "https://s3-media2.fl.yelpcdn.com/bphoto/dX3zEIx-W2C6hWmklUr6hA/o.jpg", "is_closed": false, "url": "https://www.yelp.com/biz/china-gourmet-greenfield-2?adjust_creative=ywY5UnLZrNrRl2b93Ruy_g&utm_campaign=yelp_api_v3&utm_medium=api_v3_business_search&utm_source=ywY5UnLZrNrRl2b93Ruy_g", "review_count": 68, "categories": [{"alias": "chinese", "title": "Chinese"}, {"alias": "japanese", "title": "Japanese"}], "rating": 3.0, "coordinates": {"latitude": 42.5846366882324, "longitude": -72.6142959594727}, "transactions": ["delivery"], "price": "$$", "location": {"address1": "78 Mohawk Trl", "address2": null, "address3": "", "city": "Greenfield", "zip_code": "01301", "country": "US", "state": "MA", "display_address": ["78 Mohawk Trl", "Greenfield, MA 01301"]}, "phone": "+14137742299", "display_phone": "(413) 774-2299", "distance": 9206.889587127487}, {"id": "hRoE_3CUPnxn_1oDjjd9Lg", "alias": "jakes-at-the-mill-amherst", "name": "Jake's at The Mill", "image_url": "https://s3-media3.fl.yelpcdn.com/bphoto/E5tjKXlpbvZU282oIi1N5A/o.jpg", "is_closed": false, "url": "https://www.yelp.com/biz/jakes-at-the-mill-amherst?adjust_creative=ywY5UnLZrNrRl2b93Ruy_g&utm_campaign=yelp_api_v3&utm_medium=api_v3_business_search&utm_source=ywY5UnLZrNrRl2b93Ruy_g", "review_count": 54, "categories": [{"alias": "breakfast_brunch", "title": "Breakfast & Brunch"}, {"alias": "tradamerican", "title": "American (Traditional)"}], "rating": 4.5, "coordinates": {"latitude": 42.41545, "longitude": -72.53074}, "transactions": ["delivery"], "price": "$$", "location": {"address1": "68 Cowls Rd", "address2": null, "address3": "", "city": "Amherst", "zip_code": "01002", "country": "US", "state": "MA", "display_address": ["68 Cowls Rd", "Amherst, MA 01002"]}, "phone": "+14132303717", "display_phone": "(413) 230-3717", "distance": 14744.059750389077}, {"id": "gCaIfAJ93W6fvmKuasF6Xw", "alias": "house-of-teriyaki-amherst", "name": "House of Teriyaki", "image_url": "https://s3-media2.fl.yelpcdn.com/bphoto/R6hmbdgtPeUaM87IpWdmeg/o.jpg", "is_closed": false, "url": "https://www.yelp.com/biz/house-of-teriyaki-amherst?adjust_creative=ywY5UnLZrNrRl2b93Ruy_g&utm_campaign=yelp_api_v3&utm_medium=api_v3_business_search&utm_source=ywY5UnLZrNrRl2b93Ruy_g", "review_count": 90, "categories": [{"alias": "japanese", "title": "Japanese"}, {"alias": "korean", "title": "Korean"}, {"alias": "sushi", "title": "Sushi Bars"}], "rating": 4.0, "coordinates": {"latitude": 42.40953, "longitude": -72.53044}, "transactions": ["delivery"], "price": "$$", "location": {"address1": "1177 N Pleasant St", "address2": "", "address3": "", "city": "Amherst", "zip_code": "01002", "country": "US", "state": "MA", "display_address": ["1177 N Pleasant St", "Amherst, MA 01002"]}, "phone": "+14135493666", "display_phone": "(413) 549-3666", "distance": 15397.193596105782}, {"id": "O-cuf9gqctm096VCcM79Lg", "alias": "conway-inn-conway", "name": "Conway Inn", "image_url": "https://s3-media2.fl.yelpcdn.com/bphoto/PkYRlRCqQCTdb2bqT10Y3A/o.jpg", "is_closed": false, "url": "https://www.yelp.com/biz/conway-inn-conway?adjust_creative=ywY5UnLZrNrRl2b93Ruy_g&utm_campaign=yelp_api_v3&utm_medium=api_v3_business_search&utm_source=ywY5UnLZrNrRl2b93Ruy_g", "review_count": 6, "categories": [{"alias": "bars", "title": "Bars"}, {"alias": "pizza", "title": "Pizza"}], "rating": 4.5, "coordinates": {"latitude": 42.5087199, "longitude": -72.69772}, "transactions": [], "price": "$", "location": {"address1": "43 Main", "address2": "", "address3": "", "city": "Conway", "zip_code": "01341", "country": "US", "state": "MA", "display_address": ["43 Main", "Conway, MA 01341"]}, "phone": "+14133694428", "display_phone": "(413) 369-4428", "distance": 15668.411502688881}, {"id": "_JUzxtxuvLxHiG_XJNLR0g", "alias": "hillside-pizza-bernardston", "name": "Hillside Pizza", "image_url": "https://s3-media1.fl.yelpcdn.com/bphoto/ArMiQNIjj8WPqrNp-qcYiw/o.jpg", "is_closed": false, "url": "https://www.yelp.com/biz/hillside-pizza-bernardston?adjust_creative=ywY5UnLZrNrRl2b93Ruy_g&utm_campaign=yelp_api_v3&utm_medium=api_v3_business_search&utm_source=ywY5UnLZrNrRl2b93Ruy_g", "review_count": 37, "categories": [{"alias": "pizza", "title": "Pizza"}], "rating": 4.5, "coordinates": {"latitude": 42.6702842712402, "longitude": -72.547119140625}, "transactions": [], "price": "$", "location": {"address1": "77 Church St", "address2": "", "address3": "", "city": "Bernardston", "zip_code": "01337", "country": "US", "state": "MA", "display_address": ["77 Church St", "Bernardston, MA 01337"]}, "phone": "+14136480500", "display_phone": "(413) 648-0500", "distance": 13959.081105089117}, {"id": "YTfiTaawGtWf9CX5a64UNQ", "alias": "ciesluks-market-south-deerfield", "name": "Ciesluk's Market", "image_url": "https://s3-media4.fl.yelpcdn.com/bphoto/kMtgDkcjeQBIp-1SVychMw/o.jpg", "is_closed": false, "url": "https://www.yelp.com/biz/ciesluks-market-south-deerfield?adjust_creative=ywY5UnLZrNrRl2b93Ruy_g&utm_campaign=yelp_api_v3&utm_medium=api_v3_business_search&utm_source=ywY5UnLZrNrRl2b93Ruy_g", "review_count": 5, "categories": [{"alias": "grocery", "title": "Grocery"}, {"alias": "bakeries", "title": "Bakeries"}, {"alias": "delis", "title": "Delis"}], "rating": 4.5, "coordinates": {"latitude": 42.47767, "longitude": -72.60843}, "transactions": [], "location": {"address1": "55C N Main St", "address2": null, "address3": "", "city": "South Deerfield", "zip_code": "01373", "country": "US", "state": "MA", "display_address": ["55C N Main St", "South Deerfield, MA 01373"]}, "phone": "+14133973574", "display_phone": "(413) 397-3574", "distance": 10961.375378836727}, {"id": "3p3pMwBPluQSEscxeqFa5g", "alias": "bittersweet-bakery-and-cafe-deerfield", "name": "Bittersweet Bakery & Cafe", "image_url": "https://s3-media2.fl.yelpcdn.com/bphoto/_2c3G5F_Kt0IvHqtfncUSg/o.jpg", "is_closed": false, "url": "https://www.yelp.com/biz/bittersweet-bakery-and-cafe-deerfield?adjust_creative=ywY5UnLZrNrRl2b93Ruy_g&utm_campaign=yelp_api_v3&utm_medium=api_v3_business_search&utm_source=ywY5UnLZrNrRl2b93Ruy_g", "review_count": 17, "categories": [{"alias": "cafes", "title": "Cafes"}, {"alias": "bakeries", "title": "Bakeries"}, {"alias": "coffee", "title": "Coffee & Tea"}], "rating": 4.0, "coordinates": {"latitude": 42.53364, "longitude": -72.60323}, "transactions": [], "location": {"address1": "470 Greenfield Rd", "address2": "", "address3": null, "city": "Deerfield", "zip_code": "01342", "country": "US", "state": "MA", "display_address": ["470 Greenfield Rd", "Deerfield, MA 01342"]}, "phone": "+14132235496", "display_phone": "(413) 223-5496", "distance": 7473.3891831981855}, {"id": "gjyFpVijSZC6PUqnu8N7BQ", "alias": "bubs-bbq-sunderland", "name": "Bub's BBQ", "image_url": "https://s3-media3.fl.yelpcdn.com/bphoto/3htYzah5sVUhJqBemtBS7Q/o.jpg", "is_closed": false, "url": "https://www.yelp.com/biz/bubs-bbq-sunderland?adjust_creative=ywY5UnLZrNrRl2b93Ruy_g&utm_campaign=yelp_api_v3&utm_medium=api_v3_business_search&utm_source=ywY5UnLZrNrRl2b93Ruy_g", "review_count": 175, "categories": [{"alias": "bbq", "title": "Barbeque"}], "rating": 3.5, "coordinates": {"latitude": 42.4303359985352, "longitude": -72.5412445068359}, "transactions": ["delivery", "pickup"], "price": "$$", "location": {"address1": "676 Amherst Rd", "address2": "", "address3": "", "city": "Sunderland", "zip_code": "01375", "country": "US", "state": "MA", "display_address": ["676 Amherst Rd", "Sunderland, MA 01375"]}, "phone": "+14135489630", "display_phone": "(413) 548-9630", "distance": 13241.830123067855}, {"id": "W4sLmaC91ain7-EIW6rJhg", "alias": "99-restaurants-greenfield", "name": "99 Restaurants", "image_url": "https://s3-media1.fl.yelpcdn.com/bphoto/O1tqImdbBB0XmapA_c5vUQ/o.jpg", "is_closed": false, "url": "https://www.yelp.com/biz/99-restaurants-greenfield?adjust_creative=ywY5UnLZrNrRl2b93Ruy_g&utm_campaign=yelp_api_v3&utm_medium=api_v3_business_search&utm_source=ywY5UnLZrNrRl2b93Ruy_g", "review_count": 38, "categories": [{"alias": "pubs", "title": "Pubs"}, {"alias": "tradamerican", "title": "American (Traditional)"}], "rating": 4.0, "coordinates": {"latitude": 42.586313, "longitude": -72.623546}, "transactions": [], "price": "$$", "location": {"address1": "17 Colrain Rd", "address2": null, "address3": null, "city": "Greenfield", "zip_code": "01301", "country": "US", "state": "MA", "display_address": ["17 Colrain Rd", "Greenfield, MA 01301"]}, "phone": "+14137759997", "display_phone": "(413) 775-9997", "distance": 9965.15814956698}, {"id": "O54cKWsDae66i8x19Q0soQ", "alias": "zekes-bar-and-grill-bernardston", "name": "Zeke's Bar & Grill", "image_url": "https://s3-media1.fl.yelpcdn.com/bphoto/0X-tuRBN04LhHH1guk5-FQ/o.jpg", "is_closed": false, "url": "https://www.yelp.com/biz/zekes-bar-and-grill-bernardston?adjust_creative=ywY5UnLZrNrRl2b93Ruy_g&utm_campaign=yelp_api_v3&utm_medium=api_v3_business_search&utm_source=ywY5UnLZrNrRl2b93Ruy_g", "review_count": 7, "categories": [{"alias": "bars", "title": "Bars"}, {"alias": "tradamerican", "title": "American (Traditional)"}], "rating": 2.5, "coordinates": {"latitude": 42.6798121733333, "longitude": -72.5231491774321}, "transactions": [], "location": {"address1": "87 Parameter Rd", "address2": "", "address3": "Crumpin-Fox Club", "city": "Bernardston", "zip_code": "01337", "country": "US", "state": "MA", "display_address": ["87 Parameter Rd", "Crumpin-Fox Club", "Bernardston, MA 01337"]}, "phone": "+14136485356", "display_phone": "(413) 648-5356", "distance": 14735.28309973092}, {"id": "B9mlcSelTLSmYp3UQlMCxw", "alias": "holiday-pizza-south-deerfield", "name": "Holiday Pizza", "image_url": "https://s3-media2.fl.yelpcdn.com/bphoto/5UGIRfPb-Pw3YWCxfalkfw/o.jpg", "is_closed": false, "url": "https://www.yelp.com/biz/holiday-pizza-south-deerfield?adjust_creative=ywY5UnLZrNrRl2b93Ruy_g&utm_campaign=yelp_api_v3&utm_medium=api_v3_business_search&utm_source=ywY5UnLZrNrRl2b93Ruy_g", "review_count": 33, "categories": [{"alias": "pizza", "title": "Pizza"}, {"alias": "mediterranean", "title": "Mediterranean"}, {"alias": "italian", "title": "Italian"}], "rating": 4.5, "coordinates": {"latitude": 42.4771728515625, "longitude": -72.609130859375}, "transactions": ["delivery"], "price": "$", "location": {"address1": "3 Elm St", "address2": "Ste A", "address3": "", "city": "South Deerfield", "zip_code": "01373", "country": "US", "state": "MA", "display_address": ["3 Elm St", "Ste A", "South Deerfield, MA 01373"]}, "phone": "+14136658195", "display_phone": "(413) 665-8195", "distance": 11047.680466616423}, {"id": "IdJQcFjuiOtkiZKGvTcqpQ", "alias": "windmill-restaurant-bernardston", "name": "Windmill Restaurant", "image_url": "https://s3-media4.fl.yelpcdn.com/bphoto/cFWJPCvE4wQtv8_4Lg1X7Q/o.jpg", "is_closed": false, "url": "https://www.yelp.com/biz/windmill-restaurant-bernardston?adjust_creative=ywY5UnLZrNrRl2b93Ruy_g&utm_campaign=yelp_api_v3&utm_medium=api_v3_business_search&utm_source=ywY5UnLZrNrRl2b93Ruy_g", "review_count": 1, "categories": [{"alias": "restaurants", "title": "Restaurants"}], "rating": 3.0, "coordinates": {"latitude": 42.6760040223598, "longitude": -72.4974147230387}, "transactions": [], "price": "$", "location": {"address1": "497 Northfield Rd", "address2": "", "address3": "", "city": "Bernardston", "zip_code": "01337", "country": "US", "state": "MA", "display_address": ["497 Northfield Rd", "Bernardston, MA 01337"]}, "phone": "+14136489859", "display_phone": "(413) 648-9859", "distance": 14102.344260463411}, {"id": "8sKIaGoMceZ14IWg2h2M7g", "alias": "the-notch-northfield", "name": "The Notch", "image_url": "https://s3-media1.fl.yelpcdn.com/bphoto/7qOmPQ4q-y91S2pfvc2zXQ/o.jpg", "is_closed": false, "url": "https://www.yelp.com/biz/the-notch-northfield?adjust_creative=ywY5UnLZrNrRl2b93Ruy_g&utm_campaign=yelp_api_v3&utm_medium=api_v3_business_search&utm_source=ywY5UnLZrNrRl2b93Ruy_g", "review_count": 8, "categories": [{"alias": "diners", "title": "Diners"}], "rating": 3.0, "coordinates": {"latitude": 42.69466, "longitude": -72.45556}, "transactions": [], "price": "$", "location": {"address1": "77 Main St", "address2": "", "address3": "", "city": "Northfield", "zip_code": "01360", "country": "US", "state": "MA", "display_address": ["77 Main St", "Northfield, MA 01360"]}, "phone": "+14134980100", "display_phone": "(413) 498-0100", "distance": 17049.602044113002}, {"id": "e8ZEjMpyR0yUdEdBdlYiJQ", "alias": "new-golden-china-restaurant-south-deerfield", "name": "New Golden China Restaurant", "image_url": "https://s3-media3.fl.yelpcdn.com/bphoto/8wVKYBzZqtc0BHauql8UvA/o.jpg", "is_closed": false, "url": "https://www.yelp.com/biz/new-golden-china-restaurant-south-deerfield?adjust_creative=ywY5UnLZrNrRl2b93Ruy_g&utm_campaign=yelp_api_v3&utm_medium=api_v3_business_search&utm_source=ywY5UnLZrNrRl2b93Ruy_g", "review_count": 17, "categories": [{"alias": "chinese", "title": "Chinese"}], "rating": 3.5, "coordinates": {"latitude": 42.4765968322754, "longitude": -72.6094131469727}, "transactions": ["delivery"], "price": "$$", "location": {"address1": "45 S Main St", "address2": "", "address3": "", "city": "South Deerfield", "zip_code": "01373", "country": "US", "state": "MA", "display_address": ["45 S Main St", "South Deerfield, MA 01373"]}, "phone": "+14136653365", "display_phone": "(413) 665-3365", "distance": 11109.294991446623}, {"id": "pSPnC1hcf-CO-uMQJF0NQQ", "alias": "bba-deli-market-south-deerfield", "name": "BBA Deli Market", "image_url": "https://s3-media3.fl.yelpcdn.com/bphoto/G0HZIKIZczmS5vnYNRPpdw/o.jpg", "is_closed": false, "url": "https://www.yelp.com/biz/bba-deli-market-south-deerfield?adjust_creative=ywY5UnLZrNrRl2b93Ruy_g&utm_campaign=yelp_api_v3&utm_medium=api_v3_business_search&utm_source=ywY5UnLZrNrRl2b93Ruy_g", "review_count": 21, "categories": [{"alias": "delis", "title": "Delis"}, {"alias": "polish", "title": "Polish"}, {"alias": "gourmet", "title": "Specialty Food"}], "rating": 4.5, "coordinates": {"latitude": 42.472156, "longitude": -72.608634}, "transactions": ["delivery"], "price": "$", "location": {"address1": "39 Thayer St", "address2": "", "address3": "", "city": "South Deerfield", "zip_code": "01373", "country": "US", "state": "MA", "display_address": ["39 Thayer St", "South Deerfield, MA 01373"]}, "phone": "+14136659171", "display_phone": "(413) 665-9171", "distance": 11433.286572587998}, {"id": "HdpJ9-YxNriWZa03RS4VyQ", "alias": "antonios-ii-pizza-and-grinders-bernardston", "name": "Antonio's II Pizza & Grinders", "image_url": "https://s3-media3.fl.yelpcdn.com/bphoto/sJhlchuDAMEkHVBnTS_l7w/o.jpg", "is_closed": false, "url": "https://www.yelp.com/biz/antonios-ii-pizza-and-grinders-bernardston?adjust_creative=ywY5UnLZrNrRl2b93Ruy_g&utm_campaign=yelp_api_v3&utm_medium=api_v3_business_search&utm_source=ywY5UnLZrNrRl2b93Ruy_g", "review_count": 21, "categories": [{"alias": "pizza", "title": "Pizza"}, {"alias": "salad", "title": "Salad"}], "rating": 3.0, "coordinates": {"latitude": 42.671588, "longitude": -72.5545055}, "transactions": [], "price": "$", "location": {"address1": "1 S St", "address2": null, "address3": null, "city": "Bernardston", "zip_code": "01337", "country": "US", "state": "MA", "display_address": ["1 S St", "Bernardston, MA 01337"]}, "phone": "+14136489800", "display_phone": "(413) 648-9800", "distance": 14195.987680840277}, {"id": "shdRdjPzsHQn5SXhsT9bVw", "alias": "toms-hot-dog-whately", "name": "Tom's Hot Dog", "image_url": "https://s3-media1.fl.yelpcdn.com/bphoto/8sAD2sXoHiFeNzO598_MaQ/o.jpg", "is_closed": false, "url": "https://www.yelp.com/biz/toms-hot-dog-whately?adjust_creative=ywY5UnLZrNrRl2b93Ruy_g&utm_campaign=yelp_api_v3&utm_medium=api_v3_business_search&utm_source=ywY5UnLZrNrRl2b93Ruy_g", "review_count": 34, "categories": [{"alias": "hotdog", "title": "Hot Dogs"}, {"alias": "burgers", "title": "Burgers"}, {"alias": "soup", "title": "Soup"}], "rating": 4.0, "coordinates": {"latitude": 42.4235720399516, "longitude": -72.6222722370316}, "transactions": ["delivery"], "price": "$", "location": {"address1": "61 State Rd Rte 5 And 10", "address2": "", "address3": "", "city": "Whately", "zip_code": "01093", "country": "US", "state": "MA", "display_address": ["61 State Rd Rte 5 And 10", "Whately, MA 01093"]}, "phone": "+14136652931", "display_phone": "(413) 665-2931", "distance": 16394.88653996061}, {"id": "b-LHyJufYxVTDZZYgsC5zg", "alias": "applebees-grill-bar-greenfield-2", "name": "Applebee's Grill + Bar", "image_url": "https://s3-media3.fl.yelpcdn.com/bphoto/uspV9fyAGPPDasqqxw9JuQ/o.jpg", "is_closed": false, "url": "https://www.yelp.com/biz/applebees-grill-bar-greenfield-2?adjust_creative=ywY5UnLZrNrRl2b93Ruy_g&utm_campaign=yelp_api_v3&utm_medium=api_v3_business_search&utm_source=ywY5UnLZrNrRl2b93Ruy_g", "review_count": 31, "categories": [{"alias": "tradamerican", "title": "American (Traditional)"}, {"alias": "sportsbars", "title": "Sports Bars"}, {"alias": "burgers", "title": "Burgers"}], "rating": 3.5, "coordinates": {"latitude": 42.585115, "longitude": -72.618677}, "transactions": [], "price": "$$", "location": {"address1": "141 Mohawk Trl", "address2": "", "address3": "", "city": "Greenfield", "zip_code": "01301", "country": "US", "state": "MA", "display_address": ["141 Mohawk Trl", "Greenfield, MA 01301"]}, "phone": "+14137720079", "display_phone": "(413) 772-0079", "distance": 9548.30053168783}, {"id": "oh2hgHxtHrGCkzGHqK4quA", "alias": "goodies-restaurant-greenfield", "name": "Goodies Restaurant", "image_url": "https://s3-media3.fl.yelpcdn.com/bphoto/-bwBadmNTAtzswYG2Hh3Ig/o.jpg", "is_closed": false, "url": "https://www.yelp.com/biz/goodies-restaurant-greenfield?adjust_creative=ywY5UnLZrNrRl2b93Ruy_g&utm_campaign=yelp_api_v3&utm_medium=api_v3_business_search&utm_source=ywY5UnLZrNrRl2b93Ruy_g", "review_count": 31, "categories": [{"alias": "pizza", "title": "Pizza"}, {"alias": "italian", "title": "Italian"}], "rating": 3.0, "coordinates": {"latitude": 42.5986328125, "longitude": -72.596435546875}, "transactions": ["delivery"], "price": "$$", "location": {"address1": "256 Federal St", "address2": "", "address3": "", "city": "Greenfield", "zip_code": "01301", "country": "US", "state": "MA", "display_address": ["256 Federal St", "Greenfield, MA 01301"]}, "phone": "+14137722586", "display_phone": "(413) 772-2586", "distance": 8836.805022342627}, {"id": "4qQyegUA1-1WFuY3MSmngw", "alias": "davenport-maple-farm-shelburne-falls", "name": "Davenport Maple Farm", "image_url": "https://s3-media3.fl.yelpcdn.com/bphoto/e-QMQdijvVHP6rbQDd4QAA/o.jpg", "is_closed": false, "url": "https://www.yelp.com/biz/davenport-maple-farm-shelburne-falls?adjust_creative=ywY5UnLZrNrRl2b93Ruy_g&utm_campaign=yelp_api_v3&utm_medium=api_v3_business_search&utm_source=ywY5UnLZrNrRl2b93Ruy_g", "review_count": 8, "categories": [{"alias": "breakfast_brunch", "title": "Breakfast & Brunch"}, {"alias": "waffles", "title": "Waffles"}], "rating": 3.5, "coordinates": {"latitude": 42.61168, "longitude": -72.70595}, "transactions": [], "price": "$$", "location": {"address1": "111 Tower Rd", "address2": null, "address3": null, "city": "Shelburne Falls", "zip_code": "01370", "country": "US", "state": "MA", "display_address": ["111 Tower Rd", "Shelburne Falls, MA 01370"]}, "phone": "+14136252866", "display_phone": "(413) 625-2866", "distance": 17915.497273152574}, {"id": "Bg_8P9_cODuGHbbHA3U8VQ", "alias": "sugarloaf-frostie-sunderland", "name": "Sugarloaf Frostie", "image_url": "https://s3-media2.fl.yelpcdn.com/bphoto/rqdpJK2QJOhKcxkGlbAiZQ/o.jpg", "is_closed": false, "url": "https://www.yelp.com/biz/sugarloaf-frostie-sunderland?adjust_creative=ywY5UnLZrNrRl2b93Ruy_g&utm_campaign=yelp_api_v3&utm_medium=api_v3_business_search&utm_source=ywY5UnLZrNrRl2b93Ruy_g", "review_count": 23, "categories": [{"alias": "foodstands", "title": "Food Stands"}], "rating": 3.5, "coordinates": {"latitude": 42.464494, "longitude": -72.574273}, "transactions": [], "price": "$", "location": {"address1": "116 Amherst Rd", "address2": "", "address3": "", "city": "Sunderland", "zip_code": "01375", "country": "US", "state": "MA", "display_address": ["116 Amherst Rd", "Sunderland, MA 01375"]}, "phone": "+14136657585", "display_phone": "(413) 665-7585", "distance": 10470.549068548065}, {"id": "YZvXTxzycSpl0thbZbA62Q", "alias": "frontier-pizza-place-sunderland", "name": "Frontier Pizza Place", "image_url": "https://s3-media2.fl.yelpcdn.com/bphoto/bRpCBgRHsJrY_hojQ5VK7A/o.jpg", "is_closed": false, "url": "https://www.yelp.com/biz/frontier-pizza-place-sunderland?adjust_creative=ywY5UnLZrNrRl2b93Ruy_g&utm_campaign=yelp_api_v3&utm_medium=api_v3_business_search&utm_source=ywY5UnLZrNrRl2b93Ruy_g", "review_count": 30, "categories": [{"alias": "pizza", "title": "Pizza"}], "rating": 3.0, "coordinates": {"latitude": 42.450953, "longitude": -72.562729}, "transactions": ["delivery"], "price": "$$", "location": {"address1": "283 Amherst Rd", "address2": "Rte 116", "address3": "", "city": "Sunderland", "zip_code": "01375", "country": "US", "state": "MA", "display_address": ["283 Amherst Rd", "Rte 116", "Sunderland, MA 01375"]}, "phone": "+14136657066", "display_phone": "(413) 665-7066", "distance": 11454.87555965124}, {"id": "JNqJUAR9is7ejRYW2c01FA", "alias": "sofias-pizza-greenfield", "name": "Sofia's Pizza", "image_url": "https://s3-media1.fl.yelpcdn.com/bphoto/ZP6DJjR_fmH9uZMJVOJvhQ/o.jpg", "is_closed": false, "url": "https://www.yelp.com/biz/sofias-pizza-greenfield?adjust_creative=ywY5UnLZrNrRl2b93Ruy_g&utm_campaign=yelp_api_v3&utm_medium=api_v3_business_search&utm_source=ywY5UnLZrNrRl2b93Ruy_g", "review_count": 31, "categories": [{"alias": "pizza", "title": "Pizza"}], "rating": 3.5, "coordinates": {"latitude": 42.5969467, "longitude": -72.5971298}, "transactions": ["delivery"], "price": "$$", "location": {"address1": "228 Federal St", "address2": "", "address3": "", "city": "Greenfield", "zip_code": "01301", "country": "US", "state": "MA", "display_address": ["228 Federal St", "Greenfield, MA 01301"]}, "phone": "+14137749900", "display_phone": "(413) 774-9900", "distance": 8790.956728210509}, {"id": "NZHMfENo3z9WKmlntJzoQA", "alias": "primo-restaurant-and-pizzeria-south-deerfield", "name": "Primo Restaurant and Pizzeria", "image_url": "https://s3-media2.fl.yelpcdn.com/bphoto/6IziWJ7o2qxR7as40bhJ2Q/o.jpg", "is_closed": false, "url": "https://www.yelp.com/biz/primo-restaurant-and-pizzeria-south-deerfield?adjust_creative=ywY5UnLZrNrRl2b93Ruy_g&utm_campaign=yelp_api_v3&utm_medium=api_v3_business_search&utm_source=ywY5UnLZrNrRl2b93Ruy_g", "review_count": 32, "categories": [{"alias": "pizza", "title": "Pizza"}, {"alias": "italian", "title": "Italian"}, {"alias": "burgers", "title": "Burgers"}], "rating": 2.5, "coordinates": {"latitude": 42.47667, "longitude": -72.60749}, "transactions": ["delivery"], "price": "$", "location": {"address1": "4 Sugarloaf St", "address2": "", "address3": "", "city": "South Deerfield", "zip_code": "01373", "country": "US", "state": "MA", "display_address": ["4 Sugarloaf St", "South Deerfield, MA 01373"]}, "phone": "+14136653300", "display_phone": "(413) 665-3300", "distance": 10996.595595849514}, {"id": "h33tLUMqn4OoS_WWpryfOQ", "alias": "whately-diner-whately-2", "name": "Whately Diner", "image_url": "https://s3-media4.fl.yelpcdn.com/bphoto/DBvU4Xihx_181DNp9oyR8w/o.jpg", "is_closed": false, "url": "https://www.yelp.com/biz/whately-diner-whately-2?adjust_creative=ywY5UnLZrNrRl2b93Ruy_g&utm_campaign=yelp_api_v3&utm_medium=api_v3_business_search&utm_source=ywY5UnLZrNrRl2b93Ruy_g", "review_count": 102, "categories": [{"alias": "diners", "title": "Diners"}, {"alias": "tradamerican", "title": "American (Traditional)"}], "rating": 3.0, "coordinates": {"latitude": 42.4640578, "longitude": -72.618024}, "transactions": ["delivery"], "price": "$$", "location": {"address1": "372 State Rd", "address2": "", "address3": "", "city": "Whately", "zip_code": "01093", "country": "US", "state": "MA", "display_address": ["372 State Rd", "Whately, MA 01093"]}, "phone": "+14136653696", "display_phone": "(413) 665-3696", "distance": 12605.538089874703}, {"id": "QzmmXJvK8cw7-BICO_gigQ", "alias": "shady-glen-turners-falls", "name": "Shady Glen", "image_url": "https://s3-media1.fl.yelpcdn.com/bphoto/WDilrIiLQWIs6l8y7XQbdA/o.jpg", "is_closed": false, "url": "https://www.yelp.com/biz/shady-glen-turners-falls?adjust_creative=ywY5UnLZrNrRl2b93Ruy_g&utm_campaign=yelp_api_v3&utm_medium=api_v3_business_search&utm_source=ywY5UnLZrNrRl2b93Ruy_g", "review_count": 35, "categories": [{"alias": "diners", "title": "Diners"}, {"alias": "breakfast_brunch", "title": "Breakfast & Brunch"}, {"alias": "tradamerican", "title": "American (Traditional)"}], "rating": 4.0, "coordinates": {"latitude": 42.6091117858887, "longitude": -72.5553665161133}, "transactions": ["delivery"], "price": "$", "location": {"address1": "7 Ave A", "address2": "", "address3": "", "city": "Turners Falls", "zip_code": "01376", "country": "US", "state": "MA", "display_address": ["7 Ave A", "Turners Falls, MA 01376"]}, "phone": "+14138639636", "display_phone": "(413) 863-9636", "distance": 7651.744440186731}, {"id": "cI-D75PC7akLsPQSrvYX2w", "alias": "deerfield-lunch-box-deerfield", "name": "Deerfield Lunch Box", "image_url": "https://s3-media4.fl.yelpcdn.com/bphoto/46kxxAh53yd4ygbpPSY7jQ/o.jpg", "is_closed": false, "url": "https://www.yelp.com/biz/deerfield-lunch-box-deerfield?adjust_creative=ywY5UnLZrNrRl2b93Ruy_g&utm_campaign=yelp_api_v3&utm_medium=api_v3_business_search&utm_source=ywY5UnLZrNrRl2b93Ruy_g", "review_count": 1, "categories": [{"alias": "hotdog", "title": "Hot Dogs"}, {"alias": "foodstands", "title": "Food Stands"}, {"alias": "burgers", "title": "Burgers"}], "rating": 2.0, "coordinates": {"latitude": 42.547239, "longitude": -72.605898}, "transactions": [], "location": {"address1": "79 Old Main St", "address2": "", "address3": "Historic Deerfield", "city": "Deerfield", "zip_code": "01342", "country": "US", "state": "MA", "display_address": ["79 Old Main St", "Historic Deerfield", "Deerfield, MA 01342"]}, "phone": "+14137757171", "display_phone": "(413) 775-7171", "distance": 7537.642443982341}, {"id": "VRA3aRN2BEb6O9rVEQ3gOg", "alias": "le-petit-cafe-greenfield", "name": "Le Petit Cafe", "image_url": "https://s3-media2.fl.yelpcdn.com/bphoto/MpWCzx2bkUihqHBPnIog_w/o.jpg", "is_closed": false, "url": "https://www.yelp.com/biz/le-petit-cafe-greenfield?adjust_creative=ywY5UnLZrNrRl2b93Ruy_g&utm_campaign=yelp_api_v3&utm_medium=api_v3_business_search&utm_source=ywY5UnLZrNrRl2b93Ruy_g", "review_count": 4, "categories": [{"alias": "cafes", "title": "Cafes"}, {"alias": "breakfast_brunch", "title": "Breakfast & Brunch"}], "rating": 4.0, "coordinates": {"latitude": 42.5876774, "longitude": -72.5981727}, "transactions": [], "price": "$", "location": {"address1": "426 Main St", "address2": null, "address3": null, "city": "Greenfield", "zip_code": "01301", "country": "US", "state": "MA", "display_address": ["426 Main St", "Greenfield, MA 01301"]}, "phone": "+14137687190", "display_phone": "(413) 768-7190", "distance": 8234.531295266775}, {"id": "uvI_sThbGPccd-NHZRBnQg", "alias": "bei-jing-house-greenfield", "name": "Bei Jing House", "image_url": "https://s3-media2.fl.yelpcdn.com/bphoto/8ORL1RDkXxxEgLrcS0ps9Q/o.jpg", "is_closed": false, "url": "https://www.yelp.com/biz/bei-jing-house-greenfield?adjust_creative=ywY5UnLZrNrRl2b93Ruy_g&utm_campaign=yelp_api_v3&utm_medium=api_v3_business_search&utm_source=ywY5UnLZrNrRl2b93Ruy_g", "review_count": 18, "categories": [{"alias": "chinese", "title": "Chinese"}], "rating": 3.0, "coordinates": {"latitude": 42.58685, "longitude": -72.60736}, "transactions": ["delivery"], "price": "$", "location": {"address1": "45 Main St", "address2": "", "address3": "", "city": "Greenfield", "zip_code": "01301", "country": "US", "state": "MA", "display_address": ["45 Main St", "Greenfield, MA 01301"]}, "phone": "+14137737885", "display_phone": "(413) 773-7885", "distance": 8819.890546887851}, {"id": "gCdtxabLxonlb7CtJK-Z-w", "alias": "d-angelo-greenfield-2", "name": "D'Angelo", "image_url": "https://s3-media2.fl.yelpcdn.com/bphoto/HHatphW_HpX1SDsDCrngDw/o.jpg", "is_closed": false, "url": "https://www.yelp.com/biz/d-angelo-greenfield-2?adjust_creative=ywY5UnLZrNrRl2b93Ruy_g&utm_campaign=yelp_api_v3&utm_medium=api_v3_business_search&utm_source=ywY5UnLZrNrRl2b93Ruy_g", "review_count": 10, "categories": [{"alias": "sandwiches", "title": "Sandwiches"}], "rating": 4.0, "coordinates": {"latitude": 42.5848445086586, "longitude": -72.6141382441874}, "transactions": [], "price": "$$", "location": {"address1": "68 Mohawk Trl", "address2": "", "address3": "", "city": "Greenfield", "zip_code": "01301", "country": "US", "state": "MA", "display_address": ["68 Mohawk Trl", "Greenfield, MA 01301"]}, "phone": "+14137742106", "display_phone": "(413) 774-2106", "distance": 9202.058406231348}, {"id": "qhFqS8F57n7vmKKfrFZu-w", "alias": "friendly-town-pizza-orange", "name": "Friendly Town Pizza", "image_url": "", "is_closed": false, "url": "https://www.yelp.com/biz/friendly-town-pizza-orange?adjust_creative=ywY5UnLZrNrRl2b93Ruy_g&utm_campaign=yelp_api_v3&utm_medium=api_v3_business_search&utm_source=ywY5UnLZrNrRl2b93Ruy_g", "review_count": 1, "categories": [{"alias": "pizza", "title": "Pizza"}], "rating": 4.0, "coordinates": {"latitude": 42.5891990661621, "longitude": -72.3095703125}, "transactions": [], "location": {"address1": "", "address2": "", "address3": "", "city": "Orange", "zip_code": "", "country": "US", "state": "MA", "display_address": ["Orange, MA"]}, "phone": "+19782493651", "display_phone": "(978) 249-3651", "distance": 16582.07314577343}, {"id": "5kNSVF1ZIFz1yu9U4r2bzw", "alias": "bakers-country-store-conway", "name": "Bakers Country Store", "image_url": "", "is_closed": false, "url": "https://www.yelp.com/biz/bakers-country-store-conway?adjust_creative=ywY5UnLZrNrRl2b93Ruy_g&utm_campaign=yelp_api_v3&utm_medium=api_v3_business_search&utm_source=ywY5UnLZrNrRl2b93Ruy_g", "review_count": 1, "categories": [{"alias": "breakfast_brunch", "title": "Breakfast & Brunch"}], "rating": 1.0, "coordinates": {"latitude": 42.50851, "longitude": -72.701994}, "transactions": [], "location": {"address1": "101 River St", "address2": "", "address3": "", "city": "Conway", "zip_code": "01341", "country": "US", "state": "MA", "display_address": ["101 River St", "Conway, MA 01341"]}, "phone": "+14133694936", "display_phone": "(413) 369-4936", "distance": 16011.682156971421}, {"id": "5rkJ61I9GICBsEp2__7fXQ", "alias": "wings-over-greenfield-greenfield", "name": "Wings Over Greenfield", "image_url": "https://s3-media2.fl.yelpcdn.com/bphoto/Bmik4JsNWr2mPR6p0xu4aQ/o.jpg", "is_closed": false, "url": "https://www.yelp.com/biz/wings-over-greenfield-greenfield?adjust_creative=ywY5UnLZrNrRl2b93Ruy_g&utm_campaign=yelp_api_v3&utm_medium=api_v3_business_search&utm_source=ywY5UnLZrNrRl2b93Ruy_g", "review_count": 12, "categories": [{"alias": "chicken_wings", "title": "Chicken Wings"}, {"alias": "hotdogs", "title": "Fast Food"}, {"alias": "sandwiches", "title": "Sandwiches"}], "rating": 3.5, "coordinates": {"latitude": 42.5889892578125, "longitude": -72.5999526977539}, "transactions": [], "price": "$", "location": {"address1": "30 Federal St", "address2": "", "address3": null, "city": "Greenfield", "zip_code": "01301", "country": "US", "state": "MA", "display_address": ["30 Federal St", "Greenfield, MA 01301"]}, "phone": "+14137739464", "display_phone": "(413) 773-9464", "distance": 8427.68281623298}, {"id": "NypGgpHGkW_VrZwYlcf7ag", "alias": "subway-sunderland-9", "name": "Subway", "image_url": "https://s3-media1.fl.yelpcdn.com/bphoto/nWFOwe3ieLFVGShR7NazoA/o.jpg", "is_closed": false, "url": "https://www.yelp.com/biz/subway-sunderland-9?adjust_creative=ywY5UnLZrNrRl2b93Ruy_g&utm_campaign=yelp_api_v3&utm_medium=api_v3_business_search&utm_source=ywY5UnLZrNrRl2b93Ruy_g", "review_count": 1, "categories": [{"alias": "sandwiches", "title": "Sandwiches"}], "rating": 4.0, "coordinates": {"latitude": 42.4507409061699, "longitude": -72.5608282907318}, "transactions": [], "price": "$", "location": {"address1": "5C Clark Mountain Rd", "address2": null, "address3": "", "city": "Sunderland", "zip_code": "01375", "country": "US", "state": "MA", "display_address": ["5C Clark Mountain Rd", "Sunderland, MA 01375"]}, "phone": "+14136650900", "display_phone": "(413) 665-0900", "distance": 11423.5428500245}, {"id": "c2gucBE9DwnLOr9_Xk754A", "alias": "brads-place-greenfield", "name": "Brad's Place", "image_url": "https://s3-media2.fl.yelpcdn.com/bphoto/UniO9JMw-de02Xqojnx28g/o.jpg", "is_closed": false, "url": "https://www.yelp.com/biz/brads-place-greenfield?adjust_creative=ywY5UnLZrNrRl2b93Ruy_g&utm_campaign=yelp_api_v3&utm_medium=api_v3_business_search&utm_source=ywY5UnLZrNrRl2b93Ruy_g", "review_count": 27, "categories": [{"alias": "newamerican", "title": "American (New)"}, {"alias": "breakfast_brunch", "title": "Breakfast & Brunch"}], "rating": 3.5, "coordinates": {"latitude": 42.5876259014004, "longitude": -72.5999116420645}, "transactions": ["delivery", "pickup"], "price": "$", "location": {"address1": "353 Main St", "address2": "", "address3": "", "city": "Greenfield", "zip_code": "01301", "country": "US", "state": "MA", "display_address": ["353 Main St", "Greenfield, MA 01301"]}, "phone": "+14137738460", "display_phone": "(413) 773-8460", "distance": 8340.763608073896}, {"id": "7ccuuvYz9PAUMZ-2VVBZZw", "alias": "pizza-factory-orange", "name": "Pizza Factory", "image_url": "https://s3-media3.fl.yelpcdn.com/bphoto/bb8FyfINlCRnHsfbwKu_jA/o.jpg", "is_closed": false, "url": "https://www.yelp.com/biz/pizza-factory-orange?adjust_creative=ywY5UnLZrNrRl2b93Ruy_g&utm_campaign=yelp_api_v3&utm_medium=api_v3_business_search&utm_source=ywY5UnLZrNrRl2b93Ruy_g", "review_count": 5, "categories": [{"alias": "pizza", "title": "Pizza"}], "rating": 3.0, "coordinates": {"latitude": 42.59063, "longitude": -72.31046}, "transactions": [], "price": "$", "location": {"address1": "11 W Main St", "address2": "", "address3": "", "city": "Orange", "zip_code": "01364", "country": "US", "state": "MA", "display_address": ["11 W Main St", "Orange, MA 01364"]}, "phone": "+19785445818", "display_phone": "(978) 544-5818", "distance": 17341.156684146576}, {"id": "UEYeGewAHsCLA-OAFxKJ5A", "alias": "amherst-house-of-pizza-north-amherst", "name": "Amherst House of Pizza", "image_url": "https://s3-media2.fl.yelpcdn.com/bphoto/fOr-ygossK2adzltS9jayA/o.jpg", "is_closed": false, "url": "https://www.yelp.com/biz/amherst-house-of-pizza-north-amherst?adjust_creative=ywY5UnLZrNrRl2b93Ruy_g&utm_campaign=yelp_api_v3&utm_medium=api_v3_business_search&utm_source=ywY5UnLZrNrRl2b93Ruy_g", "review_count": 53, "categories": [{"alias": "pizza", "title": "Pizza"}], "rating": 3.5, "coordinates": {"latitude": 42.410941, "longitude": -72.53031}, "transactions": ["delivery"], "price": "$", "location": {"address1": "17B Montague Rd", "address2": "", "address3": "", "city": "North Amherst", "zip_code": "01002", "country": "US", "state": "MA", "display_address": ["17B Montague Rd", "North Amherst, MA 01002"]}, "phone": "+14134613510", "display_phone": "(413) 461-3510", "distance": 15240.943170240016}, {"id": "CI0drVFkwHgp5QMbS_NIcw", "alias": "shelburne-falls-coffee-roasters-greenfield", "name": "Shelburne Falls Coffee Roasters", "image_url": "https://s3-media3.fl.yelpcdn.com/bphoto/CqKHLzvK1qUoxC-SsqPv4A/o.jpg", "is_closed": false, "url": "https://www.yelp.com/biz/shelburne-falls-coffee-roasters-greenfield?adjust_creative=ywY5UnLZrNrRl2b93Ruy_g&utm_campaign=yelp_api_v3&utm_medium=api_v3_business_search&utm_source=ywY5UnLZrNrRl2b93Ruy_g", "review_count": 51, "categories": [{"alias": "coffee", "title": "Coffee & Tea"}, {"alias": "bagels", "title": "Bagels"}, {"alias": "sandwiches", "title": "Sandwiches"}], "rating": 3.5, "coordinates": {"latitude": 42.59049, "longitude": -72.5992799}, "transactions": ["delivery"], "price": "$$", "location": {"address1": "100 Federal St", "address2": "", "address3": "", "city": "Greenfield", "zip_code": "01301", "country": "US", "state": "MA", "display_address": ["100 Federal St", "Greenfield, MA 01301"]}, "phone": "+14137738028", "display_phone": "(413) 773-8028", "distance": 8464.10017346762}, {"id": "viFpmTD5zT19tizBXRrKFw", "alias": "antonios-pizza-shop-greenfield", "name": "Antonio's Pizza Shop", "image_url": "https://s3-media2.fl.yelpcdn.com/bphoto/VuMGXTShN9oxzIHMdXZ7kg/o.jpg", "is_closed": false, "url": "https://www.yelp.com/biz/antonios-pizza-shop-greenfield?adjust_creative=ywY5UnLZrNrRl2b93Ruy_g&utm_campaign=yelp_api_v3&utm_medium=api_v3_business_search&utm_source=ywY5UnLZrNrRl2b93Ruy_g", "review_count": 20, "categories": [{"alias": "pizza", "title": "Pizza"}, {"alias": "italian", "title": "Italian"}, {"alias": "sandwiches", "title": "Sandwiches"}], "rating": 3.5, "coordinates": {"latitude": 42.5876694, "longitude": -72.6027374}, "transactions": ["delivery"], "price": "$", "location": {"address1": "201 Main St", "address2": "", "address3": "", "city": "Greenfield", "zip_code": "01301", "country": "US", "state": "MA", "display_address": ["201 Main St", "Greenfield, MA 01301"]}, "phone": "+14137737517", "display_phone": "(413) 773-7517", "distance": 8542.745212989386}, {"id": "_bXSHicL1fVAG-RhwxJYPQ", "alias": "subway-south-deerfield-3", "name": "Subway", "image_url": "https://s3-media3.fl.yelpcdn.com/bphoto/X8kbX68KBbQAXsBH5t-8rw/o.jpg", "is_closed": false, "url": "https://www.yelp.com/biz/subway-south-deerfield-3?adjust_creative=ywY5UnLZrNrRl2b93Ruy_g&utm_campaign=yelp_api_v3&utm_medium=api_v3_business_search&utm_source=ywY5UnLZrNrRl2b93Ruy_g", "review_count": 2, "categories": [{"alias": "sandwiches", "title": "Sandwiches"}], "rating": 3.0, "coordinates": {"latitude": 42.4708609610147, "longitude": -72.6158315565979}, "transactions": [], "price": "$", "location": {"address1": "1 Greenfield Rd", "address2": null, "address3": null, "city": "South Deerfield", "zip_code": "01373", "country": "US", "state": "MA", "display_address": ["1 Greenfield Rd", "South Deerfield, MA 01373"]}, "phone": "+14136659830", "display_phone": "(413) 665-9830", "distance": 11932.957408187383}, {"id": "OOTU0zYwg5QVhTB_1MFjBQ", "alias": "dennys-pantry-greenfield", "name": "Denny's Pantry", "image_url": "https://s3-media3.fl.yelpcdn.com/bphoto/aJ4KdrwNtjBdKr75LY9dng/o.jpg", "is_closed": false, "url": "https://www.yelp.com/biz/dennys-pantry-greenfield?adjust_creative=ywY5UnLZrNrRl2b93Ruy_g&utm_campaign=yelp_api_v3&utm_medium=api_v3_business_search&utm_source=ywY5UnLZrNrRl2b93Ruy_g", "review_count": 36, "categories": [{"alias": "tradamerican", "title": "American (Traditional)"}, {"alias": "breakfast_brunch", "title": "Breakfast & Brunch"}], "rating": 3.5, "coordinates": {"latitude": 42.60826, "longitude": -72.58705}, "transactions": [], "price": "$", "location": {"address1": "469 Bernardston Rd", "address2": "", "address3": "", "city": "Greenfield", "zip_code": "01301", "country": "US", "state": "MA", "display_address": ["469 Bernardston Rd", "Greenfield, MA 01301"]}, "phone": "+14137733345", "display_phone": "(413) 773-3345", "distance": 9043.01816496192}, {"id": "HQstHLLH3MCV-VIvkEJ8Zw", "alias": "athens-pizza-greenfield", "name": "Athens Pizza", "image_url": "https://s3-media1.fl.yelpcdn.com/bphoto/Ui-xwzsHZrIndLoKz8KLHA/o.jpg", "is_closed": false, "url": "https://www.yelp.com/biz/athens-pizza-greenfield?adjust_creative=ywY5UnLZrNrRl2b93Ruy_g&utm_campaign=yelp_api_v3&utm_medium=api_v3_business_search&utm_source=ywY5UnLZrNrRl2b93Ruy_g", "review_count": 18, "categories": [{"alias": "pizza", "title": "Pizza"}], "rating": 2.5, "coordinates": {"latitude": 42.5869255065918, "longitude": -72.6082229614258}, "transactions": ["delivery"], "price": "$$", "location": {"address1": "25 Main St", "address2": "", "address3": "", "city": "Greenfield", "zip_code": "01301", "country": "US", "state": "MA", "display_address": ["25 Main St", "Greenfield, MA 01301"]}, "phone": "+14137743722", "display_phone": "(413) 774-3722", "distance": 8890.593319682901}, {"id": "9f8jUaPQOlu8Q-3W_t61fg", "alias": "subway-turners-falls-3", "name": "Subway", "image_url": "https://s3-media4.fl.yelpcdn.com/bphoto/BQKiqilNmE7skga-CDDUOg/o.jpg", "is_closed": false, "url": "https://www.yelp.com/biz/subway-turners-falls-3?adjust_creative=ywY5UnLZrNrRl2b93Ruy_g&utm_campaign=yelp_api_v3&utm_medium=api_v3_business_search&utm_source=ywY5UnLZrNrRl2b93Ruy_g", "review_count": 3, "categories": [{"alias": "sandwiches", "title": "Sandwiches"}], "rating": 3.5, "coordinates": {"latitude": 42.6085179, "longitude": -72.5561029998867}, "transactions": [], "price": "$", "location": {"address1": "57 Avenue A", "address2": "", "address3": "", "city": "Turners Falls", "zip_code": "01376", "country": "US", "state": "MA", "display_address": ["57 Avenue A", "Turners Falls, MA 01376"]}, "phone": "+14138632363", "display_phone": "(413) 863-2363", "distance": 7617.668842984441}, {"id": "mlDZf-GdNIaW5ToE3AR9CA", "alias": "subway-greenfield-20", "name": "Subway", "image_url": "https://s3-media2.fl.yelpcdn.com/bphoto/J25dG23zDO2UgNa3-tc9fw/o.jpg", "is_closed": false, "url": "https://www.yelp.com/biz/subway-greenfield-20?adjust_creative=ywY5UnLZrNrRl2b93Ruy_g&utm_campaign=yelp_api_v3&utm_medium=api_v3_business_search&utm_source=ywY5UnLZrNrRl2b93Ruy_g", "review_count": 3, "categories": [{"alias": "sandwiches", "title": "Sandwiches"}], "rating": 2.0, "coordinates": {"latitude": 42.5873648, "longitude": -72.626196}, "transactions": [], "price": "$", "location": {"address1": "251 Mohawk Trail", "address2": "", "address3": "Greenfield Plz S C", "city": "Greenfield", "zip_code": "01301", "country": "US", "state": "MA", "display_address": ["251 Mohawk Trail", "Greenfield Plz S C", "Greenfield, MA 01301"]}, "phone": "+14137743636", "display_phone": "(413) 774-3636", "distance": 10211.360132029018}, {"id": "rSvNQylLO9N4UZxQ0yYnCQ", "alias": "shelburne-falls-coffee-roasters-shelburne-falls-2", "name": "Shelburne Falls Coffee Roasters", "image_url": "https://s3-media1.fl.yelpcdn.com/bphoto/M-wag8ZOGwBN2QvA3D9LyQ/o.jpg", "is_closed": false, "url": "https://www.yelp.com/biz/shelburne-falls-coffee-roasters-shelburne-falls-2?adjust_creative=ywY5UnLZrNrRl2b93Ruy_g&utm_campaign=yelp_api_v3&utm_medium=api_v3_business_search&utm_source=ywY5UnLZrNrRl2b93Ruy_g", "review_count": 34, "categories": [{"alias": "sandwiches", "title": "Sandwiches"}, {"alias": "coffeeroasteries", "title": "Coffee Roasteries"}, {"alias": "bagels", "title": "Bagels"}], "rating": 4.5, "coordinates": {"latitude": 42.610488, "longitude": -72.66992}, "transactions": [], "price": "$", "location": {"address1": "1207 Mohawk Trl", "address2": "", "address3": "", "city": "Shelburne Falls", "zip_code": "01370", "country": "US", "state": "MA", "display_address": ["1207 Mohawk Trl", "Shelburne Falls, MA 01370"]}, "phone": "+14136250116", "display_phone": "(413) 625-0116", "distance": 14607.358324159979}, {"id": "BEFXrXW9BIo96TA4yOlanA", "alias": "subway-greenfield-29", "name": "Subway", "image_url": "https://s3-media3.fl.yelpcdn.com/bphoto/KhBvbd8eR5pSD5juuoh8Gw/o.jpg", "is_closed": false, "url": "https://www.yelp.com/biz/subway-greenfield-29?adjust_creative=ywY5UnLZrNrRl2b93Ruy_g&utm_campaign=yelp_api_v3&utm_medium=api_v3_business_search&utm_source=ywY5UnLZrNrRl2b93Ruy_g", "review_count": 7, "categories": [{"alias": "sandwiches", "title": "Sandwiches"}], "rating": 3.5, "coordinates": {"latitude": 42.6023944623179, "longitude": -72.592163430718}, "transactions": [], "price": "$", "location": {"address1": "343 Federal St", "address2": "", "address3": "", "city": "Greenfield", "zip_code": "01301", "country": "US", "state": "MA", "display_address": ["343 Federal St", "Greenfield, MA 01301"]}, "phone": "+14137745999", "display_phone": "(413) 774-5999", "distance": 8853.40949424863}, {"id": "0pFLeP_Xjxhf2dM-5Orw4w", "alias": "subway-sunderland-4", "name": "Subway", "image_url": "", "is_closed": false, "url": "https://www.yelp.com/biz/subway-sunderland-4?adjust_creative=ywY5UnLZrNrRl2b93Ruy_g&utm_campaign=yelp_api_v3&utm_medium=api_v3_business_search&utm_source=ywY5UnLZrNrRl2b93Ruy_g", "review_count": 2, "categories": [{"alias": "sandwiches", "title": "Sandwiches"}, {"alias": "hotdogs", "title": "Fast Food"}], "rating": 3.5, "coordinates": {"latitude": 42.464704, "longitude": -72.5758}, "transactions": [], "price": "$", "location": {"address1": "45 Amherst Rd", "address2": "", "address3": "", "city": "Sunderland", "zip_code": "01375", "country": "US", "state": "MA", "display_address": ["45 Amherst Rd", "Sunderland, MA 01375"]}, "phone": "+14136650900", "display_phone": "(413) 665-0900", "distance": 10509.935162962764}, {"id": "GozHnnsLBsvS2fbgyIugXw", "alias": "muffins-general-market-whately", "name": "Muffin's General Market", "image_url": "https://s3-media2.fl.yelpcdn.com/bphoto/I5w5JBJ5aHfLKOP1SWjgaQ/o.jpg", "is_closed": false, "url": "https://www.yelp.com/biz/muffins-general-market-whately?adjust_creative=ywY5UnLZrNrRl2b93Ruy_g&utm_campaign=yelp_api_v3&utm_medium=api_v3_business_search&utm_source=ywY5UnLZrNrRl2b93Ruy_g", "review_count": 7, "categories": [{"alias": "breakfast_brunch", "title": "Breakfast & Brunch"}, {"alias": "beer_and_wine", "title": "Beer, Wine & Spirits"}, {"alias": "delis", "title": "Delis"}], "rating": 4.0, "coordinates": {"latitude": 42.41856, "longitude": -72.62037}, "transactions": ["delivery", "pickup"], "price": "$", "location": {"address1": "28 State Rd", "address2": "", "address3": null, "city": "Whately", "zip_code": "01373", "country": "US", "state": "MA", "display_address": ["28 State Rd", "Whately, MA 01373"]}, "phone": "+14133973372", "display_phone": "(413) 397-3372", "distance": 16777.69351649749}, {"id": "4Zzu0W5N2O6-ATv7vOMnog", "alias": "wendys-greenfield-2", "name": "Wendy's", "image_url": "https://s3-media1.fl.yelpcdn.com/bphoto/VjepJeSj81EQxIrHcl7H_A/o.jpg", "is_closed": false, "url": "https://www.yelp.com/biz/wendys-greenfield-2?adjust_creative=ywY5UnLZrNrRl2b93Ruy_g&utm_campaign=yelp_api_v3&utm_medium=api_v3_business_search&utm_source=ywY5UnLZrNrRl2b93Ruy_g", "review_count": 16, "categories": [{"alias": "hotdogs", "title": "Fast Food"}, {"alias": "burgers", "title": "Burgers"}], "rating": 2.0, "coordinates": {"latitude": 42.592495, "longitude": -72.598592}, "transactions": ["delivery"], "price": "$", "location": {"address1": "138 Federal Street", "address2": "", "address3": "", "city": "Greenfield", "zip_code": "01301", "country": "US", "state": "MA", "display_address": ["138 Federal Street", "Greenfield, MA 01301"]}, "phone": "+14137745201", "display_phone": "(413) 774-5201", "distance": 8556.197339353126}, {"id": "VcKnHfkBxXSqPd_a1TJa2Q", "alias": "kfc-greenfield-4", "name": "KFC", "image_url": "https://s3-media4.fl.yelpcdn.com/bphoto/zRrjKWbYcRMZx7xjAgBC5g/o.jpg", "is_closed": false, "url": "https://www.yelp.com/biz/kfc-greenfield-4?adjust_creative=ywY5UnLZrNrRl2b93Ruy_g&utm_campaign=yelp_api_v3&utm_medium=api_v3_business_search&utm_source=ywY5UnLZrNrRl2b93Ruy_g", "review_count": 6, "categories": [{"alias": "hotdogs", "title": "Fast Food"}, {"alias": "chicken_wings", "title": "Chicken Wings"}, {"alias": "chickenshop", "title": "Chicken Shop"}], "rating": 1.5, "coordinates": {"latitude": 42.5857303098406, "longitude": -72.626232}, "transactions": ["delivery", "pickup"], "price": "$", "location": {"address1": "242 Mohawk Trl", "address2": null, "address3": null, "city": "Greenfield", "zip_code": "01301", "country": "US", "state": "MA", "display_address": ["242 Mohawk Trl", "Greenfield, MA 01301"]}, "phone": "+14137747869", "display_phone": "(413) 774-7869", "distance": 10136.511769703477}, {"id": "MQ9PTbD-EFRUxhg0R5kjUw", "alias": "cushman-market-and-cafe-amherst", "name": "Cushman Market and Cafe", "image_url": "https://s3-media1.fl.yelpcdn.com/bphoto/DO5X8alL6hHAyTMwtOLyvg/o.jpg", "is_closed": false, "url": "https://www.yelp.com/biz/cushman-market-and-cafe-amherst?adjust_creative=ywY5UnLZrNrRl2b93Ruy_g&utm_campaign=yelp_api_v3&utm_medium=api_v3_business_search&utm_source=ywY5UnLZrNrRl2b93Ruy_g", "review_count": 82, "categories": [{"alias": "breakfast_brunch", "title": "Breakfast & Brunch"}, {"alias": "grocery", "title": "Grocery"}, {"alias": "coffee", "title": "Coffee & Tea"}], "rating": 4.0, "coordinates": {"latitude": 42.4126167297363, "longitude": -72.5079345703125}, "transactions": ["delivery", "pickup"], "price": "$", "location": {"address1": "491 Pine St", "address2": "", "address3": "", "city": "Amherst", "zip_code": "01002", "country": "US", "state": "MA", "display_address": ["491 Pine St", "Amherst, MA 01002"]}, "phone": "+14135490100", "display_phone": "(413) 549-0100", "distance": 14991.580114624167}, {"id": "-cTZN8UAmWz98p492Y_OMw", "alias": "friendlys-greenfield-2", "name": "Friendly's", "image_url": "https://s3-media3.fl.yelpcdn.com/bphoto/R8N4TORIBSgbhC1_DRsLZg/o.jpg", "is_closed": false, "url": "https://www.yelp.com/biz/friendlys-greenfield-2?adjust_creative=ywY5UnLZrNrRl2b93Ruy_g&utm_campaign=yelp_api_v3&utm_medium=api_v3_business_search&utm_source=ywY5UnLZrNrRl2b93Ruy_g", "review_count": 54, "categories": [{"alias": "icecream", "title": "Ice Cream & Frozen Yogurt"}, {"alias": "tradamerican", "title": "American (Traditional)"}, {"alias": "burgers", "title": "Burgers"}], "rating": 2.0, "coordinates": {"latitude": 42.5852699, "longitude": -72.6235962}, "transactions": [], "price": "$$", "location": {"address1": "200 Mohawk Trl", "address2": null, "address3": null, "city": "Greenfield", "zip_code": "01301", "country": "US", "state": "MA", "display_address": ["200 Mohawk Trl", "Greenfield, MA 01301"]}, "phone": "+14137745435", "display_phone": "(413) 774-5435", "distance": 9921.600997419791}, {"id": "ZtM_ln7Tsn075y7RnDTsqQ", "alias": "sylvan-snack-bar-amherst", "name": "Sylvan Snack Bar", "image_url": "https://s3-media2.fl.yelpcdn.com/bphoto/y0DQzgfiJo8DUZDVWZk2Fw/o.jpg", "is_closed": false, "url": "https://www.yelp.com/biz/sylvan-snack-bar-amherst?adjust_creative=ywY5UnLZrNrRl2b93Ruy_g&utm_campaign=yelp_api_v3&utm_medium=api_v3_business_search&utm_source=ywY5UnLZrNrRl2b93Ruy_g", "review_count": 3, "categories": [{"alias": "desserts", "title": "Desserts"}, {"alias": "pizza", "title": "Pizza"}, {"alias": "sandwiches", "title": "Sandwiches"}], "rating": 3.0, "coordinates": {"latitude": 42.3973721265793, "longitude": -72.5196287781}, "transactions": [], "location": {"address1": "102 Eastman Ln", "address2": "", "address3": "McNamara Hall - UMass", "city": "Amherst", "zip_code": "01003", "country": "US", "state": "MA", "display_address": ["102 Eastman Ln", "McNamara Hall - UMass", "Amherst, MA 01003"]}, "phone": "+14135453020", "display_phone": "(413) 545-3020", "distance": 16882.377169610943}, {"id": "lGTaMLtrvNzg8kJqm93KTA", "alias": "mcdonalds-greenfield-5", "name": "McDonald's", "image_url": "https://s3-media4.fl.yelpcdn.com/bphoto/k0TRfvZBOqKHdWPr7vZsnA/o.jpg", "is_closed": false, "url": "https://www.yelp.com/biz/mcdonalds-greenfield-5?adjust_creative=ywY5UnLZrNrRl2b93Ruy_g&utm_campaign=yelp_api_v3&utm_medium=api_v3_business_search&utm_source=ywY5UnLZrNrRl2b93Ruy_g", "review_count": 9, "categories": [{"alias": "hotdogs", "title": "Fast Food"}, {"alias": "burgers", "title": "Burgers"}, {"alias": "coffee", "title": "Coffee & Tea"}], "rating": 2.0, "coordinates": {"latitude": 42.5998173687393, "longitude": -72.5944671034812}, "transactions": [], "price": "$", "location": {"address1": "285 Federal St", "address2": "", "address3": "", "city": "Greenfield", "zip_code": "01301", "country": "US", "state": "MA", "display_address": ["285 Federal St", "Greenfield, MA 01301"]}, "phone": "+14137743618", "display_phone": "(413) 774-3618", "distance": 8798.878298749078}, {"id": "9gUZ2bgnsPRtihya9yvzVg", "alias": "taco-bell-greenfield", "name": "Taco Bell", "image_url": "https://s3-media1.fl.yelpcdn.com/bphoto/ogHV-spWv4efdk7MthVOLw/o.jpg", "is_closed": false, "url": "https://www.yelp.com/biz/taco-bell-greenfield?adjust_creative=ywY5UnLZrNrRl2b93Ruy_g&utm_campaign=yelp_api_v3&utm_medium=api_v3_business_search&utm_source=ywY5UnLZrNrRl2b93Ruy_g", "review_count": 14, "categories": [{"alias": "hotdogs", "title": "Fast Food"}, {"alias": "tacos", "title": "Tacos"}], "rating": 1.0, "coordinates": {"latitude": 42.586462, "longitude": -72.627696}, "transactions": [], "price": "$", "location": {"address1": "242 Mohawk Trail", "address2": "", "address3": "", "city": "Greenfield", "zip_code": "01301", "country": "US", "state": "MA", "display_address": ["242 Mohawk Trail", "Greenfield, MA 01301"]}, "phone": "+14137747869", "display_phone": "(413) 774-7869", "distance": 10279.458393565887}, {"id": "lAHlJinahtGJQkd25QJrRw", "alias": "dominos-pizza-greenfield-4", "name": "Domino's Pizza", "image_url": "https://s3-media3.fl.yelpcdn.com/bphoto/ZFcc_blzn6KVp9PDfMX_0Q/o.jpg", "is_closed": false, "url": "https://www.yelp.com/biz/dominos-pizza-greenfield-4?adjust_creative=ywY5UnLZrNrRl2b93Ruy_g&utm_campaign=yelp_api_v3&utm_medium=api_v3_business_search&utm_source=ywY5UnLZrNrRl2b93Ruy_g", "review_count": 10, "categories": [{"alias": "pizza", "title": "Pizza"}, {"alias": "chicken_wings", "title": "Chicken Wings"}, {"alias": "sandwiches", "title": "Sandwiches"}], "rating": 1.5, "coordinates": {"latitude": 42.603973, "longitude": -72.591673}, "transactions": [], "price": "$", "location": {"address1": "368 Federal St", "address2": "", "address3": "", "city": "Greenfield", "zip_code": "01301", "country": "US", "state": "MA", "display_address": ["368 Federal St", "Greenfield, MA 01301"]}, "phone": "+14137747291", "display_phone": "(413) 774-7291", "distance": 8946.699719281145}, {"id": "eolu_9FB74AaXHlgwYwQyw", "alias": "goulds-sugar-house-shelburne-falls", "name": "Gould's Sugar House", "image_url": "https://s3-media2.fl.yelpcdn.com/bphoto/hZVhRfCmNWWgCkjJf5VWBw/o.jpg", "is_closed": false, "url": "https://www.yelp.com/biz/goulds-sugar-house-shelburne-falls?adjust_creative=ywY5UnLZrNrRl2b93Ruy_g&utm_campaign=yelp_api_v3&utm_medium=api_v3_business_search&utm_source=ywY5UnLZrNrRl2b93Ruy_g", "review_count": 44, "categories": [{"alias": "gourmet", "title": "Specialty Food"}, {"alias": "breakfast_brunch", "title": "Breakfast & Brunch"}], "rating": 4.5, "coordinates": {"latitude": 42.584024, "longitude": -72.708754}, "transactions": [], "price": "$$", "location": {"address1": "570 Mohawk Trl", "address2": "", "address3": "", "city": "Shelburne Falls", "zip_code": "01370", "country": "US", "state": "MA", "display_address": ["570 Mohawk Trl", "Shelburne Falls, MA 01370"]}, "phone": "+14136256170", "display_phone": "(413) 625-6170", "distance": 16468.268184662687}, {"id": "7IOS0bILt7y2-6eiiXxJRg", "alias": "mcdonalds-greenfield", "name": "McDonald's", "image_url": "https://s3-media4.fl.yelpcdn.com/bphoto/RUa3FiH2Cx7jHuH740Rw8Q/o.jpg", "is_closed": false, "url": "https://www.yelp.com/biz/mcdonalds-greenfield?adjust_creative=ywY5UnLZrNrRl2b93Ruy_g&utm_campaign=yelp_api_v3&utm_medium=api_v3_business_search&utm_source=ywY5UnLZrNrRl2b93Ruy_g", "review_count": 19, "categories": [{"alias": "hotdogs", "title": "Fast Food"}, {"alias": "burgers", "title": "Burgers"}, {"alias": "coffee", "title": "Coffee & Tea"}], "rating": 2.5, "coordinates": {"latitude": 42.5854669, "longitude": -72.6247290475385}, "transactions": [], "price": "$", "location": {"address1": "208 Mohawk Trl", "address2": "", "address3": "", "city": "Greenfield", "zip_code": "01301", "country": "US", "state": "MA", "display_address": ["208 Mohawk Trl", "Greenfield, MA 01301"]}, "phone": "+14137745311", "display_phone": "(413) 774-5311", "distance": 10012.550094093749}, {"id": "qqA8YX58xnmEXLyanHfdUg", "alias": "stufd-food-truck-brooklyn", "name": "Stuf'd Food Truck", "image_url": "https://s3-media2.fl.yelpcdn.com/bphoto/_Wn0i-tLIOFinw8BPAqxPA/o.jpg", "is_closed": false, "url": "https://www.yelp.com/biz/stufd-food-truck-brooklyn?adjust_creative=ywY5UnLZrNrRl2b93Ruy_g&utm_campaign=yelp_api_v3&utm_medium=api_v3_business_search&utm_source=ywY5UnLZrNrRl2b93Ruy_g", "review_count": 4, "categories": [{"alias": "sandwiches", "title": "Sandwiches"}, {"alias": "foodtrucks", "title": "Food Trucks"}], "rating": 4.0, "coordinates": {"latitude": 40.7124539, "longitude": -73.9287374}, "transactions": [], "location": {"address1": "178 Varick Ave", "address2": "", "address3": null, "city": "Brooklyn", "zip_code": "11237", "country": "US", "state": "NY", "display_address": ["178 Varick Ave", "Brooklyn, NY 11237"]}, "phone": "+18457091808", "display_phone": "(845) 709-1808", "distance": 235494.49863433288}]