[{"id": "2Xp8K5kCnUIEYFKFfTokZQ", "alias": "once-upon-a-table-stockbridge", "name": "Once Upon A Table", "image_url": "https://s3-media3.fl.yelpcdn.com/bphoto/vR4uWZ3rfBiwfKYSaB-e6Q/o.jpg", "is_closed": false, "url": "https://www.yelp.com/biz/once-upon-a-table-stockbridge?adjust_creative=ywY5UnLZrNrRl2b93Ruy_g&utm_campaign=yelp_api_v3&utm_medium=api_v3_business_search&utm_source=ywY5UnLZrNrRl2b93Ruy_g", "review_count": 170, "categories": [{"alias": "tradamerican", "title": "American (Traditional)"}], "rating": 4.0, "coordinates": {"latitude": 42.28175, "longitude": -73.31132}, "transactions": ["delivery"], "price": "$$", "location": {"address1": "36 Main St", "address2": "", "address3": "", "city": "Stockbridge", "zip_code": "01262", "country": "US", "state": "MA", "display_address": ["36 Main St", "Stockbridge, MA 01262"]}, "phone": "+14132983870", "display_phone": "(413) 298-3870", "distance": 5398.285271768744}, {"id": "aLQjKHWKHyUI4EC_Z1ySQA", "alias": "brick-house-pub-housatonic", "name": "Brick House Pub", "image_url": "https://s3-media4.fl.yelpcdn.com/bphoto/2tvL1uWe0EyfcJ0fh5BfmQ/o.jpg", "is_closed": false, "url": "https://www.yelp.com/biz/brick-house-pub-housatonic?adjust_creative=ywY5UnLZrNrRl2b93Ruy_g&utm_campaign=yelp_api_v3&utm_medium=api_v3_business_search&utm_source=ywY5UnLZrNrRl2b93Ruy_g", "review_count": 91, "categories": [{"alias": "tradamerican", "title": "American (Traditional)"}, {"alias": "pubs", "title": "Pubs"}, {"alias": "musicvenues", "title": "Music Venues"}], "rating": 4.0, "coordinates": {"latitude": 42.254366, "longitude": -73.36588}, "transactions": [], "price": "$$", "location": {"address1": "425 Park St", "address2": "", "address3": "", "city": "Housatonic", "zip_code": "01236", "country": "US", "state": "MA", "display_address": ["425 Park St", "Housatonic, MA 01236"]}, "phone": "+14132740020", "display_phone": "(413) 274-0020", "distance": 3882.3256049851598}, {"id": "gJeTDn1BUdcbyotYFyTRiA", "alias": "nudel-lenox", "name": "Nudel", "image_url": "https://s3-media1.fl.yelpcdn.com/bphoto/wAMoTy4KTYYaLoQcXr_8yA/o.jpg", "is_closed": false, "url": "https://www.yelp.com/biz/nudel-lenox?adjust_creative=ywY5UnLZrNrRl2b93Ruy_g&utm_campaign=yelp_api_v3&utm_medium=api_v3_business_search&utm_source=ywY5UnLZrNrRl2b93Ruy_g", "review_count": 277, "categories": [{"alias": "newamerican", "title": "American (New)"}], "rating": 4.5, "coordinates": {"latitude": 42.3573399, "longitude": -73.2832715}, "transactions": ["restaurant_reservation", "delivery"], "price": "$$$", "location": {"address1": "37 Church St", "address2": null, "address3": null, "city": "Lenox", "zip_code": "01240", "country": "US", "state": "MA", "display_address": ["37 Church St", "Lenox, MA 01240"]}, "phone": "+14135517183", "display_phone": "(413) 551-7183", "distance": 10844.665376469231}, {"id": "Uup9c0pISgIdS8ra98H97A", "alias": "rouge-restaurant-and-bistro-west-stockbridge", "name": "Rouge Restaurant & Bistro", "image_url": "https://s3-media2.fl.yelpcdn.com/bphoto/JtcWlJS09JY1G_IbAxn93Q/o.jpg", "is_closed": false, "url": "https://www.yelp.com/biz/rouge-restaurant-and-bistro-west-stockbridge?adjust_creative=ywY5UnLZrNrRl2b93Ruy_g&utm_campaign=yelp_api_v3&utm_medium=api_v3_business_search&utm_source=ywY5UnLZrNrRl2b93Ruy_g", "review_count": 108, "categories": [{"alias": "newamerican", "title": "American (New)"}, {"alias": "french", "title": "French"}], "rating": 4.0, "coordinates": {"latitude": 42.33366, "longitude": -73.36783}, "transactions": [], "price": "$$$", "location": {"address1": "3 Center St", "address2": "", "address3": "", "city": "West Stockbridge", "zip_code": "01266", "country": "US", "state": "MA", "display_address": ["3 Center St", "West Stockbridge, MA 01266"]}, "phone": "+14132324111", "display_phone": "(413) 232-4111", "distance": 5076.656872264752}, {"id": "Cf0M6Q1TguRB3Ax_nplI1Q", "alias": "taphouse-at-shaker-mill-west-stockbridge", "name": "Taphouse at Shaker Mill", "image_url": "https://s3-media1.fl.yelpcdn.com/bphoto/iY6FuI9yljD1rgY1XDmbuQ/o.jpg", "is_closed": false, "url": "https://www.yelp.com/biz/taphouse-at-shaker-mill-west-stockbridge?adjust_creative=ywY5UnLZrNrRl2b93Ruy_g&utm_campaign=yelp_api_v3&utm_medium=api_v3_business_search&utm_source=ywY5UnLZrNrRl2b93Ruy_g", "review_count": 7, "categories": [{"alias": "tradamerican", "title": "American (Traditional)"}], "rating": 2.5, "coordinates": {"latitude": 42.335416, "longitude": -73.369229}, "transactions": [], "location": {"address1": "5 Albany Rd", "address2": "", "address3": null, "city": "West Stockbridge", "zip_code": "01266", "country": "US", "state": "MA", "display_address": ["5 Albany Rd", "West Stockbridge, MA 01266"]}, "phone": "+14132328565", "display_phone": "(413) 232-8565", "distance": 5253.413086673363}, {"id": "yPkj61cAEjbbqNO0k7FBKQ", "alias": "prairie-whale-great-barrington", "name": "Prairie Whale", "image_url": "https://s3-media2.fl.yelpcdn.com/bphoto/6MIo4IvcImgzwAQ9krpRnQ/o.jpg", "is_closed": false, "url": "https://www.yelp.com/biz/prairie-whale-great-barrington?adjust_creative=ywY5UnLZrNrRl2b93Ruy_g&utm_campaign=yelp_api_v3&utm_medium=api_v3_business_search&utm_source=ywY5UnLZrNrRl2b93Ruy_g", "review_count": 268, "categories": [{"alias": "newamerican", "title": "American (New)"}], "rating": 4.0, "coordinates": {"latitude": 42.1976194, "longitude": -73.3612805}, "transactions": [], "price": "$$", "location": {"address1": "178 Main St", "address2": "", "address3": "", "city": "Great Barrington", "zip_code": "01230", "country": "US", "state": "MA", "display_address": ["178 Main St", "Great Barrington, MA 01230"]}, "phone": "+14135285050", "display_phone": "(413) 528-5050", "distance": 10174.163935820385}, {"id": "YYArsKISWhpsOSyO3Yh93w", "alias": "brava-lenox", "name": "Brava", "image_url": "https://s3-media2.fl.yelpcdn.com/bphoto/5mjmMq-ftS5-EzpwVnpTfQ/o.jpg", "is_closed": false, "url": "https://www.yelp.com/biz/brava-lenox?adjust_creative=ywY5UnLZrNrRl2b93Ruy_g&utm_campaign=yelp_api_v3&utm_medium=api_v3_business_search&utm_source=ywY5UnLZrNrRl2b93Ruy_g", "review_count": 196, "categories": [{"alias": "bars", "title": "Bars"}, {"alias": "italian", "title": "Italian"}], "rating": 4.5, "coordinates": {"latitude": 42.357857, "longitude": -73.283105}, "transactions": ["delivery"], "price": "$$", "location": {"address1": "27 Housatonic St", "address2": "", "address3": "", "city": "Lenox", "zip_code": "01240", "country": "US", "state": "MA", "display_address": ["27 Housatonic St", "Lenox, MA 01240"]}, "phone": "+14136379171", "display_phone": "(413) 637-9171", "distance": 10876.637187173133}, {"id": "XZzN-OoOF8BuVrmNz9SvvA", "alias": "six-depot-roastery-and-cafe-west-stockbridge", "name": "Six Depot Roastery and Cafe", "image_url": "https://s3-media3.fl.yelpcdn.com/bphoto/FLh8_tCK2sEWDUTukPxbTQ/o.jpg", "is_closed": false, "url": "https://www.yelp.com/biz/six-depot-roastery-and-cafe-west-stockbridge?adjust_creative=ywY5UnLZrNrRl2b93Ruy_g&utm_campaign=yelp_api_v3&utm_medium=api_v3_business_search&utm_source=ywY5UnLZrNrRl2b93Ruy_g", "review_count": 186, "categories": [{"alias": "cafes", "title": "Cafes"}, {"alias": "coffeeroasteries", "title": "Coffee Roasteries"}], "rating": 4.5, "coordinates": {"latitude": 42.3339804633494, "longitude": -73.3684249511008}, "transactions": [], "price": "$$", "location": {"address1": "6 Depot St", "address2": "", "address3": "", "city": "West Stockbridge", "zip_code": "01266", "country": "US", "state": "MA", "display_address": ["6 Depot St", "West Stockbridge, MA 01266"]}, "phone": "+14132320205", "display_phone": "(413) 232-0205", "distance": 5105.3651072699}, {"id": "tEn0qxPRMtXBOY8R2Vn4kw", "alias": "cafe-adam-great-barrington-3", "name": "Cafe Adam", "image_url": "https://s3-media3.fl.yelpcdn.com/bphoto/8biwPGlv0l6_1n-JvzQREw/o.jpg", "is_closed": false, "url": "https://www.yelp.com/biz/cafe-adam-great-barrington-3?adjust_creative=ywY5UnLZrNrRl2b93Ruy_g&utm_campaign=yelp_api_v3&utm_medium=api_v3_business_search&utm_source=ywY5UnLZrNrRl2b93Ruy_g", "review_count": 43, "categories": [{"alias": "modern_european", "title": "Modern European"}], "rating": 4.0, "coordinates": {"latitude": 42.2134577, "longitude": -73.3444292}, "transactions": [], "price": "$$$", "location": {"address1": "420 Stockbridge Rd", "address2": "Ste 3", "address3": "", "city": "Great Barrington", "zip_code": "01230", "country": "US", "state": "MA", "display_address": ["420 Stockbridge Rd", "Ste 3", "Great Barrington, MA 01230"]}, "phone": "+14135287786", "display_phone": "(413) 528-7786", "distance": 8740.731734450817}, {"id": "lttv5T8QO4ORAuuc3scf6g", "alias": "steam-noodle-cafe-great-barrington", "name": "Steam Noodle Cafe", "image_url": "https://s3-media2.fl.yelpcdn.com/bphoto/AWbFlr4Jb_0evrjqn6ZyNw/o.jpg", "is_closed": false, "url": "https://www.yelp.com/biz/steam-noodle-cafe-great-barrington?adjust_creative=ywY5UnLZrNrRl2b93Ruy_g&utm_campaign=yelp_api_v3&utm_medium=api_v3_business_search&utm_source=ywY5UnLZrNrRl2b93Ruy_g", "review_count": 25, "categories": [{"alias": "noodles", "title": "Noodles"}, {"alias": "thai", "title": "Thai"}], "rating": 5.0, "coordinates": {"latitude": 42.19492, "longitude": -73.36254}, "transactions": [], "location": {"address1": "284 Main St Store", "address2": "Inside Barrington House", "address3": null, "city": "Great Barrington", "zip_code": "01230", "country": "US", "state": "MA", "display_address": ["284 Main St Store", "Inside Barrington House", "Great Barrington, MA 01230"]}, "phone": "+14135666353", "display_phone": "(413) 566-6353", "distance": 10464.9527740531}, {"id": "8IM2TsvuoHvJkYm18PunmQ", "alias": "donaji-mexican-restaurant-great-barrington-2", "name": "Donaji Mexican Restaurant", "image_url": "https://s3-media1.fl.yelpcdn.com/bphoto/tU-u8f7XG_lVHlSAcNK98Q/o.jpg", "is_closed": false, "url": "https://www.yelp.com/biz/donaji-mexican-restaurant-great-barrington-2?adjust_creative=ywY5UnLZrNrRl2b93Ruy_g&utm_campaign=yelp_api_v3&utm_medium=api_v3_business_search&utm_source=ywY5UnLZrNrRl2b93Ruy_g", "review_count": 99, "categories": [{"alias": "mexican", "title": "Mexican"}], "rating": 4.5, "coordinates": {"latitude": 42.2117375825877, "longitude": -73.3457401022315}, "transactions": [], "price": "$$", "location": {"address1": "389 Stockbridge Rd", "address2": "", "address3": null, "city": "Great Barrington", "zip_code": "01230", "country": "US", "state": "MA", "display_address": ["389 Stockbridge Rd", "Great Barrington, MA 01230"]}, "phone": "+14137174220", "display_phone": "(413) 717-4220", "distance": 8892.23820788198}, {"id": "w_iafnQRK0sfasx0z1DYCA", "alias": "barrington-brewery-and-restaurant-great-barrington", "name": "Barrington Brewery & Restaurant", "image_url": "https://s3-media1.fl.yelpcdn.com/bphoto/QIBUGRTwBlLdt8T5bylZhg/o.jpg", "is_closed": false, "url": "https://www.yelp.com/biz/barrington-brewery-and-restaurant-great-barrington?adjust_creative=ywY5UnLZrNrRl2b93Ruy_g&utm_campaign=yelp_api_v3&utm_medium=api_v3_business_search&utm_source=ywY5UnLZrNrRl2b93Ruy_g", "review_count": 278, "categories": [{"alias": "tradamerican", "title": "American (Traditional)"}, {"alias": "bars", "title": "Bars"}, {"alias": "brewpubs", "title": "Brewpubs"}], "rating": 3.5, "coordinates": {"latitude": 42.213068, "longitude": -73.343636}, "transactions": [], "price": "$$", "location": {"address1": "420 Stockbridge Rd", "address2": "Ste 7", "address3": "", "city": "Great Barrington", "zip_code": "01230", "country": "US", "state": "MA", "display_address": ["420 Stockbridge Rd", "Ste 7", "Great Barrington, MA 01230"]}, "phone": "+14135288282", "display_phone": "(413) 528-8282", "distance": 8761.871064346024}, {"id": "Rr4cVS2LhKTmPM8bozHf_A", "alias": "post-eatery-and-bar-lee", "name": "Post Eatery & Bar", "image_url": "https://s3-media3.fl.yelpcdn.com/bphoto/UaHbdUfgC0rrX2R43_mKDQ/o.jpg", "is_closed": false, "url": "https://www.yelp.com/biz/post-eatery-and-bar-lee?adjust_creative=ywY5UnLZrNrRl2b93Ruy_g&utm_campaign=yelp_api_v3&utm_medium=api_v3_business_search&utm_source=ywY5UnLZrNrRl2b93Ruy_g", "review_count": 42, "categories": [{"alias": "newamerican", "title": "American (New)"}], "rating": 4.5, "coordinates": {"latitude": 42.30537, "longitude": -73.24988}, "transactions": [], "location": {"address1": "5 Railroad St", "address2": "", "address3": null, "city": "Lee", "zip_code": "01238", "country": "US", "state": "MA", "display_address": ["5 Railroad St", "Lee, MA 01238"]}, "phone": "+14133944275", "display_phone": "(413) 394-4275", "distance": 10564.989354334475}, {"id": "o972aKqdzYGiCzWWZx6vWQ", "alias": "chez-nous-lee", "name": "Chez Nous", "image_url": "https://s3-media3.fl.yelpcdn.com/bphoto/iBqQB-SYonf87TmSaxy4XA/o.jpg", "is_closed": false, "url": "https://www.yelp.com/biz/chez-nous-lee?adjust_creative=ywY5UnLZrNrRl2b93Ruy_g&utm_campaign=yelp_api_v3&utm_medium=api_v3_business_search&utm_source=ywY5UnLZrNrRl2b93Ruy_g", "review_count": 195, "categories": [{"alias": "french", "title": "French"}], "rating": 4.5, "coordinates": {"latitude": 42.30769, "longitude": -73.25031}, "transactions": ["restaurant_reservation", "delivery", "pickup"], "price": "$$$", "location": {"address1": "150 Main St", "address2": "", "address3": "", "city": "Lee", "zip_code": "01238", "country": "US", "state": "MA", "display_address": ["150 Main St", "Lee, MA 01238"]}, "phone": "+14132436397", "display_phone": "(413) 243-6397", "distance": 10575.400004743236}, {"id": "NQILKfW2PMwlWb1V-ppJMQ", "alias": "morgan-house-lee", "name": "Morgan House", "image_url": "https://s3-media3.fl.yelpcdn.com/bphoto/AWQ6KBz-N19MXaHmW_2BiQ/o.jpg", "is_closed": false, "url": "https://www.yelp.com/biz/morgan-house-lee?adjust_creative=ywY5UnLZrNrRl2b93Ruy_g&utm_campaign=yelp_api_v3&utm_medium=api_v3_business_search&utm_source=ywY5UnLZrNrRl2b93Ruy_g", "review_count": 110, "categories": [{"alias": "bedbreakfast", "title": "Bed & Breakfast"}, {"alias": "newamerican", "title": "American (New)"}, {"alias": "tradamerican", "title": "American (Traditional)"}], "rating": 4.0, "coordinates": {"latitude": 42.30484, "longitude": -73.24921}, "transactions": ["delivery"], "price": "$$", "location": {"address1": "33 Main St", "address2": "", "address3": "", "city": "Lee", "zip_code": "01238", "country": "US", "state": "MA", "display_address": ["33 Main St", "Lee, MA 01238"]}, "phone": "+14132433661", "display_phone": "(413) 243-3661", "distance": 10605.877096122445}, {"id": "jAo-MiD0x3rAXYknAj6-gQ", "alias": "aegean-breeze-restaurant-great-barrington-2", "name": "Aegean Breeze Restaurant", "image_url": "https://s3-media1.fl.yelpcdn.com/bphoto/sYSk5R1qJ65umfJthL6iGg/o.jpg", "is_closed": false, "url": "https://www.yelp.com/biz/aegean-breeze-restaurant-great-barrington-2?adjust_creative=ywY5UnLZrNrRl2b93Ruy_g&utm_campaign=yelp_api_v3&utm_medium=api_v3_business_search&utm_source=ywY5UnLZrNrRl2b93Ruy_g", "review_count": 85, "categories": [{"alias": "mediterranean", "title": "Mediterranean"}, {"alias": "greek", "title": "Greek"}], "rating": 3.5, "coordinates": {"latitude": 42.21115, "longitude": -73.34578}, "transactions": [], "price": "$$", "location": {"address1": "327 Stockbridge Rd", "address2": "", "address3": "", "city": "Great Barrington", "zip_code": "01230", "country": "US", "state": "MA", "display_address": ["327 Stockbridge Rd", "Great Barrington, MA 01230"]}, "phone": "+14135284001", "display_phone": "(413) 528-4001", "distance": 8958.890394066288}, {"id": "g7e9bxRkS-QEORLUl1VyrA", "alias": "old-mill-south-egremont", "name": "Old Mill", "image_url": "https://s3-media2.fl.yelpcdn.com/bphoto/KtMbm6Q9hNWXFE5y9NTExw/o.jpg", "is_closed": false, "url": "https://www.yelp.com/biz/old-mill-south-egremont?adjust_creative=ywY5UnLZrNrRl2b93Ruy_g&utm_campaign=yelp_api_v3&utm_medium=api_v3_business_search&utm_source=ywY5UnLZrNrRl2b93Ruy_g", "review_count": 55, "categories": [{"alias": "newamerican", "title": "American (New)"}], "rating": 4.5, "coordinates": {"latitude": 42.16043, "longitude": -73.41692}, "transactions": [], "price": "$$$", "location": {"address1": "53 Main St", "address2": "", "address3": "Rt 23", "city": "South Egremont", "zip_code": "01258", "country": "US", "state": "MA", "display_address": ["53 Main St", "Rt 23", "South Egremont, MA 01258"]}, "phone": "+14135281421", "display_phone": "(413) 528-1421", "distance": 14610.572840824674}, {"id": "bPB51VTWLgvlO_afOXGfVg", "alias": "lucias-latin-kitchen-lee", "name": "Lucia's Latin Kitchen", "image_url": "https://s3-media2.fl.yelpcdn.com/bphoto/m7K8y3UcSnE_wc6EZBkDJQ/o.jpg", "is_closed": false, "url": "https://www.yelp.com/biz/lucias-latin-kitchen-lee?adjust_creative=ywY5UnLZrNrRl2b93Ruy_g&utm_campaign=yelp_api_v3&utm_medium=api_v3_business_search&utm_source=ywY5UnLZrNrRl2b93Ruy_g", "review_count": 17, "categories": [{"alias": "latin", "title": "Latin American"}], "rating": 4.5, "coordinates": {"latitude": 42.30863, "longitude": -73.25241}, "transactions": ["delivery"], "location": {"address1": "109 Railroad St", "address2": "", "address3": null, "city": "Lee", "zip_code": "01238", "country": "US", "state": "MA", "display_address": ["109 Railroad St", "Lee, MA 01238"]}, "phone": "+14133945009", "display_phone": "(413) 394-5009", "distance": 10431.953203527111}, {"id": "1rI6pNcpm187YIP4Q1kIkw", "alias": "51-park-restaurant-and-tavern-lee", "name": "51 Park Restaurant & Tavern", "image_url": "https://s3-media4.fl.yelpcdn.com/bphoto/i8pfpWfkKcDreIreT5F80Q/o.jpg", "is_closed": false, "url": "https://www.yelp.com/biz/51-park-restaurant-and-tavern-lee?adjust_creative=ywY5UnLZrNrRl2b93Ruy_g&utm_campaign=yelp_api_v3&utm_medium=api_v3_business_search&utm_source=ywY5UnLZrNrRl2b93Ruy_g", "review_count": 293, "categories": [{"alias": "pizza", "title": "Pizza"}, {"alias": "bars", "title": "Bars"}, {"alias": "tradamerican", "title": "American (Traditional)"}], "rating": 4.0, "coordinates": {"latitude": 42.3041968750153, "longitude": -73.2482657867333}, "transactions": ["delivery"], "price": "$$", "location": {"address1": "51 Park St", "address2": "", "address3": "", "city": "Lee", "zip_code": "01238", "country": "US", "state": "MA", "display_address": ["51 Park St", "Lee, MA 01238"]}, "phone": "+14132432153", "display_phone": "(413) 243-2153", "distance": 10676.328442677852}, {"id": "gYAP3sXJ_X4wG6djLj1Obw", "alias": "widow-binghams-tavern-stockbridge", "name": "Widow Bingham's Tavern", "image_url": "https://s3-media2.fl.yelpcdn.com/bphoto/LJDeLi5WNNgB6aeMVfKSgA/o.jpg", "is_closed": false, "url": "https://www.yelp.com/biz/widow-binghams-tavern-stockbridge?adjust_creative=ywY5UnLZrNrRl2b93Ruy_g&utm_campaign=yelp_api_v3&utm_medium=api_v3_business_search&utm_source=ywY5UnLZrNrRl2b93Ruy_g", "review_count": 3, "categories": [{"alias": "tradamerican", "title": "American (Traditional)"}, {"alias": "wine_bars", "title": "Wine Bars"}], "rating": 3.5, "coordinates": {"latitude": 42.2820863585488, "longitude": -73.3115655889174}, "transactions": ["delivery"], "location": {"address1": "30 Main St", "address2": "", "address3": null, "city": "Stockbridge", "zip_code": "01262", "country": "US", "state": "MA", "display_address": ["30 Main St", "Stockbridge, MA 01262"]}, "phone": "+14132985545", "display_phone": "(413) 298-5545", "distance": 5372.848192019469}, {"id": "pqX6xDHUOPS46A0J2RX1ig", "alias": "berkshire-mountain-bakery-housatonic", "name": "Berkshire Mountain Bakery", "image_url": "https://s3-media1.fl.yelpcdn.com/bphoto/MzGyxKNuw2ttFFEMHminDw/o.jpg", "is_closed": false, "url": "https://www.yelp.com/biz/berkshire-mountain-bakery-housatonic?adjust_creative=ywY5UnLZrNrRl2b93Ruy_g&utm_campaign=yelp_api_v3&utm_medium=api_v3_business_search&utm_source=ywY5UnLZrNrRl2b93Ruy_g", "review_count": 53, "categories": [{"alias": "bakeries", "title": "Bakeries"}, {"alias": "pizza", "title": "Pizza"}], "rating": 4.5, "coordinates": {"latitude": 42.2507939734799, "longitude": -73.3638707368851}, "transactions": [], "price": "$$", "location": {"address1": "367 Park St", "address2": "", "address3": "Rte 183", "city": "Housatonic", "zip_code": "01236", "country": "US", "state": "MA", "display_address": ["367 Park St", "Rte 183", "Housatonic, MA 01236"]}, "phone": "+14132743412", "display_phone": "(413) 274-3412", "distance": 4309.268123028469}, {"id": "Cpk70Wzg3urDSoKTdEn2mg", "alias": "truc-orient-express-restaurant-west-stockbridge", "name": "Truc Orient Express Restaurant", "image_url": "https://s3-media2.fl.yelpcdn.com/bphoto/e6Wxu6ZtbvWtXwuSp1invg/o.jpg", "is_closed": false, "url": "https://www.yelp.com/biz/truc-orient-express-restaurant-west-stockbridge?adjust_creative=ywY5UnLZrNrRl2b93Ruy_g&utm_campaign=yelp_api_v3&utm_medium=api_v3_business_search&utm_source=ywY5UnLZrNrRl2b93Ruy_g", "review_count": 33, "categories": [{"alias": "vietnamese", "title": "Vietnamese"}, {"alias": "salad", "title": "Salad"}, {"alias": "vegetarian", "title": "Vegetarian"}], "rating": 3.0, "coordinates": {"latitude": 42.3329692899726, "longitude": -73.3681175330594}, "transactions": [], "price": "$$", "location": {"address1": "3 Harris St", "address2": "", "address3": "", "city": "West Stockbridge", "zip_code": "01266", "country": "US", "state": "MA", "display_address": ["3 Harris St", "West Stockbridge, MA 01266"]}, "phone": "+14132324204", "display_phone": "(413) 232-4204", "distance": 4997.205805609765}, {"id": "_IeXgcpDnbba34__lW7eVA", "alias": "pleasant-and-main-housatonic", "name": "Pleasant and Main", "image_url": "https://s3-media2.fl.yelpcdn.com/bphoto/5wvDuE7IzPwXzRQL_LZjAA/o.jpg", "is_closed": false, "url": "https://www.yelp.com/biz/pleasant-and-main-housatonic?adjust_creative=ywY5UnLZrNrRl2b93Ruy_g&utm_campaign=yelp_api_v3&utm_medium=api_v3_business_search&utm_source=ywY5UnLZrNrRl2b93Ruy_g", "review_count": 124, "categories": [{"alias": "cafes", "title": "Cafes"}, {"alias": "breakfast_brunch", "title": "Breakfast & Brunch"}, {"alias": "creperies", "title": "Creperies"}], "rating": 4.0, "coordinates": {"latitude": 42.2558373814533, "longitude": -73.3685981023773}, "transactions": [], "price": "$$", "location": {"address1": "1063 Main St", "address2": "", "address3": "", "city": "Housatonic", "zip_code": "01236", "country": "US", "state": "MA", "display_address": ["1063 Main St", "Housatonic, MA 01236"]}, "phone": "+14132746303", "display_phone": "(413) 274-6303", "distance": 3680.2487359212564}, {"id": "B-m2H_ntl8e7EpKA1kYIUw", "alias": "hillsdale-house-hillsdale-3", "name": "Hillsdale House", "image_url": "https://s3-media3.fl.yelpcdn.com/bphoto/-RUl0HHcp7TeaFQCzpx5EA/o.jpg", "is_closed": false, "url": "https://www.yelp.com/biz/hillsdale-house-hillsdale-3?adjust_creative=ywY5UnLZrNrRl2b93Ruy_g&utm_campaign=yelp_api_v3&utm_medium=api_v3_business_search&utm_source=ywY5UnLZrNrRl2b93Ruy_g", "review_count": 8, "categories": [{"alias": "tradamerican", "title": "American (Traditional)"}, {"alias": "bbq", "title": "Barbeque"}, {"alias": "pizza", "title": "Pizza"}], "rating": 4.5, "coordinates": {"latitude": 42.1787744193311, "longitude": -73.5255420033364}, "transactions": [], "location": {"address1": "1 Anthony St", "address2": "", "address3": null, "city": "Hillsdale", "zip_code": "12529", "country": "US", "state": "NY", "display_address": ["1 Anthony St", "Hillsdale, NY 12529"]}, "phone": "+15183257111", "display_phone": "(518) 325-7111", "distance": 17310.202002838803}, {"id": "QlldzqygzMHA_te8TvhHpg", "alias": "number-ten-great-barrington-2", "name": "Number Ten", "image_url": "https://s3-media3.fl.yelpcdn.com/bphoto/z4JtYTl8rMuPKNwGbMxR3w/o.jpg", "is_closed": false, "url": "https://www.yelp.com/biz/number-ten-great-barrington-2?adjust_creative=ywY5UnLZrNrRl2b93Ruy_g&utm_campaign=yelp_api_v3&utm_medium=api_v3_business_search&utm_source=ywY5UnLZrNrRl2b93Ruy_g", "review_count": 43, "categories": [{"alias": "steak", "title": "Steakhouses"}], "rating": 4.5, "coordinates": {"latitude": 42.1941161, "longitude": -73.3632744}, "transactions": [], "location": {"address1": "10 Castle St", "address2": null, "address3": "", "city": "Great Barrington", "zip_code": "01230", "country": "US", "state": "MA", "display_address": ["10 Castle St", "Great Barrington, MA 01230"]}, "phone": "+14135285244", "display_phone": "(413) 528-5244", "distance": 10549.337680175162}, {"id": "a3Y0KJZ0Xl3gzRysPO4prg", "alias": "wheatleigh-lenox", "name": "Wheatleigh", "image_url": "https://s3-media2.fl.yelpcdn.com/bphoto/A1J3Ld1Wz6DKPZZxOhYPaw/o.jpg", "is_closed": false, "url": "https://www.yelp.com/biz/wheatleigh-lenox?adjust_creative=ywY5UnLZrNrRl2b93Ruy_g&utm_campaign=yelp_api_v3&utm_medium=api_v3_business_search&utm_source=ywY5UnLZrNrRl2b93Ruy_g", "review_count": 32, "categories": [{"alias": "hotels", "title": "Hotels"}, {"alias": "french", "title": "French"}, {"alias": "newamerican", "title": "American (New)"}], "rating": 4.0, "coordinates": {"latitude": 42.3426224796575, "longitude": -73.3048152923584}, "transactions": [], "price": "$$$$", "location": {"address1": "11 Hawthorne Rd", "address2": "", "address3": "", "city": "Lenox", "zip_code": "01240", "country": "US", "state": "MA", "display_address": ["11 Hawthorne Rd", "Lenox, MA 01240"]}, "phone": "+14136370610", "display_phone": "(413) 637-0610", "distance": 8417.77481139713}, {"id": "UE7ZoJkkX3Enq8MS5X4ASw", "alias": "alpamayo-restaurant-lee-2", "name": "Alpamayo Restaurant", "image_url": "https://s3-media2.fl.yelpcdn.com/bphoto/5jIxLQ4LXaiJPpyTnJ1d9g/o.jpg", "is_closed": false, "url": "https://www.yelp.com/biz/alpamayo-restaurant-lee-2?adjust_creative=ywY5UnLZrNrRl2b93Ruy_g&utm_campaign=yelp_api_v3&utm_medium=api_v3_business_search&utm_source=ywY5UnLZrNrRl2b93Ruy_g", "review_count": 120, "categories": [{"alias": "peruvian", "title": "Peruvian"}, {"alias": "seafood", "title": "Seafood"}, {"alias": "soup", "title": "Soup"}], "rating": 4.0, "coordinates": {"latitude": 42.3056, "longitude": -73.249264}, "transactions": ["delivery"], "price": "$$", "location": {"address1": "60 Main St", "address2": "", "address3": "", "city": "Lee", "zip_code": "01238", "country": "US", "state": "MA", "display_address": ["60 Main St", "Lee, MA 01238"]}, "phone": "+14132436000", "display_phone": "(413) 243-6000", "distance": 10622.151415117763}, {"id": "Ij8RafJOGZno1-M4ueMrdQ", "alias": "salmon-run-fish-house-lee", "name": "Salmon Run Fish House", "image_url": "https://s3-media2.fl.yelpcdn.com/bphoto/HHwT3NihuQCFUc2ba2-8uQ/o.jpg", "is_closed": false, "url": "https://www.yelp.com/biz/salmon-run-fish-house-lee?adjust_creative=ywY5UnLZrNrRl2b93Ruy_g&utm_campaign=yelp_api_v3&utm_medium=api_v3_business_search&utm_source=ywY5UnLZrNrRl2b93Ruy_g", "review_count": 146, "categories": [{"alias": "seafood", "title": "Seafood"}], "rating": 3.5, "coordinates": {"latitude": 42.3060492, "longitude": -73.2495023}, "transactions": ["delivery", "pickup"], "price": "$$", "location": {"address1": "78 Main St", "address2": "", "address3": "", "city": "Lee", "zip_code": "01238", "country": "US", "state": "MA", "display_address": ["78 Main St", "Lee, MA 01238"]}, "phone": "+14132433900", "display_phone": "(413) 243-3900", "distance": 10612.956509298841}, {"id": "kAtNLueUJ_PZZuPy0JV3IQ", "alias": "the-well-great-barrington", "name": "The Well", "image_url": "https://s3-media4.fl.yelpcdn.com/bphoto/EkJp7o92_zQ08kOTTd1MyA/o.jpg", "is_closed": false, "url": "https://www.yelp.com/biz/the-well-great-barrington?adjust_creative=ywY5UnLZrNrRl2b93Ruy_g&utm_campaign=yelp_api_v3&utm_medium=api_v3_business_search&utm_source=ywY5UnLZrNrRl2b93Ruy_g", "review_count": 80, "categories": [{"alias": "tradamerican", "title": "American (Traditional)"}, {"alias": "bars", "title": "Bars"}, {"alias": "burgers", "title": "Burgers"}], "rating": 4.0, "coordinates": {"latitude": 42.1942672729492, "longitude": -73.3628997802734}, "transactions": [], "price": "$$", "location": {"address1": "312 Main St", "address2": "", "address3": null, "city": "Great Barrington", "zip_code": "01230", "country": "US", "state": "MA", "display_address": ["312 Main St", "Great Barrington, MA 01230"]}, "phone": "+14135283651", "display_phone": "(413) 528-3651", "distance": 10530.007670260995}, {"id": "F_FRaMZheFws0Fis3RknZw", "alias": "najis-lebanese-restaurant-great-barrington", "name": "Naji's Lebanese Restaurant", "image_url": "https://s3-media1.fl.yelpcdn.com/bphoto/fSYzaR3nCJaZHC6C5OMZ0A/o.jpg", "is_closed": false, "url": "https://www.yelp.com/biz/najis-lebanese-restaurant-great-barrington?adjust_creative=ywY5UnLZrNrRl2b93Ruy_g&utm_campaign=yelp_api_v3&utm_medium=api_v3_business_search&utm_source=ywY5UnLZrNrRl2b93Ruy_g", "review_count": 127, "categories": [{"alias": "mediterranean", "title": "Mediterranean"}, {"alias": "lebanese", "title": "Lebanese"}], "rating": 4.0, "coordinates": {"latitude": 42.212414, "longitude": -73.345397}, "transactions": [], "price": "$$", "location": {"address1": "405 Stockbridge Rd", "address2": "", "address3": "", "city": "Great Barrington", "zip_code": "01230", "country": "US", "state": "MA", "display_address": ["405 Stockbridge Rd", "Great Barrington, MA 01230"]}, "phone": "+14135285540", "display_phone": "(413) 528-5540", "distance": 8828.218490884552}, {"id": "ftLxE19Q1XcETl3PppYLXQ", "alias": "soma-catering-cafe-west-stockbridge", "name": "Soma Catering - Cafe", "image_url": "https://s3-media1.fl.yelpcdn.com/bphoto/VyKwfK-HhFu-sdfWvVrc0g/o.jpg", "is_closed": false, "url": "https://www.yelp.com/biz/soma-catering-cafe-west-stockbridge?adjust_creative=ywY5UnLZrNrRl2b93Ruy_g&utm_campaign=yelp_api_v3&utm_medium=api_v3_business_search&utm_source=ywY5UnLZrNrRl2b93Ruy_g", "review_count": 5, "categories": [{"alias": "cafes", "title": "Cafes"}], "rating": 5.0, "coordinates": {"latitude": 42.3349405594726, "longitude": -73.3677865192294}, "transactions": [], "price": "$$", "location": {"address1": "4 Albany Rd", "address2": "", "address3": "", "city": "West Stockbridge", "zip_code": "01266", "country": "US", "state": "MA", "display_address": ["4 Albany Rd", "West Stockbridge, MA 01266"]}, "phone": "+14132320007", "display_phone": "(413) 232-0007", "distance": 5218.0682690060885}, {"id": "kikbfGQqB_s-Fstuix0S3w", "alias": "timothys-grill-and-pizzeria-lee", "name": "Timothy's Grill and Pizzeria", "image_url": "https://s3-media2.fl.yelpcdn.com/bphoto/mr6czjgrgKtj_zbKLm_0gw/o.jpg", "is_closed": false, "url": "https://www.yelp.com/biz/timothys-grill-and-pizzeria-lee?adjust_creative=ywY5UnLZrNrRl2b93Ruy_g&utm_campaign=yelp_api_v3&utm_medium=api_v3_business_search&utm_source=ywY5UnLZrNrRl2b93Ruy_g", "review_count": 61, "categories": [{"alias": "pizza", "title": "Pizza"}], "rating": 3.5, "coordinates": {"latitude": 42.30556, "longitude": -73.2491299}, "transactions": ["delivery"], "price": "$$", "location": {"address1": "54 Main St", "address2": "", "address3": "", "city": "Lee", "zip_code": "01238", "country": "US", "state": "MA", "display_address": ["54 Main St", "Lee, MA 01238"]}, "phone": "+14132438220", "display_phone": "(413) 243-8220", "distance": 10632.219449128705}, {"id": "HnQB5vTsco_llR1czcoCtA", "alias": "aroma-bar-and-grill-great-barrington", "name": "Aroma Bar & Grill", "image_url": "https://s3-media2.fl.yelpcdn.com/bphoto/R3WHX4K-ifdDrR6NI7h6pA/o.jpg", "is_closed": false, "url": "https://www.yelp.com/biz/aroma-bar-and-grill-great-barrington?adjust_creative=ywY5UnLZrNrRl2b93Ruy_g&utm_campaign=yelp_api_v3&utm_medium=api_v3_business_search&utm_source=ywY5UnLZrNrRl2b93Ruy_g", "review_count": 79, "categories": [{"alias": "indpak", "title": "Indian"}], "rating": 4.0, "coordinates": {"latitude": 42.1887550354004, "longitude": -73.3641128540039}, "transactions": [], "price": "$$", "location": {"address1": "485 Main St", "address2": "", "address3": "", "city": "Great Barrington", "zip_code": "01230", "country": "US", "state": "MA", "display_address": ["485 Main St", "Great Barrington, MA 01230"]}, "phone": "+14135283116", "display_phone": "(413) 528-3116", "distance": 11130.294461734109}, {"id": "M5eUNWQMrpHu8Hne1HzeJA", "alias": "thornewood-inn-and-restaurant-great-barrington", "name": "Thornewood Inn & Restaurant", "image_url": "https://s3-media3.fl.yelpcdn.com/bphoto/1XWoME2SdC1q_6q2JggKLA/o.jpg", "is_closed": false, "url": "https://www.yelp.com/biz/thornewood-inn-and-restaurant-great-barrington?adjust_creative=ywY5UnLZrNrRl2b93Ruy_g&utm_campaign=yelp_api_v3&utm_medium=api_v3_business_search&utm_source=ywY5UnLZrNrRl2b93Ruy_g", "review_count": 21, "categories": [{"alias": "bedbreakfast", "title": "Bed & Breakfast"}, {"alias": "newamerican", "title": "American (New)"}], "rating": 4.0, "coordinates": {"latitude": 42.221102, "longitude": -73.343143}, "transactions": [], "price": "$$$", "location": {"address1": "453 Stockbridge Rd", "address2": "", "address3": "", "city": "Great Barrington", "zip_code": "01230", "country": "US", "state": "MA", "display_address": ["453 Stockbridge Rd", "Great Barrington, MA 01230"]}, "phone": "+14135283828", "display_phone": "(413) 528-3828", "distance": 7757.370350424157}, {"id": "bwKFfSyhtACDwJJu1SX90Q", "alias": "mint-indian-lakeside-dining-lee", "name": "Mint - Indian Lakeside Dining", "image_url": "https://s3-media3.fl.yelpcdn.com/bphoto/9_C5f6ZUtfaNxhaLothc1Q/o.jpg", "is_closed": false, "url": "https://www.yelp.com/biz/mint-indian-lakeside-dining-lee?adjust_creative=ywY5UnLZrNrRl2b93Ruy_g&utm_campaign=yelp_api_v3&utm_medium=api_v3_business_search&utm_source=ywY5UnLZrNrRl2b93Ruy_g", "review_count": 113, "categories": [{"alias": "indpak", "title": "Indian"}], "rating": 3.5, "coordinates": {"latitude": 42.32158, "longitude": -73.25985}, "transactions": ["pickup"], "price": "$$", "location": {"address1": "435 Laurel St", "address2": null, "address3": "", "city": "Lee", "zip_code": "01238", "country": "US", "state": "MA", "display_address": ["435 Laurel St", "Lee, MA 01238"]}, "phone": "+14132436731", "display_phone": "(413) 243-6731", "distance": 10243.437098495038}, {"id": "8_7Jvr4OEO_rgf1M4V88FA", "alias": "tangier-cafe-great-barrington", "name": "Tangier Cafe", "image_url": "https://s3-media3.fl.yelpcdn.com/bphoto/UNqM8Toi2gUHfdFgLdYiZg/o.jpg", "is_closed": false, "url": "https://www.yelp.com/biz/tangier-cafe-great-barrington?adjust_creative=ywY5UnLZrNrRl2b93Ruy_g&utm_campaign=yelp_api_v3&utm_medium=api_v3_business_search&utm_source=ywY5UnLZrNrRl2b93Ruy_g", "review_count": 59, "categories": [{"alias": "moroccan", "title": "Moroccan"}, {"alias": "mediterranean", "title": "Mediterranean"}], "rating": 4.5, "coordinates": {"latitude": 42.1806406, "longitude": -73.3643966}, "transactions": [], "price": "$$", "location": {"address1": "286 Main St", "address2": "", "address3": null, "city": "Great Barrington", "zip_code": "01230", "country": "US", "state": "MA", "display_address": ["286 Main St", "Great Barrington, MA 01230"]}, "phone": "+14136453375", "display_phone": "(413) 645-3375", "distance": 12026.66954887093}, {"id": "Aj3tRLhyQYIzSbh8kLvEdA", "alias": "alta-restaurant-and-wine-bar-lenox", "name": "Alta Restaurant & Wine Bar", "image_url": "https://s3-media2.fl.yelpcdn.com/bphoto/c7-dhTmWiV7CRBN2BAZCdA/o.jpg", "is_closed": false, "url": "https://www.yelp.com/biz/alta-restaurant-and-wine-bar-lenox?adjust_creative=ywY5UnLZrNrRl2b93Ruy_g&utm_campaign=yelp_api_v3&utm_medium=api_v3_business_search&utm_source=ywY5UnLZrNrRl2b93Ruy_g", "review_count": 239, "categories": [{"alias": "newamerican", "title": "American (New)"}, {"alias": "wine_bars", "title": "Wine Bars"}, {"alias": "breakfast_brunch", "title": "Breakfast & Brunch"}], "rating": 4.5, "coordinates": {"latitude": 42.35731, "longitude": -73.28289}, "transactions": ["delivery"], "price": "$$$", "location": {"address1": "34 Church St", "address2": "", "address3": "", "city": "Lenox", "zip_code": "01240", "country": "US", "state": "MA", "display_address": ["34 Church St", "Lenox, MA 01240"]}, "phone": "+14136370003", "display_phone": "(413) 637-0003", "distance": 10848.288141503454}, {"id": "kys7TxEIxNO8hmdUqYPQow", "alias": "john-andrews-farmhouse-restaurant-south-egremont", "name": "John Andrews Farmhouse Restaurant", "image_url": "https://s3-media2.fl.yelpcdn.com/bphoto/TURXOkf9nmA3Q1B7Fgn9gA/o.jpg", "is_closed": false, "url": "https://www.yelp.com/biz/john-andrews-farmhouse-restaurant-south-egremont?adjust_creative=ywY5UnLZrNrRl2b93Ruy_g&utm_campaign=yelp_api_v3&utm_medium=api_v3_business_search&utm_source=ywY5UnLZrNrRl2b93Ruy_g", "review_count": 87, "categories": [{"alias": "newamerican", "title": "American (New)"}], "rating": 4.0, "coordinates": {"latitude": 42.17093, "longitude": -73.4583}, "transactions": [], "price": "$$$", "location": {"address1": "224 Hillsdale Rd", "address2": "", "address3": "", "city": "South Egremont", "zip_code": "01258", "country": "US", "state": "MA", "display_address": ["224 Hillsdale Rd", "South Egremont, MA 01258"]}, "phone": "+14135283469", "display_phone": "(413) 528-3469", "distance": 14711.55654595558}, {"id": "fj8-r6Z6DH_WeE5vUGB7jg", "alias": "xicohtencatl-great-barrington", "name": "Xicohtencatl", "image_url": "https://s3-media3.fl.yelpcdn.com/bphoto/UYbFRyxG5IIZjZzk_baAOw/o.jpg", "is_closed": false, "url": "https://www.yelp.com/biz/xicohtencatl-great-barrington?adjust_creative=ywY5UnLZrNrRl2b93Ruy_g&utm_campaign=yelp_api_v3&utm_medium=api_v3_business_search&utm_source=ywY5UnLZrNrRl2b93Ruy_g", "review_count": 179, "categories": [{"alias": "mexican", "title": "Mexican"}], "rating": 3.5, "coordinates": {"latitude": 42.202749, "longitude": -73.346869}, "transactions": [], "price": "$$", "location": {"address1": "50 Stockbridge Rd", "address2": "", "address3": "", "city": "Great Barrington", "zip_code": "01230", "country": "US", "state": "MA", "display_address": ["50 Stockbridge Rd", "Great Barrington, MA 01230"]}, "phone": "+14135282002", "display_phone": "(413) 528-2002", "distance": 9865.374362962653}, {"id": "g9CgWN7yYafTHVOTvE5idQ", "alias": "fiddleheads-grille-great-barrington", "name": "Fiddleheads Grille", "image_url": "https://s3-media1.fl.yelpcdn.com/bphoto/tFYsxj5L_FOq_FqY3vTDUA/o.jpg", "is_closed": false, "url": "https://www.yelp.com/biz/fiddleheads-grille-great-barrington?adjust_creative=ywY5UnLZrNrRl2b93Ruy_g&utm_campaign=yelp_api_v3&utm_medium=api_v3_business_search&utm_source=ywY5UnLZrNrRl2b93Ruy_g", "review_count": 10, "categories": [{"alias": "bbq", "title": "Barbeque"}, {"alias": "bars", "title": "Bars"}, {"alias": "tradamerican", "title": "American (Traditional)"}], "rating": 4.0, "coordinates": {"latitude": 42.16155, "longitude": -73.36452}, "transactions": [], "location": {"address1": "999 South Main St", "address2": null, "address3": "", "city": "Great Barrington", "zip_code": "01230", "country": "US", "state": "MA", "display_address": ["999 South Main St", "Great Barrington, MA 01230"]}, "phone": "+14136442999", "display_phone": "(413) 644-2999", "distance": 14090.50815660974}, {"id": "OGfb534H05hQb7QXOYEjcQ", "alias": "baba-louies-sourdough-pizza-great-barrington-3", "name": "Baba Louie's Sourdough Pizza", "image_url": "https://s3-media4.fl.yelpcdn.com/bphoto/Awr9VbK52RO4X7zg6uwIOA/o.jpg", "is_closed": false, "url": "https://www.yelp.com/biz/baba-louies-sourdough-pizza-great-barrington-3?adjust_creative=ywY5UnLZrNrRl2b93Ruy_g&utm_campaign=yelp_api_v3&utm_medium=api_v3_business_search&utm_source=ywY5UnLZrNrRl2b93Ruy_g", "review_count": 270, "categories": [{"alias": "pizza", "title": "Pizza"}], "rating": 4.5, "coordinates": {"latitude": 42.194999, "longitude": -73.363538}, "transactions": [], "price": "$$", "location": {"address1": "42 Railroad St", "address2": "", "address3": "", "city": "Great Barrington", "zip_code": "01230", "country": "US", "state": "MA", "display_address": ["42 Railroad St", "Great Barrington, MA 01230"]}, "phone": "+14135288100", "display_phone": "(413) 528-8100", "distance": 10443.092556092064}, {"id": "Phznchi6ENLtuFJ8mw7hQw", "alias": "frankies-ristorante-italiano-lenox", "name": "Frankie's Ristorante Italiano", "image_url": "https://s3-media3.fl.yelpcdn.com/bphoto/EwMJTuzSxAN5joXKplYbzA/o.jpg", "is_closed": false, "url": "https://www.yelp.com/biz/frankies-ristorante-italiano-lenox?adjust_creative=ywY5UnLZrNrRl2b93Ruy_g&utm_campaign=yelp_api_v3&utm_medium=api_v3_business_search&utm_source=ywY5UnLZrNrRl2b93Ruy_g", "review_count": 83, "categories": [{"alias": "italian", "title": "Italian"}, {"alias": "wine_bars", "title": "Wine Bars"}], "rating": 3.5, "coordinates": {"latitude": 42.35926, "longitude": -73.28348}, "transactions": ["delivery"], "price": "$$", "location": {"address1": "80 Main St", "address2": "", "address3": "", "city": "Lenox", "zip_code": "01240", "country": "US", "state": "MA", "display_address": ["80 Main St", "Lenox, MA 01240"]}, "phone": "+14136374455", "display_phone": "(413) 637-4455", "distance": 10971.917532113956}, {"id": "ovwzwdxgYMUC5gLrPAcL_w", "alias": "prime-italian-steakhouse-and-bar-lenox", "name": "Prime Italian Steakhouse and Bar", "image_url": "https://s3-media1.fl.yelpcdn.com/bphoto/gqVBRAd7RBRubH1kXPUGlA/o.jpg", "is_closed": false, "url": "https://www.yelp.com/biz/prime-italian-steakhouse-and-bar-lenox?adjust_creative=ywY5UnLZrNrRl2b93Ruy_g&utm_campaign=yelp_api_v3&utm_medium=api_v3_business_search&utm_source=ywY5UnLZrNrRl2b93Ruy_g", "review_count": 67, "categories": [{"alias": "bars", "title": "Bars"}, {"alias": "steak", "title": "Steakhouses"}], "rating": 3.5, "coordinates": {"latitude": 42.3599, "longitude": -73.2829}, "transactions": ["delivery"], "price": "$$$", "location": {"address1": "15 Franklin St", "address2": "", "address3": "", "city": "Lenox", "zip_code": "01240", "country": "US", "state": "MA", "display_address": ["15 Franklin St", "Lenox, MA 01240"]}, "phone": "+14136372998", "display_phone": "(413) 637-2998", "distance": 11050.114866168939}, {"id": "pDwNElY8_HV4BQQaQOYloA", "alias": "20-railroad-public-house-great-barrington", "name": "20 Railroad Public House", "image_url": "https://s3-media3.fl.yelpcdn.com/bphoto/0EREvKNQbMh-AVzh6n0EKw/o.jpg", "is_closed": false, "url": "https://www.yelp.com/biz/20-railroad-public-house-great-barrington?adjust_creative=ywY5UnLZrNrRl2b93Ruy_g&utm_campaign=yelp_api_v3&utm_medium=api_v3_business_search&utm_source=ywY5UnLZrNrRl2b93Ruy_g", "review_count": 56, "categories": [{"alias": "tradamerican", "title": "American (Traditional)"}, {"alias": "cocktailbars", "title": "Cocktail Bars"}, {"alias": "pizza", "title": "Pizza"}], "rating": 3.5, "coordinates": {"latitude": 42.1947748269574, "longitude": -73.3631125600494}, "transactions": [], "price": "$$", "location": {"address1": "20 Railroad St", "address2": "", "address3": "", "city": "Great Barrington", "zip_code": "01230", "country": "US", "state": "MA", "display_address": ["20 Railroad St", "Great Barrington, MA 01230"]}, "phone": "+14135289345", "display_phone": "(413) 528-9345", "distance": 10471.469383453552}, {"id": "b__Dz9yt1BUcKlfwH02hng", "alias": "mazzeos-ristorante-pittsfield", "name": "Mazzeo's Ristorante", "image_url": "https://s3-media4.fl.yelpcdn.com/bphoto/qbpAa7i58lM4a8VQ5RYRjA/o.jpg", "is_closed": false, "url": "https://www.yelp.com/biz/mazzeos-ristorante-pittsfield?adjust_creative=ywY5UnLZrNrRl2b93Ruy_g&utm_campaign=yelp_api_v3&utm_medium=api_v3_business_search&utm_source=ywY5UnLZrNrRl2b93Ruy_g", "review_count": 142, "categories": [{"alias": "italian", "title": "Italian"}, {"alias": "gluten_free", "title": "Gluten-Free"}, {"alias": "bars", "title": "Bars"}], "rating": 3.5, "coordinates": {"latitude": 42.413089, "longitude": -73.260826}, "transactions": ["restaurant_reservation", "delivery"], "price": "$$$", "location": {"address1": "1015 South St", "address2": "", "address3": "", "city": "Pittsfield", "zip_code": "01201", "country": "US", "state": "MA", "display_address": ["1015 South St", "Pittsfield, MA 01201"]}, "phone": "+14134482095", "display_phone": "(413) 448-2095", "distance": 16691.47227138089}, {"id": "1y5jl7wdDoJ3RacNAcZreA", "alias": "olde-heritage-tavern-lenox", "name": "Olde Heritage Tavern", "image_url": "https://s3-media3.fl.yelpcdn.com/bphoto/6kOEapqe-SHI52hNBKbRwg/o.jpg", "is_closed": false, "url": "https://www.yelp.com/biz/olde-heritage-tavern-lenox?adjust_creative=ywY5UnLZrNrRl2b93Ruy_g&utm_campaign=yelp_api_v3&utm_medium=api_v3_business_search&utm_source=ywY5UnLZrNrRl2b93Ruy_g", "review_count": 144, "categories": [{"alias": "tradamerican", "title": "American (Traditional)"}, {"alias": "bars", "title": "Bars"}], "rating": 3.5, "coordinates": {"latitude": 42.357731, "longitude": -73.284032}, "transactions": ["delivery"], "price": "$$", "location": {"address1": "12 Housatonic St", "address2": "", "address3": "", "city": "Lenox", "zip_code": "01240", "country": "US", "state": "MA", "display_address": ["12 Housatonic St", "Lenox, MA 01240"]}, "phone": "+14136370884", "display_phone": "(413) 637-0884", "distance": 10817.292052495013}, {"id": "wv-iymLQsllwM_YRAkTQvA", "alias": "michaels-stockbridge", "name": "Michael's", "image_url": "https://s3-media1.fl.yelpcdn.com/bphoto/UvG1sX_h5e4Th0UV3yQSqQ/o.jpg", "is_closed": false, "url": "https://www.yelp.com/biz/michaels-stockbridge?adjust_creative=ywY5UnLZrNrRl2b93Ruy_g&utm_campaign=yelp_api_v3&utm_medium=api_v3_business_search&utm_source=ywY5UnLZrNrRl2b93Ruy_g", "review_count": 52, "categories": [{"alias": "tradamerican", "title": "American (Traditional)"}, {"alias": "newamerican", "title": "American (New)"}], "rating": 3.0, "coordinates": {"latitude": 42.28076, "longitude": -73.31001}, "transactions": ["delivery"], "price": "$$", "location": {"address1": "5 Elm St", "address2": "", "address3": "", "city": "Stockbridge", "zip_code": "01262", "country": "US", "state": "MA", "display_address": ["5 Elm St", "Stockbridge, MA 01262"]}, "phone": "+14132983530", "display_phone": "(413) 298-3530", "distance": 5496.373738911655}, {"id": "iiGIFPHoEO1J2LyPq7eaiQ", "alias": "bistro-zinc-lenox-3", "name": "Bistro Zinc", "image_url": "https://s3-media2.fl.yelpcdn.com/bphoto/f7jUclzsroTnOYHfGTkE-g/o.jpg", "is_closed": false, "url": "https://www.yelp.com/biz/bistro-zinc-lenox-3?adjust_creative=ywY5UnLZrNrRl2b93Ruy_g&utm_campaign=yelp_api_v3&utm_medium=api_v3_business_search&utm_source=ywY5UnLZrNrRl2b93Ruy_g", "review_count": 121, "categories": [{"alias": "french", "title": "French"}, {"alias": "lounges", "title": "Lounges"}], "rating": 3.5, "coordinates": {"latitude": 42.358163503434, "longitude": -73.282507695418}, "transactions": ["delivery"], "price": "$$$", "location": {"address1": "56 Church St", "address2": "", "address3": "", "city": "Lenox", "zip_code": "01240", "country": "US", "state": "MA", "display_address": ["56 Church St", "Lenox, MA 01240"]}, "phone": "+14136378800", "display_phone": "(413) 637-8800", "distance": 10935.412746175161}, {"id": "5LnwS_kqnyooA4DAeo5TtQ", "alias": "baja-charlies-lee", "name": "Baja Charlie's", "image_url": "https://s3-media3.fl.yelpcdn.com/bphoto/VHSamI5wGd2TzCuZwkIFbQ/o.jpg", "is_closed": false, "url": "https://www.yelp.com/biz/baja-charlies-lee?adjust_creative=ywY5UnLZrNrRl2b93Ruy_g&utm_campaign=yelp_api_v3&utm_medium=api_v3_business_search&utm_source=ywY5UnLZrNrRl2b93Ruy_g", "review_count": 140, "categories": [{"alias": "newamerican", "title": "American (New)"}, {"alias": "mexican", "title": "Mexican"}], "rating": 4.0, "coordinates": {"latitude": 42.3100508004427, "longitude": -73.2527308166027}, "transactions": ["delivery"], "price": "$$", "location": {"address1": "62 W Center St", "address2": "", "address3": "", "city": "Lee", "zip_code": "01238", "country": "US", "state": "MA", "display_address": ["62 W Center St", "Lee, MA 01238"]}, "phone": "+14132434322", "display_phone": "(413) 243-4322", "distance": 10426.312212873278}, {"id": "p-HyVSwogxhHQs8xJ-t9vQ", "alias": "the-starving-artist-creperie-and-cafe-lee", "name": "The Starving Artist Creperie and Cafe", "image_url": "https://s3-media1.fl.yelpcdn.com/bphoto/HQIOZG95zR30GCSYkwInNw/o.jpg", "is_closed": false, "url": "https://www.yelp.com/biz/the-starving-artist-creperie-and-cafe-lee?adjust_creative=ywY5UnLZrNrRl2b93Ruy_g&utm_campaign=yelp_api_v3&utm_medium=api_v3_business_search&utm_source=ywY5UnLZrNrRl2b93Ruy_g", "review_count": 204, "categories": [{"alias": "creperies", "title": "Creperies"}, {"alias": "cafes", "title": "Cafes"}], "rating": 4.0, "coordinates": {"latitude": 42.30504, "longitude": -73.24892}, "transactions": ["delivery"], "price": "$$", "location": {"address1": "40 Main St", "address2": "Ste 2", "address3": "", "city": "Lee", "zip_code": "01238", "country": "US", "state": "MA", "display_address": ["40 Main St", "Ste 2", "Lee, MA 01238"]}, "phone": "+14133945046", "display_phone": "(413) 394-5046", "distance": 10636.703261025004}, {"id": "ix1WhyVc9cWYQExuGrlQDQ", "alias": "vivaldis-pizzeria-lee", "name": "Vivaldi's Pizzeria", "image_url": "https://s3-media1.fl.yelpcdn.com/bphoto/BSFVi2zKRZfkvT4GkrgZzw/o.jpg", "is_closed": false, "url": "https://www.yelp.com/biz/vivaldis-pizzeria-lee?adjust_creative=ywY5UnLZrNrRl2b93Ruy_g&utm_campaign=yelp_api_v3&utm_medium=api_v3_business_search&utm_source=ywY5UnLZrNrRl2b93Ruy_g", "review_count": 27, "categories": [{"alias": "pizza", "title": "Pizza"}], "rating": 3.5, "coordinates": {"latitude": 42.303386, "longitude": -73.247599}, "transactions": ["delivery"], "price": "$$", "location": {"address1": "33 Park Plz", "address2": "", "address3": "", "city": "Lee", "zip_code": "01238", "country": "US", "state": "MA", "display_address": ["33 Park Plz", "Lee, MA 01238"]}, "phone": "+14132434041", "display_phone": "(413) 243-4041", "distance": 10716.143463524219}, {"id": "CmetvmovgfbsDICV_eKrCw", "alias": "battistas-international-house-of-tacos-pittsfield-2", "name": "Battista's International House of Tacos", "image_url": "https://s3-media1.fl.yelpcdn.com/bphoto/mzrKTjU0GxOy0JRvsLv4JA/o.jpg", "is_closed": false, "url": "https://www.yelp.com/biz/battistas-international-house-of-tacos-pittsfield-2?adjust_creative=ywY5UnLZrNrRl2b93Ruy_g&utm_campaign=yelp_api_v3&utm_medium=api_v3_business_search&utm_source=ywY5UnLZrNrRl2b93Ruy_g", "review_count": 93, "categories": [{"alias": "tacos", "title": "Tacos"}], "rating": 4.5, "coordinates": {"latitude": 42.436264997064, "longitude": -73.3062452450395}, "transactions": ["delivery"], "price": "$", "location": {"address1": "1231 W Housatonic St", "address2": "", "address3": null, "city": "Pittsfield", "zip_code": "01201", "country": "US", "state": "MA", "display_address": ["1231 W Housatonic St", "Pittsfield, MA 01201"]}, "phone": "+14134648654", "display_phone": "(413) 464-8654", "distance": 17416.448916171234}, {"id": "3_5-GUf-AkGhf7AyQgtw7w", "alias": "koi-chinese-restaurant-great-barrington", "name": "Koi Chinese Restaurant", "image_url": "https://s3-media4.fl.yelpcdn.com/bphoto/Pae2zv852hWi_Chjes73iQ/o.jpg", "is_closed": false, "url": "https://www.yelp.com/biz/koi-chinese-restaurant-great-barrington?adjust_creative=ywY5UnLZrNrRl2b93Ruy_g&utm_campaign=yelp_api_v3&utm_medium=api_v3_business_search&utm_source=ywY5UnLZrNrRl2b93Ruy_g", "review_count": 66, "categories": [{"alias": "taiwanese", "title": "Taiwanese"}, {"alias": "chinese", "title": "Chinese"}, {"alias": "asianfusion", "title": "Asian Fusion"}], "rating": 3.5, "coordinates": {"latitude": 42.19555, "longitude": -73.33878}, "transactions": [], "price": "$$", "location": {"address1": "300 State Rd", "address2": "", "address3": "", "city": "Great Barrington", "zip_code": "01230", "country": "US", "state": "MA", "display_address": ["300 State Rd", "Great Barrington, MA 01230"]}, "phone": "+14135285678", "display_phone": "(413) 528-5678", "distance": 10751.241598559947}, {"id": "-CWjCRxQmPeVCFSAx9Y9Ag", "alias": "the-mount-washington-house-hillsdale", "name": "The Mount Washington House", "image_url": "https://s3-media3.fl.yelpcdn.com/bphoto/Mudc6jZrh3PrvDxMCze0Yg/o.jpg", "is_closed": false, "url": "https://www.yelp.com/biz/the-mount-washington-house-hillsdale?adjust_creative=ywY5UnLZrNrRl2b93Ruy_g&utm_campaign=yelp_api_v3&utm_medium=api_v3_business_search&utm_source=ywY5UnLZrNrRl2b93Ruy_g", "review_count": 9, "categories": [{"alias": "sportsbars", "title": "Sports Bars"}, {"alias": "tradamerican", "title": "American (Traditional)"}], "rating": 4.0, "coordinates": {"latitude": 42.1795264878392, "longitude": -73.5259648163613}, "transactions": [], "price": "$", "location": {"address1": "2627 Rt 23", "address2": "", "address3": "", "city": "Hillsdale", "zip_code": "12529", "country": "US", "state": "NY", "display_address": ["2627 Rt 23", "Hillsdale, NY 12529"]}, "phone": "+15183254631", "display_phone": "(518) 325-4631", "distance": 17276.14996042485}, {"id": "0HWWQUBdjHiULYXV2OlVgg", "alias": "marketplace-kitchen-table-great-barrington", "name": "Marketplace Kitchen Table", "image_url": "https://s3-media1.fl.yelpcdn.com/bphoto/13B1KMRoMm0-jovYqHAoaQ/o.jpg", "is_closed": false, "url": "https://www.yelp.com/biz/marketplace-kitchen-table-great-barrington?adjust_creative=ywY5UnLZrNrRl2b93Ruy_g&utm_campaign=yelp_api_v3&utm_medium=api_v3_business_search&utm_source=ywY5UnLZrNrRl2b93Ruy_g", "review_count": 55, "categories": [{"alias": "burgers", "title": "Burgers"}, {"alias": "breakfast_brunch", "title": "Breakfast & Brunch"}, {"alias": "salad", "title": "Salad"}], "rating": 4.0, "coordinates": {"latitude": 42.2068, "longitude": -73.34618}, "transactions": [], "price": "$$", "location": {"address1": "240 Stockbridge Rd", "address2": "", "address3": null, "city": "Great Barrington", "zip_code": "01230", "country": "US", "state": "MA", "display_address": ["240 Stockbridge Rd", "Great Barrington, MA 01230"]}, "phone": "+14135282233", "display_phone": "(413) 528-2233", "distance": 9453.76923737664}, {"id": "65s9bAD_XRYN9kGDlx2SYA", "alias": "backwater-grille-canaan-2", "name": "Backwater Grille", "image_url": "https://s3-media1.fl.yelpcdn.com/bphoto/6sJYu-JV2x4zPO1KWY5cBA/o.jpg", "is_closed": false, "url": "https://www.yelp.com/biz/backwater-grille-canaan-2?adjust_creative=ywY5UnLZrNrRl2b93Ruy_g&utm_campaign=yelp_api_v3&utm_medium=api_v3_business_search&utm_source=ywY5UnLZrNrRl2b93Ruy_g", "review_count": 61, "categories": [{"alias": "tradamerican", "title": "American (Traditional)"}, {"alias": "bars", "title": "Bars"}], "rating": 3.0, "coordinates": {"latitude": 42.4040076, "longitude": -73.4250459}, "transactions": [], "price": "$$", "location": {"address1": "42 Queechy Lake Dr", "address2": "", "address3": "", "city": "Canaan", "zip_code": "12029", "country": "US", "state": "NY", "display_address": ["42 Queechy Lake Dr", "Canaan, NY 12029"]}, "phone": "+15187810199", "display_phone": "(518) 781-0199", "distance": 13460.307711968748}, {"id": "qHMmlshiWT3hFX-kPOxIEw", "alias": "international-house-of-tacos-pittsfield-3", "name": "international house of tacos", "image_url": "https://s3-media3.fl.yelpcdn.com/bphoto/snGz7Vw6jD7eYNatk_NWgg/o.jpg", "is_closed": false, "url": "https://www.yelp.com/biz/international-house-of-tacos-pittsfield-3?adjust_creative=ywY5UnLZrNrRl2b93Ruy_g&utm_campaign=yelp_api_v3&utm_medium=api_v3_business_search&utm_source=ywY5UnLZrNrRl2b93Ruy_g", "review_count": 0, "categories": [], "rating": 0.0, "coordinates": {"latitude": 42.43616, "longitude": -73.30618}, "transactions": [], "location": {"address1": "1231 W Housatonic St", "address2": "", "address3": null, "city": "Pittsfield", "zip_code": "01201", "country": "US", "state": "MA", "display_address": ["1231 W Housatonic St", "Pittsfield, MA 01201"]}, "phone": "", "display_phone": "", "distance": 17416.273244220592}, {"id": "LI9tkrPmuni5EYU2o9KDzA", "alias": "am-best-canaan-superstop-citgo-canaan", "name": "AM-BEST Canaan SuperStop Citgo", "image_url": "https://s3-media1.fl.yelpcdn.com/bphoto/ZBDzQ9F_QQxhvmC_PWU3kw/o.jpg", "is_closed": false, "url": "https://www.yelp.com/biz/am-best-canaan-superstop-citgo-canaan?adjust_creative=ywY5UnLZrNrRl2b93Ruy_g&utm_campaign=yelp_api_v3&utm_medium=api_v3_business_search&utm_source=ywY5UnLZrNrRl2b93Ruy_g", "review_count": 4, "categories": [{"alias": "delis", "title": "Delis"}], "rating": 4.0, "coordinates": {"latitude": 42.3600343635736, "longitude": -73.4278106689453}, "transactions": [], "price": "$$", "location": {"address1": "12816 Route 22", "address2": "", "address3": "", "city": "Canaan", "zip_code": "12029", "country": "US", "state": "NY", "display_address": ["12816 Route 22", "Canaan, NY 12029"]}, "phone": "+15187814144", "display_phone": "(518) 781-4144", "distance": 9016.829085515752}, {"id": "_iDLvZQ3FDU0Ic5ZJYhs6Q", "alias": "the-east-great-barrington-3", "name": "The East", "image_url": "https://s3-media2.fl.yelpcdn.com/bphoto/LAvRTZS1Qpjw-eG0DqwMog/o.jpg", "is_closed": false, "url": "https://www.yelp.com/biz/the-east-great-barrington-3?adjust_creative=ywY5UnLZrNrRl2b93Ruy_g&utm_campaign=yelp_api_v3&utm_medium=api_v3_business_search&utm_source=ywY5UnLZrNrRl2b93Ruy_g", "review_count": 44, "categories": [{"alias": "chinese", "title": "Chinese"}, {"alias": "sushi", "title": "Sushi Bars"}], "rating": 3.5, "coordinates": {"latitude": 42.21063, "longitude": -73.34927}, "transactions": [], "price": "$$", "location": {"address1": "305 Stockbridge Rd", "address2": "", "address3": "", "city": "Great Barrington", "zip_code": "01230", "country": "US", "state": "MA", "display_address": ["305 Stockbridge Rd", "Great Barrington, MA 01230"]}, "phone": "+14135288850", "display_phone": "(413) 528-8850", "distance": 9036.860163939386}, {"id": "M9sdEGo6VeKbvGtNDlbVFA", "alias": "cafe-lucia-lenox-2", "name": "Cafe Lucia", "image_url": "https://s3-media1.fl.yelpcdn.com/bphoto/dMq3G8lv-DjNe80DafdNQQ/o.jpg", "is_closed": false, "url": "https://www.yelp.com/biz/cafe-lucia-lenox-2?adjust_creative=ywY5UnLZrNrRl2b93Ruy_g&utm_campaign=yelp_api_v3&utm_medium=api_v3_business_search&utm_source=ywY5UnLZrNrRl2b93Ruy_g", "review_count": 45, "categories": [{"alias": "italian", "title": "Italian"}, {"alias": "bars", "title": "Bars"}], "rating": 3.5, "coordinates": {"latitude": 42.3571485742368, "longitude": -73.2831001281738}, "transactions": ["delivery"], "price": "$$$", "location": {"address1": "80 Church St", "address2": "", "address3": "", "city": "Lenox", "zip_code": "01240", "country": "US", "state": "MA", "display_address": ["80 Church St", "Lenox, MA 01240"]}, "phone": "+14136372640", "display_phone": "(413) 637-2640", "distance": 10821.189783164282}, {"id": "j1Caj8bDL2gm4Q4OppvMQQ", "alias": "cork-n-hearth-lee-2", "name": "Cork N' Hearth", "image_url": "https://s3-media1.fl.yelpcdn.com/bphoto/NP_IxYEUvuC983-ZmoND3w/o.jpg", "is_closed": false, "url": "https://www.yelp.com/biz/cork-n-hearth-lee-2?adjust_creative=ywY5UnLZrNrRl2b93Ruy_g&utm_campaign=yelp_api_v3&utm_medium=api_v3_business_search&utm_source=ywY5UnLZrNrRl2b93Ruy_g", "review_count": 29, "categories": [{"alias": "desserts", "title": "Desserts"}, {"alias": "wine_bars", "title": "Wine Bars"}, {"alias": "diners", "title": "Diners"}], "rating": 3.5, "coordinates": {"latitude": 42.32676, "longitude": -73.26269}, "transactions": ["delivery"], "price": "$$$", "location": {"address1": "635 Laurel St", "address2": "", "address3": "", "city": "Lee", "zip_code": "01238", "country": "US", "state": "MA", "display_address": ["635 Laurel St", "Lee, MA 01238"]}, "phone": "+14132430535", "display_phone": "(413) 243-0535", "distance": 10282.252171954107}, {"id": "uf5Y5j_zmZMCDpt3EZvVww", "alias": "donnas-country-grill-chatham", "name": "Donna's Country Grill", "image_url": "https://s3-media2.fl.yelpcdn.com/bphoto/paY3xN2Hj3kLHapCmW462g/o.jpg", "is_closed": false, "url": "https://www.yelp.com/biz/donnas-country-grill-chatham?adjust_creative=ywY5UnLZrNrRl2b93Ruy_g&utm_campaign=yelp_api_v3&utm_medium=api_v3_business_search&utm_source=ywY5UnLZrNrRl2b93Ruy_g", "review_count": 16, "categories": [{"alias": "burgers", "title": "Burgers"}, {"alias": "hotdogs", "title": "Fast Food"}], "rating": 4.0, "coordinates": {"latitude": 42.388007, "longitude": -73.558046}, "transactions": [], "price": "$", "location": {"address1": "591 State Rt 295", "address2": "", "address3": "", "city": "Chatham", "zip_code": "12037", "country": "US", "state": "NY", "display_address": ["591 State Rt 295", "Chatham, NY 12037"]}, "phone": "+15183923042", "display_phone": "(518) 392-3042", "distance": 18592.994780472414}, {"id": "xP_kRrQKqEQq2o6mRhI-rw", "alias": "east-chatham-food-company-east-chatham", "name": "East Chatham Food Company", "image_url": "https://s3-media1.fl.yelpcdn.com/bphoto/VZnsGIU7e_cOAiFThePjpw/o.jpg", "is_closed": false, "url": "https://www.yelp.com/biz/east-chatham-food-company-east-chatham?adjust_creative=ywY5UnLZrNrRl2b93Ruy_g&utm_campaign=yelp_api_v3&utm_medium=api_v3_business_search&utm_source=ywY5UnLZrNrRl2b93Ruy_g", "review_count": 49, "categories": [{"alias": "breakfast_brunch", "title": "Breakfast & Brunch"}, {"alias": "sandwiches", "title": "Sandwiches"}], "rating": 4.0, "coordinates": {"latitude": 42.4144848642225, "longitude": -73.5169166056327}, "transactions": [], "price": "$$", "location": {"address1": "1267 Rte 295", "address2": "", "address3": null, "city": "East Chatham", "zip_code": "12060", "country": "US", "state": "NY", "display_address": ["1267 Rte 295", "East Chatham, NY 12060"]}, "phone": "+15183925065", "display_phone": "(518) 392-5065", "distance": 18164.262506083058}, {"id": "paVKtaYXqJJF41qNzLaaVQ", "alias": "taft-farms-great-barrington", "name": "Taft Farms", "image_url": "https://s3-media2.fl.yelpcdn.com/bphoto/KG4bZ_R-Q3aDQM-QVzFXRg/o.jpg", "is_closed": false, "url": "https://www.yelp.com/biz/taft-farms-great-barrington?adjust_creative=ywY5UnLZrNrRl2b93Ruy_g&utm_campaign=yelp_api_v3&utm_medium=api_v3_business_search&utm_source=ywY5UnLZrNrRl2b93Ruy_g", "review_count": 30, "categories": [{"alias": "farmersmarket", "title": "Farmers Market"}, {"alias": "delis", "title": "Delis"}], "rating": 4.0, "coordinates": {"latitude": 42.2326395706116, "longitude": -73.3466951849741}, "transactions": [], "price": "$$", "location": {"address1": "119 Park St N", "address2": null, "address3": "", "city": "Great Barrington", "zip_code": "01230", "country": "US", "state": "MA", "display_address": ["119 Park St N", "Great Barrington, MA 01230"]}, "phone": "+14135281515", "display_phone": "(413) 528-1515", "distance": 6666.134507407948}, {"id": "D4_xUi9BdkjQeet8G1cogA", "alias": "the-bistro-lenox", "name": "The Bistro", "image_url": "https://s3-media1.fl.yelpcdn.com/bphoto/ez0NuT9or3hcVzek-8khbQ/o.jpg", "is_closed": false, "url": "https://www.yelp.com/biz/the-bistro-lenox?adjust_creative=ywY5UnLZrNrRl2b93Ruy_g&utm_campaign=yelp_api_v3&utm_medium=api_v3_business_search&utm_source=ywY5UnLZrNrRl2b93Ruy_g", "review_count": 5, "categories": [{"alias": "diners", "title": "Diners"}, {"alias": "bars", "title": "Bars"}, {"alias": "breakfast_brunch", "title": "Breakfast & Brunch"}], "rating": 4.5, "coordinates": {"latitude": 42.33615, "longitude": -73.25892}, "transactions": [], "location": {"address1": "16 Blantyre Rd", "address2": null, "address3": "", "city": "Lenox", "zip_code": "01240", "country": "US", "state": "MA", "display_address": ["16 Blantyre Rd", "Lenox, MA 01240"]}, "phone": "+14136373556", "display_phone": "(413) 637-3556", "distance": 11012.819441807467}, {"id": "sZak5PEYgLxpEeeYcMZC3Q", "alias": "farm-country-soup-great-barrington", "name": "Farm Country Soup", "image_url": "https://s3-media2.fl.yelpcdn.com/bphoto/Z6eFHfXVDn8jQzK2pawcqg/o.jpg", "is_closed": false, "url": "https://www.yelp.com/biz/farm-country-soup-great-barrington?adjust_creative=ywY5UnLZrNrRl2b93Ruy_g&utm_campaign=yelp_api_v3&utm_medium=api_v3_business_search&utm_source=ywY5UnLZrNrRl2b93Ruy_g", "review_count": 11, "categories": [{"alias": "breakfast_brunch", "title": "Breakfast & Brunch"}, {"alias": "soup", "title": "Soup"}, {"alias": "cafes", "title": "Cafes"}], "rating": 5.0, "coordinates": {"latitude": 42.21173, "longitude": -73.34594}, "transactions": [], "location": {"address1": "389 Stockbridge Rd", "address2": "", "address3": null, "city": "Great Barrington", "zip_code": "01230", "country": "US", "state": "MA", "display_address": ["389 Stockbridge Rd", "Great Barrington, MA 01230"]}, "phone": "+14135280040", "display_phone": "(413) 528-0040", "distance": 8902.550685775619}, {"id": "Ag_IxQNO_Ta9EXkMYiwyxA", "alias": "elm-street-market-stockbridge-2", "name": "Elm Street Market", "image_url": "https://s3-media3.fl.yelpcdn.com/bphoto/zi4IDgWR2QOuvqvUiUFbfQ/o.jpg", "is_closed": false, "url": "https://www.yelp.com/biz/elm-street-market-stockbridge-2?adjust_creative=ywY5UnLZrNrRl2b93Ruy_g&utm_campaign=yelp_api_v3&utm_medium=api_v3_business_search&utm_source=ywY5UnLZrNrRl2b93Ruy_g", "review_count": 18, "categories": [{"alias": "grocery", "title": "Grocery"}, {"alias": "breakfast_brunch", "title": "Breakfast & Brunch"}, {"alias": "delis", "title": "Delis"}], "rating": 3.5, "coordinates": {"latitude": 42.2812543, "longitude": -73.3107069}, "transactions": [], "price": "$", "location": {"address1": "4 Elm St", "address2": null, "address3": null, "city": "Stockbridge", "zip_code": "01262", "country": "US", "state": "MA", "display_address": ["4 Elm St", "Stockbridge, MA 01262"]}, "phone": "+14132983634", "display_phone": "(413) 298-3634", "distance": 5455.694312121813}, {"id": "R1ByTPNBUAPP96XKKkk0GQ", "alias": "rising-dale-cafe-great-barrington", "name": "Rising Dale Cafe", "image_url": "", "is_closed": false, "url": "https://www.yelp.com/biz/rising-dale-cafe-great-barrington?adjust_creative=ywY5UnLZrNrRl2b93Ruy_g&utm_campaign=yelp_api_v3&utm_medium=api_v3_business_search&utm_source=ywY5UnLZrNrRl2b93Ruy_g", "review_count": 2, "categories": [{"alias": "restaurants", "title": "Restaurants"}], "rating": 3.0, "coordinates": {"latitude": 42.240545, "longitude": -73.355646}, "transactions": [], "location": {"address1": "290 Park St", "address2": "", "address3": "", "city": "Great Barrington", "zip_code": "01230", "country": "US", "state": "MA", "display_address": ["290 Park St", "Great Barrington, MA 01230"]}, "phone": "+14132746185", "display_phone": "(413) 274-6185", "distance": 5604.193044246039}, {"id": "jNP39BLUtsilVi9Kyz1WPQ", "alias": "gateways-inn-and-restaurant-lenox", "name": "Gateways Inn & Restaurant", "image_url": "https://s3-media3.fl.yelpcdn.com/bphoto/Lb87k03FvKSWwwROXsjcfw/o.jpg", "is_closed": false, "url": "https://www.yelp.com/biz/gateways-inn-and-restaurant-lenox?adjust_creative=ywY5UnLZrNrRl2b93Ruy_g&utm_campaign=yelp_api_v3&utm_medium=api_v3_business_search&utm_source=ywY5UnLZrNrRl2b93Ruy_g", "review_count": 28, "categories": [{"alias": "restaurants", "title": "Restaurants"}, {"alias": "bedbreakfast", "title": "Bed & Breakfast"}], "rating": 3.5, "coordinates": {"latitude": 42.35599, "longitude": -73.282639}, "transactions": [], "price": "$$$$", "location": {"address1": "51 Walker St", "address2": "", "address3": "", "city": "Lenox", "zip_code": "01240", "country": "US", "state": "MA", "display_address": ["51 Walker St", "Lenox, MA 01240"]}, "phone": "+14136372532", "display_phone": "(413) 637-2532", "distance": 10757.778109363933}, {"id": "iJzH7sbo1H7VWWLSVjzxrw", "alias": "new-england-wraps-lee", "name": "New England Wraps", "image_url": "https://s3-media3.fl.yelpcdn.com/bphoto/8kEwgGyDR5LV_fR8krxaNg/o.jpg", "is_closed": false, "url": "https://www.yelp.com/biz/new-england-wraps-lee?adjust_creative=ywY5UnLZrNrRl2b93Ruy_g&utm_campaign=yelp_api_v3&utm_medium=api_v3_business_search&utm_source=ywY5UnLZrNrRl2b93Ruy_g", "review_count": 1, "categories": [{"alias": "wraps", "title": "Wraps"}, {"alias": "burgers", "title": "Burgers"}, {"alias": "sandwiches", "title": "Sandwiches"}], "rating": 5.0, "coordinates": {"latitude": 42.305738, "longitude": -73.249225}, "transactions": ["delivery", "pickup"], "location": {"address1": "62 Main St", "address2": null, "address3": null, "city": "Lee", "zip_code": "01238", "country": "US", "state": "MA", "display_address": ["62 Main St", "Lee, MA 01238"]}, "phone": "+14133944081", "display_phone": "(413) 394-4081", "distance": 10619.474726919798}, {"id": "0pwyB4dpem6dDGtVlimIDw", "alias": "fiesta-bar-and-grill-great-barrington", "name": "Fiesta Bar & Grill", "image_url": "https://s3-media1.fl.yelpcdn.com/bphoto/WNyK4Q1s9lWE2a_eVHUK1w/o.jpg", "is_closed": false, "url": "https://www.yelp.com/biz/fiesta-bar-and-grill-great-barrington?adjust_creative=ywY5UnLZrNrRl2b93Ruy_g&utm_campaign=yelp_api_v3&utm_medium=api_v3_business_search&utm_source=ywY5UnLZrNrRl2b93Ruy_g", "review_count": 34, "categories": [{"alias": "mexican", "title": "Mexican"}, {"alias": "burgers", "title": "Burgers"}, {"alias": "cocktailbars", "title": "Cocktail Bars"}], "rating": 4.0, "coordinates": {"latitude": 42.194914, "longitude": -73.362431}, "transactions": [], "location": {"address1": "284 Main St", "address2": "Bldg 2", "address3": "", "city": "Great Barrington", "zip_code": "01230", "country": "US", "state": "MA", "display_address": ["284 Main St", "Bldg 2", "Great Barrington, MA 01230"]}, "phone": "+14135283343", "display_phone": "(413) 528-3343", "distance": 10462.05686890849}, {"id": "_HmOkwI-mwiz3qoLeYMCkg", "alias": "siam-square-great-barrington", "name": "Siam Square", "image_url": "https://s3-media1.fl.yelpcdn.com/bphoto/iWMq64xfX9_vonqM4YDa8w/o.jpg", "is_closed": false, "url": "https://www.yelp.com/biz/siam-square-great-barrington?adjust_creative=ywY5UnLZrNrRl2b93Ruy_g&utm_campaign=yelp_api_v3&utm_medium=api_v3_business_search&utm_source=ywY5UnLZrNrRl2b93Ruy_g", "review_count": 61, "categories": [{"alias": "thai", "title": "Thai"}], "rating": 3.0, "coordinates": {"latitude": 42.1946555, "longitude": -73.3623609}, "transactions": [], "price": "$$", "location": {"address1": "290 Main St", "address2": "", "address3": "", "city": "Great Barrington", "zip_code": "01230", "country": "US", "state": "MA", "display_address": ["290 Main St", "Great Barrington, MA 01230"]}, "phone": "+14136449119", "display_phone": "(413) 644-9119", "distance": 10481.231393967602}, {"id": "isnxycnLtKZQ9Suc3R_IKA", "alias": "electras-cafe-lenox", "name": "Electra's Cafe", "image_url": "https://s3-media3.fl.yelpcdn.com/bphoto/Frd_k90pMwQgyfJqfagUzg/o.jpg", "is_closed": false, "url": "https://www.yelp.com/biz/electras-cafe-lenox?adjust_creative=ywY5UnLZrNrRl2b93Ruy_g&utm_campaign=yelp_api_v3&utm_medium=api_v3_business_search&utm_source=ywY5UnLZrNrRl2b93Ruy_g", "review_count": 70, "categories": [{"alias": "greek", "title": "Greek"}, {"alias": "tradamerican", "title": "American (Traditional)"}], "rating": 4.0, "coordinates": {"latitude": 42.401809, "longitude": -73.267399}, "transactions": ["delivery", "pickup"], "price": "$$", "location": {"address1": "439 Pittsfield Rd", "address2": "", "address3": "", "city": "Lenox", "zip_code": "01240", "country": "US", "state": "MA", "display_address": ["439 Pittsfield Rd", "Lenox, MA 01240"]}, "phone": "+14134421000", "display_phone": "(413) 442-1000", "distance": 15460.762702837541}, {"id": "NxOs3pBFdxeT63HjfiOvAg", "alias": "botanica-great-barrington", "name": "Botanica", "image_url": "https://s3-media2.fl.yelpcdn.com/bphoto/vb8-YGyNVroSRLexSOgRwA/o.jpg", "is_closed": false, "url": "https://www.yelp.com/biz/botanica-great-barrington?adjust_creative=ywY5UnLZrNrRl2b93Ruy_g&utm_campaign=yelp_api_v3&utm_medium=api_v3_business_search&utm_source=ywY5UnLZrNrRl2b93Ruy_g", "review_count": 32, "categories": [{"alias": "coffee", "title": "Coffee & Tea"}, {"alias": "breakfast_brunch", "title": "Breakfast & Brunch"}, {"alias": "cocktailbars", "title": "Cocktail Bars"}], "rating": 4.0, "coordinates": {"latitude": 42.1949262212033, "longitude": -73.3633430444444}, "transactions": [], "price": "$", "location": {"address1": "34 Railroad St", "address2": "", "address3": null, "city": "Great Barrington", "zip_code": "01230", "country": "US", "state": "MA", "display_address": ["34 Railroad St", "Great Barrington, MA 01230"]}, "phone": "+14136453548", "display_phone": "(413) 645-3548", "distance": 10452.771103601337}, {"id": "AceFH1UHW8jLd3atLf9ouQ", "alias": "bizen-gourmet-japanese-cuisine-and-sushi-bar-great-barrington", "name": "Bizen Gourmet Japanese Cuisine & Sushi Bar", "image_url": "https://s3-media2.fl.yelpcdn.com/bphoto/-0dwVELwKigHEZEDSaeHkQ/o.jpg", "is_closed": false, "url": "https://www.yelp.com/biz/bizen-gourmet-japanese-cuisine-and-sushi-bar-great-barrington?adjust_creative=ywY5UnLZrNrRl2b93Ruy_g&utm_campaign=yelp_api_v3&utm_medium=api_v3_business_search&utm_source=ywY5UnLZrNrRl2b93Ruy_g", "review_count": 116, "categories": [{"alias": "japanese", "title": "Japanese"}, {"alias": "sushi", "title": "Sushi Bars"}], "rating": 3.0, "coordinates": {"latitude": 42.1946224810561, "longitude": -73.3629634583339}, "transactions": [], "price": "$$$", "location": {"address1": "17 Railroad St", "address2": "", "address3": "", "city": "Great Barrington", "zip_code": "01230", "country": "US", "state": "MA", "display_address": ["17 Railroad St", "Great Barrington, MA 01230"]}, "phone": "+14135284343", "display_phone": "(413) 528-4343", "distance": 10480.422103595045}, {"id": "A40Rx6mb2y4rX3bz2tCMug", "alias": "buckys-tavern-lee-2", "name": "Bucky's Tavern", "image_url": "", "is_closed": false, "url": "https://www.yelp.com/biz/buckys-tavern-lee-2?adjust_creative=ywY5UnLZrNrRl2b93Ruy_g&utm_campaign=yelp_api_v3&utm_medium=api_v3_business_search&utm_source=ywY5UnLZrNrRl2b93Ruy_g", "review_count": 3, "categories": [{"alias": "tradamerican", "title": "American (Traditional)"}, {"alias": "bars", "title": "Bars"}], "rating": 4.0, "coordinates": {"latitude": 42.3052711, "longitude": -73.2502518}, "transactions": ["delivery"], "location": {"address1": "25 Consolati Way", "address2": "", "address3": "", "city": "Lee", "zip_code": "01238", "country": "US", "state": "MA", "display_address": ["25 Consolati Way", "Lee, MA 01238"]}, "phone": "+14132436484", "display_phone": "(413) 243-6484", "distance": 10582.904056558482}, {"id": "-uOEx0rMfwfbJE-j9brHhQ", "alias": "dans-diner-chatham", "name": "Dan's Diner", "image_url": "https://s3-media2.fl.yelpcdn.com/bphoto/J0uwxj_J51hXcKyCakufIg/o.jpg", "is_closed": false, "url": "https://www.yelp.com/biz/dans-diner-chatham?adjust_creative=ywY5UnLZrNrRl2b93Ruy_g&utm_campaign=yelp_api_v3&utm_medium=api_v3_business_search&utm_source=ywY5UnLZrNrRl2b93Ruy_g", "review_count": 35, "categories": [{"alias": "diners", "title": "Diners"}, {"alias": "breakfast_brunch", "title": "Breakfast & Brunch"}], "rating": 4.5, "coordinates": {"latitude": 42.333433, "longitude": -73.555808}, "transactions": [], "price": "$", "location": {"address1": "1005 State Rte 203", "address2": "", "address3": "", "city": "Chatham", "zip_code": "12037", "country": "US", "state": "NY", "display_address": ["1005 State Rte 203", "Chatham, NY 12037"]}, "phone": "+15183923267", "display_phone": "(518) 392-3267", "distance": 15584.63178853139}, {"id": "nXyo2FXl0dvF8EdJI_NvSA", "alias": "haven-cafe-and-bakery-lenox", "name": "Haven Cafe & Bakery", "image_url": "https://s3-media3.fl.yelpcdn.com/bphoto/6F3x9fSCiVx7ZkUsu2EXjw/o.jpg", "is_closed": false, "url": "https://www.yelp.com/biz/haven-cafe-and-bakery-lenox?adjust_creative=ywY5UnLZrNrRl2b93Ruy_g&utm_campaign=yelp_api_v3&utm_medium=api_v3_business_search&utm_source=ywY5UnLZrNrRl2b93Ruy_g", "review_count": 283, "categories": [{"alias": "bakeries", "title": "Bakeries"}, {"alias": "cafes", "title": "Cafes"}], "rating": 4.0, "coordinates": {"latitude": 42.3596, "longitude": -73.2833}, "transactions": ["delivery"], "price": "$$", "location": {"address1": "8 Franklin St", "address2": "", "address3": "", "city": "Lenox", "zip_code": "01240", "country": "US", "state": "MA", "display_address": ["8 Franklin St", "Lenox, MA 01240"]}, "phone": "+14136378948", "display_phone": "(413) 637-8948", "distance": 11004.402849230592}, {"id": "NLvNv-Au5Jldu84CubsoEw", "alias": "trattoria-ii-vesuvio-lenox", "name": "Trattoria II Vesuvio", "image_url": "https://s3-media4.fl.yelpcdn.com/bphoto/NmJnrFxogqj1X_EIa8n19g/o.jpg", "is_closed": false, "url": "https://www.yelp.com/biz/trattoria-ii-vesuvio-lenox?adjust_creative=ywY5UnLZrNrRl2b93Ruy_g&utm_campaign=yelp_api_v3&utm_medium=api_v3_business_search&utm_source=ywY5UnLZrNrRl2b93Ruy_g", "review_count": 58, "categories": [{"alias": "italian", "title": "Italian"}], "rating": 3.5, "coordinates": {"latitude": 42.389434, "longitude": -73.272695}, "transactions": ["delivery"], "price": "$$$", "location": {"address1": "242 Pittsfield Rd", "address2": "", "address3": "", "city": "Lenox", "zip_code": "01240", "country": "US", "state": "MA", "display_address": ["242 Pittsfield Rd", "Lenox, MA 01240"]}, "phone": "+14136374904", "display_phone": "(413) 637-4904", "distance": 14094.237560032152}, {"id": "n274ZafbV_1QppGfziIhtg", "alias": "village-harvest-cafe-pittsfield", "name": "Village Harvest Cafe", "image_url": "", "is_closed": false, "url": "https://www.yelp.com/biz/village-harvest-cafe-pittsfield?adjust_creative=ywY5UnLZrNrRl2b93Ruy_g&utm_campaign=yelp_api_v3&utm_medium=api_v3_business_search&utm_source=ywY5UnLZrNrRl2b93Ruy_g", "review_count": 5, "categories": [{"alias": "restaurants", "title": "Restaurants"}], "rating": 4.0, "coordinates": {"latitude": 42.4283104, "longitude": -73.3410721}, "transactions": [], "location": {"address1": "34 Lebanon Mtn Rd", "address2": null, "address3": null, "city": "Pittsfield", "zip_code": "01201", "country": "US", "state": "MA", "display_address": ["34 Lebanon Mtn Rd", "Pittsfield, MA 01201"]}, "phone": "+14134993434", "display_phone": "(413) 499-3434", "distance": 15530.687180956493}, {"id": "Bqhtws5XxV3xtS8GitivdQ", "alias": "firefly-lenox", "name": "Firefly", "image_url": "https://s3-media1.fl.yelpcdn.com/bphoto/XHlGbpy1-XxX1T76rUGb4A/o.jpg", "is_closed": false, "url": "https://www.yelp.com/biz/firefly-lenox?adjust_creative=ywY5UnLZrNrRl2b93Ruy_g&utm_campaign=yelp_api_v3&utm_medium=api_v3_business_search&utm_source=ywY5UnLZrNrRl2b93Ruy_g", "review_count": 119, "categories": [{"alias": "newamerican", "title": "American (New)"}, {"alias": "comfortfood", "title": "Comfort Food"}, {"alias": "gastropubs", "title": "Gastropubs"}], "rating": 3.0, "coordinates": {"latitude": 42.359059665822, "longitude": -73.282512986181}, "transactions": ["delivery"], "price": "$$$", "location": {"address1": "71 Church St", "address2": "", "address3": "", "city": "Lenox", "zip_code": "01240", "country": "US", "state": "MA", "display_address": ["71 Church St", "Lenox, MA 01240"]}, "phone": "+14136372700", "display_phone": "(413) 637-2700", "distance": 11005.943064519754}, {"id": "JeS_6EKfI6Qik3PzBc27uQ", "alias": "highwood-manor-house-lenox", "name": "Highwood Manor House", "image_url": "", "is_closed": false, "url": "https://www.yelp.com/biz/highwood-manor-house-lenox?adjust_creative=ywY5UnLZrNrRl2b93Ruy_g&utm_campaign=yelp_api_v3&utm_medium=api_v3_business_search&utm_source=ywY5UnLZrNrRl2b93Ruy_g", "review_count": 3, "categories": [{"alias": "buffets", "title": "Buffets"}], "rating": 3.5, "coordinates": {"latitude": 42.3526, "longitude": -73.30924}, "transactions": [], "location": {"address1": "297 W St", "address2": "", "address3": null, "city": "Lenox", "zip_code": "01240", "country": "US", "state": "MA", "display_address": ["297 W St", "Lenox, MA 01240"]}, "phone": "+14136374486", "display_phone": "(413) 637-4486", "distance": 8907.875401691685}, {"id": "7DWfOYBBFb00nOyPLlPAxQ", "alias": "panda-house-restaurant-lenox", "name": "Panda House Restaurant", "image_url": "https://s3-media3.fl.yelpcdn.com/bphoto/el_VnHmiKuPQng6dLT4fBA/o.jpg", "is_closed": false, "url": "https://www.yelp.com/biz/panda-house-restaurant-lenox?adjust_creative=ywY5UnLZrNrRl2b93Ruy_g&utm_campaign=yelp_api_v3&utm_medium=api_v3_business_search&utm_source=ywY5UnLZrNrRl2b93Ruy_g", "review_count": 59, "categories": [{"alias": "chinese", "title": "Chinese"}], "rating": 3.5, "coordinates": {"latitude": 42.4054848, "longitude": -73.2645128}, "transactions": ["pickup"], "price": "$$", "location": {"address1": "506 Pittsfield Rd", "address2": "", "address3": "", "city": "Lenox", "zip_code": "01240", "country": "US", "state": "MA", "display_address": ["506 Pittsfield Rd", "Lenox, MA 01240"]}, "phone": "+14134990660", "display_phone": "(413) 499-0660", "distance": 15931.256497260654}, {"id": "7eYkLZ4rnX_Fs-de-R5VnA", "alias": "athenas-pizza-house-lee", "name": "Athena's Pizza House", "image_url": "https://s3-media2.fl.yelpcdn.com/bphoto/ej1eFj3hU3ZUFKJBue3MvA/o.jpg", "is_closed": false, "url": "https://www.yelp.com/biz/athenas-pizza-house-lee?adjust_creative=ywY5UnLZrNrRl2b93Ruy_g&utm_campaign=yelp_api_v3&utm_medium=api_v3_business_search&utm_source=ywY5UnLZrNrRl2b93Ruy_g", "review_count": 3, "categories": [{"alias": "pizza", "title": "Pizza"}], "rating": 3.5, "coordinates": {"latitude": 42.303669, "longitude": -73.245622}, "transactions": ["delivery"], "location": {"address1": "30 Housatonic St", "address2": "", "address3": "", "city": "Lee", "zip_code": "01238", "country": "US", "state": "MA", "display_address": ["30 Housatonic St", "Lee, MA 01238"]}, "phone": "+14132431223", "display_phone": "(413) 243-1223", "distance": 10881.639341680015}, {"id": "f6o95zoPUN4o4yAaBiuSeQ", "alias": "canaan-corner-deli-canaan", "name": "Canaan Corner Deli", "image_url": "", "is_closed": false, "url": "https://www.yelp.com/biz/canaan-corner-deli-canaan?adjust_creative=ywY5UnLZrNrRl2b93Ruy_g&utm_campaign=yelp_api_v3&utm_medium=api_v3_business_search&utm_source=ywY5UnLZrNrRl2b93Ruy_g", "review_count": 1, "categories": [{"alias": "delis", "title": "Delis"}], "rating": 5.0, "coordinates": {"latitude": 42.393863, "longitude": -73.412055}, "transactions": [], "location": {"address1": "13366 State Rte 22", "address2": "", "address3": "", "city": "Canaan", "zip_code": "12029", "country": "US", "state": "NY", "display_address": ["13366 State Rte 22", "Canaan, NY 12029"]}, "phone": "+15187814715", "display_phone": "(518) 781-4715", "distance": 12085.113006346439}, {"id": "hXSi6voU0mmcyr0SHHbSVQ", "alias": "joel-s-hot-dog-cart-lenox", "name": "Joel\u2019s Hot Dog Cart", "image_url": "https://s3-media4.fl.yelpcdn.com/bphoto/B8jFXBhCnKV2H_PVdL8TsQ/o.jpg", "is_closed": false, "url": "https://www.yelp.com/biz/joel-s-hot-dog-cart-lenox?adjust_creative=ywY5UnLZrNrRl2b93Ruy_g&utm_campaign=yelp_api_v3&utm_medium=api_v3_business_search&utm_source=ywY5UnLZrNrRl2b93Ruy_g", "review_count": 2, "categories": [{"alias": "hotdog", "title": "Hot Dogs"}, {"alias": "streetvendors", "title": "Street Vendors"}], "rating": 5.0, "coordinates": {"latitude": 42.36819, "longitude": -73.28831}, "transactions": [], "location": {"address1": "", "address2": "", "address3": null, "city": "Lenox", "zip_code": "01240", "country": "US", "state": "MA", "display_address": ["Lenox, MA 01240"]}, "phone": "", "display_phone": "", "distance": 13060.79321998501}, {"id": "pF_R8qarmJKxzLy3iRr60w", "alias": "spencertown-store-spencertown", "name": "Spencertown Store", "image_url": "https://s3-media4.fl.yelpcdn.com/bphoto/GQ9dSeK2381Coo6vZ48OVA/o.jpg", "is_closed": false, "url": "https://www.yelp.com/biz/spencertown-store-spencertown?adjust_creative=ywY5UnLZrNrRl2b93Ruy_g&utm_campaign=yelp_api_v3&utm_medium=api_v3_business_search&utm_source=ywY5UnLZrNrRl2b93Ruy_g", "review_count": 13, "categories": [{"alias": "delis", "title": "Delis"}, {"alias": "convenience", "title": "Convenience Stores"}, {"alias": "bakeries", "title": "Bakeries"}], "rating": 5.0, "coordinates": {"latitude": 42.323385, "longitude": -73.546614}, "transactions": [], "price": "$$", "location": {"address1": "825 State Rt 203", "address2": null, "address3": null, "city": "Spencertown", "zip_code": "12165", "country": "US", "state": "NY", "display_address": ["825 State Rt 203", "Spencertown, NY 12165"]}, "phone": "+15183920231", "display_phone": "(518) 392-0231", "distance": 14533.927892310903}, {"id": "A40q8l7bgxcZuD3MrjWXbA", "alias": "apple-tree-inn-and-restaurant-lenox", "name": "Apple Tree Inn & Restaurant", "image_url": "", "is_closed": false, "url": "https://www.yelp.com/biz/apple-tree-inn-and-restaurant-lenox?adjust_creative=ywY5UnLZrNrRl2b93Ruy_g&utm_campaign=yelp_api_v3&utm_medium=api_v3_business_search&utm_source=ywY5UnLZrNrRl2b93Ruy_g", "review_count": 11, "categories": [{"alias": "tradamerican", "title": "American (Traditional)"}], "rating": 3.5, "coordinates": {"latitude": 42.35373, "longitude": -73.31594}, "transactions": [], "price": "$$$$", "location": {"address1": "10 Richmond Mountain Rd", "address2": "", "address3": "", "city": "Lenox", "zip_code": "01240", "country": "US", "state": "MA", "display_address": ["10 Richmond Mountain Rd", "Lenox, MA 01240"]}, "phone": "+14136371477", "display_phone": "(413) 637-1477", "distance": 8791.510901769576}, {"id": "Kv4z5CS7nupAuboNea-Hfw", "alias": "four-brothers-pizza-and-restaurant-great-barrington", "name": "Four Brothers Pizza & Restaurant", "image_url": "https://s3-media3.fl.yelpcdn.com/bphoto/RIhamwbeg7Qp9VYoO9cqFQ/o.jpg", "is_closed": false, "url": "https://www.yelp.com/biz/four-brothers-pizza-and-restaurant-great-barrington?adjust_creative=ywY5UnLZrNrRl2b93Ruy_g&utm_campaign=yelp_api_v3&utm_medium=api_v3_business_search&utm_source=ywY5UnLZrNrRl2b93Ruy_g", "review_count": 47, "categories": [{"alias": "pizza", "title": "Pizza"}, {"alias": "italian", "title": "Italian"}, {"alias": "sandwiches", "title": "Sandwiches"}], "rating": 3.5, "coordinates": {"latitude": 42.2040541, "longitude": -73.3462889}, "transactions": [], "price": "$$", "location": {"address1": "100 Stockbridge Rd", "address2": null, "address3": "", "city": "Great Barrington", "zip_code": "01230", "country": "US", "state": "MA", "display_address": ["100 Stockbridge Rd", "Great Barrington, MA 01230"]}, "phone": "+14135289684", "display_phone": "(413) 528-9684", "distance": 9703.124708993222}, {"id": "YxyGGdlxUYVA3vkINjyNTQ", "alias": "locker-room-sports-bar-lee", "name": "Locker Room Sports Bar", "image_url": "https://s3-media2.fl.yelpcdn.com/bphoto/doxj4Q4nlRYbGy4Uf9IajA/o.jpg", "is_closed": false, "url": "https://www.yelp.com/biz/locker-room-sports-bar-lee?adjust_creative=ywY5UnLZrNrRl2b93Ruy_g&utm_campaign=yelp_api_v3&utm_medium=api_v3_business_search&utm_source=ywY5UnLZrNrRl2b93Ruy_g", "review_count": 49, "categories": [{"alias": "tradamerican", "title": "American (Traditional)"}, {"alias": "sportsbars", "title": "Sports Bars"}], "rating": 3.5, "coordinates": {"latitude": 42.309491, "longitude": -73.251066}, "transactions": ["delivery"], "price": "$$", "location": {"address1": "232 Main St", "address2": "", "address3": "", "city": "Lee", "zip_code": "01238", "country": "US", "state": "MA", "display_address": ["232 Main St", "Lee, MA 01238"]}, "phone": "+14132432662", "display_phone": "(413) 243-2662", "distance": 10545.545678808172}, {"id": "RYrIR3PbsOfx4_iV_37RCw", "alias": "mazcots-sports-bar-and-grill-lenox", "name": "Mazcots Sports Bar & Grill", "image_url": "https://s3-media2.fl.yelpcdn.com/bphoto/erIDwW8YZCwQ9dlT72JT9A/o.jpg", "is_closed": false, "url": "https://www.yelp.com/biz/mazcots-sports-bar-and-grill-lenox?adjust_creative=ywY5UnLZrNrRl2b93Ruy_g&utm_campaign=yelp_api_v3&utm_medium=api_v3_business_search&utm_source=ywY5UnLZrNrRl2b93Ruy_g", "review_count": 72, "categories": [{"alias": "sportsbars", "title": "Sports Bars"}, {"alias": "tradamerican", "title": "American (Traditional)"}], "rating": 4.0, "coordinates": {"latitude": 42.4048409, "longitude": -73.265137}, "transactions": ["delivery"], "price": "$$", "location": {"address1": "490 Pittsfield Rd", "address2": "", "address3": "", "city": "Lenox", "zip_code": "01240", "country": "US", "state": "MA", "display_address": ["490 Pittsfield Rd", "Lenox, MA 01240"]}, "phone": "+14134991101", "display_phone": "(413) 499-1101", "distance": 15843.207373717409}, {"id": "49F-lpG6WPcHn0_r2gKT-g", "alias": "rio-cafe-great-barrington", "name": "Rio Cafe", "image_url": "https://s3-media1.fl.yelpcdn.com/bphoto/j-WT51OZkgyfvsbFY-MBjw/o.jpg", "is_closed": false, "url": "https://www.yelp.com/biz/rio-cafe-great-barrington?adjust_creative=ywY5UnLZrNrRl2b93Ruy_g&utm_campaign=yelp_api_v3&utm_medium=api_v3_business_search&utm_source=ywY5UnLZrNrRl2b93Ruy_g", "review_count": 22, "categories": [{"alias": "breakfast_brunch", "title": "Breakfast & Brunch"}, {"alias": "tradamerican", "title": "American (Traditional)"}, {"alias": "juicebars", "title": "Juice Bars & Smoothies"}], "rating": 4.0, "coordinates": {"latitude": 42.212162, "longitude": -73.345642}, "transactions": [], "location": {"address1": "401 Stockbridge Rd", "address2": null, "address3": "", "city": "Great Barrington", "zip_code": "01230", "country": "US", "state": "MA", "display_address": ["401 Stockbridge Rd", "Great Barrington, MA 01230"]}, "phone": "+14135289746", "display_phone": "(413) 528-9746", "distance": 8826.8670648845}, {"id": "G0fnN-H65DmDBcHWDwuOqA", "alias": "stockbridge-general-store-stockbridge", "name": "Stockbridge General Store", "image_url": "https://s3-media4.fl.yelpcdn.com/bphoto/5XQ8mO6_mWrK05oe8Vf1lQ/o.jpg", "is_closed": false, "url": "https://www.yelp.com/biz/stockbridge-general-store-stockbridge?adjust_creative=ywY5UnLZrNrRl2b93Ruy_g&utm_campaign=yelp_api_v3&utm_medium=api_v3_business_search&utm_source=ywY5UnLZrNrRl2b93Ruy_g", "review_count": 9, "categories": [{"alias": "grocery", "title": "Grocery"}, {"alias": "icecream", "title": "Ice Cream & Frozen Yogurt"}, {"alias": "cafes", "title": "Cafes"}], "rating": 3.0, "coordinates": {"latitude": 42.28177, "longitude": -73.31113}, "transactions": [], "location": {"address1": "40 Main St", "address2": "", "address3": "", "city": "Stockbridge", "zip_code": "01262", "country": "US", "state": "MA", "display_address": ["40 Main St", "Stockbridge, MA 01262"]}, "phone": "+14132983060", "display_phone": "(413) 298-3060", "distance": 5412.567185257133}, {"id": "8BimRgsU8PEwHpZlhy8dNw", "alias": "seeds-market-cafe-pittsfield", "name": "Seeds Market Cafe", "image_url": "https://s3-media1.fl.yelpcdn.com/bphoto/On11X6p5n3rxOGqSW8qMrg/o.jpg", "is_closed": false, "url": "https://www.yelp.com/biz/seeds-market-cafe-pittsfield?adjust_creative=ywY5UnLZrNrRl2b93Ruy_g&utm_campaign=yelp_api_v3&utm_medium=api_v3_business_search&utm_source=ywY5UnLZrNrRl2b93Ruy_g", "review_count": 5, "categories": [{"alias": "newamerican", "title": "American (New)"}, {"alias": "salad", "title": "Salad"}, {"alias": "sandwiches", "title": "Sandwiches"}], "rating": 4.5, "coordinates": {"latitude": 42.42638, "longitude": -73.33549}, "transactions": [], "location": {"address1": "1843 W Housatonic St", "address2": "", "address3": null, "city": "Pittsfield", "zip_code": "01201", "country": "US", "state": "MA", "display_address": ["1843 W Housatonic St", "Pittsfield, MA 01201"]}, "phone": "+14134430188", "display_phone": "(413) 443-0188", "distance": 16085.175759791595}, {"id": "oeQ9OQB-m_Fq1xLIGKIToA", "alias": "dola-pizzeria-great-barrington-2", "name": "Dola Pizzeria", "image_url": "https://s3-media2.fl.yelpcdn.com/bphoto/IKb6z2zz45Ll6Jf_K0tSNg/o.jpg", "is_closed": false, "url": "https://www.yelp.com/biz/dola-pizzeria-great-barrington-2?adjust_creative=ywY5UnLZrNrRl2b93Ruy_g&utm_campaign=yelp_api_v3&utm_medium=api_v3_business_search&utm_source=ywY5UnLZrNrRl2b93Ruy_g", "review_count": 11, "categories": [{"alias": "pizza", "title": "Pizza"}], "rating": 4.0, "coordinates": {"latitude": 42.19489, "longitude": -73.36304}, "transactions": [], "price": "$$", "location": {"address1": "20 Railroad St", "address2": "", "address3": "", "city": "Great Barrington", "zip_code": "02806", "country": "US", "state": "MA", "display_address": ["20 Railroad St", "Great Barrington, MA 02806"]}, "phone": "", "display_phone": "", "distance": 10470.285132371586}, {"id": "rK9YwE66fbCnZhTCXQ33BQ", "alias": "annas-pizza-restaurant-hancock", "name": "Anna's Pizza Restaurant", "image_url": "https://s3-media1.fl.yelpcdn.com/bphoto/l-K7Ht_wBbJCMnM4t5Oo6A/o.jpg", "is_closed": false, "url": "https://www.yelp.com/biz/annas-pizza-restaurant-hancock?adjust_creative=ywY5UnLZrNrRl2b93Ruy_g&utm_campaign=yelp_api_v3&utm_medium=api_v3_business_search&utm_source=ywY5UnLZrNrRl2b93Ruy_g", "review_count": 6, "categories": [{"alias": "pizza", "title": "Pizza"}], "rating": 4.5, "coordinates": {"latitude": 42.428994192347, "longitude": -73.3472745434418}, "transactions": [], "price": "$$", "location": {"address1": "Liberty Plz", "address2": "", "address3": "Lebanon Mountain Rd (US-20)", "city": "Hancock", "zip_code": "01201", "country": "US", "state": "MA", "display_address": ["Liberty Plz", "Lebanon Mountain Rd (US-20)", "Hancock, MA 01201"]}, "phone": "+14134477119", "display_phone": "(413) 447-7119", "distance": 15810.10349793929}, {"id": "wWubTfJNuTLgoBocXHvTuQ", "alias": "bettys-pizza-shack-lenox", "name": "Betty's Pizza Shack", "image_url": "https://s3-media4.fl.yelpcdn.com/bphoto/hSgobMniX4KSkF3SW6Uhkw/o.jpg", "is_closed": false, "url": "https://www.yelp.com/biz/bettys-pizza-shack-lenox?adjust_creative=ywY5UnLZrNrRl2b93Ruy_g&utm_campaign=yelp_api_v3&utm_medium=api_v3_business_search&utm_source=ywY5UnLZrNrRl2b93Ruy_g", "review_count": 66, "categories": [{"alias": "pizza", "title": "Pizza"}], "rating": 3.5, "coordinates": {"latitude": 42.3575673, "longitude": -73.2831226}, "transactions": ["delivery"], "price": "$", "location": {"address1": "26 Housatonic St", "address2": "", "address3": "", "city": "Lenox", "zip_code": "01240", "country": "US", "state": "MA", "display_address": ["26 Housatonic St", "Lenox, MA 01240"]}, "phone": "+14136378171", "display_phone": "(413) 637-8171", "distance": 10844.58384892611}, {"id": "NiDVSHjk6WpLQlX7SaVtuQ", "alias": "gb-eats-great-barrington", "name": "GB eats", "image_url": "https://s3-media3.fl.yelpcdn.com/bphoto/PguezF_AmpO2N3tvwERTiw/o.jpg", "is_closed": false, "url": "https://www.yelp.com/biz/gb-eats-great-barrington?adjust_creative=ywY5UnLZrNrRl2b93Ruy_g&utm_campaign=yelp_api_v3&utm_medium=api_v3_business_search&utm_source=ywY5UnLZrNrRl2b93Ruy_g", "review_count": 67, "categories": [{"alias": "diners", "title": "Diners"}, {"alias": "newamerican", "title": "American (New)"}, {"alias": "breakfast_brunch", "title": "Breakfast & Brunch"}], "rating": 4.0, "coordinates": {"latitude": 42.1948114, "longitude": -73.3622229}, "transactions": [], "price": "$$", "location": {"address1": "282 Main St", "address2": "", "address3": null, "city": "Great Barrington", "zip_code": "01230", "country": "US", "state": "MA", "display_address": ["282 Main St", "Great Barrington, MA 01230"]}, "phone": "+14135288226", "display_phone": "(413) 528-8226", "distance": 10470.8784016189}, {"id": "HWhyBOJRs93NmJ2yuLjN1w", "alias": "vivaldis-pizzeria-great-barrington", "name": "Vivaldi's Pizzeria", "image_url": "https://s3-media1.fl.yelpcdn.com/bphoto/wkJbMD23Gcs8QpSON9gzsQ/o.jpg", "is_closed": false, "url": "https://www.yelp.com/biz/vivaldis-pizzeria-great-barrington?adjust_creative=ywY5UnLZrNrRl2b93Ruy_g&utm_campaign=yelp_api_v3&utm_medium=api_v3_business_search&utm_source=ywY5UnLZrNrRl2b93Ruy_g", "review_count": 4, "categories": [{"alias": "pizza", "title": "Pizza"}, {"alias": "italian", "title": "Italian"}], "rating": 3.0, "coordinates": {"latitude": 42.2095896967978, "longitude": -73.3461755658212}, "transactions": [], "location": {"address1": "325 Stockbridge Rd", "address2": "", "address3": null, "city": "Great Barrington", "zip_code": "01230", "country": "US", "state": "MA", "display_address": ["325 Stockbridge Rd", "Great Barrington, MA 01230"]}, "phone": "+14135289000", "display_phone": "(413) 528-9000", "distance": 9111.7489831641}, {"id": "Y5fUpTFQ-9MFrUa1s8jSRg", "alias": "panda-garden-lee", "name": "Panda Garden", "image_url": "https://s3-media3.fl.yelpcdn.com/bphoto/tIpsLe_VXudyUGKFuLpPhg/o.jpg", "is_closed": false, "url": "https://www.yelp.com/biz/panda-garden-lee?adjust_creative=ywY5UnLZrNrRl2b93Ruy_g&utm_campaign=yelp_api_v3&utm_medium=api_v3_business_search&utm_source=ywY5UnLZrNrRl2b93Ruy_g", "review_count": 12, "categories": [{"alias": "chinese", "title": "Chinese"}], "rating": 3.0, "coordinates": {"latitude": 42.3060799, "longitude": -73.2501526}, "transactions": ["delivery"], "price": "$", "location": {"address1": "95 Main St", "address2": null, "address3": null, "city": "Lee", "zip_code": "01238", "country": "US", "state": "MA", "display_address": ["95 Main St", "Lee, MA 01238"]}, "phone": "+14132439188", "display_phone": "(413) 243-9188", "distance": 10570.024842232506}, {"id": "ZREJXvUqQZD4xKI7UD878Q", "alias": "jaes-pittsfield-3", "name": "Jae's", "image_url": "https://s3-media3.fl.yelpcdn.com/bphoto/1RvlUWeAMCIEYNASpntHCg/o.jpg", "is_closed": false, "url": "https://www.yelp.com/biz/jaes-pittsfield-3?adjust_creative=ywY5UnLZrNrRl2b93Ruy_g&utm_campaign=yelp_api_v3&utm_medium=api_v3_business_search&utm_source=ywY5UnLZrNrRl2b93Ruy_g", "review_count": 32, "categories": [{"alias": "sushi", "title": "Sushi Bars"}, {"alias": "korean", "title": "Korean"}], "rating": 3.5, "coordinates": {"latitude": 42.407877, "longitude": -73.265441}, "transactions": ["delivery"], "location": {"address1": "1032 South St", "address2": "", "address3": "The Hilton Garden Inn", "city": "Pittsfield", "zip_code": "01201", "country": "US", "state": "MA", "display_address": ["1032 South St", "The Hilton Garden Inn", "Pittsfield, MA 01201"]}, "phone": "+14134648791", "display_phone": "(413) 464-8791", "distance": 16105.917028433178}, {"id": "b_hxjuPRzTaoziLzP0s-ow", "alias": "table-six-restaurant-lenox", "name": "Table Six Restaurant", "image_url": "https://s3-media4.fl.yelpcdn.com/bphoto/ctraVfDUctH5StpTtYbakw/o.jpg", "is_closed": false, "url": "https://www.yelp.com/biz/table-six-restaurant-lenox?adjust_creative=ywY5UnLZrNrRl2b93Ruy_g&utm_campaign=yelp_api_v3&utm_medium=api_v3_business_search&utm_source=ywY5UnLZrNrRl2b93Ruy_g", "review_count": 94, "categories": [{"alias": "newamerican", "title": "American (New)"}, {"alias": "coffee", "title": "Coffee & Tea"}], "rating": 3.5, "coordinates": {"latitude": 42.3546982, "longitude": -73.2828674}, "transactions": ["delivery"], "price": "$$$", "location": {"address1": "2 Kemble St", "address2": null, "address3": "", "city": "Lenox", "zip_code": "01240", "country": "US", "state": "MA", "display_address": ["2 Kemble St", "Lenox, MA 01240"]}, "phone": "+14136374113", "display_phone": "(413) 637-4113", "distance": 10649.260026577655}, {"id": "dmjtBglEo8GbuJsa-EKlzA", "alias": "four-brothers-pizza-inns-hillsdale", "name": "Four Brothers Pizza Inns", "image_url": "https://s3-media4.fl.yelpcdn.com/bphoto/VSvKepeVPeKWrs09z11uag/o.jpg", "is_closed": false, "url": "https://www.yelp.com/biz/four-brothers-pizza-inns-hillsdale?adjust_creative=ywY5UnLZrNrRl2b93Ruy_g&utm_campaign=yelp_api_v3&utm_medium=api_v3_business_search&utm_source=ywY5UnLZrNrRl2b93Ruy_g", "review_count": 16, "categories": [{"alias": "pizza", "title": "Pizza"}, {"alias": "salad", "title": "Salad"}, {"alias": "sandwiches", "title": "Sandwiches"}], "rating": 3.5, "coordinates": {"latitude": 42.1813725, "longitude": -73.5107998}, "transactions": [], "price": "$$", "location": {"address1": "2828 Rt 23", "address2": "", "address3": "", "city": "Hillsdale", "zip_code": "12529", "country": "US", "state": "NY", "display_address": ["2828 Rt 23", "Hillsdale, NY 12529"]}, "phone": "+15183257300", "display_phone": "(518) 325-7300", "distance": 16258.086265173708}, {"id": "zYkm0poEkKLEuuND5GvHFQ", "alias": "shiro-kitchen-and-asian-market-great-barrington", "name": "Shiro kitchen and Asian market", "image_url": "https://s3-media1.fl.yelpcdn.com/bphoto/Y658QCtUZZehLkRhAecEbw/o.jpg", "is_closed": false, "url": "https://www.yelp.com/biz/shiro-kitchen-and-asian-market-great-barrington?adjust_creative=ywY5UnLZrNrRl2b93Ruy_g&utm_campaign=yelp_api_v3&utm_medium=api_v3_business_search&utm_source=ywY5UnLZrNrRl2b93Ruy_g", "review_count": 39, "categories": [{"alias": "ramen", "title": "Ramen"}, {"alias": "sushi", "title": "Sushi Bars"}], "rating": 3.5, "coordinates": {"latitude": 42.20428, "longitude": -73.34736}, "transactions": [], "price": "$$", "location": {"address1": "105 Stockbridge Rd", "address2": "", "address3": "", "city": "Great Barrington", "zip_code": "01230", "country": "US", "state": "MA", "display_address": ["105 Stockbridge Rd", "Great Barrington, MA 01230"]}, "phone": "+14135281898", "display_phone": "(413) 528-1898", "distance": 9663.651849380289}, {"id": "ZJ5Fydm2DnlO7X7JzL35vQ", "alias": "os-hillsdale-country-diner-hillsdale", "name": "O's Hillsdale Country Diner", "image_url": "https://s3-media3.fl.yelpcdn.com/bphoto/GlGprXSVD74cu7biDG9BEQ/o.jpg", "is_closed": false, "url": "https://www.yelp.com/biz/os-hillsdale-country-diner-hillsdale?adjust_creative=ywY5UnLZrNrRl2b93Ruy_g&utm_campaign=yelp_api_v3&utm_medium=api_v3_business_search&utm_source=ywY5UnLZrNrRl2b93Ruy_g", "review_count": 70, "categories": [{"alias": "diners", "title": "Diners"}, {"alias": "tradamerican", "title": "American (Traditional)"}, {"alias": "breakfast_brunch", "title": "Breakfast & Brunch"}], "rating": 4.0, "coordinates": {"latitude": 42.179334, "longitude": -73.521409}, "transactions": [], "price": "$", "location": {"address1": "9276 Rt 22", "address2": "", "address3": "", "city": "Hillsdale", "zip_code": "12529", "country": "US", "state": "NY", "display_address": ["9276 Rt 22", "Hillsdale, NY 12529"]}, "phone": "+15183251150", "display_phone": "(518) 325-1150", "distance": 17025.946903520213}, {"id": "8L8dptUTYdhhGf_szpQa-Q", "alias": "elixir-great-barrington-2", "name": "Elixir", "image_url": "https://s3-media4.fl.yelpcdn.com/bphoto/3rbG7SL6_qmVL9wbOQhd_g/o.jpg", "is_closed": false, "url": "https://www.yelp.com/biz/elixir-great-barrington-2?adjust_creative=ywY5UnLZrNrRl2b93Ruy_g&utm_campaign=yelp_api_v3&utm_medium=api_v3_business_search&utm_source=ywY5UnLZrNrRl2b93Ruy_g", "review_count": 14, "categories": [{"alias": "vegan", "title": "Vegan"}, {"alias": "tea", "title": "Tea Rooms"}, {"alias": "organic_stores", "title": "Organic Stores"}], "rating": 3.5, "coordinates": {"latitude": 42.1952667236328, "longitude": -73.3630981445312}, "transactions": [], "price": "$$$", "location": {"address1": "70 Railroad St", "address2": "", "address3": "", "city": "Great Barrington", "zip_code": "01230", "country": "US", "state": "MA", "display_address": ["70 Railroad St", "Great Barrington, MA 01230"]}, "phone": "+14136448999", "display_phone": "(413) 644-8999", "distance": 10426.8783190671}, {"id": "2kBz_-OHhdpA7AQd2Rg7rg", "alias": "farm-country-soup-great-barrington-2", "name": "Farm Country Soup", "image_url": "https://s3-media4.fl.yelpcdn.com/bphoto/iCPJvkuXXSSfKyiV_tHYRw/o.jpg", "is_closed": false, "url": "https://www.yelp.com/biz/farm-country-soup-great-barrington-2?adjust_creative=ywY5UnLZrNrRl2b93Ruy_g&utm_campaign=yelp_api_v3&utm_medium=api_v3_business_search&utm_source=ywY5UnLZrNrRl2b93Ruy_g", "review_count": 1, "categories": [{"alias": "comfortfood", "title": "Comfort Food"}, {"alias": "breakfast_brunch", "title": "Breakfast & Brunch"}, {"alias": "sandwiches", "title": "Sandwiches"}], "rating": 5.0, "coordinates": {"latitude": 42.2116193, "longitude": -73.3458393}, "transactions": [], "location": {"address1": "389 Stockbridge Rd", "address2": "", "address3": "", "city": "Great Barrington", "zip_code": "01230", "country": "US", "state": "MA", "display_address": ["389 Stockbridge Rd", "Great Barrington, MA 01230"]}, "phone": "+14135280040", "display_phone": "(413) 528-0040", "distance": 8902.550685775619}, {"id": "Ih_1dL1e_GcnZMCIzyWPxw", "alias": "river-dale-market-and-deli-lenox-dale", "name": "River Dale Market and Deli", "image_url": "https://s3-media4.fl.yelpcdn.com/bphoto/MTcXOfPq309gYnidVS3QMA/o.jpg", "is_closed": false, "url": "https://www.yelp.com/biz/river-dale-market-and-deli-lenox-dale?adjust_creative=ywY5UnLZrNrRl2b93Ruy_g&utm_campaign=yelp_api_v3&utm_medium=api_v3_business_search&utm_source=ywY5UnLZrNrRl2b93Ruy_g", "review_count": 1, "categories": [{"alias": "delis", "title": "Delis"}, {"alias": "convenience", "title": "Convenience Stores"}, {"alias": "meats", "title": "Meat Shops"}], "rating": 5.0, "coordinates": {"latitude": 42.33335, "longitude": -73.24598}, "transactions": [], "location": {"address1": "2 Crystal St", "address2": null, "address3": "", "city": "Lenox Dale", "zip_code": "01242", "country": "US", "state": "MA", "display_address": ["2 Crystal St", "Lenox Dale, MA 01242"]}, "phone": "+14138814136", "display_phone": "(413) 881-4136", "distance": 11823.57136796623}, {"id": "_44KcXxrWxc025YsRUq2Gw", "alias": "prado-s-cafe-lee", "name": "Prado\u2019s Cafe", "image_url": "https://s3-media3.fl.yelpcdn.com/bphoto/p6UYYaeX6jK3U7Hfgv20JA/o.jpg", "is_closed": false, "url": "https://www.yelp.com/biz/prado-s-cafe-lee?adjust_creative=ywY5UnLZrNrRl2b93Ruy_g&utm_campaign=yelp_api_v3&utm_medium=api_v3_business_search&utm_source=ywY5UnLZrNrRl2b93Ruy_g", "review_count": 7, "categories": [{"alias": "breakfast_brunch", "title": "Breakfast & Brunch"}, {"alias": "cafes", "title": "Cafes"}], "rating": 3.5, "coordinates": {"latitude": 42.30594, "longitude": -73.24992}, "transactions": ["pickup", "delivery"], "location": {"address1": "85 Main St", "address2": null, "address3": "", "city": "Lee", "zip_code": "01238", "country": "US", "state": "MA", "display_address": ["85 Main St", "Lee, MA 01238"]}, "phone": "+14132436561", "display_phone": "(413) 243-6561", "distance": 10574.528200758083}, {"id": "6VWXDm7k3-iPfm0cArdRdA", "alias": "athenas-restaurant-and-pizzeria-lee", "name": "Athena's Restaurant & Pizzeria", "image_url": "https://s3-media1.fl.yelpcdn.com/bphoto/CAFnvS_aLKojUvTSKoM3RQ/o.jpg", "is_closed": false, "url": "https://www.yelp.com/biz/athenas-restaurant-and-pizzeria-lee?adjust_creative=ywY5UnLZrNrRl2b93Ruy_g&utm_campaign=yelp_api_v3&utm_medium=api_v3_business_search&utm_source=ywY5UnLZrNrRl2b93Ruy_g", "review_count": 40, "categories": [{"alias": "italian", "title": "Italian"}, {"alias": "burgers", "title": "Burgers"}, {"alias": "mediterranean", "title": "Mediterranean"}], "rating": 2.5, "coordinates": {"latitude": 42.303675, "longitude": -73.245625}, "transactions": [], "price": "$", "location": {"address1": "30 Housatonic St", "address2": "", "address3": "", "city": "Lee", "zip_code": "01238", "country": "US", "state": "MA", "display_address": ["30 Housatonic St", "Lee, MA 01238"]}, "phone": "+14132431215", "display_phone": "(413) 243-1215", "distance": 10881.498952345371}, {"id": "u3vTda2vtkOdRqya20iSyg", "alias": "red-apple-lee", "name": "Red Apple", "image_url": "https://s3-media4.fl.yelpcdn.com/bphoto/SzCdSb27YWsrutpUqmmzFg/o.jpg", "is_closed": false, "url": "https://www.yelp.com/biz/red-apple-lee?adjust_creative=ywY5UnLZrNrRl2b93Ruy_g&utm_campaign=yelp_api_v3&utm_medium=api_v3_business_search&utm_source=ywY5UnLZrNrRl2b93Ruy_g", "review_count": 15, "categories": [{"alias": "chinese", "title": "Chinese"}], "rating": 3.5, "coordinates": {"latitude": 42.3042413144758, "longitude": -73.246378730496}, "transactions": ["delivery"], "price": "$", "location": {"address1": "23 Park Plz", "address2": "Ste A", "address3": "", "city": "Lee", "zip_code": "01238", "country": "US", "state": "MA", "display_address": ["23 Park Plz", "Ste A", "Lee, MA 01238"]}, "phone": "+14132434027", "display_phone": "(413) 243-4027", "distance": 10740.922812333174}, {"id": "y6UTWVCEElf-FSp6p6DxDw", "alias": "chef-express-lee", "name": "Chef Express", "image_url": "https://s3-media4.fl.yelpcdn.com/bphoto/Puthelxsj7iaXoyBw5EH8Q/o.jpg", "is_closed": false, "url": "https://www.yelp.com/biz/chef-express-lee?adjust_creative=ywY5UnLZrNrRl2b93Ruy_g&utm_campaign=yelp_api_v3&utm_medium=api_v3_business_search&utm_source=ywY5UnLZrNrRl2b93Ruy_g", "review_count": 10, "categories": [{"alias": "indpak", "title": "Indian"}], "rating": 3.0, "coordinates": {"latitude": 42.30535, "longitude": -73.24909}, "transactions": ["delivery"], "price": "$$", "location": {"address1": "62 Main St", "address2": null, "address3": "", "city": "Lee", "zip_code": "01238", "country": "US", "state": "MA", "display_address": ["62 Main St", "Lee, MA 01238"]}, "phone": "+14133944081", "display_phone": "(413) 394-4081", "distance": 10619.474726919798}, {"id": "FDiWZLRey6JFsfpIsH_zMw", "alias": "the-bistro-box-great-barrington", "name": "The Bistro Box", "image_url": "https://s3-media1.fl.yelpcdn.com/bphoto/HdQUOZ1w4Jro22ydZv8RtA/o.jpg", "is_closed": false, "url": "https://www.yelp.com/biz/the-bistro-box-great-barrington?adjust_creative=ywY5UnLZrNrRl2b93Ruy_g&utm_campaign=yelp_api_v3&utm_medium=api_v3_business_search&utm_source=ywY5UnLZrNrRl2b93Ruy_g", "review_count": 116, "categories": [{"alias": "tradamerican", "title": "American (Traditional)"}, {"alias": "hotdog", "title": "Hot Dogs"}, {"alias": "sandwiches", "title": "Sandwiches"}], "rating": 4.5, "coordinates": {"latitude": 42.1716496245439, "longitude": -73.3629432694792}, "transactions": [], "price": "$$", "location": {"address1": "937 S Main St", "address2": "", "address3": "", "city": "Great Barrington", "zip_code": "01230", "country": "US", "state": "MA", "display_address": ["937 S Main St", "Great Barrington, MA 01230"]}, "phone": "+14137175958", "display_phone": "(413) 717-5958", "distance": 13032.908740184736}, {"id": "ai6kbJz0ECGc0-VvZ4i1vQ", "alias": "bogies-restaurant-and-pub-great-barrington", "name": "Bogies Restaurant & Pub", "image_url": "https://s3-media2.fl.yelpcdn.com/bphoto/Va91vXZ_pilW2wPpvNCbwg/o.jpg", "is_closed": false, "url": "https://www.yelp.com/biz/bogies-restaurant-and-pub-great-barrington?adjust_creative=ywY5UnLZrNrRl2b93Ruy_g&utm_campaign=yelp_api_v3&utm_medium=api_v3_business_search&utm_source=ywY5UnLZrNrRl2b93Ruy_g", "review_count": 18, "categories": [{"alias": "newamerican", "title": "American (New)"}, {"alias": "pubs", "title": "Pubs"}, {"alias": "beer_and_wine", "title": "Beer, Wine & Spirits"}], "rating": 3.0, "coordinates": {"latitude": 42.1704012, "longitude": -73.3633348}, "transactions": [], "price": "$$", "location": {"address1": "935 S Main St", "address2": "", "address3": "", "city": "Great Barrington", "zip_code": "01230", "country": "US", "state": "MA", "display_address": ["935 S Main St", "Great Barrington, MA 01230"]}, "phone": "+14135285959", "display_phone": "(413) 528-5959", "distance": 13168.582314954898}, {"id": "J70V7xjjmkF_jWqW8Beg3w", "alias": "smokey-sweet-bbq-canaan", "name": "Smokey Sweet Bbq", "image_url": "https://s3-media3.fl.yelpcdn.com/bphoto/KCoEj0j2h6793VH9BGKFTA/o.jpg", "is_closed": false, "url": "https://www.yelp.com/biz/smokey-sweet-bbq-canaan?adjust_creative=ywY5UnLZrNrRl2b93Ruy_g&utm_campaign=yelp_api_v3&utm_medium=api_v3_business_search&utm_source=ywY5UnLZrNrRl2b93Ruy_g", "review_count": 14, "categories": [{"alias": "catering", "title": "Caterers"}, {"alias": "bbq", "title": "Barbeque"}], "rating": 4.0, "coordinates": {"latitude": 42.3932428, "longitude": -73.4129665}, "transactions": [], "location": {"address1": "13361 Rte 22", "address2": null, "address3": null, "city": "Canaan", "zip_code": "12029", "country": "US", "state": "NY", "display_address": ["13361 Rte 22", "Canaan, NY 12029"]}, "phone": "+14137171368", "display_phone": "(413) 717-1368", "distance": 12090.456341819387}, {"id": "lpeKmfeaYaNmdoPGWFBGIA", "alias": "d-angelo-lee", "name": "D'angelo", "image_url": "https://s3-media4.fl.yelpcdn.com/bphoto/cb5yh3PsNyDNz3AKGm-qPQ/o.jpg", "is_closed": false, "url": "https://www.yelp.com/biz/d-angelo-lee?adjust_creative=ywY5UnLZrNrRl2b93Ruy_g&utm_campaign=yelp_api_v3&utm_medium=api_v3_business_search&utm_source=ywY5UnLZrNrRl2b93Ruy_g", "review_count": 4, "categories": [{"alias": "delis", "title": "Delis"}], "rating": 2.0, "coordinates": {"latitude": 42.297125533502, "longitude": -73.275692678397}, "transactions": [], "price": "$$", "location": {"address1": "370 Stockbridge Rd", "address2": "", "address3": "", "city": "Lee", "zip_code": "01238", "country": "US", "state": "MA", "display_address": ["370 Stockbridge Rd", "Lee, MA 01238"]}, "phone": "+14132431380", "display_phone": "(413) 243-1380", "distance": 8332.393858486525}, {"id": "7_b0CA2fewrYfH5xUJ8l_Q", "alias": "flos-diner-pittsfield-2", "name": "Flo's Diner", "image_url": "https://s3-media3.fl.yelpcdn.com/bphoto/9iUbjOxg24MnaZq4BQ5Mmw/o.jpg", "is_closed": false, "url": "https://www.yelp.com/biz/flos-diner-pittsfield-2?adjust_creative=ywY5UnLZrNrRl2b93Ruy_g&utm_campaign=yelp_api_v3&utm_medium=api_v3_business_search&utm_source=ywY5UnLZrNrRl2b93Ruy_g", "review_count": 14, "categories": [{"alias": "tradamerican", "title": "American (Traditional)"}, {"alias": "breakfast_brunch", "title": "Breakfast & Brunch"}, {"alias": "vegetarian", "title": "Vegetarian"}], "rating": 4.0, "coordinates": {"latitude": 42.4358291625977, "longitude": -73.3070602416992}, "transactions": ["pickup", "delivery"], "price": "$", "location": {"address1": "1245 W Housatonic St", "address2": "", "address3": "", "city": "Pittsfield", "zip_code": "01201", "country": "US", "state": "MA", "display_address": ["1245 W Housatonic St", "Pittsfield, MA 01201"]}, "phone": "+14134423567", "display_phone": "(413) 442-3567", "distance": 17341.870454409003}, {"id": "S9ZauCnbw7eH4opp7fvkQQ", "alias": "berkshire-food-co-op-great-barrington-3", "name": "Berkshire Food Co-Op", "image_url": "https://s3-media2.fl.yelpcdn.com/bphoto/SHWr9eFEwaOiRaMCRqFs0w/o.jpg", "is_closed": false, "url": "https://www.yelp.com/biz/berkshire-food-co-op-great-barrington-3?adjust_creative=ywY5UnLZrNrRl2b93Ruy_g&utm_campaign=yelp_api_v3&utm_medium=api_v3_business_search&utm_source=ywY5UnLZrNrRl2b93Ruy_g", "review_count": 34, "categories": [{"alias": "grocery", "title": "Grocery"}, {"alias": "cafes", "title": "Cafes"}, {"alias": "organic_stores", "title": "Organic Stores"}], "rating": 4.0, "coordinates": {"latitude": 42.1933896, "longitude": -73.3621658}, "transactions": [], "price": "$$", "location": {"address1": "34 Bridge St", "address2": "", "address3": "", "city": "Great Barrington", "zip_code": "01230", "country": "US", "state": "MA", "display_address": ["34 Bridge St", "Great Barrington, MA 01230"]}, "phone": "+14135289697", "display_phone": "(413) 528-9697", "distance": 10632.934592321104}, {"id": "Ykv4ecn83g-528DRTiUgeA", "alias": "old-chatham-country-store-old-chatham-2", "name": "Old Chatham Country Store", "image_url": "https://s3-media3.fl.yelpcdn.com/bphoto/etLUl6_gv5XtXA-tdOLNtA/o.jpg", "is_closed": false, "url": "https://www.yelp.com/biz/old-chatham-country-store-old-chatham-2?adjust_creative=ywY5UnLZrNrRl2b93Ruy_g&utm_campaign=yelp_api_v3&utm_medium=api_v3_business_search&utm_source=ywY5UnLZrNrRl2b93Ruy_g", "review_count": 29, "categories": [{"alias": "grocery", "title": "Grocery"}, {"alias": "cafes", "title": "Cafes"}], "rating": 4.0, "coordinates": {"latitude": 42.4406455410893, "longitude": -73.5624909404755}, "transactions": [], "price": "$$", "location": {"address1": "639 Albany Turnpike", "address2": "", "address3": "", "city": "Old Chatham", "zip_code": "12136", "country": "US", "state": "NY", "display_address": ["639 Albany Turnpike", "Old Chatham, NY 12136"]}, "phone": "+15187946227", "display_phone": "(518) 794-6227", "distance": 22812.62447122581}, {"id": "1abRo8so6LKnAwAouIzOtQ", "alias": "simply-grillicious-lee", "name": "Simply Grillicious", "image_url": "https://s3-media3.fl.yelpcdn.com/bphoto/iW-mbQ3JwkTXSnfpbVXXYQ/o.jpg", "is_closed": false, "url": "https://www.yelp.com/biz/simply-grillicious-lee?adjust_creative=ywY5UnLZrNrRl2b93Ruy_g&utm_campaign=yelp_api_v3&utm_medium=api_v3_business_search&utm_source=ywY5UnLZrNrRl2b93Ruy_g", "review_count": 3, "categories": [{"alias": "newamerican", "title": "American (New)"}], "rating": 2.5, "coordinates": {"latitude": 42.294388, "longitude": -73.234434}, "transactions": [], "price": "$", "location": {"address1": "50 Water St", "address2": "", "address3": "", "city": "Lee", "zip_code": "01238", "country": "US", "state": "MA", "display_address": ["50 Water St", "Lee, MA 01238"]}, "phone": "+14132431345", "display_phone": "(413) 243-1345", "distance": 11688.83658249444}, {"id": "LxlrXgIXUjFEev8rwP_1-A", "alias": "olde-egremont-country-store-egremont", "name": "Olde Egremont Country Store", "image_url": "", "is_closed": false, "url": "https://www.yelp.com/biz/olde-egremont-country-store-egremont?adjust_creative=ywY5UnLZrNrRl2b93Ruy_g&utm_campaign=yelp_api_v3&utm_medium=api_v3_business_search&utm_source=ywY5UnLZrNrRl2b93Ruy_g", "review_count": 2, "categories": [{"alias": "sandwiches", "title": "Sandwiches"}, {"alias": "coffee", "title": "Coffee & Tea"}, {"alias": "donuts", "title": "Donuts"}], "rating": 4.5, "coordinates": {"latitude": 42.19816, "longitude": -73.438571}, "transactions": [], "location": {"address1": "223 Egremont Plain Rd", "address2": "", "address3": "", "city": "Egremont", "zip_code": "01230", "country": "US", "state": "MA", "display_address": ["223 Egremont Plain Rd", "Egremont, MA 01230"]}, "phone": "+14135284796", "display_phone": "(413) 528-4796", "distance": 11271.080208452493}, {"id": "m2YgmONpPyqZHA9RNsNF3A", "alias": "luau-hale-restaurant-lenox", "name": "Luau Hale Restaurant", "image_url": "https://s3-media1.fl.yelpcdn.com/bphoto/qAEfT9rwHh3FP8KbJzvVHQ/o.jpg", "is_closed": false, "url": "https://www.yelp.com/biz/luau-hale-restaurant-lenox?adjust_creative=ywY5UnLZrNrRl2b93Ruy_g&utm_campaign=yelp_api_v3&utm_medium=api_v3_business_search&utm_source=ywY5UnLZrNrRl2b93Ruy_g", "review_count": 38, "categories": [{"alias": "chinese", "title": "Chinese"}, {"alias": "asianfusion", "title": "Asian Fusion"}], "rating": 3.0, "coordinates": {"latitude": 42.397719, "longitude": -73.269336}, "transactions": ["delivery"], "price": "$$", "location": {"address1": "569 Pittsfield Rd", "address2": "", "address3": "", "city": "Lenox", "zip_code": "01240", "country": "US", "state": "MA", "display_address": ["569 Pittsfield Rd", "Lenox, MA 01240"]}, "phone": "+14134434745", "display_phone": "(413) 443-4745", "distance": 14998.544241249803}, {"id": "cQRe7YOZ1CCQcND1nJ-U9Q", "alias": "azteca-taqueria-great-barrington", "name": "Azteca Taqueria", "image_url": "https://s3-media1.fl.yelpcdn.com/bphoto/JQVYFa1s9FXmg7taje8x3w/o.jpg", "is_closed": false, "url": "https://www.yelp.com/biz/azteca-taqueria-great-barrington?adjust_creative=ywY5UnLZrNrRl2b93Ruy_g&utm_campaign=yelp_api_v3&utm_medium=api_v3_business_search&utm_source=ywY5UnLZrNrRl2b93Ruy_g", "review_count": 17, "categories": [{"alias": "mexican", "title": "Mexican"}], "rating": 3.0, "coordinates": {"latitude": 42.1949157714844, "longitude": -73.3625411987305}, "transactions": [], "price": "$", "location": {"address1": "284 Main St", "address2": null, "address3": null, "city": "Great Barrington", "zip_code": "01230", "country": "US", "state": "MA", "display_address": ["284 Main St", "Great Barrington, MA 01230"]}, "phone": "+14135283322", "display_phone": "(413) 528-3322", "distance": 10464.9527740531}, {"id": "KZBbwy47pY-Xj4a51CHGzg", "alias": "bagel-and-brew-lenox", "name": "Bagel And Brew", "image_url": "https://s3-media2.fl.yelpcdn.com/bphoto/jymeELaqVRRrs-YLCscAlQ/o.jpg", "is_closed": false, "url": "https://www.yelp.com/biz/bagel-and-brew-lenox?adjust_creative=ywY5UnLZrNrRl2b93Ruy_g&utm_campaign=yelp_api_v3&utm_medium=api_v3_business_search&utm_source=ywY5UnLZrNrRl2b93Ruy_g", "review_count": 40, "categories": [{"alias": "breakfast_brunch", "title": "Breakfast & Brunch"}, {"alias": "bagels", "title": "Bagels"}], "rating": 4.0, "coordinates": {"latitude": 42.35951, "longitude": -73.28298}, "transactions": ["delivery"], "price": "$", "location": {"address1": "18 Franklin St", "address2": "", "address3": "", "city": "Lenox", "zip_code": "01240", "country": "US", "state": "MA", "display_address": ["18 Franklin St", "Lenox, MA 01240"]}, "phone": "+14136370055", "display_phone": "(413) 637-0055", "distance": 11025.973987617102}, {"id": "EVGrHXuAo1bPFzs187TqDA", "alias": "wyndhurst-restaurant-at-cranwell-lenox-2", "name": "Wyndhurst Restaurant At Cranwell", "image_url": "https://s3-media3.fl.yelpcdn.com/bphoto/7WxPFjXNfs5lkNKvGBV2uA/o.jpg", "is_closed": false, "url": "https://www.yelp.com/biz/wyndhurst-restaurant-at-cranwell-lenox-2?adjust_creative=ywY5UnLZrNrRl2b93Ruy_g&utm_campaign=yelp_api_v3&utm_medium=api_v3_business_search&utm_source=ywY5UnLZrNrRl2b93Ruy_g", "review_count": 12, "categories": [{"alias": "coffee", "title": "Coffee & Tea"}, {"alias": "breakfast_brunch", "title": "Breakfast & Brunch"}, {"alias": "buffets", "title": "Buffets"}], "rating": 3.5, "coordinates": {"latitude": 42.33985, "longitude": -73.265758}, "transactions": ["delivery"], "price": "$$$", "location": {"address1": "55 Lee Rd", "address2": "", "address3": "", "city": "Lenox", "zip_code": "01240", "country": "US", "state": "MA", "display_address": ["55 Lee Rd", "Lenox, MA 01240"]}, "phone": "+14136371364", "display_phone": "(413) 637-1364", "distance": 10738.41318567153}, {"id": "Rudl9ulOWqNqgp0HNfvAHQ", "alias": "great-barrington-pizza-house-great-barrington-2", "name": "Great Barrington Pizza House", "image_url": "https://s3-media3.fl.yelpcdn.com/bphoto/2kIAhFO2MQ5xALT61U3AVw/o.jpg", "is_closed": false, "url": "https://www.yelp.com/biz/great-barrington-pizza-house-great-barrington-2?adjust_creative=ywY5UnLZrNrRl2b93Ruy_g&utm_campaign=yelp_api_v3&utm_medium=api_v3_business_search&utm_source=ywY5UnLZrNrRl2b93Ruy_g", "review_count": 22, "categories": [{"alias": "pizza", "title": "Pizza"}], "rating": 3.5, "coordinates": {"latitude": 42.20148, "longitude": -73.35547}, "transactions": [], "price": "$$", "location": {"address1": "36 State Rd", "address2": null, "address3": "", "city": "Great Barrington", "zip_code": "01230", "country": "US", "state": "MA", "display_address": ["36 State Rd", "Great Barrington, MA 01230"]}, "phone": "", "display_phone": "", "distance": 9814.784687653368}, {"id": "xoajVHJmQPp4kc5qgGc1BA", "alias": "joes-diner-lee", "name": "Joe's Diner", "image_url": "https://s3-media3.fl.yelpcdn.com/bphoto/o7RM3UUFkrYh2oTkctdouQ/o.jpg", "is_closed": false, "url": "https://www.yelp.com/biz/joes-diner-lee?adjust_creative=ywY5UnLZrNrRl2b93Ruy_g&utm_campaign=yelp_api_v3&utm_medium=api_v3_business_search&utm_source=ywY5UnLZrNrRl2b93Ruy_g", "review_count": 83, "categories": [{"alias": "tradamerican", "title": "American (Traditional)"}, {"alias": "diners", "title": "Diners"}, {"alias": "breakfast_brunch", "title": "Breakfast & Brunch"}], "rating": 3.5, "coordinates": {"latitude": 42.310245, "longitude": -73.252144}, "transactions": ["delivery"], "price": "$", "location": {"address1": "85 Central St", "address2": null, "address3": "", "city": "Lee", "zip_code": "01238", "country": "US", "state": "MA", "display_address": ["85 Central St", "Lee, MA 01238"]}, "phone": "+14132439756", "display_phone": "(413) 243-9756", "distance": 10496.008819567787}, {"id": "irbKRZyCN_RPzeBepCN7XQ", "alias": "rubis-coffee-and-sandwiches-great-barrington", "name": "Rubi's Coffee & Sandwiches", "image_url": "https://s3-media3.fl.yelpcdn.com/bphoto/rjrFzISVURr6vWrEEHHjRQ/o.jpg", "is_closed": false, "url": "https://www.yelp.com/biz/rubis-coffee-and-sandwiches-great-barrington?adjust_creative=ywY5UnLZrNrRl2b93Ruy_g&utm_campaign=yelp_api_v3&utm_medium=api_v3_business_search&utm_source=ywY5UnLZrNrRl2b93Ruy_g", "review_count": 82, "categories": [{"alias": "french", "title": "French"}, {"alias": "coffee", "title": "Coffee & Tea"}, {"alias": "sandwiches", "title": "Sandwiches"}], "rating": 3.5, "coordinates": {"latitude": 42.19527, "longitude": -73.36203}, "transactions": [], "price": "$$", "location": {"address1": "264 Main St", "address2": "", "address3": "", "city": "Great Barrington", "zip_code": "01230", "country": "US", "state": "MA", "display_address": ["264 Main St", "Great Barrington, MA 01230"]}, "phone": "+14135280488", "display_phone": "(413) 528-0488", "distance": 10426.420494915961}, {"id": "nRgnPH741Xti-7lD7dL2lA", "alias": "catamount-food-and-beverage-great-barrington", "name": "Catamount Food & Beverage", "image_url": "", "is_closed": false, "url": "https://www.yelp.com/biz/catamount-food-and-beverage-great-barrington?adjust_creative=ywY5UnLZrNrRl2b93Ruy_g&utm_campaign=yelp_api_v3&utm_medium=api_v3_business_search&utm_source=ywY5UnLZrNrRl2b93Ruy_g", "review_count": 3, "categories": [{"alias": "restaurants", "title": "Restaurants"}], "rating": 1.0, "coordinates": {"latitude": 42.16512, "longitude": -73.4742}, "transactions": [], "price": "$$", "location": {"address1": "17 Nicholson Rd", "address2": "", "address3": "", "city": "Great Barrington", "zip_code": "01230", "country": "US", "state": "MA", "display_address": ["17 Nicholson Rd", "Great Barrington, MA 01230"]}, "phone": "+14135286138", "display_phone": "(413) 528-6138", "distance": 15917.306925117884}, {"id": "NIjApH7oY6fL-nDM0tfncg", "alias": "subway-canaan-3", "name": "Subway", "image_url": "https://s3-media3.fl.yelpcdn.com/bphoto/5Fkjvc6Dc4t2gaeNyCGMDA/o.jpg", "is_closed": false, "url": "https://www.yelp.com/biz/subway-canaan-3?adjust_creative=ywY5UnLZrNrRl2b93Ruy_g&utm_campaign=yelp_api_v3&utm_medium=api_v3_business_search&utm_source=ywY5UnLZrNrRl2b93Ruy_g", "review_count": 1, "categories": [{"alias": "sandwiches", "title": "Sandwiches"}], "rating": 2.0, "coordinates": {"latitude": 42.3628318049372, "longitude": -73.4298367449937}, "transactions": [], "location": {"address1": "12845 Route 22", "address2": null, "address3": null, "city": "Canaan", "zip_code": "12029", "country": "US", "state": "NY", "display_address": ["12845 Route 22", "Canaan, NY 12029"]}, "phone": "+15187814044", "display_phone": "(518) 781-4044", "distance": 9369.632050651835}, {"id": "Y1LHCbMdBzHUx6B329tNaQ", "alias": "on-a-roll-cafe-lenox-2", "name": "On A Roll Cafe", "image_url": "https://s3-media4.fl.yelpcdn.com/bphoto/R1T8Rd17eqVqxVcingGhXg/o.jpg", "is_closed": false, "url": "https://www.yelp.com/biz/on-a-roll-cafe-lenox-2?adjust_creative=ywY5UnLZrNrRl2b93Ruy_g&utm_campaign=yelp_api_v3&utm_medium=api_v3_business_search&utm_source=ywY5UnLZrNrRl2b93Ruy_g", "review_count": 53, "categories": [{"alias": "cafes", "title": "Cafes"}, {"alias": "breakfast_brunch", "title": "Breakfast & Brunch"}], "rating": 4.0, "coordinates": {"latitude": 42.377329, "longitude": -73.278509}, "transactions": ["delivery"], "price": "$", "location": {"address1": "55 Pittsfield Rd", "address2": "", "address3": "", "city": "Lenox", "zip_code": "01240", "country": "US", "state": "MA", "display_address": ["55 Pittsfield Rd", "Lenox, MA 01240"]}, "phone": "+14136379544", "display_phone": "(413) 637-9544", "distance": 12740.82912709962}, {"id": "WRUJ5CH3b56ObEqwVCSl6A", "alias": "patisserie-lenox-great-barrington", "name": "Patisserie Lenox", "image_url": "https://s3-media2.fl.yelpcdn.com/bphoto/u2GrDJ9k9Hf0AUIvgCgy8Q/o.jpg", "is_closed": false, "url": "https://www.yelp.com/biz/patisserie-lenox-great-barrington?adjust_creative=ywY5UnLZrNrRl2b93Ruy_g&utm_campaign=yelp_api_v3&utm_medium=api_v3_business_search&utm_source=ywY5UnLZrNrRl2b93Ruy_g", "review_count": 86, "categories": [{"alias": "cafes", "title": "Cafes"}, {"alias": "bakeries", "title": "Bakeries"}, {"alias": "french", "title": "French"}], "rating": 3.5, "coordinates": {"latitude": 42.1939847, "longitude": -73.3625325}, "transactions": [], "price": "$$", "location": {"address1": "313 Main St", "address2": "", "address3": "", "city": "Great Barrington", "zip_code": "01230", "country": "US", "state": "MA", "display_address": ["313 Main St", "Great Barrington, MA 01230"]}, "phone": "+14135918747", "display_phone": "(413) 591-8747", "distance": 10557.82722572202}, {"id": "zgFwVmPm2qpakxL4JFOUZg", "alias": "alex-cafe-great-barrington", "name": "Alex Cafe", "image_url": "", "is_closed": false, "url": "https://www.yelp.com/biz/alex-cafe-great-barrington?adjust_creative=ywY5UnLZrNrRl2b93Ruy_g&utm_campaign=yelp_api_v3&utm_medium=api_v3_business_search&utm_source=ywY5UnLZrNrRl2b93Ruy_g", "review_count": 3, "categories": [{"alias": "greek", "title": "Greek"}], "rating": 2.5, "coordinates": {"latitude": 42.1949157714844, "longitude": -73.3625411987305}, "transactions": [], "location": {"address1": "284 Main St", "address2": "", "address3": "", "city": "Great Barrington", "zip_code": "01230", "country": "US", "state": "MA", "display_address": ["284 Main St", "Great Barrington, MA 01230"]}, "phone": "+14135285393", "display_phone": "(413) 528-5393", "distance": 10464.9527740531}, {"id": "Y5ewKI2xZu6r13C5lDxMjQ", "alias": "crossroads-food-shop-hillsdale", "name": "Crossroads Food Shop", "image_url": "https://s3-media2.fl.yelpcdn.com/bphoto/9lsAKvIqpQRnskeF0M73ew/o.jpg", "is_closed": false, "url": "https://www.yelp.com/biz/crossroads-food-shop-hillsdale?adjust_creative=ywY5UnLZrNrRl2b93Ruy_g&utm_campaign=yelp_api_v3&utm_medium=api_v3_business_search&utm_source=ywY5UnLZrNrRl2b93Ruy_g", "review_count": 72, "categories": [{"alias": "newamerican", "title": "American (New)"}, {"alias": "breakfast_brunch", "title": "Breakfast & Brunch"}, {"alias": "sandwiches", "title": "Sandwiches"}], "rating": 4.5, "coordinates": {"latitude": 42.1789783018004, "longitude": -73.5249530165516}, "transactions": [], "price": "$$", "location": {"address1": "2642 Rt 23", "address2": "", "address3": "", "city": "Hillsdale", "zip_code": "12529", "country": "US", "state": "NY", "display_address": ["2642 Rt 23", "Hillsdale, NY 12529"]}, "phone": "+15183251461", "display_phone": "(518) 325-1461", "distance": 17259.8102611759}, {"id": "UpGxqkYYWLe3aXvHAaA6iw", "alias": "sloanes-restaurant-and-bar-lenox-2", "name": "Sloane's Restaurant & Bar", "image_url": "https://s3-media4.fl.yelpcdn.com/bphoto/pbN3999sshy1WyjCSu4A2w/o.jpg", "is_closed": false, "url": "https://www.yelp.com/biz/sloanes-restaurant-and-bar-lenox-2?adjust_creative=ywY5UnLZrNrRl2b93Ruy_g&utm_campaign=yelp_api_v3&utm_medium=api_v3_business_search&utm_source=ywY5UnLZrNrRl2b93Ruy_g", "review_count": 21, "categories": [{"alias": "salad", "title": "Salad"}, {"alias": "tradamerican", "title": "American (Traditional)"}, {"alias": "sandwiches", "title": "Sandwiches"}], "rating": 2.5, "coordinates": {"latitude": 42.34162, "longitude": -73.26428}, "transactions": [], "price": "$$", "location": {"address1": "55 Lee Rd", "address2": "", "address3": "", "city": "Lenox", "zip_code": "01240", "country": "US", "state": "MA", "display_address": ["55 Lee Rd", "Lenox, MA 01240"]}, "phone": "+14136371364", "display_phone": "(413) 637-1364", "distance": 11056.326890471737}, {"id": "uLICLItueUSsjmFzRCHhSA", "alias": "bizalions-fine-food-great-barrington-2", "name": "Bizalion's Fine Food", "image_url": "https://s3-media2.fl.yelpcdn.com/bphoto/Hoy_yb5pAlIMEnjCJUQnzQ/o.jpg", "is_closed": false, "url": "https://www.yelp.com/biz/bizalions-fine-food-great-barrington-2?adjust_creative=ywY5UnLZrNrRl2b93Ruy_g&utm_campaign=yelp_api_v3&utm_medium=api_v3_business_search&utm_source=ywY5UnLZrNrRl2b93Ruy_g", "review_count": 22, "categories": [{"alias": "oliveoil", "title": "Olive Oil"}, {"alias": "breakfast_brunch", "title": "Breakfast & Brunch"}], "rating": 4.0, "coordinates": {"latitude": 42.1820817, "longitude": -73.3646342}, "transactions": [], "price": "$$", "location": {"address1": "684 Main St", "address2": "Ste 3", "address3": null, "city": "Great Barrington", "zip_code": "01230", "country": "US", "state": "MA", "display_address": ["684 Main St", "Ste 3", "Great Barrington, MA 01230"]}, "phone": "+14136449988", "display_phone": "(413) 644-9988", "distance": 11865.36595696323}, {"id": "_aUXLzG6bvsUaBDL96pK7A", "alias": "great-barrington-bagel-company-great-barrington", "name": "Great Barrington Bagel Company", "image_url": "https://s3-media1.fl.yelpcdn.com/bphoto/uN63PmQ0-fG-mjeu5xc6XQ/o.jpg", "is_closed": false, "url": "https://www.yelp.com/biz/great-barrington-bagel-company-great-barrington?adjust_creative=ywY5UnLZrNrRl2b93Ruy_g&utm_campaign=yelp_api_v3&utm_medium=api_v3_business_search&utm_source=ywY5UnLZrNrRl2b93Ruy_g", "review_count": 76, "categories": [{"alias": "sandwiches", "title": "Sandwiches"}, {"alias": "delis", "title": "Delis"}, {"alias": "breakfast_brunch", "title": "Breakfast & Brunch"}], "rating": 4.5, "coordinates": {"latitude": 42.179534, "longitude": -73.363002}, "transactions": [], "price": "$", "location": {"address1": "777 Main St", "address2": "", "address3": "", "city": "Great Barrington", "zip_code": "01230", "country": "US", "state": "MA", "display_address": ["777 Main St", "Great Barrington, MA 01230"]}, "phone": "+14135289055", "display_phone": "(413) 528-9055", "distance": 12159.122052301425}, {"id": "REAEo2X_Do9fvZTMTPYUEA", "alias": "sweet-and-savoury-on-main-lee", "name": "Sweet and Savoury On Main", "image_url": "", "is_closed": false, "url": "https://www.yelp.com/biz/sweet-and-savoury-on-main-lee?adjust_creative=ywY5UnLZrNrRl2b93Ruy_g&utm_campaign=yelp_api_v3&utm_medium=api_v3_business_search&utm_source=ywY5UnLZrNrRl2b93Ruy_g", "review_count": 1, "categories": [{"alias": "bakeries", "title": "Bakeries"}, {"alias": "cafes", "title": "Cafes"}], "rating": 3.0, "coordinates": {"latitude": 42.305557, "longitude": -73.249139}, "transactions": [], "location": {"address1": "56 Main St", "address2": "", "address3": null, "city": "Lee", "zip_code": "01238", "country": "US", "state": "MA", "display_address": ["56 Main St", "Lee, MA 01238"]}, "phone": "+14132437777", "display_phone": "(413) 243-7777", "distance": 10634.836686654115}, {"id": "zYfLzClfWhxKE9wWRaDXfA", "alias": "roadside-store-and-cafe-monterey", "name": "Roadside Store & Cafe", "image_url": "https://s3-media4.fl.yelpcdn.com/bphoto/74glu4fj8UUTK6suaeBTBg/o.jpg", "is_closed": false, "url": "https://www.yelp.com/biz/roadside-store-and-cafe-monterey?adjust_creative=ywY5UnLZrNrRl2b93Ruy_g&utm_campaign=yelp_api_v3&utm_medium=api_v3_business_search&utm_source=ywY5UnLZrNrRl2b93Ruy_g", "review_count": 16, "categories": [{"alias": "breakfast_brunch", "title": "Breakfast & Brunch"}], "rating": 4.5, "coordinates": {"latitude": 42.18406, "longitude": -73.24207}, "transactions": [], "price": "$", "location": {"address1": "275 Main Rd", "address2": null, "address3": "", "city": "Monterey", "zip_code": "01245", "country": "US", "state": "MA", "display_address": ["275 Main Rd", "Monterey, MA 01245"]}, "phone": "+14135282633", "display_phone": "(413) 528-2633", "distance": 16069.58253653786}, {"id": "KeAdq41KMxVelJE0TgpGbQ", "alias": "manhattan-pizza-great-barrington", "name": "Manhattan Pizza", "image_url": "https://s3-media1.fl.yelpcdn.com/bphoto/qWMG0Kh8sWrVZ8ynJuRpTQ/o.jpg", "is_closed": false, "url": "https://www.yelp.com/biz/manhattan-pizza-great-barrington?adjust_creative=ywY5UnLZrNrRl2b93Ruy_g&utm_campaign=yelp_api_v3&utm_medium=api_v3_business_search&utm_source=ywY5UnLZrNrRl2b93Ruy_g", "review_count": 23, "categories": [{"alias": "pizza", "title": "Pizza"}], "rating": 3.0, "coordinates": {"latitude": 42.188658, "longitude": -73.364821}, "transactions": [], "price": "$$", "location": {"address1": "490 Main St", "address2": "", "address3": "", "city": "Great Barrington", "zip_code": "01230", "country": "US", "state": "MA", "display_address": ["490 Main St", "Great Barrington, MA 01230"]}, "phone": "+14135282550", "display_phone": "(413) 528-2550", "distance": 11135.35638122543}, {"id": "2SCtabMTxctlLgbar3-diA", "alias": "lenox-coffee-lenox", "name": "Lenox Coffee", "image_url": "https://s3-media3.fl.yelpcdn.com/bphoto/sQ8SqpEmWgACa9dKP2kXrA/o.jpg", "is_closed": false, "url": "https://www.yelp.com/biz/lenox-coffee-lenox?adjust_creative=ywY5UnLZrNrRl2b93Ruy_g&utm_campaign=yelp_api_v3&utm_medium=api_v3_business_search&utm_source=ywY5UnLZrNrRl2b93Ruy_g", "review_count": 65, "categories": [{"alias": "coffee", "title": "Coffee & Tea"}, {"alias": "cafes", "title": "Cafes"}], "rating": 4.0, "coordinates": {"latitude": 42.3584016606754, "longitude": -73.2836276361217}, "transactions": ["delivery"], "price": "$", "location": {"address1": "52 Main St", "address2": "", "address3": "", "city": "Lenox", "zip_code": "01240", "country": "US", "state": "MA", "display_address": ["52 Main St", "Lenox, MA 01240"]}, "phone": "+14136371606", "display_phone": "(413) 637-1606", "distance": 10889.569105832852}, {"id": "32itnr_wWQ9qqmzyaRUzSw", "alias": "great-wall-chinese-restaurant-great-barrington", "name": "Great Wall Chinese Restaurant", "image_url": "https://s3-media2.fl.yelpcdn.com/bphoto/ShD8b7BEIjkJyZ77ZPxjSw/o.jpg", "is_closed": false, "url": "https://www.yelp.com/biz/great-wall-chinese-restaurant-great-barrington?adjust_creative=ywY5UnLZrNrRl2b93Ruy_g&utm_campaign=yelp_api_v3&utm_medium=api_v3_business_search&utm_source=ywY5UnLZrNrRl2b93Ruy_g", "review_count": 9, "categories": [{"alias": "chinese", "title": "Chinese"}], "rating": 2.5, "coordinates": {"latitude": 42.20253, "longitude": -73.35361}, "transactions": [], "price": "$", "location": {"address1": "87 State Rd", "address2": "", "address3": "", "city": "Great Barrington", "zip_code": "01230", "country": "US", "state": "MA", "display_address": ["87 State Rd", "Great Barrington, MA 01230"]}, "phone": "+14135284838", "display_phone": "(413) 528-4838", "distance": 9741.264613649868}, {"id": "oP6MxD_tKqBF_hCgk9dOmg", "alias": "east-lee-package-store-lee", "name": "East Lee Package Store", "image_url": "https://s3-media4.fl.yelpcdn.com/bphoto/ZFn3i5E5fflh0nviMpXBgw/o.jpg", "is_closed": false, "url": "https://www.yelp.com/biz/east-lee-package-store-lee?adjust_creative=ywY5UnLZrNrRl2b93Ruy_g&utm_campaign=yelp_api_v3&utm_medium=api_v3_business_search&utm_source=ywY5UnLZrNrRl2b93Ruy_g", "review_count": 11, "categories": [{"alias": "beer_and_wine", "title": "Beer, Wine & Spirits"}, {"alias": "delis", "title": "Delis"}], "rating": 3.5, "coordinates": {"latitude": 42.2972074, "longitude": -73.2314694}, "transactions": [], "price": "$", "location": {"address1": "185 Water St", "address2": "", "address3": "", "city": "Lee", "zip_code": "01238", "country": "US", "state": "MA", "display_address": ["185 Water St", "Lee, MA 01238"]}, "phone": "+14132439768", "display_phone": "(413) 243-9768", "distance": 11948.827303859383}, {"id": "fgQXVuAG-qRZeGgBiD_2Uw", "alias": "shots-cafe-lenox", "name": "Shots Cafe", "image_url": "https://s3-media4.fl.yelpcdn.com/bphoto/m6e3OSpqy6R3pyjw7QbEVA/o.jpg", "is_closed": false, "url": "https://www.yelp.com/biz/shots-cafe-lenox?adjust_creative=ywY5UnLZrNrRl2b93Ruy_g&utm_campaign=yelp_api_v3&utm_medium=api_v3_business_search&utm_source=ywY5UnLZrNrRl2b93Ruy_g", "review_count": 81, "categories": [{"alias": "cafes", "title": "Cafes"}], "rating": 3.0, "coordinates": {"latitude": 42.35786, "longitude": -73.2831}, "transactions": ["delivery"], "price": "$$", "location": {"address1": "27 Housatonic St", "address2": "Ste D", "address3": "", "city": "Lenox", "zip_code": "01240", "country": "US", "state": "MA", "display_address": ["27 Housatonic St", "Ste D", "Lenox, MA 01240"]}, "phone": "+14136371055", "display_phone": "(413) 637-1055", "distance": 10876.273678064455}, {"id": "4NosW9Y5YnRNcqbRxR_ySw", "alias": "fresh-city-lee", "name": "Fresh City", "image_url": "https://s3-media2.fl.yelpcdn.com/bphoto/yAdVL_Tv2vTtdKd2oe3EUQ/o.jpg", "is_closed": false, "url": "https://www.yelp.com/biz/fresh-city-lee?adjust_creative=ywY5UnLZrNrRl2b93Ruy_g&utm_campaign=yelp_api_v3&utm_medium=api_v3_business_search&utm_source=ywY5UnLZrNrRl2b93Ruy_g", "review_count": 15, "categories": [{"alias": "food_court", "title": "Food Court"}], "rating": 2.0, "coordinates": {"latitude": 42.3054990935517, "longitude": -73.2489395141602}, "transactions": [], "price": "$", "location": {"address1": "370 Stockbridge Rd", "address2": "", "address3": "", "city": "Lee", "zip_code": "01238", "country": "US", "state": "MA", "display_address": ["370 Stockbridge Rd", "Lee, MA 01238"]}, "phone": "+14132433268", "display_phone": "(413) 243-3268", "distance": 10646.409556546767}, {"id": "sw_fMcE7mDh9UgDAinEh4A", "alias": "papa-ginos-lee-3", "name": "Papa Gino's", "image_url": "https://s3-media2.fl.yelpcdn.com/bphoto/UtAfL7Ion7B70KTnpMkkjA/o.jpg", "is_closed": false, "url": "https://www.yelp.com/biz/papa-ginos-lee-3?adjust_creative=ywY5UnLZrNrRl2b93Ruy_g&utm_campaign=yelp_api_v3&utm_medium=api_v3_business_search&utm_source=ywY5UnLZrNrRl2b93Ruy_g", "review_count": 1, "categories": [{"alias": "pizza", "title": "Pizza"}], "rating": 2.0, "coordinates": {"latitude": 42.2956547, "longitude": -73.2708765}, "transactions": ["delivery"], "location": {"address1": "370 Stockbridge Rd", "address2": "", "address3": null, "city": "Lee", "zip_code": "01238", "country": "US", "state": "MA", "display_address": ["370 Stockbridge Rd", "Lee, MA 01238"]}, "phone": "+14132431380", "display_phone": "(413) 243-1380", "distance": 8403.054366399081}, {"id": "PU85GdWhuT7Ucs8hefsDYQ", "alias": "stacies-corner-cafe-dalton", "name": "Stacie's Corner Cafe", "image_url": "https://s3-media1.fl.yelpcdn.com/bphoto/CwxXz-MYsKkEWZNhwaaP9g/o.jpg", "is_closed": false, "url": "https://www.yelp.com/biz/stacies-corner-cafe-dalton?adjust_creative=ywY5UnLZrNrRl2b93Ruy_g&utm_campaign=yelp_api_v3&utm_medium=api_v3_business_search&utm_source=ywY5UnLZrNrRl2b93Ruy_g", "review_count": 13, "categories": [{"alias": "cafes", "title": "Cafes"}, {"alias": "bakeries", "title": "Bakeries"}, {"alias": "breakfast_brunch", "title": "Breakfast & Brunch"}], "rating": 5.0, "coordinates": {"latitude": 42.43011, "longitude": -73.19659}, "transactions": ["delivery"], "location": {"address1": "813 Dalton Division Rd", "address2": null, "address3": "", "city": "Dalton", "zip_code": "01226", "country": "US", "state": "MA", "display_address": ["813 Dalton Division Rd", "Dalton, MA 01226"]}, "phone": "+14133444179", "display_phone": "(413) 344-4179", "distance": 21582.558346431633}, {"id": "HXoeRJRl1rCXkFbtE2Mhfg", "alias": "subway-great-barrington-5", "name": "Subway", "image_url": "https://s3-media4.fl.yelpcdn.com/bphoto/L6KElpl-unmoWatxs9t1xQ/o.jpg", "is_closed": false, "url": "https://www.yelp.com/biz/subway-great-barrington-5?adjust_creative=ywY5UnLZrNrRl2b93Ruy_g&utm_campaign=yelp_api_v3&utm_medium=api_v3_business_search&utm_source=ywY5UnLZrNrRl2b93Ruy_g", "review_count": 1, "categories": [{"alias": "sandwiches", "title": "Sandwiches"}], "rating": 4.0, "coordinates": {"latitude": 42.2071342468262, "longitude": -73.3457794189453}, "transactions": [], "price": "$", "location": {"address1": "246 Stockbridge Rd", "address2": "", "address3": null, "city": "Great Barrington", "zip_code": "01230", "country": "US", "state": "MA", "display_address": ["246 Stockbridge Rd", "Great Barrington, MA 01230"]}, "phone": "+14134298454", "display_phone": "(413) 429-8454", "distance": 9379.574214906768}, {"id": "8nhaIMcLJMrfsiic0hSoOg", "alias": "roses-restaurant-lee", "name": "Roses Restaurant", "image_url": "https://s3-media1.fl.yelpcdn.com/bphoto/SoMhXPFohMvzs8eTUHG14w/o.jpg", "is_closed": false, "url": "https://www.yelp.com/biz/roses-restaurant-lee?adjust_creative=ywY5UnLZrNrRl2b93Ruy_g&utm_campaign=yelp_api_v3&utm_medium=api_v3_business_search&utm_source=ywY5UnLZrNrRl2b93Ruy_g", "review_count": 83, "categories": [{"alias": "breakfast_brunch", "title": "Breakfast & Brunch"}], "rating": 3.5, "coordinates": {"latitude": 42.300715, "longitude": -73.243111}, "transactions": ["delivery"], "price": "$", "location": {"address1": "160 Housatonic St", "address2": "", "address3": "", "city": "Lee", "zip_code": "01238", "country": "US", "state": "MA", "display_address": ["160 Housatonic St", "Lee, MA 01238"]}, "phone": "+14132433333", "display_phone": "(413) 243-3333", "distance": 11040.54395043856}, {"id": "gzZEEMPceGKkba3HRuy8KQ", "alias": "subway-lenox-2", "name": "Subway", "image_url": "https://s3-media4.fl.yelpcdn.com/bphoto/tqwx6-Q70kAUrlmz4i4bfA/o.jpg", "is_closed": false, "url": "https://www.yelp.com/biz/subway-lenox-2?adjust_creative=ywY5UnLZrNrRl2b93Ruy_g&utm_campaign=yelp_api_v3&utm_medium=api_v3_business_search&utm_source=ywY5UnLZrNrRl2b93Ruy_g", "review_count": 1, "categories": [{"alias": "sandwiches", "title": "Sandwiches"}], "rating": 5.0, "coordinates": {"latitude": 42.401901, "longitude": -73.266031}, "transactions": [], "price": "$", "location": {"address1": "450 Pittsfield Rd", "address2": "", "address3": "", "city": "Lenox", "zip_code": "01240", "country": "US", "state": "MA", "display_address": ["450 Pittsfield Rd", "Lenox, MA 01240"]}, "phone": "+14134425311", "display_phone": "(413) 442-5311", "distance": 15534.426228030185}, {"id": "3HkWPWkC_kvP9Px_5B29nQ", "alias": "arizona-pizza-lenox", "name": "Arizona Pizza", "image_url": "https://s3-media1.fl.yelpcdn.com/bphoto/9XD2XuqDIzrOtLI7HTVVQw/o.jpg", "is_closed": false, "url": "https://www.yelp.com/biz/arizona-pizza-lenox?adjust_creative=ywY5UnLZrNrRl2b93Ruy_g&utm_campaign=yelp_api_v3&utm_medium=api_v3_business_search&utm_source=ywY5UnLZrNrRl2b93Ruy_g", "review_count": 75, "categories": [{"alias": "pizza", "title": "Pizza"}], "rating": 2.5, "coordinates": {"latitude": 42.39851, "longitude": -73.2684699}, "transactions": ["pickup", "delivery"], "price": "$$", "location": {"address1": "395 Pittsfield Rd", "address2": "", "address3": "", "city": "Lenox", "zip_code": "01240", "country": "US", "state": "MA", "display_address": ["395 Pittsfield Rd", "Lenox, MA 01240"]}, "phone": "+14134429746", "display_phone": "(413) 442-9746", "distance": 15120.165635851603}, {"id": "2-qHSKRWlFMEBRiRbRSrzg", "alias": "villa-pizza-lee", "name": "Villa Pizza", "image_url": "https://s3-media4.fl.yelpcdn.com/bphoto/_OxZVubHLEvolZjZD3P9yg/o.jpg", "is_closed": false, "url": "https://www.yelp.com/biz/villa-pizza-lee?adjust_creative=ywY5UnLZrNrRl2b93Ruy_g&utm_campaign=yelp_api_v3&utm_medium=api_v3_business_search&utm_source=ywY5UnLZrNrRl2b93Ruy_g", "review_count": 1, "categories": [{"alias": "pizza", "title": "Pizza"}], "rating": 2.0, "coordinates": {"latitude": 42.294695, "longitude": -73.23371}, "transactions": [], "location": {"address1": "50 Water St", "address2": "", "address3": "", "city": "Lee", "zip_code": "01238", "country": "US", "state": "MA", "display_address": ["50 Water St", "Lee, MA 01238"]}, "phone": "+14133949940", "display_phone": "(413) 394-9940", "distance": 11750.23682274838}, {"id": "dEt-yktUtzEXyyspQfm_fQ", "alias": "orient-taste-lee", "name": "Orient Taste", "image_url": "https://s3-media2.fl.yelpcdn.com/bphoto/ieopyNkFT4bVtLzNmz3CZw/o.jpg", "is_closed": false, "url": "https://www.yelp.com/biz/orient-taste-lee?adjust_creative=ywY5UnLZrNrRl2b93Ruy_g&utm_campaign=yelp_api_v3&utm_medium=api_v3_business_search&utm_source=ywY5UnLZrNrRl2b93Ruy_g", "review_count": 2, "categories": [{"alias": "chinese", "title": "Chinese"}], "rating": 1.0, "coordinates": {"latitude": 42.294122, "longitude": -73.233635}, "transactions": [], "price": "$$", "location": {"address1": "50 Water St", "address2": "", "address3": "", "city": "Lee", "zip_code": "01238", "country": "US", "state": "MA", "display_address": ["50 Water St", "Lee, MA 01238"]}, "phone": "+14132436028", "display_phone": "(413) 243-6028", "distance": 11752.850280604951}, {"id": "TIYWAT8N9h-K2loTE-HH4A", "alias": "subway-lee-5", "name": "Subway", "image_url": "https://s3-media3.fl.yelpcdn.com/bphoto/XLEgFt-LDGyaXTFgPgYVBg/o.jpg", "is_closed": false, "url": "https://www.yelp.com/biz/subway-lee-5?adjust_creative=ywY5UnLZrNrRl2b93Ruy_g&utm_campaign=yelp_api_v3&utm_medium=api_v3_business_search&utm_source=ywY5UnLZrNrRl2b93Ruy_g", "review_count": 3, "categories": [{"alias": "sandwiches", "title": "Sandwiches"}], "rating": 3.0, "coordinates": {"latitude": 42.3092762, "longitude": -73.2511555276127}, "transactions": [], "price": "$", "location": {"address1": "236 Main St", "address2": null, "address3": null, "city": "Lee", "zip_code": "01238", "country": "US", "state": "MA", "display_address": ["236 Main St", "Lee, MA 01238"]}, "phone": "+14132434142", "display_phone": "(413) 243-4142", "distance": 10551.020543342813}, {"id": "naDTyJ1B4g-RjH_UE9-dcA", "alias": "williams-street-market-and-deli-pittsfield", "name": "Williams Street Market & Deli", "image_url": "", "is_closed": false, "url": "https://www.yelp.com/biz/williams-street-market-and-deli-pittsfield?adjust_creative=ywY5UnLZrNrRl2b93Ruy_g&utm_campaign=yelp_api_v3&utm_medium=api_v3_business_search&utm_source=ywY5UnLZrNrRl2b93Ruy_g", "review_count": 2, "categories": [{"alias": "delis", "title": "Delis"}], "rating": 2.5, "coordinates": {"latitude": 42.43171, "longitude": -73.2137}, "transactions": [], "location": {"address1": "740 Williams St", "address2": "", "address3": "", "city": "Pittsfield", "zip_code": "01201", "country": "US", "state": "MA", "display_address": ["740 Williams St", "Pittsfield, MA 01201"]}, "phone": "+14134478002", "display_phone": "(413) 447-8002", "distance": 20780.214385277992}, {"id": "VnjDXH76ZYoGcCGDuzIJyA", "alias": "moms-country-cafe-south-egremont", "name": "Mom's Country Cafe", "image_url": "https://s3-media2.fl.yelpcdn.com/bphoto/LnzKWUDUcAahqoFkEd_HZA/o.jpg", "is_closed": false, "url": "https://www.yelp.com/biz/moms-country-cafe-south-egremont?adjust_creative=ywY5UnLZrNrRl2b93Ruy_g&utm_campaign=yelp_api_v3&utm_medium=api_v3_business_search&utm_source=ywY5UnLZrNrRl2b93Ruy_g", "review_count": 33, "categories": [{"alias": "breakfast_brunch", "title": "Breakfast & Brunch"}, {"alias": "sandwiches", "title": "Sandwiches"}, {"alias": "creperies", "title": "Creperies"}], "rating": 4.0, "coordinates": {"latitude": 42.1603156604877, "longitude": -73.4193330051819}, "transactions": [], "price": "$$", "location": {"address1": "65 Main St", "address2": "", "address3": "", "city": "South Egremont", "zip_code": "01258", "country": "US", "state": "MA", "display_address": ["65 Main St", "South Egremont, MA 01258"]}, "phone": "+14135282414", "display_phone": "(413) 528-2414", "distance": 14680.423861578247}, {"id": "5ZUVWF9rUGvrT2lx4kle0w", "alias": "loebs-foodtown-lenox", "name": "Loeb's Foodtown", "image_url": "https://s3-media1.fl.yelpcdn.com/bphoto/e_NV-aJTmklW2PN-gOmyrQ/o.jpg", "is_closed": false, "url": "https://www.yelp.com/biz/loebs-foodtown-lenox?adjust_creative=ywY5UnLZrNrRl2b93Ruy_g&utm_campaign=yelp_api_v3&utm_medium=api_v3_business_search&utm_source=ywY5UnLZrNrRl2b93Ruy_g", "review_count": 17, "categories": [{"alias": "grocery", "title": "Grocery"}, {"alias": "delis", "title": "Delis"}], "rating": 3.0, "coordinates": {"latitude": 42.358152, "longitude": -73.284163}, "transactions": [], "price": "$$", "location": {"address1": "42 Main St", "address2": "", "address3": "", "city": "Lenox", "zip_code": "01240", "country": "US", "state": "MA", "display_address": ["42 Main St", "Lenox, MA 01240"]}, "phone": "+14136370270", "display_phone": "(413) 637-0270", "distance": 10842.070839153814}, {"id": "2R1ENrGGxAyn_Z5gFVY1ow", "alias": "ameristop-pizza-copake", "name": "Ameristop Pizza", "image_url": "", "is_closed": false, "url": "https://www.yelp.com/biz/ameristop-pizza-copake?adjust_creative=ywY5UnLZrNrRl2b93Ruy_g&utm_campaign=yelp_api_v3&utm_medium=api_v3_business_search&utm_source=ywY5UnLZrNrRl2b93Ruy_g", "review_count": 2, "categories": [{"alias": "pizza", "title": "Pizza"}], "rating": 1.5, "coordinates": {"latitude": 42.1756, "longitude": -73.58007}, "transactions": [], "price": "$", "location": {"address1": "1817 Rte 23", "address2": "", "address3": "", "city": "Copake", "zip_code": "12516", "country": "US", "state": "NY", "display_address": ["1817 Rte 23", "Copake, NY 12516"]}, "phone": "", "display_phone": "", "distance": 20948.125185467685}, {"id": "YD7kCPJv-KqyzxhqFjUMBQ", "alias": "papa-johns-pizza-lenox", "name": "Papa John's Pizza", "image_url": "", "is_closed": false, "url": "https://www.yelp.com/biz/papa-johns-pizza-lenox?adjust_creative=ywY5UnLZrNrRl2b93Ruy_g&utm_campaign=yelp_api_v3&utm_medium=api_v3_business_search&utm_source=ywY5UnLZrNrRl2b93Ruy_g", "review_count": 7, "categories": [{"alias": "pizza", "title": "Pizza"}], "rating": 3.0, "coordinates": {"latitude": 42.40179, "longitude": -73.267439}, "transactions": [], "price": "$", "location": {"address1": "439 Pittsfield Rd", "address2": "", "address3": "", "city": "Lenox", "zip_code": "01240", "country": "US", "state": "MA", "display_address": ["439 Pittsfield Rd", "Lenox, MA 01240"]}, "phone": "+14134457272", "display_phone": "(413) 445-7272", "distance": 15457.137725035445}, {"id": "1T67DQkg_Guyvlkqhqu7Mw", "alias": "mcdonalds-lee", "name": "McDonald's", "image_url": "https://s3-media3.fl.yelpcdn.com/bphoto/wQLfIJNysnYKaJsoDropJg/o.jpg", "is_closed": false, "url": "https://www.yelp.com/biz/mcdonalds-lee?adjust_creative=ywY5UnLZrNrRl2b93Ruy_g&utm_campaign=yelp_api_v3&utm_medium=api_v3_business_search&utm_source=ywY5UnLZrNrRl2b93Ruy_g", "review_count": 7, "categories": [{"alias": "burgers", "title": "Burgers"}, {"alias": "hotdogs", "title": "Fast Food"}, {"alias": "coffee", "title": "Coffee & Tea"}], "rating": 2.5, "coordinates": {"latitude": 42.2969521, "longitude": -73.274561}, "transactions": [], "price": "$", "location": {"address1": "370 W Stockbridge Rd", "address2": "", "address3": "", "city": "Lee", "zip_code": "01238", "country": "US", "state": "MA", "display_address": ["370 W Stockbridge Rd", "Lee, MA 01238"]}, "phone": "+14132434666", "display_phone": "(413) 243-4666", "distance": 8422.678823920787}, {"id": "OKFMX6hUhzA2MfnyrSRnFg", "alias": "mcdonalds-lee-6", "name": "McDonald's", "image_url": "https://s3-media1.fl.yelpcdn.com/bphoto/CAKblQXDMWh4Zy881GXPFg/o.jpg", "is_closed": false, "url": "https://www.yelp.com/biz/mcdonalds-lee-6?adjust_creative=ywY5UnLZrNrRl2b93Ruy_g&utm_campaign=yelp_api_v3&utm_medium=api_v3_business_search&utm_source=ywY5UnLZrNrRl2b93Ruy_g", "review_count": 5, "categories": [{"alias": "burgers", "title": "Burgers"}, {"alias": "hotdogs", "title": "Fast Food"}, {"alias": "coffee", "title": "Coffee & Tea"}], "rating": 2.0, "coordinates": {"latitude": 42.298505, "longitude": -73.27465333}, "transactions": [], "price": "$", "location": {"address1": "240 West Rd", "address2": "", "address3": "", "city": "Lee", "zip_code": "01238", "country": "US", "state": "MA", "display_address": ["240 West Rd", "Lee, MA 01238"]}, "phone": "+14132436695", "display_phone": "(413) 243-6695", "distance": 8445.669387368654}, {"id": "CeGpJWvJ5pFh1ubahZZSJw", "alias": "subway-great-barrington-6", "name": "Subway", "image_url": "https://s3-media3.fl.yelpcdn.com/bphoto/CnMjr9H32Egro-ukdqFUsQ/o.jpg", "is_closed": false, "url": "https://www.yelp.com/biz/subway-great-barrington-6?adjust_creative=ywY5UnLZrNrRl2b93Ruy_g&utm_campaign=yelp_api_v3&utm_medium=api_v3_business_search&utm_source=ywY5UnLZrNrRl2b93Ruy_g", "review_count": 8, "categories": [{"alias": "sandwiches", "title": "Sandwiches"}], "rating": 1.5, "coordinates": {"latitude": 42.1938059115247, "longitude": -73.3625156070141}, "transactions": [], "price": "$", "location": {"address1": "323 Main St", "address2": "", "address3": null, "city": "Great Barrington", "zip_code": "01230", "country": "US", "state": "MA", "display_address": ["323 Main St", "Great Barrington, MA 01230"]}, "phone": "+14135286664", "display_phone": "(413) 528-6664", "distance": 10583.793378277964}, {"id": "1KvLXb2nhGIUXwFUmfYolw", "alias": "subway-lee-6", "name": "Subway", "image_url": "https://s3-media2.fl.yelpcdn.com/bphoto/S_313jZ8G7Mzgzlegnia4Q/o.jpg", "is_closed": false, "url": "https://www.yelp.com/biz/subway-lee-6?adjust_creative=ywY5UnLZrNrRl2b93Ruy_g&utm_campaign=yelp_api_v3&utm_medium=api_v3_business_search&utm_source=ywY5UnLZrNrRl2b93Ruy_g", "review_count": 3, "categories": [{"alias": "sandwiches", "title": "Sandwiches"}], "rating": 1.5, "coordinates": {"latitude": 42.294582, "longitude": -73.233724}, "transactions": [], "price": "$", "location": {"address1": "50 Water St", "address2": "Unit H380D", "address3": "", "city": "Lee", "zip_code": "01238", "country": "US", "state": "MA", "display_address": ["50 Water St", "Unit H380D", "Lee, MA 01238"]}, "phone": "+14132438292", "display_phone": "(413) 243-8292", "distance": 11750.168739477023}, {"id": "C4OiIXuNN6PbCq8gaMyc1Q", "alias": "papas-best-batch-red-hook", "name": "Papa's Best Batch", "image_url": "https://s3-media2.fl.yelpcdn.com/bphoto/TP_X6t_lwfuT-1MI915hhA/o.jpg", "is_closed": false, "url": "https://www.yelp.com/biz/papas-best-batch-red-hook?adjust_creative=ywY5UnLZrNrRl2b93Ruy_g&utm_campaign=yelp_api_v3&utm_medium=api_v3_business_search&utm_source=ywY5UnLZrNrRl2b93Ruy_g", "review_count": 44, "categories": [{"alias": "bbq", "title": "Barbeque"}, {"alias": "foodtrucks", "title": "Food Trucks"}], "rating": 5.0, "coordinates": {"latitude": 42.028686, "longitude": -73.852675}, "transactions": [], "price": "$$", "location": {"address1": "243 Pitcher Ln", "address2": "", "address3": "Greig Farm", "city": "Red Hook", "zip_code": "12571", "country": "US", "state": "NY", "display_address": ["243 Pitcher Ln", "Greig Farm", "Red Hook, NY 12571"]}, "phone": "+19143885202", "display_phone": "(914) 388-5202", "distance": 48744.21835962132}, {"id": "W6w0sNlW-S5KA7TMLPDBXw", "alias": "mcdonalds-great-barrington", "name": "McDonald's", "image_url": "https://s3-media3.fl.yelpcdn.com/bphoto/itHTtsNKyiwQCSJUq43dvg/o.jpg", "is_closed": false, "url": "https://www.yelp.com/biz/mcdonalds-great-barrington?adjust_creative=ywY5UnLZrNrRl2b93Ruy_g&utm_campaign=yelp_api_v3&utm_medium=api_v3_business_search&utm_source=ywY5UnLZrNrRl2b93Ruy_g", "review_count": 17, "categories": [{"alias": "hotdogs", "title": "Fast Food"}, {"alias": "burgers", "title": "Burgers"}, {"alias": "coffee", "title": "Coffee & Tea"}], "rating": 1.5, "coordinates": {"latitude": 42.209993, "longitude": -73.3454018}, "transactions": [], "price": "$", "location": {"address1": "302 Stockbridge Rd", "address2": "", "address3": "", "city": "Great Barrington", "zip_code": "01230", "country": "US", "state": "MA", "display_address": ["302 Stockbridge Rd", "Great Barrington, MA 01230"]}, "phone": "+14135280434", "display_phone": "(413) 528-0434", "distance": 9086.230716561358}, {"id": "y-WH9WEyQNpsAWCoffxn1A", "alias": "mcdonalds-lee-4", "name": "McDonald's", "image_url": "https://s3-media2.fl.yelpcdn.com/bphoto/wjob_R0ECBWIvqTEItS3pw/o.jpg", "is_closed": false, "url": "https://www.yelp.com/biz/mcdonalds-lee-4?adjust_creative=ywY5UnLZrNrRl2b93Ruy_g&utm_campaign=yelp_api_v3&utm_medium=api_v3_business_search&utm_source=ywY5UnLZrNrRl2b93Ruy_g", "review_count": 9, "categories": [{"alias": "burgers", "title": "Burgers"}, {"alias": "hotdogs", "title": "Fast Food"}, {"alias": "coffee", "title": "Coffee & Tea"}], "rating": 2.0, "coordinates": {"latitude": 42.2991668943395, "longitude": -73.240801692009}, "transactions": [], "price": "$", "location": {"address1": "245 Housatonic St", "address2": "", "address3": "", "city": "Lee", "zip_code": "01238", "country": "US", "state": "MA", "display_address": ["245 Housatonic St", "Lee, MA 01238"]}, "phone": "+14132432253", "display_phone": "(413) 243-2253", "distance": 11209.564377211305}, {"id": "-IWUXpBpMv1tPQKwXzA6mQ", "alias": "burger-king-lenox", "name": "Burger King", "image_url": "https://s3-media4.fl.yelpcdn.com/bphoto/H48TdBqy4qWwh-lZPk4tng/o.jpg", "is_closed": false, "url": "https://www.yelp.com/biz/burger-king-lenox?adjust_creative=ywY5UnLZrNrRl2b93Ruy_g&utm_campaign=yelp_api_v3&utm_medium=api_v3_business_search&utm_source=ywY5UnLZrNrRl2b93Ruy_g", "review_count": 6, "categories": [{"alias": "burgers", "title": "Burgers"}, {"alias": "hotdogs", "title": "Fast Food"}], "rating": 2.0, "coordinates": {"latitude": 42.403848, "longitude": -73.265098}, "transactions": [], "price": "$", "location": {"address1": "500 Pittsfield Rd", "address2": "", "address3": "", "city": "Lenox", "zip_code": "01240", "country": "US", "state": "MA", "display_address": ["500 Pittsfield Rd", "Lenox, MA 01240"]}, "phone": "", "display_phone": "", "distance": 15755.040037304314}, {"id": "qqA8YX58xnmEXLyanHfdUg", "alias": "stufd-food-truck-brooklyn", "name": "Stuf'd Food Truck", "image_url": "https://s3-media2.fl.yelpcdn.com/bphoto/_Wn0i-tLIOFinw8BPAqxPA/o.jpg", "is_closed": false, "url": "https://www.yelp.com/biz/stufd-food-truck-brooklyn?adjust_creative=ywY5UnLZrNrRl2b93Ruy_g&utm_campaign=yelp_api_v3&utm_medium=api_v3_business_search&utm_source=ywY5UnLZrNrRl2b93Ruy_g", "review_count": 4, "categories": [{"alias": "sandwiches", "title": "Sandwiches"}, {"alias": "foodtrucks", "title": "Food Trucks"}], "rating": 4.0, "coordinates": {"latitude": 40.7124539, "longitude": -73.9287374}, "transactions": [], "location": {"address1": "178 Varick Ave", "address2": "", "address3": null, "city": "Brooklyn", "zip_code": "11237", "country": "US", "state": "NY", "display_address": ["178 Varick Ave", "Brooklyn, NY 11237"]}, "phone": "+18457091808", "display_phone": "(845) 709-1808", "distance": 181178.32874120717}]