[{"id": "k0cxsbUUhNq8ukwyKiuOug", "alias": "the-bridge-restaurant-sheffield", "name": "The Bridge Restaurant", "image_url": "https://s3-media2.fl.yelpcdn.com/bphoto/xJt0rNtMmqk6h2FdOQglYw/o.jpg", "is_closed": false, "url": "https://www.yelp.com/biz/the-bridge-restaurant-sheffield?adjust_creative=ywY5UnLZrNrRl2b93Ruy_g&utm_campaign=yelp_api_v3&utm_medium=api_v3_business_search&utm_source=ywY5UnLZrNrRl2b93Ruy_g", "review_count": 29, "categories": [{"alias": "tradamerican", "title": "American (Traditional)"}], "rating": 4.5, "coordinates": {"latitude": 42.123809, "longitude": -73.356906}, "transactions": [], "price": "$$", "location": {"address1": "650 N Main St", "address2": "", "address3": "", "city": "Sheffield", "zip_code": "01257", "country": "US", "state": "MA", "display_address": ["650 N Main St", "Sheffield, MA 01257"]}, "phone": "+14132299000", "display_phone": "(413) 229-9000", "distance": 2369.0441374257316}, {"id": "dP6zXo-o6Z5SYcBHiPZQlQ", "alias": "stagecoach-tavern-sheffield", "name": "Stagecoach Tavern", "image_url": "https://s3-media2.fl.yelpcdn.com/bphoto/UGJktwFIjl9k-_dk9SNrWA/o.jpg", "is_closed": false, "url": "https://www.yelp.com/biz/stagecoach-tavern-sheffield?adjust_creative=ywY5UnLZrNrRl2b93Ruy_g&utm_campaign=yelp_api_v3&utm_medium=api_v3_business_search&utm_source=ywY5UnLZrNrRl2b93Ruy_g", "review_count": 45, "categories": [{"alias": "tradamerican", "title": "American (Traditional)"}], "rating": 4.0, "coordinates": {"latitude": 42.08495, "longitude": -73.41214}, "transactions": [], "price": "$$", "location": {"address1": "854 S Undermountain Rd", "address2": "", "address3": "", "city": "Sheffield", "zip_code": "01257", "country": "US", "state": "MA", "display_address": ["854 S Undermountain Rd", "Sheffield, MA 01257"]}, "phone": "+14132298585", "display_phone": "(413) 229-8585", "distance": 4312.5926234562985}, {"id": "g7e9bxRkS-QEORLUl1VyrA", "alias": "old-mill-south-egremont", "name": "Old Mill", "image_url": "https://s3-media2.fl.yelpcdn.com/bphoto/KtMbm6Q9hNWXFE5y9NTExw/o.jpg", "is_closed": false, "url": "https://www.yelp.com/biz/old-mill-south-egremont?adjust_creative=ywY5UnLZrNrRl2b93Ruy_g&utm_campaign=yelp_api_v3&utm_medium=api_v3_business_search&utm_source=ywY5UnLZrNrRl2b93Ruy_g", "review_count": 55, "categories": [{"alias": "newamerican", "title": "American (New)"}], "rating": 4.5, "coordinates": {"latitude": 42.16043, "longitude": -73.41692}, "transactions": [], "price": "$$$", "location": {"address1": "53 Main St", "address2": "", "address3": "Rt 23", "city": "South Egremont", "zip_code": "01258", "country": "US", "state": "MA", "display_address": ["53 Main St", "Rt 23", "South Egremont, MA 01258"]}, "phone": "+14135281421", "display_phone": "(413) 528-1421", "distance": 7551.80425027501}, {"id": "KvDsKP3pvTjryvkzyibs-Q", "alias": "cantina-229-new-marlborough", "name": "Cantina 229", "image_url": "https://s3-media3.fl.yelpcdn.com/bphoto/Hw1Rq3WEBuXL4bUR_0T4hQ/o.jpg", "is_closed": false, "url": "https://www.yelp.com/biz/cantina-229-new-marlborough?adjust_creative=ywY5UnLZrNrRl2b93Ruy_g&utm_campaign=yelp_api_v3&utm_medium=api_v3_business_search&utm_source=ywY5UnLZrNrRl2b93Ruy_g", "review_count": 54, "categories": [{"alias": "tapas", "title": "Tapas Bars"}, {"alias": "vegetarian", "title": "Vegetarian"}, {"alias": "asianfusion", "title": "Asian Fusion"}], "rating": 4.5, "coordinates": {"latitude": 42.123587790542, "longitude": -73.2348696057758}, "transactions": [], "price": "$$", "location": {"address1": "229 Hartsville New Marlboro Rd", "address2": "", "address3": null, "city": "New Marlborough", "zip_code": "01230", "country": "US", "state": "MA", "display_address": ["229 Hartsville New Marlboro Rd", "New Marlborough, MA 01230"]}, "phone": "+14132293276", "display_phone": "(413) 229-3276", "distance": 11094.90802439289}, {"id": "yPkj61cAEjbbqNO0k7FBKQ", "alias": "prairie-whale-great-barrington", "name": "Prairie Whale", "image_url": "https://s3-media2.fl.yelpcdn.com/bphoto/6MIo4IvcImgzwAQ9krpRnQ/o.jpg", "is_closed": false, "url": "https://www.yelp.com/biz/prairie-whale-great-barrington?adjust_creative=ywY5UnLZrNrRl2b93Ruy_g&utm_campaign=yelp_api_v3&utm_medium=api_v3_business_search&utm_source=ywY5UnLZrNrRl2b93Ruy_g", "review_count": 268, "categories": [{"alias": "newamerican", "title": "American (New)"}], "rating": 4.0, "coordinates": {"latitude": 42.1976194, "longitude": -73.3612805}, "transactions": [], "price": "$$", "location": {"address1": "178 Main St", "address2": "", "address3": "", "city": "Great Barrington", "zip_code": "01230", "country": "US", "state": "MA", "display_address": ["178 Main St", "Great Barrington, MA 01230"]}, "phone": "+14135285050", "display_phone": "(413) 528-5050", "distance": 10443.957041754644}, {"id": "g9CgWN7yYafTHVOTvE5idQ", "alias": "fiddleheads-grille-great-barrington", "name": "Fiddleheads Grille", "image_url": "https://s3-media1.fl.yelpcdn.com/bphoto/tFYsxj5L_FOq_FqY3vTDUA/o.jpg", "is_closed": false, "url": "https://www.yelp.com/biz/fiddleheads-grille-great-barrington?adjust_creative=ywY5UnLZrNrRl2b93Ruy_g&utm_campaign=yelp_api_v3&utm_medium=api_v3_business_search&utm_source=ywY5UnLZrNrRl2b93Ruy_g", "review_count": 10, "categories": [{"alias": "bbq", "title": "Barbeque"}, {"alias": "bars", "title": "Bars"}, {"alias": "tradamerican", "title": "American (Traditional)"}], "rating": 4.0, "coordinates": {"latitude": 42.16155, "longitude": -73.36452}, "transactions": [], "location": {"address1": "999 South Main St", "address2": null, "address3": "", "city": "Great Barrington", "zip_code": "01230", "country": "US", "state": "MA", "display_address": ["999 South Main St", "Great Barrington, MA 01230"]}, "phone": "+14136442999", "display_phone": "(413) 644-2999", "distance": 6473.526237203481}, {"id": "Ol7s9NMuX-FYocOlwd3E-A", "alias": "race-brook-lodge-sheffield", "name": "Race Brook Lodge", "image_url": "https://s3-media1.fl.yelpcdn.com/bphoto/WNTsKPFcmStpfBKMKxyv2w/o.jpg", "is_closed": false, "url": "https://www.yelp.com/biz/race-brook-lodge-sheffield?adjust_creative=ywY5UnLZrNrRl2b93Ruy_g&utm_campaign=yelp_api_v3&utm_medium=api_v3_business_search&utm_source=ywY5UnLZrNrRl2b93Ruy_g", "review_count": 29, "categories": [{"alias": "hotels", "title": "Hotels"}, {"alias": "bedbreakfast", "title": "Bed & Breakfast"}, {"alias": "newamerican", "title": "American (New)"}], "rating": 4.5, "coordinates": {"latitude": 42.08503, "longitude": -73.41326}, "transactions": [], "price": "$$", "location": {"address1": "864 S Undermountain Rd", "address2": "", "address3": "", "city": "Sheffield", "zip_code": "01257", "country": "US", "state": "MA", "display_address": ["864 S Undermountain Rd", "Sheffield, MA 01257"]}, "phone": "+14132292916", "display_phone": "(413) 229-2916", "distance": 4400.2075716711215}, {"id": "TlSjI37wmBlYf2rQg8S5Rg", "alias": "the-marketplace-cafe-sheffield-2", "name": "The Marketplace Cafe", "image_url": "https://s3-media1.fl.yelpcdn.com/bphoto/64u1i13Jxs1E2T9MKbo9bw/o.jpg", "is_closed": false, "url": "https://www.yelp.com/biz/the-marketplace-cafe-sheffield-2?adjust_creative=ywY5UnLZrNrRl2b93Ruy_g&utm_campaign=yelp_api_v3&utm_medium=api_v3_business_search&utm_source=ywY5UnLZrNrRl2b93Ruy_g", "review_count": 33, "categories": [{"alias": "coffee", "title": "Coffee & Tea"}, {"alias": "sandwiches", "title": "Sandwiches"}, {"alias": "cafes", "title": "Cafes"}], "rating": 4.0, "coordinates": {"latitude": 42.109022, "longitude": -73.353077}, "transactions": [], "price": "$", "location": {"address1": "18 Elm Ct", "address2": "", "address3": "", "city": "Sheffield", "zip_code": "01257", "country": "US", "state": "MA", "display_address": ["18 Elm Ct", "Sheffield, MA 01257"]}, "phone": "+14132485040", "display_phone": "(413) 248-5040", "distance": 1265.919977537}, {"id": "kys7TxEIxNO8hmdUqYPQow", "alias": "john-andrews-farmhouse-restaurant-south-egremont", "name": "John Andrews Farmhouse Restaurant", "image_url": "https://s3-media2.fl.yelpcdn.com/bphoto/TURXOkf9nmA3Q1B7Fgn9gA/o.jpg", "is_closed": false, "url": "https://www.yelp.com/biz/john-andrews-farmhouse-restaurant-south-egremont?adjust_creative=ywY5UnLZrNrRl2b93Ruy_g&utm_campaign=yelp_api_v3&utm_medium=api_v3_business_search&utm_source=ywY5UnLZrNrRl2b93Ruy_g", "review_count": 87, "categories": [{"alias": "newamerican", "title": "American (New)"}], "rating": 4.0, "coordinates": {"latitude": 42.17093, "longitude": -73.4583}, "transactions": [], "price": "$$$", "location": {"address1": "224 Hillsdale Rd", "address2": "", "address3": "", "city": "South Egremont", "zip_code": "01258", "country": "US", "state": "MA", "display_address": ["224 Hillsdale Rd", "South Egremont, MA 01258"]}, "phone": "+14135283469", "display_phone": "(413) 528-3469", "distance": 10618.528423472875}, {"id": "8_7Jvr4OEO_rgf1M4V88FA", "alias": "tangier-cafe-great-barrington", "name": "Tangier Cafe", "image_url": "https://s3-media3.fl.yelpcdn.com/bphoto/UNqM8Toi2gUHfdFgLdYiZg/o.jpg", "is_closed": false, "url": "https://www.yelp.com/biz/tangier-cafe-great-barrington?adjust_creative=ywY5UnLZrNrRl2b93Ruy_g&utm_campaign=yelp_api_v3&utm_medium=api_v3_business_search&utm_source=ywY5UnLZrNrRl2b93Ruy_g", "review_count": 59, "categories": [{"alias": "moroccan", "title": "Moroccan"}, {"alias": "mediterranean", "title": "Mediterranean"}], "rating": 4.5, "coordinates": {"latitude": 42.1806406, "longitude": -73.3643966}, "transactions": [], "price": "$$", "location": {"address1": "286 Main St", "address2": "", "address3": null, "city": "Great Barrington", "zip_code": "01230", "country": "US", "state": "MA", "display_address": ["286 Main St", "Great Barrington, MA 01230"]}, "phone": "+14136453375", "display_phone": "(413) 645-3375", "distance": 8548.55344965178}, {"id": "aOPTLwcBNetZKJmnQWRG0A", "alias": "wood-creek-bar-and-grill-norfolk", "name": "Wood Creek Bar & Grill", "image_url": "https://s3-media1.fl.yelpcdn.com/bphoto/OziOfd8KLw88yKemOunY0Q/o.jpg", "is_closed": false, "url": "https://www.yelp.com/biz/wood-creek-bar-and-grill-norfolk?adjust_creative=ywY5UnLZrNrRl2b93Ruy_g&utm_campaign=yelp_api_v3&utm_medium=api_v3_business_search&utm_source=ywY5UnLZrNrRl2b93Ruy_g", "review_count": 82, "categories": [{"alias": "tradamerican", "title": "American (Traditional)"}, {"alias": "bars", "title": "Bars"}], "rating": 4.0, "coordinates": {"latitude": 41.9904277430115, "longitude": -73.199901587261}, "transactions": [], "price": "$$", "location": {"address1": "3 Station Place", "address2": "", "address3": "", "city": "Norfolk", "zip_code": "06058", "country": "US", "state": "CT", "display_address": ["3 Station Place", "Norfolk, CT 06058"]}, "phone": "+18605421200", "display_phone": "(860) 542-1200", "distance": 18669.75813195226}, {"id": "eagVNLK809UgivZVlepoIQ", "alias": "blackberry-river-bistro-canaan", "name": "Blackberry River Bistro", "image_url": "https://s3-media2.fl.yelpcdn.com/bphoto/6-IrneDTV_keASpNXxQLpA/o.jpg", "is_closed": false, "url": "https://www.yelp.com/biz/blackberry-river-bistro-canaan?adjust_creative=ywY5UnLZrNrRl2b93Ruy_g&utm_campaign=yelp_api_v3&utm_medium=api_v3_business_search&utm_source=ywY5UnLZrNrRl2b93Ruy_g", "review_count": 4, "categories": [{"alias": "mexican", "title": "Mexican"}, {"alias": "breakfast_brunch", "title": "Breakfast & Brunch"}], "rating": 5.0, "coordinates": {"latitude": 42.0272641, "longitude": -73.3301197}, "transactions": [], "location": {"address1": "99 Main St", "address2": "", "address3": null, "city": "Canaan", "zip_code": "06018", "country": "US", "state": "CT", "display_address": ["99 Main St", "Canaan, CT 06018"]}, "phone": "+18604534067", "display_phone": "(860) 453-4067", "distance": 9028.167957102143}, {"id": "kAtNLueUJ_PZZuPy0JV3IQ", "alias": "the-well-great-barrington", "name": "The Well", "image_url": "https://s3-media4.fl.yelpcdn.com/bphoto/EkJp7o92_zQ08kOTTd1MyA/o.jpg", "is_closed": false, "url": "https://www.yelp.com/biz/the-well-great-barrington?adjust_creative=ywY5UnLZrNrRl2b93Ruy_g&utm_campaign=yelp_api_v3&utm_medium=api_v3_business_search&utm_source=ywY5UnLZrNrRl2b93Ruy_g", "review_count": 80, "categories": [{"alias": "tradamerican", "title": "American (Traditional)"}, {"alias": "bars", "title": "Bars"}, {"alias": "burgers", "title": "Burgers"}], "rating": 4.0, "coordinates": {"latitude": 42.1942672729492, "longitude": -73.3628997802734}, "transactions": [], "price": "$$", "location": {"address1": "312 Main St", "address2": "", "address3": null, "city": "Great Barrington", "zip_code": "01230", "country": "US", "state": "MA", "display_address": ["312 Main St", "Great Barrington, MA 01230"]}, "phone": "+14135283651", "display_phone": "(413) 528-3651", "distance": 10065.789623341478}, {"id": "8IM2TsvuoHvJkYm18PunmQ", "alias": "donaji-mexican-restaurant-great-barrington-2", "name": "Donaji Mexican Restaurant", "image_url": "https://s3-media1.fl.yelpcdn.com/bphoto/tU-u8f7XG_lVHlSAcNK98Q/o.jpg", "is_closed": false, "url": "https://www.yelp.com/biz/donaji-mexican-restaurant-great-barrington-2?adjust_creative=ywY5UnLZrNrRl2b93Ruy_g&utm_campaign=yelp_api_v3&utm_medium=api_v3_business_search&utm_source=ywY5UnLZrNrRl2b93Ruy_g", "review_count": 99, "categories": [{"alias": "mexican", "title": "Mexican"}], "rating": 4.5, "coordinates": {"latitude": 42.2117375825877, "longitude": -73.3457401022315}, "transactions": [], "price": "$$", "location": {"address1": "389 Stockbridge Rd", "address2": "", "address3": null, "city": "Great Barrington", "zip_code": "01230", "country": "US", "state": "MA", "display_address": ["389 Stockbridge Rd", "Great Barrington, MA 01230"]}, "phone": "+14137174220", "display_phone": "(413) 717-4220", "distance": 12127.949469152667}, {"id": "mylnUCD7dmyJEjcBmGq8nA", "alias": "black-rabbit-bar-and-grille-lakeville", "name": "Black Rabbit Bar & Grille", "image_url": "https://s3-media3.fl.yelpcdn.com/bphoto/RgkhGccgOEuXd1gQ-URu0g/o.jpg", "is_closed": false, "url": "https://www.yelp.com/biz/black-rabbit-bar-and-grille-lakeville?adjust_creative=ywY5UnLZrNrRl2b93Ruy_g&utm_campaign=yelp_api_v3&utm_medium=api_v3_business_search&utm_source=ywY5UnLZrNrRl2b93Ruy_g", "review_count": 60, "categories": [{"alias": "newamerican", "title": "American (New)"}, {"alias": "sportsbars", "title": "Sports Bars"}], "rating": 4.0, "coordinates": {"latitude": 41.9631352570674, "longitude": -73.4401190875002}, "transactions": [], "price": "$$", "location": {"address1": "2 Ethan Allen St", "address2": "", "address3": "", "city": "Lakeville", "zip_code": "06039", "country": "US", "state": "CT", "display_address": ["2 Ethan Allen St", "Lakeville, CT 06039"]}, "phone": "+18605964227", "display_phone": "(860) 596-4227", "distance": 16773.43755286041}, {"id": "tEn0qxPRMtXBOY8R2Vn4kw", "alias": "cafe-adam-great-barrington-3", "name": "Cafe Adam", "image_url": "https://s3-media3.fl.yelpcdn.com/bphoto/8biwPGlv0l6_1n-JvzQREw/o.jpg", "is_closed": false, "url": "https://www.yelp.com/biz/cafe-adam-great-barrington-3?adjust_creative=ywY5UnLZrNrRl2b93Ruy_g&utm_campaign=yelp_api_v3&utm_medium=api_v3_business_search&utm_source=ywY5UnLZrNrRl2b93Ruy_g", "review_count": 43, "categories": [{"alias": "modern_european", "title": "Modern European"}], "rating": 4.0, "coordinates": {"latitude": 42.2134577, "longitude": -73.3444292}, "transactions": [], "price": "$$$", "location": {"address1": "420 Stockbridge Rd", "address2": "Ste 3", "address3": "", "city": "Great Barrington", "zip_code": "01230", "country": "US", "state": "MA", "display_address": ["420 Stockbridge Rd", "Ste 3", "Great Barrington, MA 01230"]}, "phone": "+14135287786", "display_phone": "(413) 528-7786", "distance": 12332.913483529328}, {"id": "lttv5T8QO4ORAuuc3scf6g", "alias": "steam-noodle-cafe-great-barrington", "name": "Steam Noodle Cafe", "image_url": "https://s3-media2.fl.yelpcdn.com/bphoto/AWbFlr4Jb_0evrjqn6ZyNw/o.jpg", "is_closed": false, "url": "https://www.yelp.com/biz/steam-noodle-cafe-great-barrington?adjust_creative=ywY5UnLZrNrRl2b93Ruy_g&utm_campaign=yelp_api_v3&utm_medium=api_v3_business_search&utm_source=ywY5UnLZrNrRl2b93Ruy_g", "review_count": 25, "categories": [{"alias": "noodles", "title": "Noodles"}, {"alias": "thai", "title": "Thai"}], "rating": 5.0, "coordinates": {"latitude": 42.19492, "longitude": -73.36254}, "transactions": [], "location": {"address1": "284 Main St Store", "address2": "Inside Barrington House", "address3": null, "city": "Great Barrington", "zip_code": "01230", "country": "US", "state": "MA", "display_address": ["284 Main St Store", "Inside Barrington House", "Great Barrington, MA 01230"]}, "phone": "+14135666353", "display_phone": "(413) 566-6353", "distance": 10136.768641391684}, {"id": "QlldzqygzMHA_te8TvhHpg", "alias": "number-ten-great-barrington-2", "name": "Number Ten", "image_url": "https://s3-media3.fl.yelpcdn.com/bphoto/z4JtYTl8rMuPKNwGbMxR3w/o.jpg", "is_closed": false, "url": "https://www.yelp.com/biz/number-ten-great-barrington-2?adjust_creative=ywY5UnLZrNrRl2b93Ruy_g&utm_campaign=yelp_api_v3&utm_medium=api_v3_business_search&utm_source=ywY5UnLZrNrRl2b93Ruy_g", "review_count": 43, "categories": [{"alias": "steak", "title": "Steakhouses"}], "rating": 4.5, "coordinates": {"latitude": 42.1941161, "longitude": -73.3632744}, "transactions": [], "location": {"address1": "10 Castle St", "address2": null, "address3": "", "city": "Great Barrington", "zip_code": "01230", "country": "US", "state": "MA", "display_address": ["10 Castle St", "Great Barrington, MA 01230"]}, "phone": "+14135285244", "display_phone": "(413) 528-5244", "distance": 10043.440359364648}, {"id": "w_iafnQRK0sfasx0z1DYCA", "alias": "barrington-brewery-and-restaurant-great-barrington", "name": "Barrington Brewery & Restaurant", "image_url": "https://s3-media1.fl.yelpcdn.com/bphoto/QIBUGRTwBlLdt8T5bylZhg/o.jpg", "is_closed": false, "url": "https://www.yelp.com/biz/barrington-brewery-and-restaurant-great-barrington?adjust_creative=ywY5UnLZrNrRl2b93Ruy_g&utm_campaign=yelp_api_v3&utm_medium=api_v3_business_search&utm_source=ywY5UnLZrNrRl2b93Ruy_g", "review_count": 278, "categories": [{"alias": "tradamerican", "title": "American (Traditional)"}, {"alias": "bars", "title": "Bars"}, {"alias": "brewpubs", "title": "Brewpubs"}], "rating": 3.5, "coordinates": {"latitude": 42.213068, "longitude": -73.343636}, "transactions": [], "price": "$$", "location": {"address1": "420 Stockbridge Rd", "address2": "Ste 7", "address3": "", "city": "Great Barrington", "zip_code": "01230", "country": "US", "state": "MA", "display_address": ["420 Stockbridge Rd", "Ste 7", "Great Barrington, MA 01230"]}, "phone": "+14135288282", "display_phone": "(413) 528-8282", "distance": 12319.94059710482}, {"id": "B-m2H_ntl8e7EpKA1kYIUw", "alias": "hillsdale-house-hillsdale-3", "name": "Hillsdale House", "image_url": "https://s3-media3.fl.yelpcdn.com/bphoto/-RUl0HHcp7TeaFQCzpx5EA/o.jpg", "is_closed": false, "url": "https://www.yelp.com/biz/hillsdale-house-hillsdale-3?adjust_creative=ywY5UnLZrNrRl2b93Ruy_g&utm_campaign=yelp_api_v3&utm_medium=api_v3_business_search&utm_source=ywY5UnLZrNrRl2b93Ruy_g", "review_count": 8, "categories": [{"alias": "tradamerican", "title": "American (Traditional)"}, {"alias": "bbq", "title": "Barbeque"}, {"alias": "pizza", "title": "Pizza"}], "rating": 4.5, "coordinates": {"latitude": 42.1787744193311, "longitude": -73.5255420033364}, "transactions": [], "location": {"address1": "1 Anthony St", "address2": "", "address3": null, "city": "Hillsdale", "zip_code": "12529", "country": "US", "state": "NY", "display_address": ["1 Anthony St", "Hillsdale, NY 12529"]}, "phone": "+15183257111", "display_phone": "(518) 325-7111", "distance": 15526.07027212322}, {"id": "aLQjKHWKHyUI4EC_Z1ySQA", "alias": "brick-house-pub-housatonic", "name": "Brick House Pub", "image_url": "https://s3-media4.fl.yelpcdn.com/bphoto/2tvL1uWe0EyfcJ0fh5BfmQ/o.jpg", "is_closed": false, "url": "https://www.yelp.com/biz/brick-house-pub-housatonic?adjust_creative=ywY5UnLZrNrRl2b93Ruy_g&utm_campaign=yelp_api_v3&utm_medium=api_v3_business_search&utm_source=ywY5UnLZrNrRl2b93Ruy_g", "review_count": 91, "categories": [{"alias": "tradamerican", "title": "American (Traditional)"}, {"alias": "pubs", "title": "Pubs"}, {"alias": "musicvenues", "title": "Music Venues"}], "rating": 4.0, "coordinates": {"latitude": 42.254366, "longitude": -73.36588}, "transactions": [], "price": "$$", "location": {"address1": "425 Park St", "address2": "", "address3": "", "city": "Housatonic", "zip_code": "01236", "country": "US", "state": "MA", "display_address": ["425 Park St", "Housatonic, MA 01236"]}, "phone": "+14132740020", "display_phone": "(413) 274-0020", "distance": 16746.512390847092}, {"id": "8YTBXv2LZPsRhyxLRAHh6Q", "alias": "railway-cafe-canaan", "name": "Railway Cafe", "image_url": "https://s3-media2.fl.yelpcdn.com/bphoto/kT1rf2_2NxYfGKYsLtJGtQ/o.jpg", "is_closed": false, "url": "https://www.yelp.com/biz/railway-cafe-canaan?adjust_creative=ywY5UnLZrNrRl2b93Ruy_g&utm_campaign=yelp_api_v3&utm_medium=api_v3_business_search&utm_source=ywY5UnLZrNrRl2b93Ruy_g", "review_count": 4, "categories": [{"alias": "breakfast_brunch", "title": "Breakfast & Brunch"}, {"alias": "tradamerican", "title": "American (Traditional)"}], "rating": 5.0, "coordinates": {"latitude": 42.017632, "longitude": -73.331305}, "transactions": [], "price": "$", "location": {"address1": "77 S Canaan Rd", "address2": null, "address3": "", "city": "Canaan", "zip_code": "06031", "country": "US", "state": "CT", "display_address": ["77 S Canaan Rd", "Canaan, CT 06031"]}, "phone": "+18608242610", "display_phone": "(860) 824-2610", "distance": 10014.998508419567}, {"id": "OGfb534H05hQb7QXOYEjcQ", "alias": "baba-louies-sourdough-pizza-great-barrington-3", "name": "Baba Louie's Sourdough Pizza", "image_url": "https://s3-media4.fl.yelpcdn.com/bphoto/Awr9VbK52RO4X7zg6uwIOA/o.jpg", "is_closed": false, "url": "https://www.yelp.com/biz/baba-louies-sourdough-pizza-great-barrington-3?adjust_creative=ywY5UnLZrNrRl2b93Ruy_g&utm_campaign=yelp_api_v3&utm_medium=api_v3_business_search&utm_source=ywY5UnLZrNrRl2b93Ruy_g", "review_count": 270, "categories": [{"alias": "pizza", "title": "Pizza"}], "rating": 4.5, "coordinates": {"latitude": 42.194999, "longitude": -73.363538}, "transactions": [], "price": "$$", "location": {"address1": "42 Railroad St", "address2": "", "address3": "", "city": "Great Barrington", "zip_code": "01230", "country": "US", "state": "MA", "display_address": ["42 Railroad St", "Great Barrington, MA 01230"]}, "phone": "+14135288100", "display_phone": "(413) 528-8100", "distance": 10146.37198053527}, {"id": "4YX7hshetQtaVhJkgkWTrA", "alias": "neo-restaurant-and-bar-salisbury", "name": "Neo Restaurant & Bar", "image_url": "https://s3-media2.fl.yelpcdn.com/bphoto/zjNBU3_vRWfLPQGzsi-Rzw/o.jpg", "is_closed": false, "url": "https://www.yelp.com/biz/neo-restaurant-and-bar-salisbury?adjust_creative=ywY5UnLZrNrRl2b93Ruy_g&utm_campaign=yelp_api_v3&utm_medium=api_v3_business_search&utm_source=ywY5UnLZrNrRl2b93Ruy_g", "review_count": 15, "categories": [{"alias": "italian", "title": "Italian"}, {"alias": "newamerican", "title": "American (New)"}, {"alias": "wraps", "title": "Wraps"}], "rating": 4.0, "coordinates": {"latitude": 41.98226, "longitude": -73.423}, "transactions": [], "location": {"address1": "19 Main St", "address2": "", "address3": null, "city": "Salisbury", "zip_code": "06068", "country": "US", "state": "CT", "display_address": ["19 Main St", "Salisbury, CT 06068"]}, "phone": "+18605964158", "display_phone": "(860) 596-4158", "distance": 14289.901286975688}, {"id": "wdSZnN7k6IIAMxNER-VW1A", "alias": "blue-door-market-and-cafe-sheffield", "name": "Blue Door Market & Cafe", "image_url": "https://s3-media1.fl.yelpcdn.com/bphoto/TjHtEWR5YNtrzhZyyzjEeg/o.jpg", "is_closed": false, "url": "https://www.yelp.com/biz/blue-door-market-and-cafe-sheffield?adjust_creative=ywY5UnLZrNrRl2b93Ruy_g&utm_campaign=yelp_api_v3&utm_medium=api_v3_business_search&utm_source=ywY5UnLZrNrRl2b93Ruy_g", "review_count": 8, "categories": [{"alias": "beer_and_wine", "title": "Beer, Wine & Spirits"}, {"alias": "breakfast_brunch", "title": "Breakfast & Brunch"}, {"alias": "sandwiches", "title": "Sandwiches"}], "rating": 3.5, "coordinates": {"latitude": 42.103159, "longitude": -73.3546993779793}, "transactions": [], "price": "$", "location": {"address1": "139 S Main St", "address2": null, "address3": "", "city": "Sheffield", "zip_code": "01257", "country": "US", "state": "MA", "display_address": ["139 S Main St", "Sheffield, MA 01257"]}, "phone": "+14132481223", "display_phone": "(413) 248-1223", "distance": 992.3880511699022}, {"id": "8ZThcsITzv3xpH_oBtEZHA", "alias": "roma-pizzeria-canaan", "name": "Roma Pizzeria", "image_url": "https://s3-media2.fl.yelpcdn.com/bphoto/jroNxbHKaz7vVWvXnopUIg/o.jpg", "is_closed": false, "url": "https://www.yelp.com/biz/roma-pizzeria-canaan?adjust_creative=ywY5UnLZrNrRl2b93Ruy_g&utm_campaign=yelp_api_v3&utm_medium=api_v3_business_search&utm_source=ywY5UnLZrNrRl2b93Ruy_g", "review_count": 27, "categories": [{"alias": "pizza", "title": "Pizza"}, {"alias": "italian", "title": "Italian"}], "rating": 4.5, "coordinates": {"latitude": 42.0266059894012, "longitude": -73.3295079127326}, "transactions": [], "price": "$$", "location": {"address1": "81 Main St", "address2": "", "address3": "", "city": "Canaan", "zip_code": "06018", "country": "US", "state": "CT", "display_address": ["81 Main St", "Canaan, CT 06018"]}, "phone": "+18608248125", "display_phone": "(860) 824-8125", "distance": 9114.057816511286}, {"id": "HnQB5vTsco_llR1czcoCtA", "alias": "aroma-bar-and-grill-great-barrington", "name": "Aroma Bar & Grill", "image_url": "https://s3-media2.fl.yelpcdn.com/bphoto/R3WHX4K-ifdDrR6NI7h6pA/o.jpg", "is_closed": false, "url": "https://www.yelp.com/biz/aroma-bar-and-grill-great-barrington?adjust_creative=ywY5UnLZrNrRl2b93Ruy_g&utm_campaign=yelp_api_v3&utm_medium=api_v3_business_search&utm_source=ywY5UnLZrNrRl2b93Ruy_g", "review_count": 79, "categories": [{"alias": "indpak", "title": "Indian"}], "rating": 4.0, "coordinates": {"latitude": 42.1887550354004, "longitude": -73.3641128540039}, "transactions": [], "price": "$$", "location": {"address1": "485 Main St", "address2": "", "address3": "", "city": "Great Barrington", "zip_code": "01230", "country": "US", "state": "MA", "display_address": ["485 Main St", "Great Barrington, MA 01230"]}, "phone": "+14135283116", "display_phone": "(413) 528-3116", "distance": 9449.817457933195}, {"id": "NHPxM6ZfPVW3rIhXhd9Pqg", "alias": "the-pond-restaurant-ancramdale", "name": "The Pond Restaurant", "image_url": "https://s3-media2.fl.yelpcdn.com/bphoto/-l08MJKMrTR-oOl2lowh2A/o.jpg", "is_closed": false, "url": "https://www.yelp.com/biz/the-pond-restaurant-ancramdale?adjust_creative=ywY5UnLZrNrRl2b93Ruy_g&utm_campaign=yelp_api_v3&utm_medium=api_v3_business_search&utm_source=ywY5UnLZrNrRl2b93Ruy_g", "review_count": 15, "categories": [{"alias": "tradamerican", "title": "American (Traditional)"}, {"alias": "cocktailbars", "title": "Cocktail Bars"}], "rating": 4.0, "coordinates": {"latitude": 42.05808, "longitude": -73.56698}, "transactions": [], "price": "$$", "location": {"address1": "711 County Rte 3", "address2": "", "address3": "", "city": "Ancramdale", "zip_code": "12503", "country": "US", "state": "NY", "display_address": ["711 County Rte 3", "Ancramdale, NY 12503"]}, "phone": "+15183291500", "display_phone": "(518) 329-1500", "distance": 17284.571348025183}, {"id": "85fC488axeAFcB1ANARH0w", "alias": "clock-tower-pub-and-grill-copake-3", "name": "Clock Tower Pub & Grill", "image_url": "https://s3-media3.fl.yelpcdn.com/bphoto/9MWItHoJTk2WQUHbed0IyA/o.jpg", "is_closed": false, "url": "https://www.yelp.com/biz/clock-tower-pub-and-grill-copake-3?adjust_creative=ywY5UnLZrNrRl2b93Ruy_g&utm_campaign=yelp_api_v3&utm_medium=api_v3_business_search&utm_source=ywY5UnLZrNrRl2b93Ruy_g", "review_count": 30, "categories": [{"alias": "pubs", "title": "Pubs"}, {"alias": "tradamerican", "title": "American (Traditional)"}], "rating": 4.0, "coordinates": {"latitude": 42.103353, "longitude": -73.549734}, "transactions": [], "price": "$$", "location": {"address1": "1682 County Route 7A", "address2": null, "address3": null, "city": "Copake", "zip_code": "12516", "country": "US", "state": "NY", "display_address": ["1682 County Route 7A", "Copake, NY 12516"]}, "phone": "+15183294279", "display_phone": "(518) 329-4279", "distance": 15100.298036084045}, {"id": "wknBA2DMxtu_xYUED_fhKA", "alias": "taconic-wayside-inn-copake-falls", "name": "Taconic Wayside Inn", "image_url": "https://s3-media4.fl.yelpcdn.com/bphoto/BAzU7UbpV2ns89jgReI2Kg/o.jpg", "is_closed": false, "url": "https://www.yelp.com/biz/taconic-wayside-inn-copake-falls?adjust_creative=ywY5UnLZrNrRl2b93Ruy_g&utm_campaign=yelp_api_v3&utm_medium=api_v3_business_search&utm_source=ywY5UnLZrNrRl2b93Ruy_g", "review_count": 13, "categories": [{"alias": "tradamerican", "title": "American (Traditional)"}, {"alias": "bars", "title": "Bars"}], "rating": 4.0, "coordinates": {"latitude": 42.1201099, "longitude": -73.52465}, "transactions": [], "price": "$", "location": {"address1": "108 State Rt 344", "address2": "", "address3": "", "city": "Copake Falls", "zip_code": "12517", "country": "US", "state": "NY", "display_address": ["108 State Rt 344", "Copake Falls, NY 12517"]}, "phone": "+15183294401", "display_phone": "(518) 329-4401", "distance": 13147.986090332777}, {"id": "DmetKxKYhXoqaI_R5DwyJQ", "alias": "gedney-farm-new-marlborough", "name": "Gedney Farm", "image_url": "https://s3-media2.fl.yelpcdn.com/bphoto/nLWn288VzwTefgTsWAeQfA/o.jpg", "is_closed": false, "url": "https://www.yelp.com/biz/gedney-farm-new-marlborough?adjust_creative=ywY5UnLZrNrRl2b93Ruy_g&utm_campaign=yelp_api_v3&utm_medium=api_v3_business_search&utm_source=ywY5UnLZrNrRl2b93Ruy_g", "review_count": 28, "categories": [{"alias": "venues", "title": "Venues & Event Spaces"}, {"alias": "vegetarian", "title": "Vegetarian"}, {"alias": "tradamerican", "title": "American (Traditional)"}], "rating": 4.0, "coordinates": {"latitude": 42.1218836220813, "longitude": -73.2255731630722}, "transactions": [], "price": "$$$", "location": {"address1": "34 Hartsville-New Marlboro Rd", "address2": "", "address3": "", "city": "New Marlborough", "zip_code": "01230", "country": "US", "state": "MA", "display_address": ["34 Hartsville-New Marlboro Rd", "New Marlborough, MA 01230"]}, "phone": "+14132293131", "display_phone": "(413) 229-3131", "distance": 11813.845680962831}, {"id": "jAo-MiD0x3rAXYknAj6-gQ", "alias": "aegean-breeze-restaurant-great-barrington-2", "name": "Aegean Breeze Restaurant", "image_url": "https://s3-media1.fl.yelpcdn.com/bphoto/sYSk5R1qJ65umfJthL6iGg/o.jpg", "is_closed": false, "url": "https://www.yelp.com/biz/aegean-breeze-restaurant-great-barrington-2?adjust_creative=ywY5UnLZrNrRl2b93Ruy_g&utm_campaign=yelp_api_v3&utm_medium=api_v3_business_search&utm_source=ywY5UnLZrNrRl2b93Ruy_g", "review_count": 85, "categories": [{"alias": "mediterranean", "title": "Mediterranean"}, {"alias": "greek", "title": "Greek"}], "rating": 3.5, "coordinates": {"latitude": 42.21115, "longitude": -73.34578}, "transactions": [], "price": "$$", "location": {"address1": "327 Stockbridge Rd", "address2": "", "address3": "", "city": "Great Barrington", "zip_code": "01230", "country": "US", "state": "MA", "display_address": ["327 Stockbridge Rd", "Great Barrington, MA 01230"]}, "phone": "+14135284001", "display_phone": "(413) 528-4001", "distance": 12061.40944014607}, {"id": "F_FRaMZheFws0Fis3RknZw", "alias": "najis-lebanese-restaurant-great-barrington", "name": "Naji's Lebanese Restaurant", "image_url": "https://s3-media1.fl.yelpcdn.com/bphoto/fSYzaR3nCJaZHC6C5OMZ0A/o.jpg", "is_closed": false, "url": "https://www.yelp.com/biz/najis-lebanese-restaurant-great-barrington?adjust_creative=ywY5UnLZrNrRl2b93Ruy_g&utm_campaign=yelp_api_v3&utm_medium=api_v3_business_search&utm_source=ywY5UnLZrNrRl2b93Ruy_g", "review_count": 127, "categories": [{"alias": "mediterranean", "title": "Mediterranean"}, {"alias": "lebanese", "title": "Lebanese"}], "rating": 4.0, "coordinates": {"latitude": 42.212414, "longitude": -73.345397}, "transactions": [], "price": "$$", "location": {"address1": "405 Stockbridge Rd", "address2": "", "address3": "", "city": "Great Barrington", "zip_code": "01230", "country": "US", "state": "MA", "display_address": ["405 Stockbridge Rd", "Great Barrington, MA 01230"]}, "phone": "+14135285540", "display_phone": "(413) 528-5540", "distance": 12206.436113149057}, {"id": "JTK6r9n6fnZp-Ev5UKQUuA", "alias": "manna-dew-cafe-millerton", "name": "Manna Dew Cafe", "image_url": "https://s3-media4.fl.yelpcdn.com/bphoto/gvhnpnrgHxVu-pj6nZeeyg/o.jpg", "is_closed": false, "url": "https://www.yelp.com/biz/manna-dew-cafe-millerton?adjust_creative=ywY5UnLZrNrRl2b93Ruy_g&utm_campaign=yelp_api_v3&utm_medium=api_v3_business_search&utm_source=ywY5UnLZrNrRl2b93Ruy_g", "review_count": 36, "categories": [{"alias": "seafood", "title": "Seafood"}, {"alias": "steak", "title": "Steakhouses"}, {"alias": "tradamerican", "title": "American (Traditional)"}], "rating": 3.5, "coordinates": {"latitude": 41.95329, "longitude": -73.50952}, "transactions": [], "price": "$$", "location": {"address1": "54 Main St", "address2": "", "address3": "", "city": "Millerton", "zip_code": "12546", "country": "US", "state": "NY", "display_address": ["54 Main St", "Millerton, NY 12546"]}, "phone": "+15187893570", "display_phone": "(518) 789-3570", "distance": 20451.97422312479}, {"id": "-CWjCRxQmPeVCFSAx9Y9Ag", "alias": "the-mount-washington-house-hillsdale", "name": "The Mount Washington House", "image_url": "https://s3-media3.fl.yelpcdn.com/bphoto/Mudc6jZrh3PrvDxMCze0Yg/o.jpg", "is_closed": false, "url": "https://www.yelp.com/biz/the-mount-washington-house-hillsdale?adjust_creative=ywY5UnLZrNrRl2b93Ruy_g&utm_campaign=yelp_api_v3&utm_medium=api_v3_business_search&utm_source=ywY5UnLZrNrRl2b93Ruy_g", "review_count": 9, "categories": [{"alias": "sportsbars", "title": "Sports Bars"}, {"alias": "tradamerican", "title": "American (Traditional)"}], "rating": 4.0, "coordinates": {"latitude": 42.1795264878392, "longitude": -73.5259648163613}, "transactions": [], "price": "$", "location": {"address1": "2627 Rt 23", "address2": "", "address3": "", "city": "Hillsdale", "zip_code": "12529", "country": "US", "state": "NY", "display_address": ["2627 Rt 23", "Hillsdale, NY 12529"]}, "phone": "+15183254631", "display_phone": "(518) 325-4631", "distance": 15600.411623001008}, {"id": "otdNeSyGOfc3l6X48Gg-Kw", "alias": "picantes-south-west-mexican-grill-salisbury", "name": "Picante's South West Mexican Grill", "image_url": "https://s3-media2.fl.yelpcdn.com/bphoto/-c_fiC7yrWFZhG1KYQmbAg/o.jpg", "is_closed": false, "url": "https://www.yelp.com/biz/picantes-south-west-mexican-grill-salisbury?adjust_creative=ywY5UnLZrNrRl2b93Ruy_g&utm_campaign=yelp_api_v3&utm_medium=api_v3_business_search&utm_source=ywY5UnLZrNrRl2b93Ruy_g", "review_count": 17, "categories": [{"alias": "mexican", "title": "Mexican"}], "rating": 4.5, "coordinates": {"latitude": 41.971886, "longitude": -73.434622}, "transactions": [], "location": {"address1": "227 Main St", "address2": null, "address3": "", "city": "Salisbury", "zip_code": "06039", "country": "US", "state": "CT", "display_address": ["227 Main St", "Salisbury, CT 06039"]}, "phone": "+18605964225", "display_phone": "(860) 596-4225", "distance": 15702.106068540197}, {"id": "uNsLkSxRaPQGZ7owzdFB4A", "alias": "the-millerton-inn-millerton-2", "name": "The Millerton Inn", "image_url": "https://s3-media1.fl.yelpcdn.com/bphoto/Zdpf8yeV7JbSQMUbTqsY6w/o.jpg", "is_closed": false, "url": "https://www.yelp.com/biz/the-millerton-inn-millerton-2?adjust_creative=ywY5UnLZrNrRl2b93Ruy_g&utm_campaign=yelp_api_v3&utm_medium=api_v3_business_search&utm_source=ywY5UnLZrNrRl2b93Ruy_g", "review_count": 21, "categories": [{"alias": "newamerican", "title": "American (New)"}, {"alias": "mediterranean", "title": "Mediterranean"}, {"alias": "breakfast_brunch", "title": "Breakfast & Brunch"}], "rating": 4.5, "coordinates": {"latitude": 41.95402, "longitude": -73.50907}, "transactions": [], "price": "$$$", "location": {"address1": "53 Main St", "address2": null, "address3": "", "city": "Millerton", "zip_code": "12546", "country": "US", "state": "NY", "display_address": ["53 Main St", "Millerton, NY 12546"]}, "phone": "+15185921900", "display_phone": "(518) 592-1900", "distance": 20376.954449083238}, {"id": "3_5-GUf-AkGhf7AyQgtw7w", "alias": "koi-chinese-restaurant-great-barrington", "name": "Koi Chinese Restaurant", "image_url": "https://s3-media4.fl.yelpcdn.com/bphoto/Pae2zv852hWi_Chjes73iQ/o.jpg", "is_closed": false, "url": "https://www.yelp.com/biz/koi-chinese-restaurant-great-barrington?adjust_creative=ywY5UnLZrNrRl2b93Ruy_g&utm_campaign=yelp_api_v3&utm_medium=api_v3_business_search&utm_source=ywY5UnLZrNrRl2b93Ruy_g", "review_count": 66, "categories": [{"alias": "taiwanese", "title": "Taiwanese"}, {"alias": "chinese", "title": "Chinese"}, {"alias": "asianfusion", "title": "Asian Fusion"}], "rating": 3.5, "coordinates": {"latitude": 42.19555, "longitude": -73.33878}, "transactions": [], "price": "$$", "location": {"address1": "300 State Rd", "address2": "", "address3": "", "city": "Great Barrington", "zip_code": "01230", "country": "US", "state": "MA", "display_address": ["300 State Rd", "Great Barrington, MA 01230"]}, "phone": "+14135285678", "display_phone": "(413) 528-5678", "distance": 10494.250640277642}, {"id": "yTmqXSKKSSMLMTgDMHErJg", "alias": "52-main-millerton", "name": "52 Main", "image_url": "https://s3-media4.fl.yelpcdn.com/bphoto/d3MqUZ7DtDeEPdDABqJ4NQ/o.jpg", "is_closed": false, "url": "https://www.yelp.com/biz/52-main-millerton?adjust_creative=ywY5UnLZrNrRl2b93Ruy_g&utm_campaign=yelp_api_v3&utm_medium=api_v3_business_search&utm_source=ywY5UnLZrNrRl2b93Ruy_g", "review_count": 79, "categories": [{"alias": "tapasmallplates", "title": "Tapas/Small Plates"}, {"alias": "bars", "title": "Bars"}, {"alias": "tradamerican", "title": "American (Traditional)"}], "rating": 4.0, "coordinates": {"latitude": 41.953389, "longitude": -73.509756}, "transactions": [], "price": "$$", "location": {"address1": "52 Main St", "address2": "", "address3": "", "city": "Millerton", "zip_code": "12546", "country": "US", "state": "NY", "display_address": ["52 Main St", "Millerton, NY 12546"]}, "phone": "+15187890252", "display_phone": "(518) 789-0252", "distance": 20476.045686138354}, {"id": "sZak5PEYgLxpEeeYcMZC3Q", "alias": "farm-country-soup-great-barrington", "name": "Farm Country Soup", "image_url": "https://s3-media2.fl.yelpcdn.com/bphoto/Z6eFHfXVDn8jQzK2pawcqg/o.jpg", "is_closed": false, "url": "https://www.yelp.com/biz/farm-country-soup-great-barrington?adjust_creative=ywY5UnLZrNrRl2b93Ruy_g&utm_campaign=yelp_api_v3&utm_medium=api_v3_business_search&utm_source=ywY5UnLZrNrRl2b93Ruy_g", "review_count": 11, "categories": [{"alias": "breakfast_brunch", "title": "Breakfast & Brunch"}, {"alias": "soup", "title": "Soup"}, {"alias": "cafes", "title": "Cafes"}], "rating": 5.0, "coordinates": {"latitude": 42.21173, "longitude": -73.34594}, "transactions": [], "location": {"address1": "389 Stockbridge Rd", "address2": "", "address3": null, "city": "Great Barrington", "zip_code": "01230", "country": "US", "state": "MA", "display_address": ["389 Stockbridge Rd", "Great Barrington, MA 01230"]}, "phone": "+14135280040", "display_phone": "(413) 528-0040", "distance": 12113.768235094316}, {"id": "gBfD--biUtBgB-vLlSBYkg", "alias": "barnstormers-burgers-north-canaan", "name": "Barnstormers Burgers", "image_url": "https://s3-media1.fl.yelpcdn.com/bphoto/31fsydvk3ISVC5UZsWe63A/o.jpg", "is_closed": false, "url": "https://www.yelp.com/biz/barnstormers-burgers-north-canaan?adjust_creative=ywY5UnLZrNrRl2b93Ruy_g&utm_campaign=yelp_api_v3&utm_medium=api_v3_business_search&utm_source=ywY5UnLZrNrRl2b93Ruy_g", "review_count": 4, "categories": [{"alias": "foodtrucks", "title": "Food Trucks"}, {"alias": "burgers", "title": "Burgers"}], "rating": 5.0, "coordinates": {"latitude": 42.02657, "longitude": -73.32907}, "transactions": [], "location": {"address1": null, "address2": null, "address3": null, "city": "North Canaan", "zip_code": "06018", "country": "US", "state": "CT", "display_address": ["North Canaan, CT 06018"]}, "phone": "+18602944806", "display_phone": "(860) 294-4806", "distance": 10463.425757005944}, {"id": "3j36vVlSn_dqG3QLsRMRlw", "alias": "the-woodland-lakeville", "name": "The Woodland", "image_url": "https://s3-media2.fl.yelpcdn.com/bphoto/HJXuV7kfRCzQAaZrju7upA/o.jpg", "is_closed": false, "url": "https://www.yelp.com/biz/the-woodland-lakeville?adjust_creative=ywY5UnLZrNrRl2b93Ruy_g&utm_campaign=yelp_api_v3&utm_medium=api_v3_business_search&utm_source=ywY5UnLZrNrRl2b93Ruy_g", "review_count": 60, "categories": [{"alias": "newamerican", "title": "American (New)"}, {"alias": "desserts", "title": "Desserts"}, {"alias": "sushi", "title": "Sushi Bars"}], "rating": 4.0, "coordinates": {"latitude": 41.9525615616326, "longitude": -73.4352314901262}, "transactions": [], "price": "$$$", "location": {"address1": "192 Sharon Rd", "address2": "", "address3": "", "city": "Lakeville", "zip_code": "06039", "country": "US", "state": "CT", "display_address": ["192 Sharon Rd", "Lakeville, CT 06039"]}, "phone": "+18604350578", "display_phone": "(860) 435-0578", "distance": 17741.98914934107}, {"id": "G15q9G71BVLPIxg_Fno6IA", "alias": "infinity-bistro-norfolk", "name": "Infinity Bistro", "image_url": "https://s3-media2.fl.yelpcdn.com/bphoto/jKTzBk1V12L9IIshDFxZqw/o.jpg", "is_closed": false, "url": "https://www.yelp.com/biz/infinity-bistro-norfolk?adjust_creative=ywY5UnLZrNrRl2b93Ruy_g&utm_campaign=yelp_api_v3&utm_medium=api_v3_business_search&utm_source=ywY5UnLZrNrRl2b93Ruy_g", "review_count": 40, "categories": [{"alias": "newamerican", "title": "American (New)"}], "rating": 3.5, "coordinates": {"latitude": 41.99079, "longitude": -73.19986}, "transactions": [], "price": "$$", "location": {"address1": "20 Greenwoods Rd W", "address2": "", "address3": "", "city": "Norfolk", "zip_code": "06058", "country": "US", "state": "CT", "display_address": ["20 Greenwoods Rd W", "Norfolk, CT 06058"]}, "phone": "+18605425531", "display_phone": "(860) 542-5531", "distance": 18642.03371503736}, {"id": "fj8-r6Z6DH_WeE5vUGB7jg", "alias": "xicohtencatl-great-barrington", "name": "Xicohtencatl", "image_url": "https://s3-media3.fl.yelpcdn.com/bphoto/UYbFRyxG5IIZjZzk_baAOw/o.jpg", "is_closed": false, "url": "https://www.yelp.com/biz/xicohtencatl-great-barrington?adjust_creative=ywY5UnLZrNrRl2b93Ruy_g&utm_campaign=yelp_api_v3&utm_medium=api_v3_business_search&utm_source=ywY5UnLZrNrRl2b93Ruy_g", "review_count": 179, "categories": [{"alias": "mexican", "title": "Mexican"}], "rating": 3.5, "coordinates": {"latitude": 42.202749, "longitude": -73.346869}, "transactions": [], "price": "$$", "location": {"address1": "50 Stockbridge Rd", "address2": "", "address3": "", "city": "Great Barrington", "zip_code": "01230", "country": "US", "state": "MA", "display_address": ["50 Stockbridge Rd", "Great Barrington, MA 01230"]}, "phone": "+14135282002", "display_phone": "(413) 528-2002", "distance": 11096.1335206477}, {"id": "burCK6fMsPegPfYT3ILnEw", "alias": "avocado-cafe-millerton", "name": "Avocado Cafe", "image_url": "https://s3-media1.fl.yelpcdn.com/bphoto/MnrXVqu4HPrYi_6JWiGfEw/o.jpg", "is_closed": false, "url": "https://www.yelp.com/biz/avocado-cafe-millerton?adjust_creative=ywY5UnLZrNrRl2b93Ruy_g&utm_campaign=yelp_api_v3&utm_medium=api_v3_business_search&utm_source=ywY5UnLZrNrRl2b93Ruy_g", "review_count": 26, "categories": [{"alias": "mexican", "title": "Mexican"}], "rating": 4.5, "coordinates": {"latitude": 41.952223, "longitude": -73.494428}, "transactions": [], "price": "$", "location": {"address1": "208 Rte 44", "address2": null, "address3": "Thompson Plz", "city": "Millerton", "zip_code": "12546", "country": "US", "state": "NY", "display_address": ["208 Rte 44", "Thompson Plz", "Millerton, NY 12546"]}, "phone": "+15185921181", "display_phone": "(518) 592-1181", "distance": 19895.76267204239}, {"id": "29kkATTOucG-9BIq8hxYeg", "alias": "main-street-restaurant-and-pub-north-canaan", "name": "Main Street Restaurant And Pub", "image_url": "https://s3-media1.fl.yelpcdn.com/bphoto/fgKNU6YaLA7QyhPWDFk6ww/o.jpg", "is_closed": false, "url": "https://www.yelp.com/biz/main-street-restaurant-and-pub-north-canaan?adjust_creative=ywY5UnLZrNrRl2b93Ruy_g&utm_campaign=yelp_api_v3&utm_medium=api_v3_business_search&utm_source=ywY5UnLZrNrRl2b93Ruy_g", "review_count": 1, "categories": [{"alias": "tradamerican", "title": "American (Traditional)"}, {"alias": "pubs", "title": "Pubs"}], "rating": 4.0, "coordinates": {"latitude": 42.0268419326169, "longitude": -73.3295238018036}, "transactions": [], "location": {"address1": "85 Main St", "address2": "", "address3": "", "city": "North Canaan", "zip_code": "06018", "country": "US", "state": "CT", "display_address": ["85 Main St", "North Canaan, CT 06018"]}, "phone": "", "display_phone": "", "distance": 9088.914881169043}, {"id": "0HWWQUBdjHiULYXV2OlVgg", "alias": "marketplace-kitchen-table-great-barrington", "name": "Marketplace Kitchen Table", "image_url": "https://s3-media1.fl.yelpcdn.com/bphoto/13B1KMRoMm0-jovYqHAoaQ/o.jpg", "is_closed": false, "url": "https://www.yelp.com/biz/marketplace-kitchen-table-great-barrington?adjust_creative=ywY5UnLZrNrRl2b93Ruy_g&utm_campaign=yelp_api_v3&utm_medium=api_v3_business_search&utm_source=ywY5UnLZrNrRl2b93Ruy_g", "review_count": 55, "categories": [{"alias": "burgers", "title": "Burgers"}, {"alias": "breakfast_brunch", "title": "Breakfast & Brunch"}, {"alias": "salad", "title": "Salad"}], "rating": 4.0, "coordinates": {"latitude": 42.2068, "longitude": -73.34618}, "transactions": [], "price": "$$", "location": {"address1": "240 Stockbridge Rd", "address2": "", "address3": null, "city": "Great Barrington", "zip_code": "01230", "country": "US", "state": "MA", "display_address": ["240 Stockbridge Rd", "Great Barrington, MA 01230"]}, "phone": "+14135282233", "display_phone": "(413) 528-2233", "distance": 11537.52508513735}, {"id": "pDwNElY8_HV4BQQaQOYloA", "alias": "20-railroad-public-house-great-barrington", "name": "20 Railroad Public House", "image_url": "https://s3-media3.fl.yelpcdn.com/bphoto/0EREvKNQbMh-AVzh6n0EKw/o.jpg", "is_closed": false, "url": "https://www.yelp.com/biz/20-railroad-public-house-great-barrington?adjust_creative=ywY5UnLZrNrRl2b93Ruy_g&utm_campaign=yelp_api_v3&utm_medium=api_v3_business_search&utm_source=ywY5UnLZrNrRl2b93Ruy_g", "review_count": 56, "categories": [{"alias": "tradamerican", "title": "American (Traditional)"}, {"alias": "cocktailbars", "title": "Cocktail Bars"}, {"alias": "pizza", "title": "Pizza"}], "rating": 3.5, "coordinates": {"latitude": 42.1947748269574, "longitude": -73.3631125600494}, "transactions": [], "price": "$$", "location": {"address1": "20 Railroad St", "address2": "", "address3": "", "city": "Great Barrington", "zip_code": "01230", "country": "US", "state": "MA", "display_address": ["20 Railroad St", "Great Barrington, MA 01230"]}, "phone": "+14135289345", "display_phone": "(413) 528-9345", "distance": 10122.41715367912}, {"id": "NiDVSHjk6WpLQlX7SaVtuQ", "alias": "gb-eats-great-barrington", "name": "GB eats", "image_url": "https://s3-media3.fl.yelpcdn.com/bphoto/PguezF_AmpO2N3tvwERTiw/o.jpg", "is_closed": false, "url": "https://www.yelp.com/biz/gb-eats-great-barrington?adjust_creative=ywY5UnLZrNrRl2b93Ruy_g&utm_campaign=yelp_api_v3&utm_medium=api_v3_business_search&utm_source=ywY5UnLZrNrRl2b93Ruy_g", "review_count": 67, "categories": [{"alias": "diners", "title": "Diners"}, {"alias": "newamerican", "title": "American (New)"}, {"alias": "breakfast_brunch", "title": "Breakfast & Brunch"}], "rating": 4.0, "coordinates": {"latitude": 42.1948114, "longitude": -73.3622229}, "transactions": [], "price": "$$", "location": {"address1": "282 Main St", "address2": "", "address3": null, "city": "Great Barrington", "zip_code": "01230", "country": "US", "state": "MA", "display_address": ["282 Main St", "Great Barrington, MA 01230"]}, "phone": "+14135288226", "display_phone": "(413) 528-8226", "distance": 10132.956659191661}, {"id": "_iDLvZQ3FDU0Ic5ZJYhs6Q", "alias": "the-east-great-barrington-3", "name": "The East", "image_url": "https://s3-media2.fl.yelpcdn.com/bphoto/LAvRTZS1Qpjw-eG0DqwMog/o.jpg", "is_closed": false, "url": "https://www.yelp.com/biz/the-east-great-barrington-3?adjust_creative=ywY5UnLZrNrRl2b93Ruy_g&utm_campaign=yelp_api_v3&utm_medium=api_v3_business_search&utm_source=ywY5UnLZrNrRl2b93Ruy_g", "review_count": 44, "categories": [{"alias": "chinese", "title": "Chinese"}, {"alias": "sushi", "title": "Sushi Bars"}], "rating": 3.5, "coordinates": {"latitude": 42.21063, "longitude": -73.34927}, "transactions": [], "price": "$$", "location": {"address1": "305 Stockbridge Rd", "address2": "", "address3": "", "city": "Great Barrington", "zip_code": "01230", "country": "US", "state": "MA", "display_address": ["305 Stockbridge Rd", "Great Barrington, MA 01230"]}, "phone": "+14135288850", "display_phone": "(413) 528-8850", "distance": 11953.589561154226}, {"id": "M5eUNWQMrpHu8Hne1HzeJA", "alias": "thornewood-inn-and-restaurant-great-barrington", "name": "Thornewood Inn & Restaurant", "image_url": "https://s3-media3.fl.yelpcdn.com/bphoto/1XWoME2SdC1q_6q2JggKLA/o.jpg", "is_closed": false, "url": "https://www.yelp.com/biz/thornewood-inn-and-restaurant-great-barrington?adjust_creative=ywY5UnLZrNrRl2b93Ruy_g&utm_campaign=yelp_api_v3&utm_medium=api_v3_business_search&utm_source=ywY5UnLZrNrRl2b93Ruy_g", "review_count": 21, "categories": [{"alias": "bedbreakfast", "title": "Bed & Breakfast"}, {"alias": "newamerican", "title": "American (New)"}], "rating": 4.0, "coordinates": {"latitude": 42.221102, "longitude": -73.343143}, "transactions": [], "price": "$$$", "location": {"address1": "453 Stockbridge Rd", "address2": "", "address3": "", "city": "Great Barrington", "zip_code": "01230", "country": "US", "state": "MA", "display_address": ["453 Stockbridge Rd", "Great Barrington, MA 01230"]}, "phone": "+14135283828", "display_phone": "(413) 528-3828", "distance": 13434.785775593466}, {"id": "pqX6xDHUOPS46A0J2RX1ig", "alias": "berkshire-mountain-bakery-housatonic", "name": "Berkshire Mountain Bakery", "image_url": "https://s3-media1.fl.yelpcdn.com/bphoto/MzGyxKNuw2ttFFEMHminDw/o.jpg", "is_closed": false, "url": "https://www.yelp.com/biz/berkshire-mountain-bakery-housatonic?adjust_creative=ywY5UnLZrNrRl2b93Ruy_g&utm_campaign=yelp_api_v3&utm_medium=api_v3_business_search&utm_source=ywY5UnLZrNrRl2b93Ruy_g", "review_count": 53, "categories": [{"alias": "bakeries", "title": "Bakeries"}, {"alias": "pizza", "title": "Pizza"}], "rating": 4.5, "coordinates": {"latitude": 42.2507939734799, "longitude": -73.3638707368851}, "transactions": [], "price": "$$", "location": {"address1": "367 Park St", "address2": "", "address3": "Rte 183", "city": "Housatonic", "zip_code": "01236", "country": "US", "state": "MA", "display_address": ["367 Park St", "Rte 183", "Housatonic, MA 01236"]}, "phone": "+14132743412", "display_phone": "(413) 274-3412", "distance": 16348.797157483357}, {"id": "CB7oCmfIzSP7crYkltd3GQ", "alias": "provisions-the-white-hart-inn-salisbury", "name": "Provisions @ the White Hart Inn", "image_url": "https://s3-media1.fl.yelpcdn.com/bphoto/l3DDD8JNbqM8UDoP6WyK-g/o.jpg", "is_closed": false, "url": "https://www.yelp.com/biz/provisions-the-white-hart-inn-salisbury?adjust_creative=ywY5UnLZrNrRl2b93Ruy_g&utm_campaign=yelp_api_v3&utm_medium=api_v3_business_search&utm_source=ywY5UnLZrNrRl2b93Ruy_g", "review_count": 5, "categories": [{"alias": "cafes", "title": "Cafes"}], "rating": 4.0, "coordinates": {"latitude": 41.9846964741086, "longitude": -73.4224485794624}, "transactions": [], "location": {"address1": "15 Under Mountain Rd", "address2": "", "address3": null, "city": "Salisbury", "zip_code": "06068", "country": "US", "state": "CT", "display_address": ["15 Under Mountain Rd", "Salisbury, CT 06068"]}, "phone": "+18604350030", "display_phone": "(860) 435-0030", "distance": 14018.946599918432}, {"id": "jXGL0CtuNCp4Xqj-XVo0sw", "alias": "mizzas-lakeville", "name": "Mizza's", "image_url": "https://s3-media4.fl.yelpcdn.com/bphoto/1b43TiU0SPRMGrNRxZrhSw/o.jpg", "is_closed": false, "url": "https://www.yelp.com/biz/mizzas-lakeville?adjust_creative=ywY5UnLZrNrRl2b93Ruy_g&utm_campaign=yelp_api_v3&utm_medium=api_v3_business_search&utm_source=ywY5UnLZrNrRl2b93Ruy_g", "review_count": 40, "categories": [{"alias": "pizza", "title": "Pizza"}, {"alias": "italian", "title": "Italian"}, {"alias": "sandwiches", "title": "Sandwiches"}], "rating": 4.5, "coordinates": {"latitude": 41.9630255, "longitude": -73.4408258}, "transactions": [], "price": "$$", "location": {"address1": "6 Ethan Allen St", "address2": null, "address3": null, "city": "Lakeville", "zip_code": "06039", "country": "US", "state": "CT", "display_address": ["6 Ethan Allen St", "Lakeville, CT 06039"]}, "phone": "+18604356266", "display_phone": "(860) 435-6266", "distance": 16786.69442512716}, {"id": "FDiWZLRey6JFsfpIsH_zMw", "alias": "the-bistro-box-great-barrington", "name": "The Bistro Box", "image_url": "https://s3-media1.fl.yelpcdn.com/bphoto/HdQUOZ1w4Jro22ydZv8RtA/o.jpg", "is_closed": false, "url": "https://www.yelp.com/biz/the-bistro-box-great-barrington?adjust_creative=ywY5UnLZrNrRl2b93Ruy_g&utm_campaign=yelp_api_v3&utm_medium=api_v3_business_search&utm_source=ywY5UnLZrNrRl2b93Ruy_g", "review_count": 116, "categories": [{"alias": "tradamerican", "title": "American (Traditional)"}, {"alias": "hotdog", "title": "Hot Dogs"}, {"alias": "sandwiches", "title": "Sandwiches"}], "rating": 4.5, "coordinates": {"latitude": 42.1716496245439, "longitude": -73.3629432694792}, "transactions": [], "price": "$$", "location": {"address1": "937 S Main St", "address2": "", "address3": "", "city": "Great Barrington", "zip_code": "01230", "country": "US", "state": "MA", "display_address": ["937 S Main St", "Great Barrington, MA 01230"]}, "phone": "+14137175958", "display_phone": "(413) 717-5958", "distance": 7553.0472078276325}, {"id": "akdGp78cMY3swQrF8r69TA", "alias": "stateline-pizza-canaan", "name": "Stateline Pizza", "image_url": "https://s3-media4.fl.yelpcdn.com/bphoto/h21nNfGafKheHyhwIINKVg/o.jpg", "is_closed": false, "url": "https://www.yelp.com/biz/stateline-pizza-canaan?adjust_creative=ywY5UnLZrNrRl2b93Ruy_g&utm_campaign=yelp_api_v3&utm_medium=api_v3_business_search&utm_source=ywY5UnLZrNrRl2b93Ruy_g", "review_count": 19, "categories": [{"alias": "pizza", "title": "Pizza"}, {"alias": "italian", "title": "Italian"}], "rating": 3.5, "coordinates": {"latitude": 42.036883, "longitude": -73.324765}, "transactions": [], "price": "$$", "location": {"address1": "340 N Elm St", "address2": "", "address3": "", "city": "Canaan", "zip_code": "06018", "country": "US", "state": "CT", "display_address": ["340 N Elm St", "Canaan, CT 06018"]}, "phone": "+18608241554", "display_phone": "(860) 824-1554", "distance": 8204.542533609276}, {"id": "5K6ZYxpipMn96vOEs5uf2Q", "alias": "pops-diner-canaan", "name": "Pops Diner", "image_url": "https://s3-media4.fl.yelpcdn.com/bphoto/ndOF2LNM-1BdQ-bNn7-wjA/o.jpg", "is_closed": false, "url": "https://www.yelp.com/biz/pops-diner-canaan?adjust_creative=ywY5UnLZrNrRl2b93Ruy_g&utm_campaign=yelp_api_v3&utm_medium=api_v3_business_search&utm_source=ywY5UnLZrNrRl2b93Ruy_g", "review_count": 20, "categories": [{"alias": "diners", "title": "Diners"}, {"alias": "breakfast_brunch", "title": "Breakfast & Brunch"}], "rating": 4.0, "coordinates": {"latitude": 42.026821, "longitude": -73.329581}, "transactions": [], "location": {"address1": "85 Main St", "address2": null, "address3": "", "city": "Canaan", "zip_code": "06018", "country": "US", "state": "CT", "display_address": ["85 Main St", "Canaan, CT 06018"]}, "phone": "+18604534448", "display_phone": "(860) 453-4448", "distance": 9089.51324206724}, {"id": "NxOs3pBFdxeT63HjfiOvAg", "alias": "botanica-great-barrington", "name": "Botanica", "image_url": "https://s3-media2.fl.yelpcdn.com/bphoto/vb8-YGyNVroSRLexSOgRwA/o.jpg", "is_closed": false, "url": "https://www.yelp.com/biz/botanica-great-barrington?adjust_creative=ywY5UnLZrNrRl2b93Ruy_g&utm_campaign=yelp_api_v3&utm_medium=api_v3_business_search&utm_source=ywY5UnLZrNrRl2b93Ruy_g", "review_count": 32, "categories": [{"alias": "coffee", "title": "Coffee & Tea"}, {"alias": "breakfast_brunch", "title": "Breakfast & Brunch"}, {"alias": "cocktailbars", "title": "Cocktail Bars"}], "rating": 4.0, "coordinates": {"latitude": 42.1949262212033, "longitude": -73.3633430444444}, "transactions": [], "price": "$", "location": {"address1": "34 Railroad St", "address2": "", "address3": null, "city": "Great Barrington", "zip_code": "01230", "country": "US", "state": "MA", "display_address": ["34 Railroad St", "Great Barrington, MA 01230"]}, "phone": "+14136453548", "display_phone": "(413) 645-3548", "distance": 10138.707902961201}, {"id": "8L8dptUTYdhhGf_szpQa-Q", "alias": "elixir-great-barrington-2", "name": "Elixir", "image_url": "https://s3-media4.fl.yelpcdn.com/bphoto/3rbG7SL6_qmVL9wbOQhd_g/o.jpg", "is_closed": false, "url": "https://www.yelp.com/biz/elixir-great-barrington-2?adjust_creative=ywY5UnLZrNrRl2b93Ruy_g&utm_campaign=yelp_api_v3&utm_medium=api_v3_business_search&utm_source=ywY5UnLZrNrRl2b93Ruy_g", "review_count": 14, "categories": [{"alias": "vegan", "title": "Vegan"}, {"alias": "tea", "title": "Tea Rooms"}, {"alias": "organic_stores", "title": "Organic Stores"}], "rating": 3.5, "coordinates": {"latitude": 42.1952667236328, "longitude": -73.3630981445312}, "transactions": [], "price": "$$$", "location": {"address1": "70 Railroad St", "address2": "", "address3": "", "city": "Great Barrington", "zip_code": "01230", "country": "US", "state": "MA", "display_address": ["70 Railroad St", "Great Barrington, MA 01230"]}, "phone": "+14136448999", "display_phone": "(413) 644-8999", "distance": 10168.38121396405}, {"id": "KeAdq41KMxVelJE0TgpGbQ", "alias": "manhattan-pizza-great-barrington", "name": "Manhattan Pizza", "image_url": "https://s3-media1.fl.yelpcdn.com/bphoto/qWMG0Kh8sWrVZ8ynJuRpTQ/o.jpg", "is_closed": false, "url": "https://www.yelp.com/biz/manhattan-pizza-great-barrington?adjust_creative=ywY5UnLZrNrRl2b93Ruy_g&utm_campaign=yelp_api_v3&utm_medium=api_v3_business_search&utm_source=ywY5UnLZrNrRl2b93Ruy_g", "review_count": 23, "categories": [{"alias": "pizza", "title": "Pizza"}], "rating": 3.0, "coordinates": {"latitude": 42.188658, "longitude": -73.364821}, "transactions": [], "price": "$$", "location": {"address1": "490 Main St", "address2": "", "address3": "", "city": "Great Barrington", "zip_code": "01230", "country": "US", "state": "MA", "display_address": ["490 Main St", "Great Barrington, MA 01230"]}, "phone": "+14135282550", "display_phone": "(413) 528-2550", "distance": 9439.208501869607}, {"id": "SJMNqmEizu_kxEPghsFH4A", "alias": "the-boathouse-lakeville", "name": "The Boathouse", "image_url": "https://s3-media2.fl.yelpcdn.com/bphoto/r_CeU8-yG09_4iz498GPnw/o.jpg", "is_closed": false, "url": "https://www.yelp.com/biz/the-boathouse-lakeville?adjust_creative=ywY5UnLZrNrRl2b93Ruy_g&utm_campaign=yelp_api_v3&utm_medium=api_v3_business_search&utm_source=ywY5UnLZrNrRl2b93Ruy_g", "review_count": 64, "categories": [{"alias": "newamerican", "title": "American (New)"}, {"alias": "sushi", "title": "Sushi Bars"}, {"alias": "seafood", "title": "Seafood"}], "rating": 2.5, "coordinates": {"latitude": 41.9648779677947, "longitude": -73.4408258421101}, "transactions": [], "price": "$$$", "location": {"address1": "349 Main St", "address2": "", "address3": "", "city": "Lakeville", "zip_code": "06039", "country": "US", "state": "CT", "display_address": ["349 Main St", "Lakeville, CT 06039"]}, "phone": "+18604352111", "display_phone": "(860) 435-2111", "distance": 16614.300072234902}, {"id": "BAJESGPWmLCLIpdMaiGUqA", "alias": "the-southfield-store-southfield", "name": "The Southfield Store", "image_url": "https://s3-media4.fl.yelpcdn.com/bphoto/s18dzfzxa4KvnnKwX7dqzw/o.jpg", "is_closed": false, "url": "https://www.yelp.com/biz/the-southfield-store-southfield?adjust_creative=ywY5UnLZrNrRl2b93Ruy_g&utm_campaign=yelp_api_v3&utm_medium=api_v3_business_search&utm_source=ywY5UnLZrNrRl2b93Ruy_g", "review_count": 40, "categories": [{"alias": "bakeries", "title": "Bakeries"}, {"alias": "coffee", "title": "Coffee & Tea"}, {"alias": "newamerican", "title": "American (New)"}], "rating": 3.5, "coordinates": {"latitude": 42.100691, "longitude": -73.233851}, "transactions": [], "price": "$$", "location": {"address1": "163 Norfolk Rd", "address2": null, "address3": null, "city": "Southfield", "zip_code": "01259", "country": "US", "state": "MA", "display_address": ["163 Norfolk Rd", "Southfield, MA 01259"]}, "phone": "+14132295050", "display_phone": "(413) 229-5050", "distance": 10973.385769827782}, {"id": "oeQ9OQB-m_Fq1xLIGKIToA", "alias": "dola-pizzeria-great-barrington-2", "name": "Dola Pizzeria", "image_url": "https://s3-media2.fl.yelpcdn.com/bphoto/IKb6z2zz45Ll6Jf_K0tSNg/o.jpg", "is_closed": false, "url": "https://www.yelp.com/biz/dola-pizzeria-great-barrington-2?adjust_creative=ywY5UnLZrNrRl2b93Ruy_g&utm_campaign=yelp_api_v3&utm_medium=api_v3_business_search&utm_source=ywY5UnLZrNrRl2b93Ruy_g", "review_count": 11, "categories": [{"alias": "pizza", "title": "Pizza"}], "rating": 4.0, "coordinates": {"latitude": 42.19489, "longitude": -73.36304}, "transactions": [], "price": "$$", "location": {"address1": "20 Railroad St", "address2": "", "address3": "", "city": "Great Barrington", "zip_code": "02806", "country": "US", "state": "MA", "display_address": ["20 Railroad St", "Great Barrington, MA 02806"]}, "phone": "", "display_phone": "", "distance": 10123.801666167052}, {"id": "ai6kbJz0ECGc0-VvZ4i1vQ", "alias": "bogies-restaurant-and-pub-great-barrington", "name": "Bogies Restaurant & Pub", "image_url": "https://s3-media2.fl.yelpcdn.com/bphoto/Va91vXZ_pilW2wPpvNCbwg/o.jpg", "is_closed": false, "url": "https://www.yelp.com/biz/bogies-restaurant-and-pub-great-barrington?adjust_creative=ywY5UnLZrNrRl2b93Ruy_g&utm_campaign=yelp_api_v3&utm_medium=api_v3_business_search&utm_source=ywY5UnLZrNrRl2b93Ruy_g", "review_count": 18, "categories": [{"alias": "newamerican", "title": "American (New)"}, {"alias": "pubs", "title": "Pubs"}, {"alias": "beer_and_wine", "title": "Beer, Wine & Spirits"}], "rating": 3.0, "coordinates": {"latitude": 42.1704012, "longitude": -73.3633348}, "transactions": [], "price": "$$", "location": {"address1": "935 S Main St", "address2": "", "address3": "", "city": "Great Barrington", "zip_code": "01230", "country": "US", "state": "MA", "display_address": ["935 S Main St", "Great Barrington, MA 01230"]}, "phone": "+14135285959", "display_phone": "(413) 528-5959", "distance": 7413.069611744466}, {"id": "AceFH1UHW8jLd3atLf9ouQ", "alias": "bizen-gourmet-japanese-cuisine-and-sushi-bar-great-barrington", "name": "Bizen Gourmet Japanese Cuisine & Sushi Bar", "image_url": "https://s3-media2.fl.yelpcdn.com/bphoto/-0dwVELwKigHEZEDSaeHkQ/o.jpg", "is_closed": false, "url": "https://www.yelp.com/biz/bizen-gourmet-japanese-cuisine-and-sushi-bar-great-barrington?adjust_creative=ywY5UnLZrNrRl2b93Ruy_g&utm_campaign=yelp_api_v3&utm_medium=api_v3_business_search&utm_source=ywY5UnLZrNrRl2b93Ruy_g", "review_count": 116, "categories": [{"alias": "japanese", "title": "Japanese"}, {"alias": "sushi", "title": "Sushi Bars"}], "rating": 3.0, "coordinates": {"latitude": 42.1946224810561, "longitude": -73.3629634583339}, "transactions": [], "price": "$$$", "location": {"address1": "17 Railroad St", "address2": "", "address3": "", "city": "Great Barrington", "zip_code": "01230", "country": "US", "state": "MA", "display_address": ["17 Railroad St", "Great Barrington, MA 01230"]}, "phone": "+14135284343", "display_phone": "(413) 528-4343", "distance": 10111.847666759502}, {"id": "Rx3YRKtUhHg1FvU8mjnvlA", "alias": "station-place-cafe-norfolk", "name": "Station Place Cafe", "image_url": "https://s3-media1.fl.yelpcdn.com/bphoto/uT0xUKn5is93uyYkPntXYg/o.jpg", "is_closed": false, "url": "https://www.yelp.com/biz/station-place-cafe-norfolk?adjust_creative=ywY5UnLZrNrRl2b93Ruy_g&utm_campaign=yelp_api_v3&utm_medium=api_v3_business_search&utm_source=ywY5UnLZrNrRl2b93Ruy_g", "review_count": 13, "categories": [{"alias": "cafes", "title": "Cafes"}], "rating": 3.5, "coordinates": {"latitude": 41.9904670715332, "longitude": -73.1987075805664}, "transactions": [], "price": "$$", "location": {"address1": "10 Station Pl", "address2": null, "address3": null, "city": "Norfolk", "zip_code": "06058", "country": "US", "state": "CT", "display_address": ["10 Station Pl", "Norfolk, CT 06058"]}, "phone": "+18605422555", "display_phone": "(860) 542-2555", "distance": 18739.386725715838}, {"id": "VnjDXH76ZYoGcCGDuzIJyA", "alias": "moms-country-cafe-south-egremont", "name": "Mom's Country Cafe", "image_url": "https://s3-media2.fl.yelpcdn.com/bphoto/LnzKWUDUcAahqoFkEd_HZA/o.jpg", "is_closed": false, "url": "https://www.yelp.com/biz/moms-country-cafe-south-egremont?adjust_creative=ywY5UnLZrNrRl2b93Ruy_g&utm_campaign=yelp_api_v3&utm_medium=api_v3_business_search&utm_source=ywY5UnLZrNrRl2b93Ruy_g", "review_count": 33, "categories": [{"alias": "breakfast_brunch", "title": "Breakfast & Brunch"}, {"alias": "sandwiches", "title": "Sandwiches"}, {"alias": "creperies", "title": "Creperies"}], "rating": 4.0, "coordinates": {"latitude": 42.1603156604877, "longitude": -73.4193330051819}, "transactions": [], "price": "$$", "location": {"address1": "65 Main St", "address2": "", "address3": "", "city": "South Egremont", "zip_code": "01258", "country": "US", "state": "MA", "display_address": ["65 Main St", "South Egremont, MA 01258"]}, "phone": "+14135282414", "display_phone": "(413) 528-2414", "distance": 7639.188388421002}, {"id": "vEF7HiRxl9fFJX_Ju5kjNA", "alias": "collins-diner-canaan-3", "name": "Collins Diner", "image_url": "https://s3-media2.fl.yelpcdn.com/bphoto/FdIm_wHhkH7zwJ-inH-E9A/o.jpg", "is_closed": false, "url": "https://www.yelp.com/biz/collins-diner-canaan-3?adjust_creative=ywY5UnLZrNrRl2b93Ruy_g&utm_campaign=yelp_api_v3&utm_medium=api_v3_business_search&utm_source=ywY5UnLZrNrRl2b93Ruy_g", "review_count": 19, "categories": [{"alias": "diners", "title": "Diners"}], "rating": 2.5, "coordinates": {"latitude": 42.026151, "longitude": -73.328879}, "transactions": [], "price": "$", "location": {"address1": "53 Main St", "address2": "", "address3": "", "city": "Canaan", "zip_code": "06018", "country": "US", "state": "CT", "display_address": ["53 Main St", "Canaan, CT 06018"]}, "phone": "+18608247040", "display_phone": "(860) 824-7040", "distance": 9179.240698510977}, {"id": "MyWrQ_vuaF8gyZBWWTQyPA", "alias": "dads-diner-copake", "name": "Dads Diner", "image_url": "https://s3-media1.fl.yelpcdn.com/bphoto/gff4fwBqDu0gTedB8i3tsA/o.jpg", "is_closed": false, "url": "https://www.yelp.com/biz/dads-diner-copake?adjust_creative=ywY5UnLZrNrRl2b93Ruy_g&utm_campaign=yelp_api_v3&utm_medium=api_v3_business_search&utm_source=ywY5UnLZrNrRl2b93Ruy_g", "review_count": 58, "categories": [{"alias": "diners", "title": "Diners"}], "rating": 4.0, "coordinates": {"latitude": 42.1039261851277, "longitude": -73.5485709315521}, "transactions": [], "price": "$", "location": {"address1": "178 County Rte 7A", "address2": null, "address3": null, "city": "Copake", "zip_code": "12516", "country": "US", "state": "NY", "display_address": ["178 County Rte 7A", "Copake, NY 12516"]}, "phone": "+15183293237", "display_phone": "(518) 329-3237", "distance": 15004.2119614329}, {"id": "0pwyB4dpem6dDGtVlimIDw", "alias": "fiesta-bar-and-grill-great-barrington", "name": "Fiesta Bar & Grill", "image_url": "https://s3-media1.fl.yelpcdn.com/bphoto/WNyK4Q1s9lWE2a_eVHUK1w/o.jpg", "is_closed": false, "url": "https://www.yelp.com/biz/fiesta-bar-and-grill-great-barrington?adjust_creative=ywY5UnLZrNrRl2b93Ruy_g&utm_campaign=yelp_api_v3&utm_medium=api_v3_business_search&utm_source=ywY5UnLZrNrRl2b93Ruy_g", "review_count": 34, "categories": [{"alias": "mexican", "title": "Mexican"}, {"alias": "burgers", "title": "Burgers"}, {"alias": "cocktailbars", "title": "Cocktail Bars"}], "rating": 4.0, "coordinates": {"latitude": 42.194914, "longitude": -73.362431}, "transactions": [], "location": {"address1": "284 Main St", "address2": "Bldg 2", "address3": "", "city": "Great Barrington", "zip_code": "01230", "country": "US", "state": "MA", "display_address": ["284 Main St", "Bldg 2", "Great Barrington, MA 01230"]}, "phone": "+14135283343", "display_phone": "(413) 528-3343", "distance": 10139.68018750373}, {"id": "jzF6OdB3sQiYlP-xWjk-Hw", "alias": "great-wall-kitchen-canaan", "name": "Great Wall Kitchen", "image_url": "https://s3-media2.fl.yelpcdn.com/bphoto/T2VWtmstJHoOADLbxJDDiA/o.jpg", "is_closed": false, "url": "https://www.yelp.com/biz/great-wall-kitchen-canaan?adjust_creative=ywY5UnLZrNrRl2b93Ruy_g&utm_campaign=yelp_api_v3&utm_medium=api_v3_business_search&utm_source=ywY5UnLZrNrRl2b93Ruy_g", "review_count": 7, "categories": [{"alias": "chinese", "title": "Chinese"}], "rating": 2.5, "coordinates": {"latitude": 42.0266001, "longitude": -73.3342631}, "transactions": [], "location": {"address1": "97 Church St", "address2": "", "address3": "", "city": "Canaan", "zip_code": "06018", "country": "US", "state": "CT", "display_address": ["97 Church St", "Canaan, CT 06018"]}, "phone": "+18608247399", "display_phone": "(860) 824-7399", "distance": 8995.988635919966}, {"id": "_IeXgcpDnbba34__lW7eVA", "alias": "pleasant-and-main-housatonic", "name": "Pleasant and Main", "image_url": "https://s3-media2.fl.yelpcdn.com/bphoto/5wvDuE7IzPwXzRQL_LZjAA/o.jpg", "is_closed": false, "url": "https://www.yelp.com/biz/pleasant-and-main-housatonic?adjust_creative=ywY5UnLZrNrRl2b93Ruy_g&utm_campaign=yelp_api_v3&utm_medium=api_v3_business_search&utm_source=ywY5UnLZrNrRl2b93Ruy_g", "review_count": 124, "categories": [{"alias": "cafes", "title": "Cafes"}, {"alias": "breakfast_brunch", "title": "Breakfast & Brunch"}, {"alias": "creperies", "title": "Creperies"}], "rating": 4.0, "coordinates": {"latitude": 42.2558373814533, "longitude": -73.3685981023773}, "transactions": [], "price": "$$", "location": {"address1": "1063 Main St", "address2": "", "address3": "", "city": "Housatonic", "zip_code": "01236", "country": "US", "state": "MA", "display_address": ["1063 Main St", "Housatonic, MA 01236"]}, "phone": "+14132746303", "display_phone": "(413) 274-6303", "distance": 16908.66038252148}, {"id": "uLICLItueUSsjmFzRCHhSA", "alias": "bizalions-fine-food-great-barrington-2", "name": "Bizalion's Fine Food", "image_url": "https://s3-media2.fl.yelpcdn.com/bphoto/Hoy_yb5pAlIMEnjCJUQnzQ/o.jpg", "is_closed": false, "url": "https://www.yelp.com/biz/bizalions-fine-food-great-barrington-2?adjust_creative=ywY5UnLZrNrRl2b93Ruy_g&utm_campaign=yelp_api_v3&utm_medium=api_v3_business_search&utm_source=ywY5UnLZrNrRl2b93Ruy_g", "review_count": 22, "categories": [{"alias": "oliveoil", "title": "Olive Oil"}, {"alias": "breakfast_brunch", "title": "Breakfast & Brunch"}], "rating": 4.0, "coordinates": {"latitude": 42.1820817, "longitude": -73.3646342}, "transactions": [], "price": "$$", "location": {"address1": "684 Main St", "address2": "Ste 3", "address3": null, "city": "Great Barrington", "zip_code": "01230", "country": "US", "state": "MA", "display_address": ["684 Main St", "Ste 3", "Great Barrington, MA 01230"]}, "phone": "+14136449988", "display_phone": "(413) 644-9988", "distance": 8708.352419220215}, {"id": "paVKtaYXqJJF41qNzLaaVQ", "alias": "taft-farms-great-barrington", "name": "Taft Farms", "image_url": "https://s3-media2.fl.yelpcdn.com/bphoto/KG4bZ_R-Q3aDQM-QVzFXRg/o.jpg", "is_closed": false, "url": "https://www.yelp.com/biz/taft-farms-great-barrington?adjust_creative=ywY5UnLZrNrRl2b93Ruy_g&utm_campaign=yelp_api_v3&utm_medium=api_v3_business_search&utm_source=ywY5UnLZrNrRl2b93Ruy_g", "review_count": 30, "categories": [{"alias": "farmersmarket", "title": "Farmers Market"}, {"alias": "delis", "title": "Delis"}], "rating": 4.0, "coordinates": {"latitude": 42.2326395706116, "longitude": -73.3466951849741}, "transactions": [], "price": "$$", "location": {"address1": "119 Park St N", "address2": null, "address3": "", "city": "Great Barrington", "zip_code": "01230", "country": "US", "state": "MA", "display_address": ["119 Park St N", "Great Barrington, MA 01230"]}, "phone": "+14135281515", "display_phone": "(413) 528-1515", "distance": 14422.994340147723}, {"id": "IpUJeR-s9WjgZW7ManYzEQ", "alias": "depot-deli-copake-falls-2", "name": "Depot Deli", "image_url": "https://s3-media1.fl.yelpcdn.com/bphoto/Bh38XXwLz3JSECilZ0W3Bg/o.jpg", "is_closed": false, "url": "https://www.yelp.com/biz/depot-deli-copake-falls-2?adjust_creative=ywY5UnLZrNrRl2b93Ruy_g&utm_campaign=yelp_api_v3&utm_medium=api_v3_business_search&utm_source=ywY5UnLZrNrRl2b93Ruy_g", "review_count": 29, "categories": [{"alias": "delis", "title": "Delis"}, {"alias": "bakeries", "title": "Bakeries"}, {"alias": "icecream", "title": "Ice Cream & Frozen Yogurt"}], "rating": 4.5, "coordinates": {"latitude": 42.120604, "longitude": -73.520066}, "transactions": [], "price": "$", "location": {"address1": "64 Miles Rd", "address2": null, "address3": null, "city": "Copake Falls", "zip_code": "12517", "country": "US", "state": "NY", "display_address": ["64 Miles Rd", "Copake Falls, NY 12517"]}, "phone": "+15183294770", "display_phone": "(518) 329-4770", "distance": 12788.477116183145}, {"id": "HF70uw8I7Q_FqS5Lrg8kPg", "alias": "blackberry-river-baking-canaan", "name": "Blackberry River Baking", "image_url": "https://s3-media4.fl.yelpcdn.com/bphoto/c0yCKEcCnWprQXQY_9O2Lg/o.jpg", "is_closed": false, "url": "https://www.yelp.com/biz/blackberry-river-baking-canaan?adjust_creative=ywY5UnLZrNrRl2b93Ruy_g&utm_campaign=yelp_api_v3&utm_medium=api_v3_business_search&utm_source=ywY5UnLZrNrRl2b93Ruy_g", "review_count": 49, "categories": [{"alias": "breakfast_brunch", "title": "Breakfast & Brunch"}, {"alias": "bakeries", "title": "Bakeries"}, {"alias": "newamerican", "title": "American (New)"}], "rating": 4.0, "coordinates": {"latitude": 42.0235841721296, "longitude": -73.32145370543}, "transactions": [], "price": "$", "location": {"address1": "18 E Main St", "address2": "", "address3": "", "city": "Canaan", "zip_code": "06018", "country": "US", "state": "CT", "display_address": ["18 E Main St", "Canaan, CT 06018"]}, "phone": "+18608248275", "display_phone": "(860) 824-8275", "distance": 9371.934530443712}, {"id": "CH05e_baAf7AkI94JPuWvg", "alias": "restaurants-old-inn-on-the-green-new-marlborough", "name": "Restaurants Old Inn On The Green", "image_url": "", "is_closed": false, "url": "https://www.yelp.com/biz/restaurants-old-inn-on-the-green-new-marlborough?adjust_creative=ywY5UnLZrNrRl2b93Ruy_g&utm_campaign=yelp_api_v3&utm_medium=api_v3_business_search&utm_source=ywY5UnLZrNrRl2b93Ruy_g", "review_count": 1, "categories": [{"alias": "coffee", "title": "Coffee & Tea"}, {"alias": "breakfast_brunch", "title": "Breakfast & Brunch"}, {"alias": "wine_bars", "title": "Wine Bars"}], "rating": 5.0, "coordinates": {"latitude": 42.122804, "longitude": -73.230522}, "transactions": [], "location": {"address1": "134 Hartsville-New Marlborough Rd", "address2": "", "address3": null, "city": "New Marlborough", "zip_code": "01230", "country": "US", "state": "MA", "display_address": ["134 Hartsville-New Marlborough Rd", "New Marlborough, MA 01230"]}, "phone": "+14132297924", "display_phone": "(413) 229-7924", "distance": 11431.687019108034}, {"id": "2kBz_-OHhdpA7AQd2Rg7rg", "alias": "farm-country-soup-great-barrington-2", "name": "Farm Country Soup", "image_url": "https://s3-media4.fl.yelpcdn.com/bphoto/iCPJvkuXXSSfKyiV_tHYRw/o.jpg", "is_closed": false, "url": "https://www.yelp.com/biz/farm-country-soup-great-barrington-2?adjust_creative=ywY5UnLZrNrRl2b93Ruy_g&utm_campaign=yelp_api_v3&utm_medium=api_v3_business_search&utm_source=ywY5UnLZrNrRl2b93Ruy_g", "review_count": 1, "categories": [{"alias": "comfortfood", "title": "Comfort Food"}, {"alias": "breakfast_brunch", "title": "Breakfast & Brunch"}, {"alias": "sandwiches", "title": "Sandwiches"}], "rating": 5.0, "coordinates": {"latitude": 42.2116193, "longitude": -73.3458393}, "transactions": [], "location": {"address1": "389 Stockbridge Rd", "address2": "", "address3": "", "city": "Great Barrington", "zip_code": "01230", "country": "US", "state": "MA", "display_address": ["389 Stockbridge Rd", "Great Barrington, MA 01230"]}, "phone": "+14135280040", "display_phone": "(413) 528-0040", "distance": 12113.768235094316}, {"id": "_HmOkwI-mwiz3qoLeYMCkg", "alias": "siam-square-great-barrington", "name": "Siam Square", "image_url": "https://s3-media1.fl.yelpcdn.com/bphoto/iWMq64xfX9_vonqM4YDa8w/o.jpg", "is_closed": false, "url": "https://www.yelp.com/biz/siam-square-great-barrington?adjust_creative=ywY5UnLZrNrRl2b93Ruy_g&utm_campaign=yelp_api_v3&utm_medium=api_v3_business_search&utm_source=ywY5UnLZrNrRl2b93Ruy_g", "review_count": 61, "categories": [{"alias": "thai", "title": "Thai"}], "rating": 3.0, "coordinates": {"latitude": 42.1946555, "longitude": -73.3623609}, "transactions": [], "price": "$$", "location": {"address1": "290 Main St", "address2": "", "address3": "", "city": "Great Barrington", "zip_code": "01230", "country": "US", "state": "MA", "display_address": ["290 Main St", "Great Barrington, MA 01230"]}, "phone": "+14136449119", "display_phone": "(413) 644-9119", "distance": 10119.63819336156}, {"id": "J_v5yJajj7FDNW-xFDqBtA", "alias": "taros-ny-style-pizzeria-and-restaurant-millerton", "name": "Taro's NY Style Pizzeria & Restaurant", "image_url": "https://s3-media2.fl.yelpcdn.com/bphoto/nD3KVzkh_I5OLATLafAdQg/o.jpg", "is_closed": false, "url": "https://www.yelp.com/biz/taros-ny-style-pizzeria-and-restaurant-millerton?adjust_creative=ywY5UnLZrNrRl2b93Ruy_g&utm_campaign=yelp_api_v3&utm_medium=api_v3_business_search&utm_source=ywY5UnLZrNrRl2b93Ruy_g", "review_count": 33, "categories": [{"alias": "pizza", "title": "Pizza"}], "rating": 3.5, "coordinates": {"latitude": 41.95324, "longitude": -73.51112}, "transactions": [], "price": "$$", "location": {"address1": "18 Main St", "address2": "", "address3": "", "city": "Millerton", "zip_code": "12546", "country": "US", "state": "NY", "display_address": ["18 Main St", "Millerton, NY 12546"]}, "phone": "+15187896630", "display_phone": "(518) 789-6630", "distance": 20552.83187706995}, {"id": "49F-lpG6WPcHn0_r2gKT-g", "alias": "rio-cafe-great-barrington", "name": "Rio Cafe", "image_url": "https://s3-media1.fl.yelpcdn.com/bphoto/j-WT51OZkgyfvsbFY-MBjw/o.jpg", "is_closed": false, "url": "https://www.yelp.com/biz/rio-cafe-great-barrington?adjust_creative=ywY5UnLZrNrRl2b93Ruy_g&utm_campaign=yelp_api_v3&utm_medium=api_v3_business_search&utm_source=ywY5UnLZrNrRl2b93Ruy_g", "review_count": 22, "categories": [{"alias": "breakfast_brunch", "title": "Breakfast & Brunch"}, {"alias": "tradamerican", "title": "American (Traditional)"}, {"alias": "juicebars", "title": "Juice Bars & Smoothies"}], "rating": 4.0, "coordinates": {"latitude": 42.212162, "longitude": -73.345642}, "transactions": [], "location": {"address1": "401 Stockbridge Rd", "address2": null, "address3": "", "city": "Great Barrington", "zip_code": "01230", "country": "US", "state": "MA", "display_address": ["401 Stockbridge Rd", "Great Barrington, MA 01230"]}, "phone": "+14135289746", "display_phone": "(413) 528-9746", "distance": 12206.821945472588}, {"id": "Y5ewKI2xZu6r13C5lDxMjQ", "alias": "crossroads-food-shop-hillsdale", "name": "Crossroads Food Shop", "image_url": "https://s3-media2.fl.yelpcdn.com/bphoto/9lsAKvIqpQRnskeF0M73ew/o.jpg", "is_closed": false, "url": "https://www.yelp.com/biz/crossroads-food-shop-hillsdale?adjust_creative=ywY5UnLZrNrRl2b93Ruy_g&utm_campaign=yelp_api_v3&utm_medium=api_v3_business_search&utm_source=ywY5UnLZrNrRl2b93Ruy_g", "review_count": 72, "categories": [{"alias": "newamerican", "title": "American (New)"}, {"alias": "breakfast_brunch", "title": "Breakfast & Brunch"}, {"alias": "sandwiches", "title": "Sandwiches"}], "rating": 4.5, "coordinates": {"latitude": 42.1789783018004, "longitude": -73.5249530165516}, "transactions": [], "price": "$$", "location": {"address1": "2642 Rt 23", "address2": "", "address3": "", "city": "Hillsdale", "zip_code": "12529", "country": "US", "state": "NY", "display_address": ["2642 Rt 23", "Hillsdale, NY 12529"]}, "phone": "+15183251461", "display_phone": "(518) 325-1461", "distance": 15497.331564108092}, {"id": "ZJ5Fydm2DnlO7X7JzL35vQ", "alias": "os-hillsdale-country-diner-hillsdale", "name": "O's Hillsdale Country Diner", "image_url": "https://s3-media3.fl.yelpcdn.com/bphoto/GlGprXSVD74cu7biDG9BEQ/o.jpg", "is_closed": false, "url": "https://www.yelp.com/biz/os-hillsdale-country-diner-hillsdale?adjust_creative=ywY5UnLZrNrRl2b93Ruy_g&utm_campaign=yelp_api_v3&utm_medium=api_v3_business_search&utm_source=ywY5UnLZrNrRl2b93Ruy_g", "review_count": 70, "categories": [{"alias": "diners", "title": "Diners"}, {"alias": "tradamerican", "title": "American (Traditional)"}, {"alias": "breakfast_brunch", "title": "Breakfast & Brunch"}], "rating": 4.0, "coordinates": {"latitude": 42.179334, "longitude": -73.521409}, "transactions": [], "price": "$", "location": {"address1": "9276 Rt 22", "address2": "", "address3": "", "city": "Hillsdale", "zip_code": "12529", "country": "US", "state": "NY", "display_address": ["9276 Rt 22", "Hillsdale, NY 12529"]}, "phone": "+15183251150", "display_phone": "(518) 325-1150", "distance": 15273.813703224258}, {"id": "ii-lBBvuuS2M0W6is1c4pw", "alias": "olde-school-deli-canaan", "name": "Olde School Deli", "image_url": "https://s3-media1.fl.yelpcdn.com/bphoto/Ufo0Papm3oyoCfBvnsJH7g/o.jpg", "is_closed": false, "url": "https://www.yelp.com/biz/olde-school-deli-canaan?adjust_creative=ywY5UnLZrNrRl2b93Ruy_g&utm_campaign=yelp_api_v3&utm_medium=api_v3_business_search&utm_source=ywY5UnLZrNrRl2b93Ruy_g", "review_count": 11, "categories": [{"alias": "delis", "title": "Delis"}, {"alias": "sandwiches", "title": "Sandwiches"}], "rating": 4.0, "coordinates": {"latitude": 42.02776, "longitude": -73.32955}, "transactions": [], "location": {"address1": "21 Railroad St", "address2": null, "address3": null, "city": "Canaan", "zip_code": "06018", "country": "US", "state": "CT", "display_address": ["21 Railroad St", "Canaan, CT 06018"]}, "phone": "+18608245800", "display_phone": "(860) 824-5800", "distance": 8992.473875051426}, {"id": "zYkm0poEkKLEuuND5GvHFQ", "alias": "shiro-kitchen-and-asian-market-great-barrington", "name": "Shiro kitchen and Asian market", "image_url": "https://s3-media1.fl.yelpcdn.com/bphoto/Y658QCtUZZehLkRhAecEbw/o.jpg", "is_closed": false, "url": "https://www.yelp.com/biz/shiro-kitchen-and-asian-market-great-barrington?adjust_creative=ywY5UnLZrNrRl2b93Ruy_g&utm_campaign=yelp_api_v3&utm_medium=api_v3_business_search&utm_source=ywY5UnLZrNrRl2b93Ruy_g", "review_count": 39, "categories": [{"alias": "ramen", "title": "Ramen"}, {"alias": "sushi", "title": "Sushi Bars"}], "rating": 3.5, "coordinates": {"latitude": 42.20428, "longitude": -73.34736}, "transactions": [], "price": "$$", "location": {"address1": "105 Stockbridge Rd", "address2": "", "address3": "", "city": "Great Barrington", "zip_code": "01230", "country": "US", "state": "MA", "display_address": ["105 Stockbridge Rd", "Great Barrington, MA 01230"]}, "phone": "+14135281898", "display_phone": "(413) 528-1898", "distance": 11285.999111820076}, {"id": "3w4KYQPWvG4yCCo2aEqb_g", "alias": "snack-shack-canaan", "name": "Snack Shack", "image_url": "https://s3-media4.fl.yelpcdn.com/bphoto/cyThE8zucNhvltmLxW3WYg/o.jpg", "is_closed": false, "url": "https://www.yelp.com/biz/snack-shack-canaan?adjust_creative=ywY5UnLZrNrRl2b93Ruy_g&utm_campaign=yelp_api_v3&utm_medium=api_v3_business_search&utm_source=ywY5UnLZrNrRl2b93Ruy_g", "review_count": 3, "categories": [{"alias": "hotdogs", "title": "Fast Food"}], "rating": 4.5, "coordinates": {"latitude": 42.0389642379813, "longitude": -73.3257486093574}, "transactions": [], "price": "$", "location": {"address1": "350 Ashley Falls Rd", "address2": "", "address3": "", "city": "Canaan", "zip_code": "06018", "country": "US", "state": "CT", "display_address": ["350 Ashley Falls Rd", "Canaan, CT 06018"]}, "phone": "+18608247072", "display_phone": "(860) 824-7072", "distance": 7918.740653650119}, {"id": "Kv4z5CS7nupAuboNea-Hfw", "alias": "four-brothers-pizza-and-restaurant-great-barrington", "name": "Four Brothers Pizza & Restaurant", "image_url": "https://s3-media3.fl.yelpcdn.com/bphoto/RIhamwbeg7Qp9VYoO9cqFQ/o.jpg", "is_closed": false, "url": "https://www.yelp.com/biz/four-brothers-pizza-and-restaurant-great-barrington?adjust_creative=ywY5UnLZrNrRl2b93Ruy_g&utm_campaign=yelp_api_v3&utm_medium=api_v3_business_search&utm_source=ywY5UnLZrNrRl2b93Ruy_g", "review_count": 47, "categories": [{"alias": "pizza", "title": "Pizza"}, {"alias": "italian", "title": "Italian"}, {"alias": "sandwiches", "title": "Sandwiches"}], "rating": 3.5, "coordinates": {"latitude": 42.2040541, "longitude": -73.3462889}, "transactions": [], "price": "$$", "location": {"address1": "100 Stockbridge Rd", "address2": null, "address3": "", "city": "Great Barrington", "zip_code": "01230", "country": "US", "state": "MA", "display_address": ["100 Stockbridge Rd", "Great Barrington, MA 01230"]}, "phone": "+14135289684", "display_phone": "(413) 528-9684", "distance": 11276.132678039476}, {"id": "Ei-x1NZZUZ3dGCh9ScWV6w", "alias": "deanos-pizza-lakeville", "name": "Deano's Pizza", "image_url": "https://s3-media2.fl.yelpcdn.com/bphoto/_Qj-ihlXKEkCvEkYLoL_Vw/o.jpg", "is_closed": false, "url": "https://www.yelp.com/biz/deanos-pizza-lakeville?adjust_creative=ywY5UnLZrNrRl2b93Ruy_g&utm_campaign=yelp_api_v3&utm_medium=api_v3_business_search&utm_source=ywY5UnLZrNrRl2b93Ruy_g", "review_count": 25, "categories": [{"alias": "pizza", "title": "Pizza"}], "rating": 4.0, "coordinates": {"latitude": 41.963638, "longitude": -73.442391}, "transactions": [], "price": "$", "location": {"address1": "24 Millerton Rd", "address2": null, "address3": null, "city": "Lakeville", "zip_code": "06039", "country": "US", "state": "CT", "display_address": ["24 Millerton Rd", "Lakeville, CT 06039"]}, "phone": "+18604352299", "display_phone": "(860) 435-2299", "distance": 16790.273993231884}, {"id": "Df1B7OuftxRpZkFnHj-_9A", "alias": "the-publick-house-canaan", "name": "The Publick House", "image_url": "https://s3-media3.fl.yelpcdn.com/bphoto/Oa5-nCFZ9Qt0AlzRZNNo5Q/o.jpg", "is_closed": false, "url": "https://www.yelp.com/biz/the-publick-house-canaan?adjust_creative=ywY5UnLZrNrRl2b93Ruy_g&utm_campaign=yelp_api_v3&utm_medium=api_v3_business_search&utm_source=ywY5UnLZrNrRl2b93Ruy_g", "review_count": 1, "categories": [{"alias": "pubs", "title": "Pubs"}, {"alias": "comfortfood", "title": "Comfort Food"}], "rating": 2.0, "coordinates": {"latitude": 42.0275883418489, "longitude": -73.3294041082263}, "transactions": [], "location": {"address1": "15 Railroad St", "address2": "", "address3": "", "city": "Canaan", "zip_code": "06018", "country": "US", "state": "CT", "display_address": ["15 Railroad St", "Canaan, CT 06018"]}, "phone": "+18604534134", "display_phone": "(860) 453-4134", "distance": 9014.19923438069}, {"id": "HWhyBOJRs93NmJ2yuLjN1w", "alias": "vivaldis-pizzeria-great-barrington", "name": "Vivaldi's Pizzeria", "image_url": "https://s3-media1.fl.yelpcdn.com/bphoto/wkJbMD23Gcs8QpSON9gzsQ/o.jpg", "is_closed": false, "url": "https://www.yelp.com/biz/vivaldis-pizzeria-great-barrington?adjust_creative=ywY5UnLZrNrRl2b93Ruy_g&utm_campaign=yelp_api_v3&utm_medium=api_v3_business_search&utm_source=ywY5UnLZrNrRl2b93Ruy_g", "review_count": 4, "categories": [{"alias": "pizza", "title": "Pizza"}, {"alias": "italian", "title": "Italian"}], "rating": 3.0, "coordinates": {"latitude": 42.2095896967978, "longitude": -73.3461755658212}, "transactions": [], "location": {"address1": "325 Stockbridge Rd", "address2": "", "address3": null, "city": "Great Barrington", "zip_code": "01230", "country": "US", "state": "MA", "display_address": ["325 Stockbridge Rd", "Great Barrington, MA 01230"]}, "phone": "+14135289000", "display_phone": "(413) 528-9000", "distance": 11886.442348899638}, {"id": "LxlrXgIXUjFEev8rwP_1-A", "alias": "olde-egremont-country-store-egremont", "name": "Olde Egremont Country Store", "image_url": "", "is_closed": false, "url": "https://www.yelp.com/biz/olde-egremont-country-store-egremont?adjust_creative=ywY5UnLZrNrRl2b93Ruy_g&utm_campaign=yelp_api_v3&utm_medium=api_v3_business_search&utm_source=ywY5UnLZrNrRl2b93Ruy_g", "review_count": 2, "categories": [{"alias": "sandwiches", "title": "Sandwiches"}, {"alias": "coffee", "title": "Coffee & Tea"}, {"alias": "donuts", "title": "Donuts"}], "rating": 4.5, "coordinates": {"latitude": 42.19816, "longitude": -73.438571}, "transactions": [], "location": {"address1": "223 Egremont Plain Rd", "address2": "", "address3": "", "city": "Egremont", "zip_code": "01230", "country": "US", "state": "MA", "display_address": ["223 Egremont Plain Rd", "Egremont, MA 01230"]}, "phone": "+14135284796", "display_phone": "(413) 528-4796", "distance": 12051.536823848695}, {"id": "WRUJ5CH3b56ObEqwVCSl6A", "alias": "patisserie-lenox-great-barrington", "name": "Patisserie Lenox", "image_url": "https://s3-media2.fl.yelpcdn.com/bphoto/u2GrDJ9k9Hf0AUIvgCgy8Q/o.jpg", "is_closed": false, "url": "https://www.yelp.com/biz/patisserie-lenox-great-barrington?adjust_creative=ywY5UnLZrNrRl2b93Ruy_g&utm_campaign=yelp_api_v3&utm_medium=api_v3_business_search&utm_source=ywY5UnLZrNrRl2b93Ruy_g", "review_count": 86, "categories": [{"alias": "cafes", "title": "Cafes"}, {"alias": "bakeries", "title": "Bakeries"}, {"alias": "french", "title": "French"}], "rating": 3.5, "coordinates": {"latitude": 42.1939847, "longitude": -73.3625325}, "transactions": [], "price": "$$", "location": {"address1": "313 Main St", "address2": "", "address3": "", "city": "Great Barrington", "zip_code": "01230", "country": "US", "state": "MA", "display_address": ["313 Main St", "Great Barrington, MA 01230"]}, "phone": "+14135918747", "display_phone": "(413) 591-8747", "distance": 10043.635379087604}, {"id": "dp7jv8Gh28ZaJjnAf5cCHg", "alias": "the-green-cafe-salisbury", "name": "The Green Cafe", "image_url": "", "is_closed": false, "url": "https://www.yelp.com/biz/the-green-cafe-salisbury?adjust_creative=ywY5UnLZrNrRl2b93Ruy_g&utm_campaign=yelp_api_v3&utm_medium=api_v3_business_search&utm_source=ywY5UnLZrNrRl2b93Ruy_g", "review_count": 3, "categories": [{"alias": "salad", "title": "Salad"}, {"alias": "juicebars", "title": "Juice Bars & Smoothies"}, {"alias": "breakfast_brunch", "title": "Breakfast & Brunch"}], "rating": 4.5, "coordinates": {"latitude": 41.96402, "longitude": -73.4407}, "transactions": [], "location": {"address1": "9 Sharon Rd", "address2": "", "address3": null, "city": "Salisbury", "zip_code": "06039", "country": "US", "state": "CT", "display_address": ["9 Sharon Rd", "Salisbury, CT 06039"]}, "phone": "+18605964580", "display_phone": "(860) 596-4580", "distance": 16720.619819731575}, {"id": "RbPHkfGg0pW6TfjihThWcQ", "alias": "talk-of-the-town-deli-millerton", "name": "Talk Of The Town Deli", "image_url": "", "is_closed": false, "url": "https://www.yelp.com/biz/talk-of-the-town-deli-millerton?adjust_creative=ywY5UnLZrNrRl2b93Ruy_g&utm_campaign=yelp_api_v3&utm_medium=api_v3_business_search&utm_source=ywY5UnLZrNrRl2b93Ruy_g", "review_count": 6, "categories": [{"alias": "delis", "title": "Delis"}, {"alias": "sandwiches", "title": "Sandwiches"}, {"alias": "mexican", "title": "Mexican"}], "rating": 4.0, "coordinates": {"latitude": 41.952223, "longitude": -73.494428}, "transactions": [], "location": {"address1": "208 Route 44", "address2": null, "address3": null, "city": "Millerton", "zip_code": "12546", "country": "US", "state": "NY", "display_address": ["208 Route 44", "Millerton, NY 12546"]}, "phone": "+15187898255", "display_phone": "(518) 789-8255", "distance": 19895.76267204239}, {"id": "S9ZauCnbw7eH4opp7fvkQQ", "alias": "berkshire-food-co-op-great-barrington-3", "name": "Berkshire Food Co-Op", "image_url": "https://s3-media2.fl.yelpcdn.com/bphoto/SHWr9eFEwaOiRaMCRqFs0w/o.jpg", "is_closed": false, "url": "https://www.yelp.com/biz/berkshire-food-co-op-great-barrington-3?adjust_creative=ywY5UnLZrNrRl2b93Ruy_g&utm_campaign=yelp_api_v3&utm_medium=api_v3_business_search&utm_source=ywY5UnLZrNrRl2b93Ruy_g", "review_count": 34, "categories": [{"alias": "grocery", "title": "Grocery"}, {"alias": "cafes", "title": "Cafes"}, {"alias": "organic_stores", "title": "Organic Stores"}], "rating": 4.0, "coordinates": {"latitude": 42.1933896, "longitude": -73.3621658}, "transactions": [], "price": "$$", "location": {"address1": "34 Bridge St", "address2": "", "address3": "", "city": "Great Barrington", "zip_code": "01230", "country": "US", "state": "MA", "display_address": ["34 Bridge St", "Great Barrington, MA 01230"]}, "phone": "+14135289697", "display_phone": "(413) 528-9697", "distance": 9971.074352846072}, {"id": "PKiarREQsNaowwUvLDsryQ", "alias": "oakhurst-diner-millerton", "name": "Oakhurst Diner", "image_url": "https://s3-media3.fl.yelpcdn.com/bphoto/U6wnHbbsrPvjX4gOrAvnXw/o.jpg", "is_closed": false, "url": "https://www.yelp.com/biz/oakhurst-diner-millerton?adjust_creative=ywY5UnLZrNrRl2b93Ruy_g&utm_campaign=yelp_api_v3&utm_medium=api_v3_business_search&utm_source=ywY5UnLZrNrRl2b93Ruy_g", "review_count": 113, "categories": [{"alias": "diners", "title": "Diners"}, {"alias": "breakfast_brunch", "title": "Breakfast & Brunch"}, {"alias": "tradamerican", "title": "American (Traditional)"}], "rating": 3.5, "coordinates": {"latitude": 41.9535521644635, "longitude": -73.5112046114255}, "transactions": [], "price": "$$", "location": {"address1": "19 Main St", "address2": "", "address3": "", "city": "Millerton", "zip_code": "12546", "country": "US", "state": "NY", "display_address": ["19 Main St", "Millerton, NY 12546"]}, "phone": "+15185921313", "display_phone": "(518) 592-1313", "distance": 20530.55049402929}, {"id": "_aUXLzG6bvsUaBDL96pK7A", "alias": "great-barrington-bagel-company-great-barrington", "name": "Great Barrington Bagel Company", "image_url": "https://s3-media1.fl.yelpcdn.com/bphoto/uN63PmQ0-fG-mjeu5xc6XQ/o.jpg", "is_closed": false, "url": "https://www.yelp.com/biz/great-barrington-bagel-company-great-barrington?adjust_creative=ywY5UnLZrNrRl2b93Ruy_g&utm_campaign=yelp_api_v3&utm_medium=api_v3_business_search&utm_source=ywY5UnLZrNrRl2b93Ruy_g", "review_count": 76, "categories": [{"alias": "sandwiches", "title": "Sandwiches"}, {"alias": "delis", "title": "Delis"}, {"alias": "breakfast_brunch", "title": "Breakfast & Brunch"}], "rating": 4.5, "coordinates": {"latitude": 42.179534, "longitude": -73.363002}, "transactions": [], "price": "$", "location": {"address1": "777 Main St", "address2": "", "address3": "", "city": "Great Barrington", "zip_code": "01230", "country": "US", "state": "MA", "display_address": ["777 Main St", "Great Barrington, MA 01230"]}, "phone": "+14135289055", "display_phone": "(413) 528-9055", "distance": 8428.910938653013}, {"id": "zYfLzClfWhxKE9wWRaDXfA", "alias": "roadside-store-and-cafe-monterey", "name": "Roadside Store & Cafe", "image_url": "https://s3-media4.fl.yelpcdn.com/bphoto/74glu4fj8UUTK6suaeBTBg/o.jpg", "is_closed": false, "url": "https://www.yelp.com/biz/roadside-store-and-cafe-monterey?adjust_creative=ywY5UnLZrNrRl2b93Ruy_g&utm_campaign=yelp_api_v3&utm_medium=api_v3_business_search&utm_source=ywY5UnLZrNrRl2b93Ruy_g", "review_count": 16, "categories": [{"alias": "breakfast_brunch", "title": "Breakfast & Brunch"}], "rating": 4.5, "coordinates": {"latitude": 42.18406, "longitude": -73.24207}, "transactions": [], "price": "$", "location": {"address1": "275 Main Rd", "address2": null, "address3": "", "city": "Monterey", "zip_code": "01245", "country": "US", "state": "MA", "display_address": ["275 Main Rd", "Monterey, MA 01245"]}, "phone": "+14135282633", "display_phone": "(413) 528-2633", "distance": 13603.422222396954}, {"id": "tMrfZQVSE9H5PFrjpTV75w", "alias": "golden-wok-millerton", "name": "Golden Wok", "image_url": "https://s3-media3.fl.yelpcdn.com/bphoto/ERsfig9nvL_tK_InXrCUvw/o.jpg", "is_closed": false, "url": "https://www.yelp.com/biz/golden-wok-millerton?adjust_creative=ywY5UnLZrNrRl2b93Ruy_g&utm_campaign=yelp_api_v3&utm_medium=api_v3_business_search&utm_source=ywY5UnLZrNrRl2b93Ruy_g", "review_count": 25, "categories": [{"alias": "chinese", "title": "Chinese"}], "rating": 2.5, "coordinates": {"latitude": 41.9533662624848, "longitude": -73.5121507224275}, "transactions": [], "price": "$$", "location": {"address1": "2 Main St", "address2": "", "address3": "", "city": "Millerton", "zip_code": "12546", "country": "US", "state": "NY", "display_address": ["2 Main St", "Millerton, NY 12546"]}, "phone": "+15187899236", "display_phone": "(518) 789-9236", "distance": 20592.875087420733}, {"id": "R1ByTPNBUAPP96XKKkk0GQ", "alias": "rising-dale-cafe-great-barrington", "name": "Rising Dale Cafe", "image_url": "", "is_closed": false, "url": "https://www.yelp.com/biz/rising-dale-cafe-great-barrington?adjust_creative=ywY5UnLZrNrRl2b93Ruy_g&utm_campaign=yelp_api_v3&utm_medium=api_v3_business_search&utm_source=ywY5UnLZrNrRl2b93Ruy_g", "review_count": 2, "categories": [{"alias": "restaurants", "title": "Restaurants"}], "rating": 3.0, "coordinates": {"latitude": 42.240545, "longitude": -73.355646}, "transactions": [], "location": {"address1": "290 Park St", "address2": "", "address3": "", "city": "Great Barrington", "zip_code": "01230", "country": "US", "state": "MA", "display_address": ["290 Park St", "Great Barrington, MA 01230"]}, "phone": "+14132746185", "display_phone": "(413) 274-6185", "distance": 15219.263249542611}, {"id": "dmjtBglEo8GbuJsa-EKlzA", "alias": "four-brothers-pizza-inns-hillsdale", "name": "Four Brothers Pizza Inns", "image_url": "https://s3-media4.fl.yelpcdn.com/bphoto/VSvKepeVPeKWrs09z11uag/o.jpg", "is_closed": false, "url": "https://www.yelp.com/biz/four-brothers-pizza-inns-hillsdale?adjust_creative=ywY5UnLZrNrRl2b93Ruy_g&utm_campaign=yelp_api_v3&utm_medium=api_v3_business_search&utm_source=ywY5UnLZrNrRl2b93Ruy_g", "review_count": 16, "categories": [{"alias": "pizza", "title": "Pizza"}, {"alias": "salad", "title": "Salad"}, {"alias": "sandwiches", "title": "Sandwiches"}], "rating": 3.5, "coordinates": {"latitude": 42.1813725, "longitude": -73.5107998}, "transactions": [], "price": "$$", "location": {"address1": "2828 Rt 23", "address2": "", "address3": "", "city": "Hillsdale", "zip_code": "12529", "country": "US", "state": "NY", "display_address": ["2828 Rt 23", "Hillsdale, NY 12529"]}, "phone": "+15183257300", "display_phone": "(518) 325-7300", "distance": 14683.131120216452}, {"id": "zebm8z7FmtAw87kZCiuI5A", "alias": "berkshire-country-store-norfolk", "name": "Berkshire Country Store", "image_url": "https://s3-media4.fl.yelpcdn.com/bphoto/_QcAZTM110FOEMMFpKO-3Q/o.jpg", "is_closed": false, "url": "https://www.yelp.com/biz/berkshire-country-store-norfolk?adjust_creative=ywY5UnLZrNrRl2b93Ruy_g&utm_campaign=yelp_api_v3&utm_medium=api_v3_business_search&utm_source=ywY5UnLZrNrRl2b93Ruy_g", "review_count": 35, "categories": [{"alias": "convenience", "title": "Convenience Stores"}, {"alias": "delis", "title": "Delis"}, {"alias": "coffee", "title": "Coffee & Tea"}], "rating": 4.5, "coordinates": {"latitude": 41.99017, "longitude": -73.19931}, "transactions": [], "price": "$", "location": {"address1": "6 Station Pl", "address2": "", "address3": null, "city": "Norfolk", "zip_code": "06058", "country": "US", "state": "CT", "display_address": ["6 Station Pl", "Norfolk, CT 06058"]}, "phone": "+18605427176", "display_phone": "(860) 542-7176", "distance": 18718.40495102471}, {"id": "cQRe7YOZ1CCQcND1nJ-U9Q", "alias": "azteca-taqueria-great-barrington", "name": "Azteca Taqueria", "image_url": "https://s3-media1.fl.yelpcdn.com/bphoto/JQVYFa1s9FXmg7taje8x3w/o.jpg", "is_closed": false, "url": "https://www.yelp.com/biz/azteca-taqueria-great-barrington?adjust_creative=ywY5UnLZrNrRl2b93Ruy_g&utm_campaign=yelp_api_v3&utm_medium=api_v3_business_search&utm_source=ywY5UnLZrNrRl2b93Ruy_g", "review_count": 17, "categories": [{"alias": "mexican", "title": "Mexican"}], "rating": 3.0, "coordinates": {"latitude": 42.1949157714844, "longitude": -73.3625411987305}, "transactions": [], "price": "$", "location": {"address1": "284 Main St", "address2": null, "address3": null, "city": "Great Barrington", "zip_code": "01230", "country": "US", "state": "MA", "display_address": ["284 Main St", "Great Barrington, MA 01230"]}, "phone": "+14135283322", "display_phone": "(413) 528-3322", "distance": 10136.768641391684}, {"id": "Rudl9ulOWqNqgp0HNfvAHQ", "alias": "great-barrington-pizza-house-great-barrington-2", "name": "Great Barrington Pizza House", "image_url": "https://s3-media3.fl.yelpcdn.com/bphoto/2kIAhFO2MQ5xALT61U3AVw/o.jpg", "is_closed": false, "url": "https://www.yelp.com/biz/great-barrington-pizza-house-great-barrington-2?adjust_creative=ywY5UnLZrNrRl2b93Ruy_g&utm_campaign=yelp_api_v3&utm_medium=api_v3_business_search&utm_source=ywY5UnLZrNrRl2b93Ruy_g", "review_count": 22, "categories": [{"alias": "pizza", "title": "Pizza"}], "rating": 3.5, "coordinates": {"latitude": 42.20148, "longitude": -73.35547}, "transactions": [], "price": "$$", "location": {"address1": "36 State Rd", "address2": null, "address3": "", "city": "Great Barrington", "zip_code": "01230", "country": "US", "state": "MA", "display_address": ["36 State Rd", "Great Barrington, MA 01230"]}, "phone": "", "display_phone": "", "distance": 10908.819854922684}, {"id": "zgFwVmPm2qpakxL4JFOUZg", "alias": "alex-cafe-great-barrington", "name": "Alex Cafe", "image_url": "", "is_closed": false, "url": "https://www.yelp.com/biz/alex-cafe-great-barrington?adjust_creative=ywY5UnLZrNrRl2b93Ruy_g&utm_campaign=yelp_api_v3&utm_medium=api_v3_business_search&utm_source=ywY5UnLZrNrRl2b93Ruy_g", "review_count": 3, "categories": [{"alias": "greek", "title": "Greek"}], "rating": 2.5, "coordinates": {"latitude": 42.1949157714844, "longitude": -73.3625411987305}, "transactions": [], "location": {"address1": "284 Main St", "address2": "", "address3": "", "city": "Great Barrington", "zip_code": "01230", "country": "US", "state": "MA", "display_address": ["284 Main St", "Great Barrington, MA 01230"]}, "phone": "+14135285393", "display_phone": "(413) 528-5393", "distance": 10136.768641391684}, {"id": "p6-sVuImt4WJ4xPs3bkNdQ", "alias": "four-brothers-pizza-inn-millerton", "name": "Four Brothers Pizza Inn", "image_url": "https://s3-media2.fl.yelpcdn.com/bphoto/GUKfMbhkrmQ1wk69ogaWFw/o.jpg", "is_closed": false, "url": "https://www.yelp.com/biz/four-brothers-pizza-inn-millerton?adjust_creative=ywY5UnLZrNrRl2b93Ruy_g&utm_campaign=yelp_api_v3&utm_medium=api_v3_business_search&utm_source=ywY5UnLZrNrRl2b93Ruy_g", "review_count": 16, "categories": [{"alias": "icecream", "title": "Ice Cream & Frozen Yogurt"}, {"alias": "pizza", "title": "Pizza"}], "rating": 2.5, "coordinates": {"latitude": 41.95556, "longitude": -73.51434}, "transactions": [], "price": "$$", "location": {"address1": "5952 N Elm Ave", "address2": "", "address3": "", "city": "Millerton", "zip_code": "12546", "country": "US", "state": "NY", "display_address": ["5952 N Elm Ave", "Millerton, NY 12546"]}, "phone": "+15187899434", "display_phone": "(518) 789-9434", "distance": 20499.819072740847}, {"id": "nRgnPH741Xti-7lD7dL2lA", "alias": "catamount-food-and-beverage-great-barrington", "name": "Catamount Food & Beverage", "image_url": "", "is_closed": false, "url": "https://www.yelp.com/biz/catamount-food-and-beverage-great-barrington?adjust_creative=ywY5UnLZrNrRl2b93Ruy_g&utm_campaign=yelp_api_v3&utm_medium=api_v3_business_search&utm_source=ywY5UnLZrNrRl2b93Ruy_g", "review_count": 3, "categories": [{"alias": "restaurants", "title": "Restaurants"}], "rating": 1.0, "coordinates": {"latitude": 42.16512, "longitude": -73.4742}, "transactions": [], "price": "$$", "location": {"address1": "17 Nicholson Rd", "address2": "", "address3": "", "city": "Great Barrington", "zip_code": "01230", "country": "US", "state": "MA", "display_address": ["17 Nicholson Rd", "Great Barrington, MA 01230"]}, "phone": "+14135286138", "display_phone": "(413) 528-6138", "distance": 11017.325167907775}, {"id": "q26iA15EgS7B5jtWFX98nw", "alias": "toymakers-cafe-falls-village", "name": "Toymakers Cafe", "image_url": "https://s3-media1.fl.yelpcdn.com/bphoto/iHbwJ0_DibVytWwnEStw2g/o.jpg", "is_closed": false, "url": "https://www.yelp.com/biz/toymakers-cafe-falls-village?adjust_creative=ywY5UnLZrNrRl2b93Ruy_g&utm_campaign=yelp_api_v3&utm_medium=api_v3_business_search&utm_source=ywY5UnLZrNrRl2b93Ruy_g", "review_count": 57, "categories": [{"alias": "cafes", "title": "Cafes"}, {"alias": "breakfast_brunch", "title": "Breakfast & Brunch"}, {"alias": "british", "title": "British"}], "rating": 4.5, "coordinates": {"latitude": 41.95606, "longitude": -73.36289}, "transactions": [], "price": "$", "location": {"address1": "85 Main St", "address2": "", "address3": "", "city": "Falls Village", "zip_code": "06031", "country": "US", "state": "CT", "display_address": ["85 Main St", "Falls Village, CT 06031"]}, "phone": "+18608248168", "display_phone": "(860) 824-8168", "distance": 16424.42338704891}, {"id": "irbKRZyCN_RPzeBepCN7XQ", "alias": "rubis-coffee-and-sandwiches-great-barrington", "name": "Rubi's Coffee & Sandwiches", "image_url": "https://s3-media3.fl.yelpcdn.com/bphoto/rjrFzISVURr6vWrEEHHjRQ/o.jpg", "is_closed": false, "url": "https://www.yelp.com/biz/rubis-coffee-and-sandwiches-great-barrington?adjust_creative=ywY5UnLZrNrRl2b93Ruy_g&utm_campaign=yelp_api_v3&utm_medium=api_v3_business_search&utm_source=ywY5UnLZrNrRl2b93Ruy_g", "review_count": 82, "categories": [{"alias": "french", "title": "French"}, {"alias": "coffee", "title": "Coffee & Tea"}, {"alias": "sandwiches", "title": "Sandwiches"}], "rating": 3.5, "coordinates": {"latitude": 42.19527, "longitude": -73.36203}, "transactions": [], "price": "$$", "location": {"address1": "264 Main St", "address2": "", "address3": "", "city": "Great Barrington", "zip_code": "01230", "country": "US", "state": "MA", "display_address": ["264 Main St", "Great Barrington, MA 01230"]}, "phone": "+14135280488", "display_phone": "(413) 528-0488", "distance": 10180.140682693802}, {"id": "2XDUgzhvrxdPELFcv7FExg", "alias": "irving-farm-new-york-millerton-3", "name": "Irving Farm New York", "image_url": "https://s3-media3.fl.yelpcdn.com/bphoto/mx17Abl0J-AYTpPbHylaOw/o.jpg", "is_closed": false, "url": "https://www.yelp.com/biz/irving-farm-new-york-millerton-3?adjust_creative=ywY5UnLZrNrRl2b93Ruy_g&utm_campaign=yelp_api_v3&utm_medium=api_v3_business_search&utm_source=ywY5UnLZrNrRl2b93Ruy_g", "review_count": 70, "categories": [{"alias": "coffee", "title": "Coffee & Tea"}, {"alias": "coffeeroasteries", "title": "Coffee Roasteries"}, {"alias": "cafes", "title": "Cafes"}], "rating": 3.5, "coordinates": {"latitude": 41.953527, "longitude": -73.510106}, "transactions": [], "price": "$", "location": {"address1": "44 Main St", "address2": "", "address3": "", "city": "Millerton", "zip_code": "12546", "country": "US", "state": "NY", "display_address": ["44 Main St", "Millerton, NY 12546"]}, "phone": "+15187892020", "display_phone": "(518) 789-2020", "distance": 20476.41198405204}, {"id": "FbsBf2lq3g3jYb_-KxJxBA", "alias": "simmons-way-village-inn-millerton", "name": "Simmon's Way Village Inn", "image_url": "", "is_closed": false, "url": "https://www.yelp.com/biz/simmons-way-village-inn-millerton?adjust_creative=ywY5UnLZrNrRl2b93Ruy_g&utm_campaign=yelp_api_v3&utm_medium=api_v3_business_search&utm_source=ywY5UnLZrNrRl2b93Ruy_g", "review_count": 3, "categories": [{"alias": "hotels", "title": "Hotels"}, {"alias": "bedbreakfast", "title": "Bed & Breakfast"}, {"alias": "restaurants", "title": "Restaurants"}], "rating": 2.5, "coordinates": {"latitude": 41.95402, "longitude": -73.50907}, "transactions": [], "location": {"address1": "53 Main St", "address2": "", "address3": "", "city": "Millerton", "zip_code": "12546", "country": "US", "state": "NY", "display_address": ["53 Main St", "Millerton, NY 12546"]}, "phone": "+15187896235", "display_phone": "(518) 789-6235", "distance": 20376.727326904773}, {"id": "32itnr_wWQ9qqmzyaRUzSw", "alias": "great-wall-chinese-restaurant-great-barrington", "name": "Great Wall Chinese Restaurant", "image_url": "https://s3-media2.fl.yelpcdn.com/bphoto/ShD8b7BEIjkJyZ77ZPxjSw/o.jpg", "is_closed": false, "url": "https://www.yelp.com/biz/great-wall-chinese-restaurant-great-barrington?adjust_creative=ywY5UnLZrNrRl2b93Ruy_g&utm_campaign=yelp_api_v3&utm_medium=api_v3_business_search&utm_source=ywY5UnLZrNrRl2b93Ruy_g", "review_count": 9, "categories": [{"alias": "chinese", "title": "Chinese"}], "rating": 2.5, "coordinates": {"latitude": 42.20253, "longitude": -73.35361}, "transactions": [], "price": "$", "location": {"address1": "87 State Rd", "address2": "", "address3": "", "city": "Great Barrington", "zip_code": "01230", "country": "US", "state": "MA", "display_address": ["87 State Rd", "Great Barrington, MA 01230"]}, "phone": "+14135284838", "display_phone": "(413) 528-4838", "distance": 11025.316505020544}, {"id": "OjZTdtyKwE6lnpGllW9cNA", "alias": "on-the-run-coffee-shop-lakeville", "name": "On the Run Coffee Shop", "image_url": "https://s3-media2.fl.yelpcdn.com/bphoto/7xklLzOCph8bjNgz1g00wQ/o.jpg", "is_closed": false, "url": "https://www.yelp.com/biz/on-the-run-coffee-shop-lakeville?adjust_creative=ywY5UnLZrNrRl2b93Ruy_g&utm_campaign=yelp_api_v3&utm_medium=api_v3_business_search&utm_source=ywY5UnLZrNrRl2b93Ruy_g", "review_count": 18, "categories": [{"alias": "coffee", "title": "Coffee & Tea"}, {"alias": "breakfast_brunch", "title": "Breakfast & Brunch"}, {"alias": "sandwiches", "title": "Sandwiches"}], "rating": 4.0, "coordinates": {"latitude": 41.9630165100098, "longitude": -73.4401245117188}, "transactions": [], "price": "$", "location": {"address1": "4 Eathan Allen St", "address2": "", "address3": "", "city": "Lakeville", "zip_code": "06039", "country": "US", "state": "CT", "display_address": ["4 Eathan Allen St", "Lakeville, CT 06039"]}, "phone": "+18604352007", "display_phone": "(860) 435-2007", "distance": 16785.095721476777}, {"id": "De5rJ-0mw5IsitejUtHjLw", "alias": "subway-canaan-2", "name": "Subway", "image_url": "https://s3-media2.fl.yelpcdn.com/bphoto/0qePcqThluNI183btfRnNw/o.jpg", "is_closed": false, "url": "https://www.yelp.com/biz/subway-canaan-2?adjust_creative=ywY5UnLZrNrRl2b93Ruy_g&utm_campaign=yelp_api_v3&utm_medium=api_v3_business_search&utm_source=ywY5UnLZrNrRl2b93Ruy_g", "review_count": 2, "categories": [{"alias": "sandwiches", "title": "Sandwiches"}], "rating": 1.0, "coordinates": {"latitude": 42.0264998659979, "longitude": -73.3343232281038}, "transactions": [], "price": "$", "location": {"address1": "101 Church St", "address2": "Unit 4", "address3": "", "city": "Canaan", "zip_code": "06018", "country": "US", "state": "CT", "display_address": ["101 Church St", "Unit 4", "Canaan, CT 06018"]}, "phone": "+18608247404", "display_phone": "(860) 824-7404", "distance": 8999.222084930054}, {"id": "CeGpJWvJ5pFh1ubahZZSJw", "alias": "subway-great-barrington-6", "name": "Subway", "image_url": "https://s3-media3.fl.yelpcdn.com/bphoto/CnMjr9H32Egro-ukdqFUsQ/o.jpg", "is_closed": false, "url": "https://www.yelp.com/biz/subway-great-barrington-6?adjust_creative=ywY5UnLZrNrRl2b93Ruy_g&utm_campaign=yelp_api_v3&utm_medium=api_v3_business_search&utm_source=ywY5UnLZrNrRl2b93Ruy_g", "review_count": 8, "categories": [{"alias": "sandwiches", "title": "Sandwiches"}], "rating": 1.5, "coordinates": {"latitude": 42.1938059115247, "longitude": -73.3625156070141}, "transactions": [], "price": "$", "location": {"address1": "323 Main St", "address2": "", "address3": null, "city": "Great Barrington", "zip_code": "01230", "country": "US", "state": "MA", "display_address": ["323 Main St", "Great Barrington, MA 01230"]}, "phone": "+14135286664", "display_phone": "(413) 528-6664", "distance": 10016.29913898278}, {"id": "aw9E6fMO_Q5qeTi7ih0Pbw", "alias": "church-street-deli-and-pizza-copake", "name": "Church Street Deli & Pizza", "image_url": "https://s3-media3.fl.yelpcdn.com/bphoto/kC3l1vH1djOzsXE4O73apQ/o.jpg", "is_closed": false, "url": "https://www.yelp.com/biz/church-street-deli-and-pizza-copake?adjust_creative=ywY5UnLZrNrRl2b93Ruy_g&utm_campaign=yelp_api_v3&utm_medium=api_v3_business_search&utm_source=ywY5UnLZrNrRl2b93Ruy_g", "review_count": 14, "categories": [{"alias": "pizza", "title": "Pizza"}, {"alias": "breakfast_brunch", "title": "Breakfast & Brunch"}, {"alias": "sandwiches", "title": "Sandwiches"}], "rating": 3.5, "coordinates": {"latitude": 42.103877, "longitude": -73.550257}, "transactions": [], "price": "$", "location": {"address1": "1677 County Route 7A", "address2": "", "address3": "", "city": "Copake", "zip_code": "12516", "country": "US", "state": "NY", "display_address": ["1677 County Route 7A", "Copake, NY 12516"]}, "phone": "+15183294551", "display_phone": "(518) 329-4551", "distance": 15143.31150971194}, {"id": "HXoeRJRl1rCXkFbtE2Mhfg", "alias": "subway-great-barrington-5", "name": "Subway", "image_url": "https://s3-media4.fl.yelpcdn.com/bphoto/L6KElpl-unmoWatxs9t1xQ/o.jpg", "is_closed": false, "url": "https://www.yelp.com/biz/subway-great-barrington-5?adjust_creative=ywY5UnLZrNrRl2b93Ruy_g&utm_campaign=yelp_api_v3&utm_medium=api_v3_business_search&utm_source=ywY5UnLZrNrRl2b93Ruy_g", "review_count": 1, "categories": [{"alias": "sandwiches", "title": "Sandwiches"}], "rating": 4.0, "coordinates": {"latitude": 42.2071342468262, "longitude": -73.3457794189453}, "transactions": [], "price": "$", "location": {"address1": "246 Stockbridge Rd", "address2": "", "address3": null, "city": "Great Barrington", "zip_code": "01230", "country": "US", "state": "MA", "display_address": ["246 Stockbridge Rd", "Great Barrington, MA 01230"]}, "phone": "+14134298454", "display_phone": "(413) 429-8454", "distance": 11623.69097596982}, {"id": "jggoKFAzikS8cM0EOz_DHg", "alias": "mcdonalds-canaan-4", "name": "McDonald's", "image_url": "https://s3-media1.fl.yelpcdn.com/bphoto/60Z-hiWY_A03HVFoxi1OpA/o.jpg", "is_closed": false, "url": "https://www.yelp.com/biz/mcdonalds-canaan-4?adjust_creative=ywY5UnLZrNrRl2b93Ruy_g&utm_campaign=yelp_api_v3&utm_medium=api_v3_business_search&utm_source=ywY5UnLZrNrRl2b93Ruy_g", "review_count": 8, "categories": [{"alias": "hotdogs", "title": "Fast Food"}, {"alias": "burgers", "title": "Burgers"}, {"alias": "coffee", "title": "Coffee & Tea"}], "rating": 2.0, "coordinates": {"latitude": 42.0251903348961, "longitude": -73.3256873971095}, "transactions": [], "price": "$", "location": {"address1": "18 Main St", "address2": "", "address3": "", "city": "Canaan", "zip_code": "06018", "country": "US", "state": "CT", "display_address": ["18 Main St", "Canaan, CT 06018"]}, "phone": "+18608245281", "display_phone": "(860) 824-5281", "distance": 9371.69717358836}, {"id": "C4OiIXuNN6PbCq8gaMyc1Q", "alias": "papas-best-batch-red-hook", "name": "Papa's Best Batch", "image_url": "https://s3-media2.fl.yelpcdn.com/bphoto/TP_X6t_lwfuT-1MI915hhA/o.jpg", "is_closed": false, "url": "https://www.yelp.com/biz/papas-best-batch-red-hook?adjust_creative=ywY5UnLZrNrRl2b93Ruy_g&utm_campaign=yelp_api_v3&utm_medium=api_v3_business_search&utm_source=ywY5UnLZrNrRl2b93Ruy_g", "review_count": 44, "categories": [{"alias": "bbq", "title": "Barbeque"}, {"alias": "foodtrucks", "title": "Food Trucks"}], "rating": 5.0, "coordinates": {"latitude": 42.028686, "longitude": -73.852675}, "transactions": [], "price": "$$", "location": {"address1": "243 Pitcher Ln", "address2": "", "address3": "Greig Farm", "city": "Red Hook", "zip_code": "12571", "country": "US", "state": "NY", "display_address": ["243 Pitcher Ln", "Greig Farm", "Red Hook, NY 12571"]}, "phone": "+19143885202", "display_phone": "(914) 388-5202", "distance": 40975.97451924107}, {"id": "W6w0sNlW-S5KA7TMLPDBXw", "alias": "mcdonalds-great-barrington", "name": "McDonald's", "image_url": "https://s3-media3.fl.yelpcdn.com/bphoto/itHTtsNKyiwQCSJUq43dvg/o.jpg", "is_closed": false, "url": "https://www.yelp.com/biz/mcdonalds-great-barrington?adjust_creative=ywY5UnLZrNrRl2b93Ruy_g&utm_campaign=yelp_api_v3&utm_medium=api_v3_business_search&utm_source=ywY5UnLZrNrRl2b93Ruy_g", "review_count": 17, "categories": [{"alias": "hotdogs", "title": "Fast Food"}, {"alias": "burgers", "title": "Burgers"}, {"alias": "coffee", "title": "Coffee & Tea"}], "rating": 1.5, "coordinates": {"latitude": 42.209993, "longitude": -73.3454018}, "transactions": [], "price": "$", "location": {"address1": "302 Stockbridge Rd", "address2": "", "address3": "", "city": "Great Barrington", "zip_code": "01230", "country": "US", "state": "MA", "display_address": ["302 Stockbridge Rd", "Great Barrington, MA 01230"]}, "phone": "+14135280434", "display_phone": "(413) 528-0434", "distance": 11940.042921348526}, {"id": "uAsX05YvKYKX7XMqdYFNZQ", "alias": "lobstercraft-fairfield-3", "name": "LobsterCraft", "image_url": "https://s3-media2.fl.yelpcdn.com/bphoto/DnyEPuomFzB1F68FecbYfQ/o.jpg", "is_closed": false, "url": "https://www.yelp.com/biz/lobstercraft-fairfield-3?adjust_creative=ywY5UnLZrNrRl2b93Ruy_g&utm_campaign=yelp_api_v3&utm_medium=api_v3_business_search&utm_source=ywY5UnLZrNrRl2b93Ruy_g", "review_count": 77, "categories": [{"alias": "foodtrucks", "title": "Food Trucks"}, {"alias": "seafood", "title": "Seafood"}], "rating": 4.5, "coordinates": {"latitude": 41.140451, "longitude": -73.264689}, "transactions": ["pickup"], "price": "$$", "location": {"address1": "1891 Post Rd", "address2": null, "address3": "", "city": "Fairfield", "zip_code": "06824", "country": "US", "state": "CT", "display_address": ["1891 Post Rd", "Fairfield, CT 06824"]}, "phone": "+12039565656", "display_phone": "(203) 956-5656", "distance": 107452.29453006784}, {"id": "qqA8YX58xnmEXLyanHfdUg", "alias": "stufd-food-truck-brooklyn", "name": "Stuf'd Food Truck", "image_url": "https://s3-media2.fl.yelpcdn.com/bphoto/_Wn0i-tLIOFinw8BPAqxPA/o.jpg", "is_closed": false, "url": "https://www.yelp.com/biz/stufd-food-truck-brooklyn?adjust_creative=ywY5UnLZrNrRl2b93Ruy_g&utm_campaign=yelp_api_v3&utm_medium=api_v3_business_search&utm_source=ywY5UnLZrNrRl2b93Ruy_g", "review_count": 4, "categories": [{"alias": "sandwiches", "title": "Sandwiches"}, {"alias": "foodtrucks", "title": "Food Trucks"}], "rating": 4.0, "coordinates": {"latitude": 40.7124539, "longitude": -73.9287374}, "transactions": [], "location": {"address1": "178 Varick Ave", "address2": "", "address3": null, "city": "Brooklyn", "zip_code": "11237", "country": "US", "state": "NY", "display_address": ["178 Varick Ave", "Brooklyn, NY 11237"]}, "phone": "+18457091808", "display_phone": "(845) 709-1808", "distance": 161651.95048728437}]