[{"id": "e9-DTlkFVV7BUkoE4n-FaA", "alias": "the-uxlocale-uxbridge-2", "name": "The UxLocale", "image_url": "https://s3-media1.fl.yelpcdn.com/bphoto/n66RBpoAYX8Y7mGPyxebzg/o.jpg", "is_closed": false, "url": "https://www.yelp.com/biz/the-uxlocale-uxbridge-2?adjust_creative=HdhkN5EEH6lAqE3kwhsHEQ&utm_campaign=yelp_api_v3&utm_medium=api_v3_business_search&utm_source=HdhkN5EEH6lAqE3kwhsHEQ", "review_count": 105, "categories": [{"alias": "italian", "title": "Italian"}, {"alias": "pizza", "title": "Pizza"}, {"alias": "gastropubs", "title": "Gastropubs"}], "rating": 4.0, "coordinates": {"latitude": 42.0795967301298, "longitude": -71.6761799891327}, "transactions": [], "price": "$$", "location": {"address1": "510 Hartford Ave", "address2": "", "address3": null, "city": "Uxbridge", "zip_code": "01569", "country": "US", "state": "MA", "display_address": ["510 Hartford Ave", "Uxbridge, MA 01569"]}, "phone": "+15087797515", "display_phone": "(508) 779-7515", "distance": 2979.1130357063553}, {"id": "gegTB3Oa-3TnNsqHL_o8pA", "alias": "the-burger-grille-uxbridge", "name": "The Burger Grille", "image_url": "https://s3-media4.fl.yelpcdn.com/bphoto/ZmFcv2QgyB2ZhTplgsDgUw/o.jpg", "is_closed": false, "url": "https://www.yelp.com/biz/the-burger-grille-uxbridge?adjust_creative=HdhkN5EEH6lAqE3kwhsHEQ&utm_campaign=yelp_api_v3&utm_medium=api_v3_business_search&utm_source=HdhkN5EEH6lAqE3kwhsHEQ", "review_count": 88, "categories": [{"alias": "burgers", "title": "Burgers"}, {"alias": "chicken_wings", "title": "Chicken Wings"}, {"alias": "salad", "title": "Salad"}], "rating": 4.0, "coordinates": {"latitude": 42.09016, "longitude": -71.64303}, "transactions": [], "price": "$", "location": {"address1": "316 N Main St", "address2": "", "address3": "", "city": "Uxbridge", "zip_code": "01569", "country": "US", "state": "MA", "display_address": ["316 N Main St", "Uxbridge, MA 01569"]}, "phone": "+15083729090", "display_phone": "(508) 372-9090", "distance": 102.81643039344125}, {"id": "EIWYPSesdDzsGuMFKnrQQg", "alias": "grille-122-northbridge", "name": "Grille 122", "image_url": "https://s3-media2.fl.yelpcdn.com/bphoto/sqXDj8wvul-BVFZUSW7Ghg/o.jpg", "is_closed": false, "url": "https://www.yelp.com/biz/grille-122-northbridge?adjust_creative=HdhkN5EEH6lAqE3kwhsHEQ&utm_campaign=yelp_api_v3&utm_medium=api_v3_business_search&utm_source=HdhkN5EEH6lAqE3kwhsHEQ", "review_count": 31, "categories": [{"alias": "bars", "title": "Bars"}, {"alias": "tradamerican", "title": "American (Traditional)"}], "rating": 3.0, "coordinates": {"latitude": 42.0997, "longitude": -71.644}, "transactions": [], "price": "$$", "location": {"address1": "91 Providence Rd", "address2": "", "address3": null, "city": "Northbridge", "zip_code": "01588", "country": "US", "state": "MA", "display_address": ["91 Providence Rd", "Northbridge, MA 01588"]}, "phone": "+15083729498", "display_phone": "(508) 372-9498", "distance": 1162.0598903899004}, {"id": "1tmvUK4yA3z0VprJ9Rn5ng", "alias": "maison-de-manger-whitinsville", "name": "Maison de Manger", "image_url": "https://s3-media4.fl.yelpcdn.com/bphoto/eRF2lN5iopIe_3xK5yQ8cA/o.jpg", "is_closed": false, "url": "https://www.yelp.com/biz/maison-de-manger-whitinsville?adjust_creative=HdhkN5EEH6lAqE3kwhsHEQ&utm_campaign=yelp_api_v3&utm_medium=api_v3_business_search&utm_source=HdhkN5EEH6lAqE3kwhsHEQ", "review_count": 50, "categories": [{"alias": "creperies", "title": "Creperies"}], "rating": 4.5, "coordinates": {"latitude": 42.0981689248088, "longitude": -71.6459773108363}, "transactions": [], "price": "$$", "location": {"address1": "670 Linwood Ave", "address2": "", "address3": "", "city": "Whitinsville", "zip_code": "01588", "country": "US", "state": "MA", "display_address": ["670 Linwood Ave", "Whitinsville, MA 01588"]}, "phone": "+15083729797", "display_phone": "(508) 372-9797", "distance": 1026.021551459767}, {"id": "ZlTXh8usbqrn24Zh4RFPKg", "alias": "kapis-pub-uxbridge", "name": "Kapi's Pub", "image_url": "https://s3-media4.fl.yelpcdn.com/bphoto/o8IYhIiJusheXAtJP53Rsw/o.jpg", "is_closed": false, "url": "https://www.yelp.com/biz/kapis-pub-uxbridge?adjust_creative=HdhkN5EEH6lAqE3kwhsHEQ&utm_campaign=yelp_api_v3&utm_medium=api_v3_business_search&utm_source=HdhkN5EEH6lAqE3kwhsHEQ", "review_count": 20, "categories": [{"alias": "pubs", "title": "Pubs"}, {"alias": "tradamerican", "title": "American (Traditional)"}], "rating": 3.0, "coordinates": {"latitude": 42.0878057754441, "longitude": -71.641791}, "transactions": [], "price": "$$", "location": {"address1": "270 North Main St", "address2": null, "address3": null, "city": "Uxbridge", "zip_code": "01569", "country": "US", "state": "MA", "display_address": ["270 North Main St", "Uxbridge, MA 01569"]}, "phone": "+15082785831", "display_phone": "(508) 278-5831", "distance": 177.35222047807952}, {"id": "xdhpueBbA9Pztwn7TuR7Pg", "alias": "divine-thai-northbridge", "name": "Divine Thai", "image_url": "https://s3-media4.fl.yelpcdn.com/bphoto/NIonMRv3pg-5xeTFcrDjdg/o.jpg", "is_closed": false, "url": "https://www.yelp.com/biz/divine-thai-northbridge?adjust_creative=HdhkN5EEH6lAqE3kwhsHEQ&utm_campaign=yelp_api_v3&utm_medium=api_v3_business_search&utm_source=HdhkN5EEH6lAqE3kwhsHEQ", "review_count": 91, "categories": [{"alias": "thai", "title": "Thai"}], "rating": 4.5, "coordinates": {"latitude": 42.1123352, "longitude": -71.6596985}, "transactions": ["delivery"], "price": "$$", "location": {"address1": "123 Church St", "address2": "", "address3": "", "city": "Northbridge", "zip_code": "01588", "country": "US", "state": "MA", "display_address": ["123 Church St", "Northbridge, MA 01588"]}, "phone": "+15082344500", "display_phone": "(508) 234-4500", "distance": 2915.976675183336}, {"id": "84tESMfwulvA_rsUNVPbZQ", "alias": "cheng-kitchen-uxbridge", "name": "Cheng Kitchen", "image_url": "https://s3-media2.fl.yelpcdn.com/bphoto/JqOBR_szGPSFMOuNTSYkag/o.jpg", "is_closed": false, "url": "https://www.yelp.com/biz/cheng-kitchen-uxbridge?adjust_creative=HdhkN5EEH6lAqE3kwhsHEQ&utm_campaign=yelp_api_v3&utm_medium=api_v3_business_search&utm_source=HdhkN5EEH6lAqE3kwhsHEQ", "review_count": 5, "categories": [{"alias": "chinese", "title": "Chinese"}], "rating": 4.0, "coordinates": {"latitude": 42.081671, "longitude": -71.638958}, "transactions": [], "location": {"address1": "158 N Main St", "address2": "", "address3": null, "city": "Uxbridge", "zip_code": "01569", "country": "US", "state": "MA", "display_address": ["158 N Main St", "Uxbridge, MA 01569"]}, "phone": "+15082789399", "display_phone": "(508) 278-9399", "distance": 898.4234394774174}, {"id": "va0TjOKngGsjaqtvlsEzlw", "alias": "nikos-pizza-chicken-and-ribs-north-uxbridge", "name": "Niko's Pizza Chicken & Ribs", "image_url": "https://s3-media3.fl.yelpcdn.com/bphoto/SN1LQY0bE9zDKdOU0o2D8g/o.jpg", "is_closed": false, "url": "https://www.yelp.com/biz/nikos-pizza-chicken-and-ribs-north-uxbridge?adjust_creative=HdhkN5EEH6lAqE3kwhsHEQ&utm_campaign=yelp_api_v3&utm_medium=api_v3_business_search&utm_source=HdhkN5EEH6lAqE3kwhsHEQ", "review_count": 26, "categories": [{"alias": "pizza", "title": "Pizza"}], "rating": 3.5, "coordinates": {"latitude": 42.08901, "longitude": -71.64248}, "transactions": [], "price": "$", "location": {"address1": "294 N Main St", "address2": "", "address3": "", "city": "North Uxbridge", "zip_code": "01538", "country": "US", "state": "MA", "display_address": ["294 N Main St", "North Uxbridge, MA 01538"]}, "phone": "+15082785055", "display_phone": "(508) 278-5055", "distance": 22.367002904184503}, {"id": "GpD-gxtsvv0Y-S_SXzchaA", "alias": "new-china-pacific-restaurant-whitinsville", "name": "New China Pacific Restaurant", "image_url": "https://s3-media1.fl.yelpcdn.com/bphoto/ewieQs_lylCwUI3wdI_eCw/o.jpg", "is_closed": false, "url": "https://www.yelp.com/biz/new-china-pacific-restaurant-whitinsville?adjust_creative=HdhkN5EEH6lAqE3kwhsHEQ&utm_campaign=yelp_api_v3&utm_medium=api_v3_business_search&utm_source=HdhkN5EEH6lAqE3kwhsHEQ", "review_count": 37, "categories": [{"alias": "szechuan", "title": "Szechuan"}, {"alias": "cocktailbars", "title": "Cocktail Bars"}], "rating": 3.0, "coordinates": {"latitude": 42.0985303923564, "longitude": -71.6447227075696}, "transactions": [], "price": "$$", "location": {"address1": "683 Linwood Ave", "address2": "", "address3": "", "city": "Whitinsville", "zip_code": "01588", "country": "US", "state": "MA", "display_address": ["683 Linwood Ave", "Whitinsville, MA 01588"]}, "phone": "+15082348100", "display_phone": "(508) 234-8100", "distance": 1041.8496764972772}, {"id": "-uN7mgH2147YHuwgQb0iUw", "alias": "the-green-plate-whitinsville-3", "name": "The Green Plate", "image_url": "https://s3-media3.fl.yelpcdn.com/bphoto/QMD1DgjIYzSu-GJSRajR-g/o.jpg", "is_closed": false, "url": "https://www.yelp.com/biz/the-green-plate-whitinsville-3?adjust_creative=HdhkN5EEH6lAqE3kwhsHEQ&utm_campaign=yelp_api_v3&utm_medium=api_v3_business_search&utm_source=HdhkN5EEH6lAqE3kwhsHEQ", "review_count": 26, "categories": [{"alias": "catering", "title": "Caterers"}, {"alias": "gluten_free", "title": "Gluten-Free"}, {"alias": "cafes", "title": "Cafes"}], "rating": 4.5, "coordinates": {"latitude": 42.112744, "longitude": -71.6586675}, "transactions": ["delivery"], "location": {"address1": "167 Church St", "address2": null, "address3": "", "city": "Whitinsville", "zip_code": "01588", "country": "US", "state": "MA", "display_address": ["167 Church St", "Whitinsville, MA 01588"]}, "phone": "+17748130200", "display_phone": "(774) 813-0200", "distance": 2926.7876182308833}, {"id": "O2Wj5Wk-qEBLvcK0aqEeiw", "alias": "dudleys-dogs-uxbridge", "name": "Dudley's Dogs", "image_url": "https://s3-media4.fl.yelpcdn.com/bphoto/qAwFX4hQQteaMRQbjE8_wA/o.jpg", "is_closed": false, "url": "https://www.yelp.com/biz/dudleys-dogs-uxbridge?adjust_creative=HdhkN5EEH6lAqE3kwhsHEQ&utm_campaign=yelp_api_v3&utm_medium=api_v3_business_search&utm_source=HdhkN5EEH6lAqE3kwhsHEQ", "review_count": 2, "categories": [{"alias": "hotdog", "title": "Hot Dogs"}, {"alias": "foodtrucks", "title": "Food Trucks"}], "rating": 5.0, "coordinates": {"latitude": 42.0771004903658, "longitude": -71.647076010704}, "transactions": [], "location": {"address1": "16 Cross Rd", "address2": "", "address3": null, "city": "Uxbridge", "zip_code": "01569", "country": "US", "state": "MA", "display_address": ["16 Cross Rd", "Uxbridge, MA 01569"]}, "phone": "+15082841638", "display_phone": "(508) 284-1638", "distance": 1407.6985356012638}, {"id": "LoIq8iKvZkWDueFu864Iow", "alias": "kyoto-sushi-bar-and-grill-northbridge", "name": "Kyoto Sushi Bar & Grill", "image_url": "https://s3-media3.fl.yelpcdn.com/bphoto/GUbWSX3gpmmBVZpOxcq7ug/o.jpg", "is_closed": false, "url": "https://www.yelp.com/biz/kyoto-sushi-bar-and-grill-northbridge?adjust_creative=HdhkN5EEH6lAqE3kwhsHEQ&utm_campaign=yelp_api_v3&utm_medium=api_v3_business_search&utm_source=HdhkN5EEH6lAqE3kwhsHEQ", "review_count": 48, "categories": [{"alias": "japanese", "title": "Japanese"}, {"alias": "sushi", "title": "Sushi Bars"}], "rating": 3.5, "coordinates": {"latitude": 42.113716066928, "longitude": -71.6578243467222}, "transactions": ["delivery"], "price": "$$", "location": {"address1": "185 Church St", "address2": "", "address3": "", "city": "Northbridge", "zip_code": "01588", "country": "US", "state": "MA", "display_address": ["185 Church St", "Northbridge, MA 01588"]}, "phone": "+15083729516", "display_phone": "(508) 372-9516", "distance": 2993.4689345244465}, {"id": "4lAc8-rUmNd9ekKpCuykIg", "alias": "the-valley-bean-uxbridge", "name": "The Valley Bean", "image_url": "https://s3-media3.fl.yelpcdn.com/bphoto/BVm_m0Cjjv37Gt4aZJGjew/o.jpg", "is_closed": false, "url": "https://www.yelp.com/biz/the-valley-bean-uxbridge?adjust_creative=HdhkN5EEH6lAqE3kwhsHEQ&utm_campaign=yelp_api_v3&utm_medium=api_v3_business_search&utm_source=HdhkN5EEH6lAqE3kwhsHEQ", "review_count": 13, "categories": [{"alias": "breakfast_brunch", "title": "Breakfast & Brunch"}, {"alias": "sandwiches", "title": "Sandwiches"}, {"alias": "bagels", "title": "Bagels"}], "rating": 4.0, "coordinates": {"latitude": 42.091292, "longitude": -71.643261}, "transactions": [], "location": {"address1": "336 North Main St", "address2": null, "address3": "", "city": "Uxbridge", "zip_code": "01569", "country": "US", "state": "MA", "display_address": ["336 North Main St", "Uxbridge, MA 01569"]}, "phone": "+15087797790", "display_phone": "(508) 779-7790", "distance": 236.19554315259413}, {"id": "lhC9J5lPOiuHuJbk_z0dYg", "alias": "king-jade-restaurant-whitinsville", "name": "King Jade Restaurant", "image_url": "https://s3-media3.fl.yelpcdn.com/bphoto/48fNZqZPDww3uX4d1aDmYA/o.jpg", "is_closed": false, "url": "https://www.yelp.com/biz/king-jade-restaurant-whitinsville?adjust_creative=HdhkN5EEH6lAqE3kwhsHEQ&utm_campaign=yelp_api_v3&utm_medium=api_v3_business_search&utm_source=HdhkN5EEH6lAqE3kwhsHEQ", "review_count": 57, "categories": [{"alias": "chinese", "title": "Chinese"}], "rating": 3.5, "coordinates": {"latitude": 42.1264885, "longitude": -71.6467951}, "transactions": ["delivery"], "price": "$$", "location": {"address1": "1229 Providence Rd", "address2": "", "address3": "", "city": "Whitinsville", "zip_code": "01588", "country": "US", "state": "MA", "display_address": ["1229 Providence Rd", "Whitinsville, MA 01588"]}, "phone": "+15082345968", "display_phone": "(508) 234-5968", "distance": 4178.699707741224}, {"id": "rLDuZiZNFEup3z-0DkNF4A", "alias": "bitchin-bbq-uxbridge", "name": "BitChin BBQ", "image_url": "https://s3-media2.fl.yelpcdn.com/bphoto/gPb5cL7Wg1FkM3VfS3pGXw/o.jpg", "is_closed": false, "url": "https://www.yelp.com/biz/bitchin-bbq-uxbridge?adjust_creative=HdhkN5EEH6lAqE3kwhsHEQ&utm_campaign=yelp_api_v3&utm_medium=api_v3_business_search&utm_source=HdhkN5EEH6lAqE3kwhsHEQ", "review_count": 8, "categories": [{"alias": "foodtrucks", "title": "Food Trucks"}, {"alias": "hotdog", "title": "Hot Dogs"}, {"alias": "bbq", "title": "Barbeque"}], "rating": 2.5, "coordinates": {"latitude": 42.0830841064453, "longitude": -71.6391448974609}, "transactions": [], "location": {"address1": "176 N Main St", "address2": "", "address3": "", "city": "Uxbridge", "zip_code": "01569", "country": "US", "state": "MA", "display_address": ["176 N Main St", "Uxbridge, MA 01569"]}, "phone": "+14013095858", "display_phone": "(401) 309-5858", "distance": 741.86271199114}, {"id": "BiCLQ2oUzOpUtk9LDaH07Q", "alias": "quaker-tavern-uxbridge", "name": "Quaker Tavern", "image_url": "https://s3-media4.fl.yelpcdn.com/bphoto/dCU0Y_OtzzrCsx54jFxq4w/o.jpg", "is_closed": false, "url": "https://www.yelp.com/biz/quaker-tavern-uxbridge?adjust_creative=HdhkN5EEH6lAqE3kwhsHEQ&utm_campaign=yelp_api_v3&utm_medium=api_v3_business_search&utm_source=HdhkN5EEH6lAqE3kwhsHEQ", "review_count": 31, "categories": [{"alias": "tradamerican", "title": "American (Traditional)"}], "rating": 3.0, "coordinates": {"latitude": 42.039944306016, "longitude": -71.620462462306}, "transactions": [], "price": "$$", "location": {"address1": "466 Quaker Hwy", "address2": "", "address3": "Rt 146A", "city": "Uxbridge", "zip_code": "01569", "country": "US", "state": "MA", "display_address": ["466 Quaker Hwy", "Rt 146A", "Uxbridge, MA 01569"]}, "phone": "+15087790901", "display_phone": "(508) 779-0901", "distance": 1680.8210047101693}, {"id": "RO2jaB93y-_td1wWBwrtDg", "alias": "harefield-tandoori-uxbridge", "name": "Harefield Tandoori", "image_url": "", "is_closed": false, "url": "https://www.yelp.com/biz/harefield-tandoori-uxbridge?adjust_creative=HdhkN5EEH6lAqE3kwhsHEQ&utm_campaign=yelp_api_v3&utm_medium=api_v3_business_search&utm_source=HdhkN5EEH6lAqE3kwhsHEQ", "review_count": 1, "categories": [{"alias": "indpak", "title": "Indian"}], "rating": 4.0, "coordinates": {"latitude": 51.603534, "longitude": -0.482555}, "transactions": [], "location": {"address1": "40 High Street", "address2": "", "address3": "Harefield", "city": "Uxbridge", "zip_code": "UB9 6BU", "country": "GB", "state": "XGL", "display_address": ["40 High Street", "Harefield", "Uxbridge UB9 6BU", "United Kingdom"]}, "phone": "+441895825844", "display_phone": "+44 1895 825844", "distance": 1680.8210047101693}, {"id": "OlerFWIyUIu-GNjgGk6uhA", "alias": "uxbridge-house-of-pizza-uxbridge", "name": "Uxbridge House of Pizza", "image_url": "https://s3-media2.fl.yelpcdn.com/bphoto/dNZ55es-_jIznzXzpx90Mg/o.jpg", "is_closed": false, "url": "https://www.yelp.com/biz/uxbridge-house-of-pizza-uxbridge?adjust_creative=HdhkN5EEH6lAqE3kwhsHEQ&utm_campaign=yelp_api_v3&utm_medium=api_v3_business_search&utm_source=HdhkN5EEH6lAqE3kwhsHEQ", "review_count": 27, "categories": [{"alias": "pizza", "title": "Pizza"}], "rating": 4.0, "coordinates": {"latitude": 42.07588, "longitude": -71.629301}, "transactions": [], "price": "$", "location": {"address1": "11 S Main St", "address2": "", "address3": "", "city": "Uxbridge", "zip_code": "01569", "country": "US", "state": "MA", "display_address": ["11 S Main St", "Uxbridge, MA 01569"]}, "phone": "+15082782300", "display_phone": "(508) 278-2300", "distance": 1851.5562285616263}, {"id": "dyIMv5PGbPPsLhyohcNudQ", "alias": "pirates-cove-linwood", "name": "Pirate's Cove", "image_url": "https://s3-media2.fl.yelpcdn.com/bphoto/MJ1L__WC7H9j-AP-5cDNAw/o.jpg", "is_closed": false, "url": "https://www.yelp.com/biz/pirates-cove-linwood?adjust_creative=HdhkN5EEH6lAqE3kwhsHEQ&utm_campaign=yelp_api_v3&utm_medium=api_v3_business_search&utm_source=HdhkN5EEH6lAqE3kwhsHEQ", "review_count": 29, "categories": [{"alias": "seafood", "title": "Seafood"}, {"alias": "icecream", "title": "Ice Cream & Frozen Yogurt"}, {"alias": "hotdog", "title": "Hot Dogs"}], "rating": 3.5, "coordinates": {"latitude": 42.09934, "longitude": -71.64351}, "transactions": [], "price": "$$", "location": {"address1": "74 Providence Rd", "address2": "", "address3": "", "city": "Linwood", "zip_code": "01525", "country": "US", "state": "MA", "display_address": ["74 Providence Rd", "Linwood, MA 01525"]}, "phone": "+15082340700", "display_phone": "(508) 234-0700", "distance": 1096.4149678106019}, {"id": "s5FlMeEpVyq8IneuzsZbeg", "alias": "harrys-famous-pizza-uxbridge", "name": "Harry's Famous Pizza", "image_url": "https://s3-media2.fl.yelpcdn.com/bphoto/-NutXo0FG1bXuL-Db6zHXQ/o.jpg", "is_closed": false, "url": "https://www.yelp.com/biz/harrys-famous-pizza-uxbridge?adjust_creative=HdhkN5EEH6lAqE3kwhsHEQ&utm_campaign=yelp_api_v3&utm_medium=api_v3_business_search&utm_source=HdhkN5EEH6lAqE3kwhsHEQ", "review_count": 49, "categories": [{"alias": "pizza", "title": "Pizza"}], "rating": 3.0, "coordinates": {"latitude": 42.07622, "longitude": -71.62903}, "transactions": [], "price": "$", "location": {"address1": "6 S Main St", "address2": "", "address3": "", "city": "Uxbridge", "zip_code": "01569", "country": "US", "state": "MA", "display_address": ["6 S Main St", "Uxbridge, MA 01569"]}, "phone": "+15082782114", "display_phone": "(508) 278-2114", "distance": 1827.6120248940292}, {"id": "kP0QvQp2CL-peX8e9WvBow", "alias": "papa-ginos-pizzeria-uxbridge", "name": "Papa Gino's Pizzeria", "image_url": "https://s3-media2.fl.yelpcdn.com/bphoto/kGQc6UQ7MEvHoC2jS5ijFg/o.jpg", "is_closed": false, "url": "https://www.yelp.com/biz/papa-ginos-pizzeria-uxbridge?adjust_creative=HdhkN5EEH6lAqE3kwhsHEQ&utm_campaign=yelp_api_v3&utm_medium=api_v3_business_search&utm_source=HdhkN5EEH6lAqE3kwhsHEQ", "review_count": 26, "categories": [{"alias": "pizza", "title": "Pizza"}], "rating": 1.5, "coordinates": {"latitude": 42.081616, "longitude": -71.63828}, "transactions": [], "price": "$$", "location": {"address1": "158 N. Main St.", "address2": "", "address3": "", "city": "Uxbridge", "zip_code": "01569", "country": "US", "state": "MA", "display_address": ["158 N. Main St.", "Uxbridge, MA 01569"]}, "phone": "+15082786881", "display_phone": "(508) 278-6881", "distance": 923.9693360080801}, {"id": "-5aeb8D7G7OHQ-Gvfl52MQ", "alias": "pegs-diner-whitinsville", "name": "Peg's Diner", "image_url": "https://s3-media1.fl.yelpcdn.com/bphoto/t-C8pvxFWhyNc5WB4tXDgQ/o.jpg", "is_closed": false, "url": "https://www.yelp.com/biz/pegs-diner-whitinsville?adjust_creative=HdhkN5EEH6lAqE3kwhsHEQ&utm_campaign=yelp_api_v3&utm_medium=api_v3_business_search&utm_source=HdhkN5EEH6lAqE3kwhsHEQ", "review_count": 21, "categories": [{"alias": "diners", "title": "Diners"}], "rating": 4.5, "coordinates": {"latitude": 42.1117175527295, "longitude": -71.6611186929159}, "transactions": ["delivery"], "price": "$", "location": {"address1": "87 Church St", "address2": "", "address3": "", "city": "Whitinsville", "zip_code": "01588", "country": "US", "state": "MA", "display_address": ["87 Church St", "Whitinsville, MA 01588"]}, "phone": "+15082340170", "display_phone": "(508) 234-0170", "distance": 2934.950432740325}, {"id": "viPH-ro4y-nZQGTuHCSD0g", "alias": "harrys-famous-pizza-whitinsville", "name": "Harry's Famous Pizza", "image_url": "https://s3-media3.fl.yelpcdn.com/bphoto/OkqPCaMOofW2tszWiBcjuA/o.jpg", "is_closed": false, "url": "https://www.yelp.com/biz/harrys-famous-pizza-whitinsville?adjust_creative=HdhkN5EEH6lAqE3kwhsHEQ&utm_campaign=yelp_api_v3&utm_medium=api_v3_business_search&utm_source=HdhkN5EEH6lAqE3kwhsHEQ", "review_count": 41, "categories": [{"alias": "pizza", "title": "Pizza"}, {"alias": "italian", "title": "Italian"}], "rating": 3.5, "coordinates": {"latitude": 42.113355, "longitude": -71.658354}, "transactions": ["delivery"], "price": "$", "location": {"address1": "185 Church St", "address2": "", "address3": "", "city": "Whitinsville", "zip_code": "01588", "country": "US", "state": "MA", "display_address": ["185 Church St", "Whitinsville, MA 01588"]}, "phone": "+15082345155", "display_phone": "(508) 234-5155", "distance": 2976.0155900793907}, {"id": "t-OeMtuK5MZrg0rimrj2qQ", "alias": "depot-cafe-uxbridge", "name": "Depot Cafe", "image_url": "https://s3-media3.fl.yelpcdn.com/bphoto/QNZxvPByFQHMv78OJ2RsVA/o.jpg", "is_closed": false, "url": "https://www.yelp.com/biz/depot-cafe-uxbridge?adjust_creative=HdhkN5EEH6lAqE3kwhsHEQ&utm_campaign=yelp_api_v3&utm_medium=api_v3_business_search&utm_source=HdhkN5EEH6lAqE3kwhsHEQ", "review_count": 35, "categories": [{"alias": "breakfast_brunch", "title": "Breakfast & Brunch"}, {"alias": "sandwiches", "title": "Sandwiches"}], "rating": 4.0, "coordinates": {"latitude": 42.075899, "longitude": -71.629256}, "transactions": [], "price": "$", "location": {"address1": "11 S Main St", "address2": null, "address3": "", "city": "Uxbridge", "zip_code": "01569", "country": "US", "state": "MA", "display_address": ["11 S Main St", "Uxbridge, MA 01569"]}, "phone": "+15082788088", "display_phone": "(508) 278-8088", "distance": 1849.8265742247509}, {"id": "X0T0rewIGkEWIqfY8BVtvg", "alias": "jubes-family-restaurant-whitinsville", "name": "Jube's Family Restaurant", "image_url": "https://s3-media3.fl.yelpcdn.com/bphoto/wU7vYb3Ia1IEnwXSw4bBuA/o.jpg", "is_closed": false, "url": "https://www.yelp.com/biz/jubes-family-restaurant-whitinsville?adjust_creative=HdhkN5EEH6lAqE3kwhsHEQ&utm_campaign=yelp_api_v3&utm_medium=api_v3_business_search&utm_source=HdhkN5EEH6lAqE3kwhsHEQ", "review_count": 42, "categories": [{"alias": "tradamerican", "title": "American (Traditional)"}, {"alias": "breakfast_brunch", "title": "Breakfast & Brunch"}], "rating": 3.0, "coordinates": {"latitude": 42.1265970915556, "longitude": -71.6466998308897}, "transactions": ["delivery"], "price": "$$", "location": {"address1": "1227 Providence Rd", "address2": "", "address3": "", "city": "Whitinsville", "zip_code": "01588", "country": "US", "state": "MA", "display_address": ["1227 Providence Rd", "Whitinsville, MA 01588"]}, "phone": "+15082347768", "display_phone": "(508) 234-7768", "distance": 4179.643664526067}, {"id": "VhZLjn49eRRHJAka6XDuJg", "alias": "village-house-of-pizza-whitinsville", "name": "Village House of Pizza", "image_url": "https://s3-media2.fl.yelpcdn.com/bphoto/6t3MStQNlY-_i59LUMDk0A/o.jpg", "is_closed": false, "url": "https://www.yelp.com/biz/village-house-of-pizza-whitinsville?adjust_creative=HdhkN5EEH6lAqE3kwhsHEQ&utm_campaign=yelp_api_v3&utm_medium=api_v3_business_search&utm_source=HdhkN5EEH6lAqE3kwhsHEQ", "review_count": 24, "categories": [{"alias": "pizza", "title": "Pizza"}, {"alias": "salad", "title": "Salad"}, {"alias": "sandwiches", "title": "Sandwiches"}], "rating": 4.0, "coordinates": {"latitude": 42.1164404961342, "longitude": -71.6839722552948}, "transactions": ["delivery"], "price": "$", "location": {"address1": "199 N Main St", "address2": "", "address3": "", "city": "Whitinsville", "zip_code": "01588", "country": "US", "state": "MA", "display_address": ["199 N Main St", "Whitinsville, MA 01588"]}, "phone": "+15082346261", "display_phone": "(508) 234-6261", "distance": 4560.02969586739}, {"id": "onHWpahWYcgrERz9ChHb6w", "alias": "subway-uxbridge-6", "name": "Subway", "image_url": "https://s3-media4.fl.yelpcdn.com/bphoto/rztSPnjR8ZTPCDFYsU_lPQ/o.jpg", "is_closed": false, "url": "https://www.yelp.com/biz/subway-uxbridge-6?adjust_creative=HdhkN5EEH6lAqE3kwhsHEQ&utm_campaign=yelp_api_v3&utm_medium=api_v3_business_search&utm_source=HdhkN5EEH6lAqE3kwhsHEQ", "review_count": 8, "categories": [{"alias": "sandwiches", "title": "Sandwiches"}], "rating": 2.5, "coordinates": {"latitude": 42.0760286042075, "longitude": -71.6293811725563}, "transactions": [], "price": "$", "location": {"address1": "5 S Main St", "address2": "", "address3": null, "city": "Uxbridge", "zip_code": "01569", "country": "US", "state": "MA", "display_address": ["5 S Main St", "Uxbridge, MA 01569"]}, "phone": "+15082780202", "display_phone": "(508) 278-0202", "distance": 1832.095991694893}, {"id": "MsIxw9V1uehtUYP3AjmR7A", "alias": "new-england-pizza-and-subs-whitinsville", "name": "New England Pizza & Subs", "image_url": "https://s3-media2.fl.yelpcdn.com/bphoto/dclyiNkaj8cRm0cBRFwkmg/o.jpg", "is_closed": false, "url": "https://www.yelp.com/biz/new-england-pizza-and-subs-whitinsville?adjust_creative=HdhkN5EEH6lAqE3kwhsHEQ&utm_campaign=yelp_api_v3&utm_medium=api_v3_business_search&utm_source=HdhkN5EEH6lAqE3kwhsHEQ", "review_count": 9, "categories": [{"alias": "pizza", "title": "Pizza"}], "rating": 3.0, "coordinates": {"latitude": 42.123285, "longitude": -71.645232}, "transactions": ["delivery", "pickup"], "price": "$", "location": {"address1": "1115 Providence Rd", "address2": "", "address3": "", "city": "Whitinsville", "zip_code": "01588", "country": "US", "state": "MA", "display_address": ["1115 Providence Rd", "Whitinsville, MA 01588"]}, "phone": "+15082341888", "display_phone": "(508) 234-1888", "distance": 3785.195412909802}, {"id": "7bFiD9xoSuY2ftHM1ml5zQ", "alias": "the-valley-cafe-whitinsville", "name": "The Valley Cafe", "image_url": "https://s3-media2.fl.yelpcdn.com/bphoto/sFakK7jvXEbFRXLF5_wQHw/o.jpg", "is_closed": false, "url": "https://www.yelp.com/biz/the-valley-cafe-whitinsville?adjust_creative=HdhkN5EEH6lAqE3kwhsHEQ&utm_campaign=yelp_api_v3&utm_medium=api_v3_business_search&utm_source=HdhkN5EEH6lAqE3kwhsHEQ", "review_count": 50, "categories": [{"alias": "breakfast_brunch", "title": "Breakfast & Brunch"}, {"alias": "tradamerican", "title": "American (Traditional)"}, {"alias": "seafood", "title": "Seafood"}], "rating": 3.0, "coordinates": {"latitude": 42.1116334429747, "longitude": -71.660699450045}, "transactions": ["delivery"], "price": "$$", "location": {"address1": "98A Church St", "address2": null, "address3": null, "city": "Whitinsville", "zip_code": "01588", "country": "US", "state": "MA", "display_address": ["98A Church St", "Whitinsville, MA 01588"]}, "phone": "+15082342180", "display_phone": "(508) 234-2180", "distance": 2900.353451644652}, {"id": "Ask85cLMl28aX-mTAkBGUw", "alias": "corner-pizza-and-grill-northbridge", "name": "Corner Pizza and Grill", "image_url": "https://s3-media4.fl.yelpcdn.com/bphoto/WyPEgTw4PzppZ6szHR2PFA/o.jpg", "is_closed": false, "url": "https://www.yelp.com/biz/corner-pizza-and-grill-northbridge?adjust_creative=HdhkN5EEH6lAqE3kwhsHEQ&utm_campaign=yelp_api_v3&utm_medium=api_v3_business_search&utm_source=HdhkN5EEH6lAqE3kwhsHEQ", "review_count": 39, "categories": [{"alias": "pizza", "title": "Pizza"}, {"alias": "hotdogs", "title": "Fast Food"}, {"alias": "sandwiches", "title": "Sandwiches"}], "rating": 2.5, "coordinates": {"latitude": 42.1122409, "longitude": -71.659859}, "transactions": [], "price": "$$", "location": {"address1": "125 Church St", "address2": "", "address3": "", "city": "Northbridge", "zip_code": "01588", "country": "US", "state": "MA", "display_address": ["125 Church St", "Northbridge, MA 01588"]}, "phone": "+15082340001", "display_phone": "(508) 234-0001", "distance": 2923.8641484362984}, {"id": "2VZinIb_CQaMEtOrZcBa1g", "alias": "dominos-pizza-whitinsville", "name": "Domino's Pizza", "image_url": "https://s3-media2.fl.yelpcdn.com/bphoto/o6tAg1nvf8x3feSWFHSPRw/o.jpg", "is_closed": false, "url": "https://www.yelp.com/biz/dominos-pizza-whitinsville?adjust_creative=HdhkN5EEH6lAqE3kwhsHEQ&utm_campaign=yelp_api_v3&utm_medium=api_v3_business_search&utm_source=HdhkN5EEH6lAqE3kwhsHEQ", "review_count": 13, "categories": [{"alias": "pizza", "title": "Pizza"}, {"alias": "chicken_wings", "title": "Chicken Wings"}, {"alias": "sandwiches", "title": "Sandwiches"}], "rating": 1.5, "coordinates": {"latitude": 42.1114044, "longitude": -71.6613998}, "transactions": [], "price": "$", "location": {"address1": "72 Church St", "address2": null, "address3": null, "city": "Whitinsville", "zip_code": "01588", "country": "US", "state": "MA", "display_address": ["72 Church St", "Whitinsville, MA 01588"]}, "phone": "+15082662000", "display_phone": "(508) 266-2000", "distance": 2903.193328147499}, {"id": "1SuoCIw7QxUQsxPVSaqvKA", "alias": "burger-king-whitinsville", "name": "Burger King", "image_url": "https://s3-media1.fl.yelpcdn.com/bphoto/LiLzKEDUM_mBq1ejVofkWw/o.jpg", "is_closed": false, "url": "https://www.yelp.com/biz/burger-king-whitinsville?adjust_creative=HdhkN5EEH6lAqE3kwhsHEQ&utm_campaign=yelp_api_v3&utm_medium=api_v3_business_search&utm_source=HdhkN5EEH6lAqE3kwhsHEQ", "review_count": 12, "categories": [{"alias": "burgers", "title": "Burgers"}, {"alias": "hotdogs", "title": "Fast Food"}], "rating": 2.0, "coordinates": {"latitude": 42.1253046, "longitude": -71.6464458}, "transactions": [], "price": "$", "location": {"address1": "1177 Providence Rd", "address2": "", "address3": "", "city": "Whitinsville", "zip_code": "01588", "country": "US", "state": "MA", "display_address": ["1177 Providence Rd", "Whitinsville, MA 01588"]}, "phone": "", "display_phone": "", "distance": 3873.6007024214905}, {"id": "duBbkV1mz80Vi7ysNoAtTQ", "alias": "crystal-catering-whitinsville", "name": "Crystal Catering", "image_url": "", "is_closed": false, "url": "https://www.yelp.com/biz/crystal-catering-whitinsville?adjust_creative=HdhkN5EEH6lAqE3kwhsHEQ&utm_campaign=yelp_api_v3&utm_medium=api_v3_business_search&utm_source=HdhkN5EEH6lAqE3kwhsHEQ", "review_count": 1, "categories": [{"alias": "servicestations", "title": "Gas Stations"}, {"alias": "autorepair", "title": "Auto Repair"}, {"alias": "catering", "title": "Caterers"}, {"alias": "delis", "title": "Delis"}], "rating": 1.0, "coordinates": {"latitude": 42.112919, "longitude": -71.658243}, "transactions": [], "location": {"address1": "175 Church St", "address2": "", "address3": "", "city": "Whitinsville", "zip_code": "01588", "country": "US", "state": "MA", "display_address": ["175 Church St", "Whitinsville, MA 01588"]}, "phone": "+15082341209", "display_phone": "(508) 234-1209", "distance": 2937.4732710539106}, {"id": "1NsHOxcujNJssKy0CrH_oQ", "alias": "subway-whitinsville-4", "name": "Subway", "image_url": "https://s3-media3.fl.yelpcdn.com/bphoto/gRhh_FwqF09CXLuhjxcEaA/o.jpg", "is_closed": false, "url": "https://www.yelp.com/biz/subway-whitinsville-4?adjust_creative=HdhkN5EEH6lAqE3kwhsHEQ&utm_campaign=yelp_api_v3&utm_medium=api_v3_business_search&utm_source=HdhkN5EEH6lAqE3kwhsHEQ", "review_count": 3, "categories": [{"alias": "sandwiches", "title": "Sandwiches"}], "rating": 2.5, "coordinates": {"latitude": 42.1111714, "longitude": -71.6619159499166}, "transactions": [], "price": "$", "location": {"address1": "56 Church St", "address2": "", "address3": "", "city": "Whitinsville", "zip_code": "01588", "country": "US", "state": "MA", "display_address": ["56 Church St", "Whitinsville, MA 01588"]}, "phone": "+15082344007", "display_phone": "(508) 234-4007", "distance": 2910.4129399996987}, {"id": "23cyGoXFdHnwvQvXg0-O_g", "alias": "mcdonalds-whitinsville-2", "name": "McDonald's", "image_url": "https://s3-media3.fl.yelpcdn.com/bphoto/n_RAo9mGBU7uE7Buj1E0Xw/o.jpg", "is_closed": false, "url": "https://www.yelp.com/biz/mcdonalds-whitinsville-2?adjust_creative=HdhkN5EEH6lAqE3kwhsHEQ&utm_campaign=yelp_api_v3&utm_medium=api_v3_business_search&utm_source=HdhkN5EEH6lAqE3kwhsHEQ", "review_count": 8, "categories": [{"alias": "coffee", "title": "Coffee & Tea"}, {"alias": "burgers", "title": "Burgers"}, {"alias": "hotdogs", "title": "Fast Food"}], "rating": 2.5, "coordinates": {"latitude": 42.1255259188669, "longitude": -71.6460567712784}, "transactions": [], "price": "$", "location": {"address1": "1190 Providence Rd", "address2": null, "address3": null, "city": "Whitinsville", "zip_code": "01588", "country": "US", "state": "MA", "display_address": ["1190 Providence Rd", "Whitinsville, MA 01588"]}, "phone": "+15082342960", "display_phone": "(508) 234-2960", "distance": 4038.2964196586836}]