[{"id": "qoPzeBjIoLcfn573en7YBQ", "alias": "clintons-bar-and-grille-clinton", "name": "Clintons Bar & Grille", "image_url": "https://s3-media3.fl.yelpcdn.com/bphoto/V_aVgskGjBmwYUCeztOmAw/o.jpg", "is_closed": false, "url": "https://www.yelp.com/biz/clintons-bar-and-grille-clinton?adjust_creative=ywY5UnLZrNrRl2b93Ruy_g&utm_campaign=yelp_api_v3&utm_medium=api_v3_business_search&utm_source=ywY5UnLZrNrRl2b93Ruy_g", "review_count": 248, "categories": [{"alias": "newamerican", "title": "American (New)"}, {"alias": "bars", "title": "Bars"}], "rating": 4.0, "coordinates": {"latitude": 42.416574337148, "longitude": -71.6845641865082}, "transactions": ["delivery"], "price": "$$", "location": {"address1": "27 High St", "address2": "", "address3": "", "city": "Clinton", "zip_code": "01510", "country": "US", "state": "MA", "display_address": ["27 High St", "Clinton, MA 01510"]}, "phone": "+19785987002", "display_phone": "(978) 598-7002", "distance": 676.4747456782421}, {"id": "PxdW-SgIRK8kBzvZhtlliw", "alias": "zaytoon-clinton", "name": "Zaytoon", "image_url": "https://s3-media3.fl.yelpcdn.com/bphoto/nTh60be1jP2J6GNPtmS4QA/o.jpg", "is_closed": false, "url": "https://www.yelp.com/biz/zaytoon-clinton?adjust_creative=ywY5UnLZrNrRl2b93Ruy_g&utm_campaign=yelp_api_v3&utm_medium=api_v3_business_search&utm_source=ywY5UnLZrNrRl2b93Ruy_g", "review_count": 162, "categories": [{"alias": "mediterranean", "title": "Mediterranean"}, {"alias": "buffets", "title": "Buffets"}], "rating": 4.5, "coordinates": {"latitude": 42.4173321237602, "longitude": -71.6849050981938}, "transactions": ["delivery"], "price": "$$", "location": {"address1": "72B High St", "address2": "", "address3": "", "city": "Clinton", "zip_code": "01510", "country": "US", "state": "MA", "display_address": ["72B High St", "Clinton, MA 01510"]}, "phone": "+19787334258", "display_phone": "(978) 733-4258", "distance": 707.5305779257534}, {"id": "x5MlYCGVlUYcXdmn0ZRPRw", "alias": "the-old-timer-restaurant-clinton", "name": "The Old Timer Restaurant", "image_url": "https://s3-media2.fl.yelpcdn.com/bphoto/B5pShh8DBHPXf3rHqBh9gw/o.jpg", "is_closed": false, "url": "https://www.yelp.com/biz/the-old-timer-restaurant-clinton?adjust_creative=ywY5UnLZrNrRl2b93Ruy_g&utm_campaign=yelp_api_v3&utm_medium=api_v3_business_search&utm_source=ywY5UnLZrNrRl2b93Ruy_g", "review_count": 27, "categories": [{"alias": "irish", "title": "Irish"}], "rating": 3.5, "coordinates": {"latitude": 42.4174700542928, "longitude": -71.6850590245157}, "transactions": [], "location": {"address1": "155 Church St", "address2": "", "address3": null, "city": "Clinton", "zip_code": "01510", "country": "US", "state": "MA", "display_address": ["155 Church St", "Clinton, MA 01510"]}, "phone": "+19787334373", "display_phone": "(978) 733-4373", "distance": 708.7689871601767}, {"id": "cXg5NE3RNA6Fj8zg4LYWlw", "alias": "taqueria-el-amigo-iii-clinton", "name": "Taqueria El Amigo III", "image_url": "https://s3-media2.fl.yelpcdn.com/bphoto/B_lU1_s13sYo_UHaZrT67A/o.jpg", "is_closed": false, "url": "https://www.yelp.com/biz/taqueria-el-amigo-iii-clinton?adjust_creative=ywY5UnLZrNrRl2b93Ruy_g&utm_campaign=yelp_api_v3&utm_medium=api_v3_business_search&utm_source=ywY5UnLZrNrRl2b93Ruy_g", "review_count": 27, "categories": [{"alias": "mexican", "title": "Mexican"}], "rating": 4.0, "coordinates": {"latitude": 42.416107, "longitude": -71.68471}, "transactions": ["delivery"], "location": {"address1": "1 High St", "address2": "", "address3": null, "city": "Clinton", "zip_code": "01510", "country": "US", "state": "MA", "display_address": ["1 High St", "Clinton, MA 01510"]}, "phone": "+19783688000", "display_phone": "(978) 368-8000", "distance": 637.6254656355628}, {"id": "0GBldD0POkqNMR5KxPIJ0w", "alias": "thai-time-clinton", "name": "Thai Time", "image_url": "https://s3-media3.fl.yelpcdn.com/bphoto/jRlTnS3nM7FBHYyjuCXUUw/o.jpg", "is_closed": false, "url": "https://www.yelp.com/biz/thai-time-clinton?adjust_creative=ywY5UnLZrNrRl2b93Ruy_g&utm_campaign=yelp_api_v3&utm_medium=api_v3_business_search&utm_source=ywY5UnLZrNrRl2b93Ruy_g", "review_count": 101, "categories": [{"alias": "thai", "title": "Thai"}], "rating": 4.0, "coordinates": {"latitude": 42.4174778, "longitude": -71.6844005}, "transactions": ["delivery"], "price": "$$", "location": {"address1": "180 Church St", "address2": null, "address3": "", "city": "Clinton", "zip_code": "01510", "country": "US", "state": "MA", "display_address": ["180 Church St", "Clinton, MA 01510"]}, "phone": "+19783656368", "display_phone": "(978) 365-6368", "distance": 734.0052015656329}, {"id": "KtLclJ24auqjdb97fd9Atw", "alias": "flat-penny-bar-and-grill-berlin", "name": "Flat Penny Bar & Grill", "image_url": "https://s3-media3.fl.yelpcdn.com/bphoto/y2gXFAqJPe94YWXT1QJXtw/o.jpg", "is_closed": false, "url": "https://www.yelp.com/biz/flat-penny-bar-and-grill-berlin?adjust_creative=ywY5UnLZrNrRl2b93Ruy_g&utm_campaign=yelp_api_v3&utm_medium=api_v3_business_search&utm_source=ywY5UnLZrNrRl2b93Ruy_g", "review_count": 65, "categories": [{"alias": "bars", "title": "Bars"}, {"alias": "tradamerican", "title": "American (Traditional)"}], "rating": 3.0, "coordinates": {"latitude": 42.39181, "longitude": -71.66104}, "transactions": ["delivery"], "price": "$$", "location": {"address1": "263 W St", "address2": "", "address3": "", "city": "Berlin", "zip_code": "01503", "country": "US", "state": "MA", "display_address": ["263 W St", "Berlin, MA 01503"]}, "phone": "+19784150150", "display_phone": "(978) 415-0150", "distance": 3428.068592763792}, {"id": "YC76TzBkLLD7A57lK3vVUA", "alias": "clinton-gourmet-clinton", "name": "Clinton Gourmet", "image_url": "https://s3-media1.fl.yelpcdn.com/bphoto/tgaG1-2gfMyYlFZXahbBJg/o.jpg", "is_closed": false, "url": "https://www.yelp.com/biz/clinton-gourmet-clinton?adjust_creative=ywY5UnLZrNrRl2b93Ruy_g&utm_campaign=yelp_api_v3&utm_medium=api_v3_business_search&utm_source=ywY5UnLZrNrRl2b93Ruy_g", "review_count": 49, "categories": [{"alias": "chinese", "title": "Chinese"}], "rating": 3.0, "coordinates": {"latitude": 42.43286, "longitude": -71.68429}, "transactions": ["delivery"], "price": "$$", "location": {"address1": "1075 Main St", "address2": "", "address3": "", "city": "Clinton", "zip_code": "01510", "country": "US", "state": "MA", "display_address": ["1075 Main St", "Clinton, MA 01510"]}, "phone": "+19783658020", "display_phone": "(978) 365-8020", "distance": 2250.3378010056003}, {"id": "fpZjuvZiyLAcJxIRdej3Kg", "alias": "nola-cajun-kitchen-west-boylston-2", "name": "NOLA Cajun Kitchen", "image_url": "https://s3-media2.fl.yelpcdn.com/bphoto/9r6d7aJZuFIVSOlxv3L2DQ/o.jpg", "is_closed": false, "url": "https://www.yelp.com/biz/nola-cajun-kitchen-west-boylston-2?adjust_creative=ywY5UnLZrNrRl2b93Ruy_g&utm_campaign=yelp_api_v3&utm_medium=api_v3_business_search&utm_source=ywY5UnLZrNrRl2b93Ruy_g", "review_count": 95, "categories": [{"alias": "cajun", "title": "Cajun/Creole"}, {"alias": "seafood", "title": "Seafood"}], "rating": 5.0, "coordinates": {"latitude": 42.34106, "longitude": -71.78846}, "transactions": ["delivery"], "price": "$$", "location": {"address1": "340 W Boylston St", "address2": null, "address3": "", "city": "West Boylston", "zip_code": "01583", "country": "US", "state": "MA", "display_address": ["340 W Boylston St", "West Boylston, MA 01583"]}, "phone": "+17742618008", "display_phone": "(774) 261-8008", "distance": 11393.109676320622}, {"id": "aFqEKhuNW8Jy1PQ1YeRfAA", "alias": "strand-theatre-clinton", "name": "Strand Theatre", "image_url": "https://s3-media4.fl.yelpcdn.com/bphoto/Ufy_Uxd9tSG4MQaB7gpUjw/o.jpg", "is_closed": false, "url": "https://www.yelp.com/biz/strand-theatre-clinton?adjust_creative=ywY5UnLZrNrRl2b93Ruy_g&utm_campaign=yelp_api_v3&utm_medium=api_v3_business_search&utm_source=ywY5UnLZrNrRl2b93Ruy_g", "review_count": 49, "categories": [{"alias": "movietheaters", "title": "Cinema"}, {"alias": "dinnertheater", "title": "Dinner Theater"}], "rating": 4.5, "coordinates": {"latitude": 42.4170796, "longitude": -71.6849379}, "transactions": [], "price": "$$", "location": {"address1": "58 High St", "address2": "", "address3": "", "city": "Clinton", "zip_code": "01510", "country": "US", "state": "MA", "display_address": ["58 High St", "Clinton, MA 01510"]}, "phone": "+19783655500", "display_phone": "(978) 365-5500", "distance": 670.1904896725548}, {"id": "3H6DENqAjfR7JErVXTXsjA", "alias": "fotinis-restaurant-and-bar-bolton", "name": "Fotini's Restaurant & Bar", "image_url": "https://s3-media2.fl.yelpcdn.com/bphoto/mjRrwSdTYU_9-vTEgGy8qQ/o.jpg", "is_closed": false, "url": "https://www.yelp.com/biz/fotinis-restaurant-and-bar-bolton?adjust_creative=ywY5UnLZrNrRl2b93Ruy_g&utm_campaign=yelp_api_v3&utm_medium=api_v3_business_search&utm_source=ywY5UnLZrNrRl2b93Ruy_g", "review_count": 47, "categories": [{"alias": "bars", "title": "Bars"}, {"alias": "pizza", "title": "Pizza"}, {"alias": "tradamerican", "title": "American (Traditional)"}], "rating": 3.5, "coordinates": {"latitude": 42.417453761746, "longitude": -71.6530995815992}, "transactions": ["delivery"], "price": "$$", "location": {"address1": "544 Wattaquadock Hill Rd", "address2": "", "address3": "", "city": "Bolton", "zip_code": "01740", "country": "US", "state": "MA", "display_address": ["544 Wattaquadock Hill Rd", "Bolton, MA 01740"]}, "phone": "+19783655757", "display_phone": "(978) 365-5757", "distance": 3172.625328815614}, {"id": "13NrQAiR9eAE_R5OvltiHQ", "alias": "the-simple-man-saloon-clinton", "name": "The Simple Man Saloon", "image_url": "https://s3-media2.fl.yelpcdn.com/bphoto/8YuAw5nqjSMEUOdyN4S16Q/o.jpg", "is_closed": false, "url": "https://www.yelp.com/biz/the-simple-man-saloon-clinton?adjust_creative=ywY5UnLZrNrRl2b93Ruy_g&utm_campaign=yelp_api_v3&utm_medium=api_v3_business_search&utm_source=ywY5UnLZrNrRl2b93Ruy_g", "review_count": 32, "categories": [{"alias": "bars", "title": "Bars"}, {"alias": "chicken_wings", "title": "Chicken Wings"}, {"alias": "sandwiches", "title": "Sandwiches"}], "rating": 3.5, "coordinates": {"latitude": 42.4178823083639, "longitude": -71.6845813393593}, "transactions": [], "price": "$$", "location": {"address1": "119 High St", "address2": "", "address3": "", "city": "Clinton", "zip_code": "01510", "country": "US", "state": "MA", "display_address": ["119 High St", "Clinton, MA 01510"]}, "phone": "+19783651949", "display_phone": "(978) 365-1949", "distance": 728.6000848585335}, {"id": "sUrMzIFtP_NnpjKnbBEIqA", "alias": "wrong-way-cafe-clinton", "name": "Wrong Way Cafe", "image_url": "https://s3-media1.fl.yelpcdn.com/bphoto/7WrJyv-swy1Cu2hQeh-JxA/o.jpg", "is_closed": false, "url": "https://www.yelp.com/biz/wrong-way-cafe-clinton?adjust_creative=ywY5UnLZrNrRl2b93Ruy_g&utm_campaign=yelp_api_v3&utm_medium=api_v3_business_search&utm_source=ywY5UnLZrNrRl2b93Ruy_g", "review_count": 50, "categories": [{"alias": "cafes", "title": "Cafes"}, {"alias": "breakfast_brunch", "title": "Breakfast & Brunch"}, {"alias": "burgers", "title": "Burgers"}], "rating": 3.5, "coordinates": {"latitude": 42.4200782775879, "longitude": -71.6875686645508}, "transactions": [], "price": "$$", "location": {"address1": "610 Main St", "address2": "", "address3": "", "city": "Clinton", "zip_code": "01510", "country": "US", "state": "MA", "display_address": ["610 Main St", "Clinton, MA 01510"]}, "phone": "+19783654444", "display_phone": "(978) 365-4444", "distance": 834.9339761191377}, {"id": "wb6fUD_E-WOzxByyrmszLQ", "alias": "js-restaurant-at-nashoba-valley-winery-bolton", "name": "J's Restaurant at Nashoba Valley Winery", "image_url": "https://s3-media2.fl.yelpcdn.com/bphoto/bM8lKp14G8BEpPUfXTJwdw/o.jpg", "is_closed": false, "url": "https://www.yelp.com/biz/js-restaurant-at-nashoba-valley-winery-bolton?adjust_creative=ywY5UnLZrNrRl2b93Ruy_g&utm_campaign=yelp_api_v3&utm_medium=api_v3_business_search&utm_source=ywY5UnLZrNrRl2b93Ruy_g", "review_count": 96, "categories": [{"alias": "newamerican", "title": "American (New)"}, {"alias": "brewpubs", "title": "Brewpubs"}], "rating": 4.0, "coordinates": {"latitude": 42.4305992126465, "longitude": -71.616943359375}, "transactions": [], "price": "$$", "location": {"address1": "100 Wattaquadoc Hill Rd", "address2": "", "address3": "", "city": "Bolton", "zip_code": "01740", "country": "US", "state": "MA", "display_address": ["100 Wattaquadoc Hill Rd", "Bolton, MA 01740"]}, "phone": "+19787799816", "display_phone": "(978) 779-9816", "distance": 6406.482790221687}, {"id": "O1bLnelazRY6K2S7xy3U5A", "alias": "p-and-s-pizza-house-clinton", "name": "P & S Pizza House", "image_url": "https://s3-media2.fl.yelpcdn.com/bphoto/hm0-OF85q-1yWyjgRcnWtA/o.jpg", "is_closed": false, "url": "https://www.yelp.com/biz/p-and-s-pizza-house-clinton?adjust_creative=ywY5UnLZrNrRl2b93Ruy_g&utm_campaign=yelp_api_v3&utm_medium=api_v3_business_search&utm_source=ywY5UnLZrNrRl2b93Ruy_g", "review_count": 42, "categories": [{"alias": "pizza", "title": "Pizza"}], "rating": 3.5, "coordinates": {"latitude": 42.4207713, "longitude": -71.6840026}, "transactions": ["delivery"], "price": "$", "location": {"address1": "319 High St", "address2": "", "address3": "", "city": "Clinton", "zip_code": "01510", "country": "US", "state": "MA", "display_address": ["319 High St", "Clinton, MA 01510"]}, "phone": "+19783652221", "display_phone": "(978) 365-2221", "distance": 1032.5858110592399}, {"id": "mUTiQTmT_57Jk89m6UctIw", "alias": "lous-diner-clinton", "name": "Lou's Diner", "image_url": "https://s3-media2.fl.yelpcdn.com/bphoto/1KIZViqFdA9kYoJe9XX8Cg/o.jpg", "is_closed": false, "url": "https://www.yelp.com/biz/lous-diner-clinton?adjust_creative=ywY5UnLZrNrRl2b93Ruy_g&utm_campaign=yelp_api_v3&utm_medium=api_v3_business_search&utm_source=ywY5UnLZrNrRl2b93Ruy_g", "review_count": 15, "categories": [{"alias": "diners", "title": "Diners"}, {"alias": "catering", "title": "Caterers"}], "rating": 4.0, "coordinates": {"latitude": 42.413331, "longitude": -71.682325}, "transactions": ["delivery"], "price": "$", "location": {"address1": "100 Chestnut St", "address2": "", "address3": "", "city": "Clinton", "zip_code": "01510", "country": "US", "state": "MA", "display_address": ["100 Chestnut St", "Clinton, MA 01510"]}, "phone": "+19783659808", "display_phone": "(978) 365-9808", "distance": 731.9231442369173}, {"id": "I9Oq7S6h07zXoRGMzEnD2w", "alias": "110-grill-berlin", "name": "110 Grill", "image_url": "https://s3-media2.fl.yelpcdn.com/bphoto/pNgHbDTAqnuEyd6mP3pWAA/o.jpg", "is_closed": false, "url": "https://www.yelp.com/biz/110-grill-berlin?adjust_creative=ywY5UnLZrNrRl2b93Ruy_g&utm_campaign=yelp_api_v3&utm_medium=api_v3_business_search&utm_source=ywY5UnLZrNrRl2b93Ruy_g", "review_count": 304, "categories": [{"alias": "newamerican", "title": "American (New)"}, {"alias": "cocktailbars", "title": "Cocktail Bars"}], "rating": 4.0, "coordinates": {"latitude": 42.394819, "longitude": -71.600716}, "transactions": ["delivery"], "price": "$$", "location": {"address1": "60 Highland Commons E", "address2": null, "address3": "", "city": "Berlin", "zip_code": "01503", "country": "US", "state": "MA", "display_address": ["60 Highland Commons E", "Berlin, MA 01503"]}, "phone": "+19785624610", "display_phone": "(978) 562-4610", "distance": 7707.763994024375}, {"id": "PVx2PMMpUaa1o9vbTuiTAA", "alias": "the-brick-mexican-grill-sterling", "name": "The Brick Mexican Grill", "image_url": "https://s3-media3.fl.yelpcdn.com/bphoto/0xDRwZY3Igbtnzo9HbguEw/o.jpg", "is_closed": false, "url": "https://www.yelp.com/biz/the-brick-mexican-grill-sterling?adjust_creative=ywY5UnLZrNrRl2b93Ruy_g&utm_campaign=yelp_api_v3&utm_medium=api_v3_business_search&utm_source=ywY5UnLZrNrRl2b93Ruy_g", "review_count": 109, "categories": [{"alias": "mexican", "title": "Mexican"}, {"alias": "bars", "title": "Bars"}, {"alias": "seafood", "title": "Seafood"}], "rating": 3.5, "coordinates": {"latitude": 42.43704, "longitude": -71.7603}, "transactions": ["pickup"], "price": "$$", "location": {"address1": "27 Main St", "address2": "", "address3": "", "city": "Sterling", "zip_code": "01564", "country": "US", "state": "MA", "display_address": ["27 Main St", "Sterling, MA 01564"]}, "phone": "+19785631906", "display_phone": "(978) 563-1906", "distance": 6287.0178066315}, {"id": "YUpRg3X8ydhVzyw2UAHAeQ", "alias": "spruce-street-tavern-clinton", "name": "Spruce Street Tavern", "image_url": "https://s3-media2.fl.yelpcdn.com/bphoto/Dl5qsmzuK3a6OQHGn5zHVw/o.jpg", "is_closed": false, "url": "https://www.yelp.com/biz/spruce-street-tavern-clinton?adjust_creative=ywY5UnLZrNrRl2b93Ruy_g&utm_campaign=yelp_api_v3&utm_medium=api_v3_business_search&utm_source=ywY5UnLZrNrRl2b93Ruy_g", "review_count": 18, "categories": [{"alias": "pizza", "title": "Pizza"}, {"alias": "sportsbars", "title": "Sports Bars"}], "rating": 3.5, "coordinates": {"latitude": 42.4167016407114, "longitude": -71.6711352071381}, "transactions": ["delivery"], "price": "$$", "location": {"address1": "68 Spruce St", "address2": null, "address3": null, "city": "Clinton", "zip_code": "01510", "country": "US", "state": "MA", "display_address": ["68 Spruce St", "Clinton, MA 01510"]}, "phone": "+19783659071", "display_phone": "(978) 365-9071", "distance": 1703.1078503527356}, {"id": "Eyk36pmY66JF_oVNHsXXSw", "alias": "on-the-trax-berlin-berlin", "name": "On the Trax - Berlin", "image_url": "https://s3-media4.fl.yelpcdn.com/bphoto/ZTiz5t2uA8Rew8445sX5qw/o.jpg", "is_closed": false, "url": "https://www.yelp.com/biz/on-the-trax-berlin-berlin?adjust_creative=ywY5UnLZrNrRl2b93Ruy_g&utm_campaign=yelp_api_v3&utm_medium=api_v3_business_search&utm_source=ywY5UnLZrNrRl2b93Ruy_g", "review_count": 5, "categories": [{"alias": "salad", "title": "Salad"}, {"alias": "pizza", "title": "Pizza"}, {"alias": "sandwiches", "title": "Sandwiches"}], "rating": 3.5, "coordinates": {"latitude": 42.3918037181592, "longitude": -71.6610359027982}, "transactions": [], "location": {"address1": "263 West St", "address2": "", "address3": null, "city": "Berlin", "zip_code": "01503", "country": "US", "state": "MA", "display_address": ["263 West St", "Berlin, MA 01503"]}, "phone": "+19784150244", "display_phone": "(978) 415-0244", "distance": 3428.06531740568}, {"id": "wvegTS6N3Bo2_UIa22Vh2g", "alias": "bushel-n-peck-clinton", "name": "Bushel 'N Peck", "image_url": "https://s3-media2.fl.yelpcdn.com/bphoto/Q6ndePJXZH7FCLf6WWqpuA/o.jpg", "is_closed": false, "url": "https://www.yelp.com/biz/bushel-n-peck-clinton?adjust_creative=ywY5UnLZrNrRl2b93Ruy_g&utm_campaign=yelp_api_v3&utm_medium=api_v3_business_search&utm_source=ywY5UnLZrNrRl2b93Ruy_g", "review_count": 17, "categories": [{"alias": "delis", "title": "Delis"}], "rating": 3.0, "coordinates": {"latitude": 42.4161768056218, "longitude": -71.6851211339235}, "transactions": ["pickup", "delivery"], "price": "$", "location": {"address1": "120 Union St", "address2": "", "address3": "", "city": "Clinton", "zip_code": "01510", "country": "US", "state": "MA", "display_address": ["120 Union St", "Clinton, MA 01510"]}, "phone": "+19783689012", "display_phone": "(978) 368-9012", "distance": 613.6819992946859}, {"id": "0A4VQx_avf84ZkWQUnrNUw", "alias": "the-pressedo-clinton", "name": "The Pressed'O", "image_url": "https://s3-media1.fl.yelpcdn.com/bphoto/cfkU0QmXCHP6S86IlWu5jw/o.jpg", "is_closed": false, "url": "https://www.yelp.com/biz/the-pressedo-clinton?adjust_creative=ywY5UnLZrNrRl2b93Ruy_g&utm_campaign=yelp_api_v3&utm_medium=api_v3_business_search&utm_source=ywY5UnLZrNrRl2b93Ruy_g", "review_count": 11, "categories": [{"alias": "juicebars", "title": "Juice Bars & Smoothies"}, {"alias": "cafes", "title": "Cafes"}], "rating": 4.5, "coordinates": {"latitude": 42.4181576, "longitude": -71.6847691}, "transactions": [], "price": "$$", "location": {"address1": "138 High St", "address2": null, "address3": "", "city": "Clinton", "zip_code": "01510", "country": "US", "state": "MA", "display_address": ["138 High St", "Clinton, MA 01510"]}, "phone": "+15088344036", "display_phone": "(508) 834-4036", "distance": 804.4889940363527}, {"id": "4m7vcJcBJoJLXKSfwp-aDQ", "alias": "mr-zs-pizza-clinton", "name": "Mr Z's Pizza", "image_url": "https://s3-media2.fl.yelpcdn.com/bphoto/v0YciY1fTfeMsxNH_qwWfg/o.jpg", "is_closed": false, "url": "https://www.yelp.com/biz/mr-zs-pizza-clinton?adjust_creative=ywY5UnLZrNrRl2b93Ruy_g&utm_campaign=yelp_api_v3&utm_medium=api_v3_business_search&utm_source=ywY5UnLZrNrRl2b93Ruy_g", "review_count": 44, "categories": [{"alias": "pizza", "title": "Pizza"}, {"alias": "italian", "title": "Italian"}], "rating": 3.0, "coordinates": {"latitude": 42.41975, "longitude": -71.68401}, "transactions": ["delivery"], "price": "$", "location": {"address1": "267 High St", "address2": "", "address3": "", "city": "Clinton", "zip_code": "01510", "country": "US", "state": "MA", "display_address": ["267 High St", "Clinton, MA 01510"]}, "phone": "+19783688210", "display_phone": "(978) 368-8210", "distance": 949.8042405100605}, {"id": "iMEK6CbOyr5lEgXUvNdeJQ", "alias": "similan-thai-bistro-clinton", "name": "Similan Thai Bistro", "image_url": "https://s3-media2.fl.yelpcdn.com/bphoto/Kcvsfiq_y4lsvmH_wyknnw/o.jpg", "is_closed": false, "url": "https://www.yelp.com/biz/similan-thai-bistro-clinton?adjust_creative=ywY5UnLZrNrRl2b93Ruy_g&utm_campaign=yelp_api_v3&utm_medium=api_v3_business_search&utm_source=ywY5UnLZrNrRl2b93Ruy_g", "review_count": 84, "categories": [{"alias": "thai", "title": "Thai"}, {"alias": "vietnamese", "title": "Vietnamese"}, {"alias": "sushi", "title": "Sushi Bars"}], "rating": 4.0, "coordinates": {"latitude": 42.429174, "longitude": -71.6722346}, "transactions": ["delivery"], "price": "$$", "location": {"address1": "1175 Main St", "address2": "", "address3": "", "city": "Clinton", "zip_code": "01510", "country": "US", "state": "MA", "display_address": ["1175 Main St", "Clinton, MA 01510"]}, "phone": "+19783653003", "display_phone": "(978) 365-3003", "distance": 2378.7115593452795}, {"id": "ubVKtuTY64Dg4xArPjAM9A", "alias": "the-mill-restaurant-west-boylston", "name": "The Mill Restaurant", "image_url": "https://s3-media1.fl.yelpcdn.com/bphoto/oxWp-91KpEOBzi0SGZHhQA/o.jpg", "is_closed": false, "url": "https://www.yelp.com/biz/the-mill-restaurant-west-boylston?adjust_creative=ywY5UnLZrNrRl2b93Ruy_g&utm_campaign=yelp_api_v3&utm_medium=api_v3_business_search&utm_source=ywY5UnLZrNrRl2b93Ruy_g", "review_count": 130, "categories": [{"alias": "newamerican", "title": "American (New)"}, {"alias": "lounges", "title": "Lounges"}, {"alias": "smokehouse", "title": "Smokehouse"}], "rating": 4.0, "coordinates": {"latitude": 42.3503, "longitude": -71.78473}, "transactions": ["delivery"], "price": "$$", "location": {"address1": "185 W Boylston St", "address2": "", "address3": "", "city": "West Boylston", "zip_code": "01583", "country": "US", "state": "MA", "display_address": ["185 W Boylston St", "West Boylston, MA 01583"]}, "phone": "+17742618585", "display_phone": "(774) 261-8585", "distance": 10375.813736539616}, {"id": "re1pVB3oNdn8y4FuD_JO_A", "alias": "table-twelve-kitchen-and-bar-west-boylston", "name": "Table Twelve Kitchen & Bar", "image_url": "https://s3-media3.fl.yelpcdn.com/bphoto/r6f-o6gfuDMvuAY7BGTgJg/o.jpg", "is_closed": false, "url": "https://www.yelp.com/biz/table-twelve-kitchen-and-bar-west-boylston?adjust_creative=ywY5UnLZrNrRl2b93Ruy_g&utm_campaign=yelp_api_v3&utm_medium=api_v3_business_search&utm_source=ywY5UnLZrNrRl2b93Ruy_g", "review_count": 32, "categories": [{"alias": "seafood", "title": "Seafood"}, {"alias": "bars", "title": "Bars"}, {"alias": "tradamerican", "title": "American (Traditional)"}], "rating": 3.0, "coordinates": {"latitude": 42.351187, "longitude": -71.784375}, "transactions": ["delivery"], "location": {"address1": "175 W Boylston St", "address2": null, "address3": "", "city": "West Boylston", "zip_code": "01583", "country": "US", "state": "MA", "display_address": ["175 W Boylston St", "West Boylston, MA 01583"]}, "phone": "+17742618644", "display_phone": "(774) 261-8644", "distance": 10310.324508177864}, {"id": "UE1QsF82-PoOK0XfLFQ-jw", "alias": "coffeelands-clinton", "name": "Coffeelands", "image_url": "https://s3-media4.fl.yelpcdn.com/bphoto/f4kYWP4ZuXTgnNIV8H62vg/o.jpg", "is_closed": false, "url": "https://www.yelp.com/biz/coffeelands-clinton?adjust_creative=ywY5UnLZrNrRl2b93Ruy_g&utm_campaign=yelp_api_v3&utm_medium=api_v3_business_search&utm_source=ywY5UnLZrNrRl2b93Ruy_g", "review_count": 44, "categories": [{"alias": "coffee", "title": "Coffee & Tea"}, {"alias": "breakfast_brunch", "title": "Breakfast & Brunch"}], "rating": 4.5, "coordinates": {"latitude": 42.416834, "longitude": -71.684993}, "transactions": [], "price": "$$", "location": {"address1": "50 High St", "address2": "", "address3": "", "city": "Clinton", "zip_code": "01510", "country": "US", "state": "MA", "display_address": ["50 High St", "Clinton, MA 01510"]}, "phone": "+19787334277", "display_phone": "(978) 733-4277", "distance": 665.9267269607903}, {"id": "dGHoyOtPpVXRuZ2_bINAQA", "alias": "sunshine-cafe-clinton-2", "name": "Sunshine Cafe", "image_url": "https://s3-media2.fl.yelpcdn.com/bphoto/HVozkZfVIYKqJuru8RJp-g/o.jpg", "is_closed": false, "url": "https://www.yelp.com/biz/sunshine-cafe-clinton-2?adjust_creative=ywY5UnLZrNrRl2b93Ruy_g&utm_campaign=yelp_api_v3&utm_medium=api_v3_business_search&utm_source=ywY5UnLZrNrRl2b93Ruy_g", "review_count": 27, "categories": [{"alias": "breakfast_brunch", "title": "Breakfast & Brunch"}, {"alias": "tradamerican", "title": "American (Traditional)"}, {"alias": "bakeries", "title": "Bakeries"}], "rating": 4.0, "coordinates": {"latitude": 42.4206156, "longitude": -71.6843925}, "transactions": ["pickup"], "price": "$", "location": {"address1": "310 High St", "address2": null, "address3": "", "city": "Clinton", "zip_code": "01510", "country": "US", "state": "MA", "display_address": ["310 High St", "Clinton, MA 01510"]}, "phone": "+19783681828", "display_phone": "(978) 368-1828", "distance": 955.9476649008544}, {"id": "JPMD2SP18wA0P9lOqJxm-w", "alias": "sports-bar-and-cafe-bolton", "name": "Sports Bar and Cafe", "image_url": "https://s3-media3.fl.yelpcdn.com/bphoto/kVVHQSv6AkQwlAJ2Y7PBSQ/o.jpg", "is_closed": false, "url": "https://www.yelp.com/biz/sports-bar-and-cafe-bolton?adjust_creative=ywY5UnLZrNrRl2b93Ruy_g&utm_campaign=yelp_api_v3&utm_medium=api_v3_business_search&utm_source=ywY5UnLZrNrRl2b93Ruy_g", "review_count": 2, "categories": [{"alias": "sportsbars", "title": "Sports Bars"}, {"alias": "cafes", "title": "Cafes"}], "rating": 3.5, "coordinates": {"latitude": 42.4396095, "longitude": -71.6438293}, "transactions": [], "location": {"address1": "295 Wilder Rd", "address2": "", "address3": "", "city": "Bolton", "zip_code": "01740", "country": "US", "state": "MA", "display_address": ["295 Wilder Rd", "Bolton, MA 01740"]}, "phone": "+19787795020", "display_phone": "(978) 779-5020", "distance": 4151.410547685567}, {"id": "I74Qes7KcRw7xESLFEblvg", "alias": "the-blacksheep-tavern-sterling", "name": "The Blacksheep Tavern", "image_url": "https://s3-media1.fl.yelpcdn.com/bphoto/1XtmW-8yzzrALtU3Bn7q-A/o.jpg", "is_closed": false, "url": "https://www.yelp.com/biz/the-blacksheep-tavern-sterling?adjust_creative=ywY5UnLZrNrRl2b93Ruy_g&utm_campaign=yelp_api_v3&utm_medium=api_v3_business_search&utm_source=ywY5UnLZrNrRl2b93Ruy_g", "review_count": 43, "categories": [{"alias": "bars", "title": "Bars"}, {"alias": "tradamerican", "title": "American (Traditional)"}, {"alias": "pizza", "title": "Pizza"}], "rating": 3.5, "coordinates": {"latitude": 42.4713478088379, "longitude": -71.7459564208984}, "transactions": ["delivery"], "price": "$$", "location": {"address1": "261 Leominster Rd", "address2": null, "address3": null, "city": "Sterling", "zip_code": "01564", "country": "US", "state": "MA", "display_address": ["261 Leominster Rd", "Sterling, MA 01564"]}, "phone": "", "display_phone": "", "distance": 7891.240905928711}, {"id": "RGe5kxCInNhbpgiFFagAXA", "alias": "lucky-house-clinton", "name": "Lucky House", "image_url": "https://s3-media1.fl.yelpcdn.com/bphoto/klaFm8vwUQWOSwOEhizZdg/o.jpg", "is_closed": false, "url": "https://www.yelp.com/biz/lucky-house-clinton?adjust_creative=ywY5UnLZrNrRl2b93Ruy_g&utm_campaign=yelp_api_v3&utm_medium=api_v3_business_search&utm_source=ywY5UnLZrNrRl2b93Ruy_g", "review_count": 22, "categories": [{"alias": "chinese", "title": "Chinese"}], "rating": 2.5, "coordinates": {"latitude": 42.418588, "longitude": -71.6842918}, "transactions": ["pickup", "delivery"], "price": "$$", "location": {"address1": "165 High St", "address2": "", "address3": "", "city": "Clinton", "zip_code": "01510", "country": "US", "state": "MA", "display_address": ["165 High St", "Clinton, MA 01510"]}, "phone": "+19783688882", "display_phone": "(978) 368-8882", "distance": 841.5710533285255}, {"id": "CcxR_V2MHebD3FEYu6OUSw", "alias": "brothers-pizza-clinton", "name": "Brothers Pizza", "image_url": "https://s3-media2.fl.yelpcdn.com/bphoto/xIWkq9-h9m6nG1EeDDTzAA/o.jpg", "is_closed": false, "url": "https://www.yelp.com/biz/brothers-pizza-clinton?adjust_creative=ywY5UnLZrNrRl2b93Ruy_g&utm_campaign=yelp_api_v3&utm_medium=api_v3_business_search&utm_source=ywY5UnLZrNrRl2b93Ruy_g", "review_count": 25, "categories": [{"alias": "pizza", "title": "Pizza"}], "rating": 3.5, "coordinates": {"latitude": 42.418583, "longitude": -71.684242}, "transactions": ["delivery"], "price": "$", "location": {"address1": "165 High St", "address2": null, "address3": null, "city": "Clinton", "zip_code": "01510", "country": "US", "state": "MA", "display_address": ["165 High St", "Clinton, MA 01510"]}, "phone": "+19783657700", "display_phone": "(978) 365-7700", "distance": 843.95966398796}, {"id": "cfRUfb1Kd0jUtQ0YCcRWyw", "alias": "michaels-bridge-diner-lancaster", "name": "Michael's Bridge Diner", "image_url": "https://s3-media2.fl.yelpcdn.com/bphoto/EyHNDNGFcK4xgMepkIBYXA/o.jpg", "is_closed": false, "url": "https://www.yelp.com/biz/michaels-bridge-diner-lancaster?adjust_creative=ywY5UnLZrNrRl2b93Ruy_g&utm_campaign=yelp_api_v3&utm_medium=api_v3_business_search&utm_source=ywY5UnLZrNrRl2b93Ruy_g", "review_count": 107, "categories": [{"alias": "diners", "title": "Diners"}], "rating": 3.5, "coordinates": {"latitude": 42.4375419616699, "longitude": -71.6871566772461}, "transactions": [], "price": "$", "location": {"address1": "56 Main St", "address2": "", "address3": "", "city": "Lancaster", "zip_code": "01523", "country": "US", "state": "MA", "display_address": ["56 Main St", "Lancaster, MA 01523"]}, "phone": "+19783680630", "display_phone": "(978) 368-0630", "distance": 2747.22639208907}, {"id": "5ZyMXLYwM6vONKbsaam9cw", "alias": "mirchi-nation-marlborough-3", "name": "Mirchi Nation", "image_url": "https://s3-media4.fl.yelpcdn.com/bphoto/2YJLvim3u4lEciCAC2Syeg/o.jpg", "is_closed": false, "url": "https://www.yelp.com/biz/mirchi-nation-marlborough-3?adjust_creative=ywY5UnLZrNrRl2b93Ruy_g&utm_campaign=yelp_api_v3&utm_medium=api_v3_business_search&utm_source=ywY5UnLZrNrRl2b93Ruy_g", "review_count": 120, "categories": [{"alias": "indpak", "title": "Indian"}, {"alias": "buffets", "title": "Buffets"}], "rating": 4.0, "coordinates": {"latitude": 42.3389753, "longitude": -71.5902808}, "transactions": ["pickup", "delivery"], "price": "$$", "location": {"address1": "197H Boston Post Rd W", "address2": "", "address3": "", "city": "Marlborough", "zip_code": "01752", "country": "US", "state": "MA", "display_address": ["197H Boston Post Rd W", "Marlborough, MA 01752"]}, "phone": "+15083576551", "display_phone": "(508) 357-6551", "distance": 11535.284647152237}, {"id": "EWbj_GA8cnmSgijP8RP4XQ", "alias": "evviva-trattoria-marlborough", "name": "Evviva Trattoria", "image_url": "https://s3-media4.fl.yelpcdn.com/bphoto/wCuhNLgauSpWSHCLQb3uiw/o.jpg", "is_closed": false, "url": "https://www.yelp.com/biz/evviva-trattoria-marlborough?adjust_creative=ywY5UnLZrNrRl2b93Ruy_g&utm_campaign=yelp_api_v3&utm_medium=api_v3_business_search&utm_source=ywY5UnLZrNrRl2b93Ruy_g", "review_count": 127, "categories": [{"alias": "italian", "title": "Italian"}, {"alias": "pizza", "title": "Pizza"}, {"alias": "sandwiches", "title": "Sandwiches"}], "rating": 4.0, "coordinates": {"latitude": 42.33824, "longitude": -71.590562}, "transactions": ["delivery"], "price": "$$", "location": {"address1": "142 Apex Dr", "address2": null, "address3": "", "city": "Marlborough", "zip_code": "01752", "country": "US", "state": "MA", "display_address": ["142 Apex Dr", "Marlborough, MA 01752"]}, "phone": "+17748432599", "display_phone": "(774) 843-2599", "distance": 11732.784675318382}, {"id": "kmqqdnR6g3pNwLpqEbnbnA", "alias": "chocksett-inn-sterling", "name": "Chocksett Inn", "image_url": "https://s3-media3.fl.yelpcdn.com/bphoto/d_7YL4YQXqvn3iqx8BOqfA/o.jpg", "is_closed": false, "url": "https://www.yelp.com/biz/chocksett-inn-sterling?adjust_creative=ywY5UnLZrNrRl2b93Ruy_g&utm_campaign=yelp_api_v3&utm_medium=api_v3_business_search&utm_source=ywY5UnLZrNrRl2b93Ruy_g", "review_count": 32, "categories": [{"alias": "hotels", "title": "Hotels"}, {"alias": "diners", "title": "Diners"}, {"alias": "venues", "title": "Venues & Event Spaces"}], "rating": 3.0, "coordinates": {"latitude": 42.45223, "longitude": -71.7504}, "transactions": [], "price": "$$", "location": {"address1": "59 Laurelwood Rd", "address2": "", "address3": "", "city": "Sterling", "zip_code": "01564", "country": "US", "state": "MA", "display_address": ["59 Laurelwood Rd", "Sterling, MA 01564"]}, "phone": "+19784223355", "display_phone": "(978) 422-3355", "distance": 6504.215914511078}, {"id": "M0rQBr2o8IysueTX6x-Sfw", "alias": "farmer-and-the-fork-boylston", "name": "Farmer and the Fork", "image_url": "https://s3-media4.fl.yelpcdn.com/bphoto/RJiMDpIX64ZxzVESGulAXA/o.jpg", "is_closed": false, "url": "https://www.yelp.com/biz/farmer-and-the-fork-boylston?adjust_creative=ywY5UnLZrNrRl2b93Ruy_g&utm_campaign=yelp_api_v3&utm_medium=api_v3_business_search&utm_source=ywY5UnLZrNrRl2b93Ruy_g", "review_count": 4, "categories": [{"alias": "newamerican", "title": "American (New)"}, {"alias": "salad", "title": "Salad"}, {"alias": "sandwiches", "title": "Sandwiches"}], "rating": 4.0, "coordinates": {"latitude": 42.3574853, "longitude": -71.7314635}, "transactions": ["delivery"], "location": {"address1": "11 French Dr", "address2": "", "address3": "Tower Hill Botanical Garden", "city": "Boylston", "zip_code": "01505", "country": "US", "state": "MA", "display_address": ["11 French Dr", "Tower Hill Botanical Garden", "Boylston, MA 01505"]}, "phone": "+15088696111", "display_phone": "(508) 869-6111", "distance": 6691.939831176079}, {"id": "1c-Ew-6M0v6tLPgWszXeiw", "alias": "tc-landos-sub-and-pizzeria-clinton", "name": "TC Lando's Sub & Pizzeria", "image_url": "https://s3-media4.fl.yelpcdn.com/bphoto/VtABjt81aWmd8UPuYnURkQ/o.jpg", "is_closed": false, "url": "https://www.yelp.com/biz/tc-landos-sub-and-pizzeria-clinton?adjust_creative=ywY5UnLZrNrRl2b93Ruy_g&utm_campaign=yelp_api_v3&utm_medium=api_v3_business_search&utm_source=ywY5UnLZrNrRl2b93Ruy_g", "review_count": 59, "categories": [{"alias": "pizza", "title": "Pizza"}, {"alias": "sandwiches", "title": "Sandwiches"}], "rating": 3.0, "coordinates": {"latitude": 42.421571, "longitude": -71.692508}, "transactions": ["delivery"], "price": "$$", "location": {"address1": "104 Sterling St", "address2": "", "address3": "", "city": "Clinton", "zip_code": "01510", "country": "US", "state": "MA", "display_address": ["104 Sterling St", "Clinton, MA 01510"]}, "phone": "+19783657492", "display_phone": "(978) 365-7492", "distance": 935.770188428123}, {"id": "e_3DQpkykQDUX2AYtmWgHA", "alias": "barbers-crossing-north-sterling", "name": "Barbers Crossing North", "image_url": "https://s3-media1.fl.yelpcdn.com/bphoto/U7xQn5U_js7PzdzNIP9Rzw/o.jpg", "is_closed": false, "url": "https://www.yelp.com/biz/barbers-crossing-north-sterling?adjust_creative=ywY5UnLZrNrRl2b93Ruy_g&utm_campaign=yelp_api_v3&utm_medium=api_v3_business_search&utm_source=ywY5UnLZrNrRl2b93Ruy_g", "review_count": 98, "categories": [{"alias": "seafood", "title": "Seafood"}, {"alias": "steak", "title": "Steakhouses"}, {"alias": "karaoke", "title": "Karaoke"}], "rating": 3.0, "coordinates": {"latitude": 42.4617786, "longitude": -71.7455478}, "transactions": ["delivery"], "price": "$$", "location": {"address1": "175 Leominster Rd", "address2": "", "address3": "", "city": "Sterling", "zip_code": "01564", "country": "US", "state": "MA", "display_address": ["175 Leominster Rd", "Sterling, MA 01564"]}, "phone": "+19784228438", "display_phone": "(978) 422-8438", "distance": 7099.553909346688}, {"id": "_mwdQy8m__-THncCQm5IAA", "alias": "brown-rice-thai-cusine-west-boylston", "name": "Brown Rice Thai Cusine", "image_url": "https://s3-media4.fl.yelpcdn.com/bphoto/c3deI427AttYyX97xEchUQ/o.jpg", "is_closed": false, "url": "https://www.yelp.com/biz/brown-rice-thai-cusine-west-boylston?adjust_creative=ywY5UnLZrNrRl2b93Ruy_g&utm_campaign=yelp_api_v3&utm_medium=api_v3_business_search&utm_source=ywY5UnLZrNrRl2b93Ruy_g", "review_count": 123, "categories": [{"alias": "thai", "title": "Thai"}], "rating": 4.5, "coordinates": {"latitude": 42.361314, "longitude": -71.782889}, "transactions": ["delivery", "pickup"], "price": "$$", "location": {"address1": "26 W Boylston St", "address2": "", "address3": "", "city": "West Boylston", "zip_code": "01583", "country": "US", "state": "MA", "display_address": ["26 W Boylston St", "West Boylston, MA 01583"]}, "phone": "+17742618322", "display_phone": "(774) 261-8322", "distance": 9471.042203564824}, {"id": "MdMLmXY26gKiHSFwsAJ7Sw", "alias": "cheoy-lees-2-west-boylston", "name": "Cheoy Lee's 2", "image_url": "https://s3-media3.fl.yelpcdn.com/bphoto/xyaj2E9K7uAc8dhHsNURGQ/o.jpg", "is_closed": false, "url": "https://www.yelp.com/biz/cheoy-lees-2-west-boylston?adjust_creative=ywY5UnLZrNrRl2b93Ruy_g&utm_campaign=yelp_api_v3&utm_medium=api_v3_business_search&utm_source=ywY5UnLZrNrRl2b93Ruy_g", "review_count": 52, "categories": [{"alias": "chinese", "title": "Chinese"}], "rating": 3.5, "coordinates": {"latitude": 42.37737, "longitude": -71.77582}, "transactions": ["delivery"], "price": "$$", "location": {"address1": "45 Sterling St", "address2": "", "address3": "", "city": "West Boylston", "zip_code": "01583", "country": "US", "state": "MA", "display_address": ["45 Sterling St", "West Boylston, MA 01583"]}, "phone": "+15088353663", "display_phone": "(508) 835-3663", "distance": 7997.498757375138}, {"id": "CP2KKomAn9FqQNc7sLTg0A", "alias": "casta-diva-restaurant-northborough", "name": "Casta Diva Restaurant", "image_url": "https://s3-media4.fl.yelpcdn.com/bphoto/ZN4ulDhxli_5d5qtG1T8EQ/o.jpg", "is_closed": false, "url": "https://www.yelp.com/biz/casta-diva-restaurant-northborough?adjust_creative=ywY5UnLZrNrRl2b93Ruy_g&utm_campaign=yelp_api_v3&utm_medium=api_v3_business_search&utm_source=ywY5UnLZrNrRl2b93Ruy_g", "review_count": 63, "categories": [{"alias": "italian", "title": "Italian"}], "rating": 3.5, "coordinates": {"latitude": 42.3412648878263, "longitude": -71.6242152007327}, "transactions": ["delivery"], "location": {"address1": "35 Solomon Pond Rd", "address2": "", "address3": null, "city": "Northborough", "zip_code": "01532", "country": "US", "state": "MA", "display_address": ["35 Solomon Pond Rd", "Northborough, MA 01532"]}, "phone": "+15084662080", "display_phone": "(508) 466-2080", "distance": 9699.05276774728}, {"id": "56cyF3yM4-Z2yxbWjLu4rQ", "alias": "the-trolley-stop-pizzaria-plus-south-lancaster", "name": "The Trolley Stop Pizzaria Plus", "image_url": "https://s3-media1.fl.yelpcdn.com/bphoto/GzTYFbz6PBabXLjFgXcpbg/o.jpg", "is_closed": false, "url": "https://www.yelp.com/biz/the-trolley-stop-pizzaria-plus-south-lancaster?adjust_creative=ywY5UnLZrNrRl2b93Ruy_g&utm_campaign=yelp_api_v3&utm_medium=api_v3_business_search&utm_source=ywY5UnLZrNrRl2b93Ruy_g", "review_count": 23, "categories": [{"alias": "pizza", "title": "Pizza"}], "rating": 3.5, "coordinates": {"latitude": 42.443111, "longitude": -71.686279}, "transactions": ["delivery"], "price": "$", "location": {"address1": "18 Prescott St", "address2": "", "address3": "", "city": "South Lancaster", "zip_code": "01561", "country": "US", "state": "MA", "display_address": ["18 Prescott St", "South Lancaster, MA 01561"]}, "phone": "+19783688331", "display_phone": "(978) 368-8331", "distance": 3370.1085532913366}, {"id": "Jv-bbsTXDGUPoAgaY4NBlg", "alias": "the-draught-house-bar-and-grill-west-boylston", "name": "The Draught House Bar & Grill", "image_url": "https://s3-media2.fl.yelpcdn.com/bphoto/DQhpOXgP1rMxmyYlLDmt9g/o.jpg", "is_closed": false, "url": "https://www.yelp.com/biz/the-draught-house-bar-and-grill-west-boylston?adjust_creative=ywY5UnLZrNrRl2b93Ruy_g&utm_campaign=yelp_api_v3&utm_medium=api_v3_business_search&utm_source=ywY5UnLZrNrRl2b93Ruy_g", "review_count": 50, "categories": [{"alias": "tradamerican", "title": "American (Traditional)"}, {"alias": "bars", "title": "Bars"}, {"alias": "pizza", "title": "Pizza"}], "rating": 3.5, "coordinates": {"latitude": 42.3599892, "longitude": -71.7847672}, "transactions": ["delivery"], "price": "$$", "location": {"address1": "42 W Boylston St", "address2": null, "address3": "", "city": "West Boylston", "zip_code": "01583", "country": "US", "state": "MA", "display_address": ["42 W Boylston St", "West Boylston, MA 01583"]}, "phone": "+15088354722", "display_phone": "(508) 835-4722", "distance": 9605.584559371971}, {"id": "MHaomA7z9GWjj8xYbqS5eQ", "alias": "meadowbrook-orchards-sterling", "name": "Meadowbrook Orchards", "image_url": "https://s3-media2.fl.yelpcdn.com/bphoto/xU9PXUqvplv5qXsWPSu0YQ/o.jpg", "is_closed": false, "url": "https://www.yelp.com/biz/meadowbrook-orchards-sterling?adjust_creative=ywY5UnLZrNrRl2b93Ruy_g&utm_campaign=yelp_api_v3&utm_medium=api_v3_business_search&utm_source=ywY5UnLZrNrRl2b93Ruy_g", "review_count": 103, "categories": [{"alias": "sandwiches", "title": "Sandwiches"}, {"alias": "breakfast_brunch", "title": "Breakfast & Brunch"}], "rating": 4.0, "coordinates": {"latitude": 42.4239403046721, "longitude": -71.7209667983594}, "transactions": [], "price": "$", "location": {"address1": "209 Chace Hill Rd", "address2": "", "address3": "", "city": "Sterling", "zip_code": "01564", "country": "US", "state": "MA", "display_address": ["209 Chace Hill Rd", "Sterling, MA 01564"]}, "phone": "+19783657617", "display_phone": "(978) 365-7617", "distance": 2720.7478240545765}, {"id": "y7i53m5Xmg0LJ7EEqH7YiQ", "alias": "olis-italian-eatery-west-boylston-2", "name": "Olis Italian Eatery", "image_url": "https://s3-media2.fl.yelpcdn.com/bphoto/OwaIcd3UM_IT77Fe3rWINA/o.jpg", "is_closed": false, "url": "https://www.yelp.com/biz/olis-italian-eatery-west-boylston-2?adjust_creative=ywY5UnLZrNrRl2b93Ruy_g&utm_campaign=yelp_api_v3&utm_medium=api_v3_business_search&utm_source=ywY5UnLZrNrRl2b93Ruy_g", "review_count": 99, "categories": [{"alias": "italian", "title": "Italian"}, {"alias": "newamerican", "title": "American (New)"}], "rating": 3.5, "coordinates": {"latitude": 42.340625, "longitude": -71.78762}, "transactions": ["delivery"], "price": "$$", "location": {"address1": "339 W Boylston St", "address2": "Ste A", "address3": "", "city": "West Boylston", "zip_code": "01583", "country": "US", "state": "MA", "display_address": ["339 W Boylston St", "Ste A", "West Boylston, MA 01583"]}, "phone": "+15088541500", "display_phone": "(508) 854-1500", "distance": 11291.99940127528}, {"id": "JszdQxBtcVQSJuqm019bAA", "alias": "west-boylston-seafood-west-boylston", "name": "West Boylston Seafood", "image_url": "https://s3-media4.fl.yelpcdn.com/bphoto/MpOKj2gfvS-jPD99JZwSNQ/o.jpg", "is_closed": false, "url": "https://www.yelp.com/biz/west-boylston-seafood-west-boylston?adjust_creative=ywY5UnLZrNrRl2b93Ruy_g&utm_campaign=yelp_api_v3&utm_medium=api_v3_business_search&utm_source=ywY5UnLZrNrRl2b93Ruy_g", "review_count": 64, "categories": [{"alias": "seafoodmarkets", "title": "Seafood Markets"}, {"alias": "seafood", "title": "Seafood"}], "rating": 3.5, "coordinates": {"latitude": 42.341175, "longitude": -71.787696}, "transactions": ["delivery"], "price": "$$", "location": {"address1": "321 W Boylston St", "address2": "", "address3": "", "city": "West Boylston", "zip_code": "01583", "country": "US", "state": "MA", "display_address": ["321 W Boylston St", "West Boylston, MA 01583"]}, "phone": "+15088533655", "display_phone": "(508) 853-3655", "distance": 11248.552495976188}, {"id": "b0Dfxk-XQ-L7r2vHtnKyjg", "alias": "miku-sushi-and-asian-cuisine-west-boylston-2", "name": "Miku Sushi & Asian Cuisine", "image_url": "https://s3-media2.fl.yelpcdn.com/bphoto/iJPrcrENKtLcB274tvyKMg/o.jpg", "is_closed": false, "url": "https://www.yelp.com/biz/miku-sushi-and-asian-cuisine-west-boylston-2?adjust_creative=ywY5UnLZrNrRl2b93Ruy_g&utm_campaign=yelp_api_v3&utm_medium=api_v3_business_search&utm_source=ywY5UnLZrNrRl2b93Ruy_g", "review_count": 54, "categories": [{"alias": "sushi", "title": "Sushi Bars"}, {"alias": "chinese", "title": "Chinese"}], "rating": 4.5, "coordinates": {"latitude": 42.3507925792002, "longitude": -71.7875651660911}, "transactions": ["delivery"], "price": "$", "location": {"address1": "184 W Boylston St", "address2": "U9", "address3": null, "city": "West Boylston", "zip_code": "01583", "country": "US", "state": "MA", "display_address": ["184 W Boylston St", "U9", "West Boylston, MA 01583"]}, "phone": "+15088351666", "display_phone": "(508) 835-1666", "distance": 10510.35685748813}, {"id": "ZRCik5d8h9MZ8UjUgKkPYA", "alias": "boylston-deli-boylston", "name": "Boylston Deli", "image_url": "https://s3-media4.fl.yelpcdn.com/bphoto/gJWlCDwQBXm-kr0TKMdNPQ/o.jpg", "is_closed": false, "url": "https://www.yelp.com/biz/boylston-deli-boylston?adjust_creative=ywY5UnLZrNrRl2b93Ruy_g&utm_campaign=yelp_api_v3&utm_medium=api_v3_business_search&utm_source=ywY5UnLZrNrRl2b93Ruy_g", "review_count": 13, "categories": [{"alias": "delis", "title": "Delis"}, {"alias": "sandwiches", "title": "Sandwiches"}], "rating": 4.0, "coordinates": {"latitude": 42.353883057788, "longitude": -71.73427225214}, "transactions": ["delivery"], "price": "$", "location": {"address1": "700 Main St", "address2": null, "address3": null, "city": "Boylston", "zip_code": "01505", "country": "US", "state": "MA", "display_address": ["700 Main St", "Boylston, MA 01505"]}, "phone": "+15088696164", "display_phone": "(508) 869-6164", "distance": 7466.948051726685}, {"id": "XdtVjkDIqS67f504WDjGOg", "alias": "110-grill-marlborough-3", "name": "110 Grill", "image_url": "https://s3-media2.fl.yelpcdn.com/bphoto/VQaXDUaLHN2Wpy6s0bvoCg/o.jpg", "is_closed": false, "url": "https://www.yelp.com/biz/110-grill-marlborough-3?adjust_creative=ywY5UnLZrNrRl2b93Ruy_g&utm_campaign=yelp_api_v3&utm_medium=api_v3_business_search&utm_source=ywY5UnLZrNrRl2b93Ruy_g", "review_count": 207, "categories": [{"alias": "newamerican", "title": "American (New)"}, {"alias": "tradamerican", "title": "American (Traditional)"}], "rating": 4.0, "coordinates": {"latitude": 42.3380408150094, "longitude": -71.589800754303}, "transactions": [], "price": "$$", "location": {"address1": "115 Apex Dr", "address2": "Ste A", "address3": "", "city": "Marlborough", "zip_code": "01752", "country": "US", "state": "MA", "display_address": ["115 Apex Dr", "Ste A", "Marlborough, MA 01752"]}, "phone": "+15082512027", "display_phone": "(508) 251-2027", "distance": 11792.629122734714}, {"id": "-cpT3RUWmbjXm6r9XVM0Og", "alias": "dairy-queen-clinton", "name": "Dairy Queen", "image_url": "https://s3-media4.fl.yelpcdn.com/bphoto/D-ypuqRhGhvJh3E04LVoNQ/o.jpg", "is_closed": false, "url": "https://www.yelp.com/biz/dairy-queen-clinton?adjust_creative=ywY5UnLZrNrRl2b93Ruy_g&utm_campaign=yelp_api_v3&utm_medium=api_v3_business_search&utm_source=ywY5UnLZrNrRl2b93Ruy_g", "review_count": 3, "categories": [{"alias": "icecream", "title": "Ice Cream & Frozen Yogurt"}, {"alias": "hotdogs", "title": "Fast Food"}], "rating": 3.5, "coordinates": {"latitude": 42.430102, "longitude": -71.680913}, "transactions": [], "price": "$", "location": {"address1": "655 High St", "address2": "", "address3": "", "city": "Clinton", "zip_code": "01510", "country": "US", "state": "MA", "display_address": ["655 High St", "Clinton, MA 01510"]}, "phone": "+19783655750", "display_phone": "(978) 365-5750", "distance": 2078.4446140955383}, {"id": "aZo8TFJoZbLllCl3YtGyGQ", "alias": "berubes-roadside-kitchen-sterling", "name": "Berube's Roadside Kitchen", "image_url": "https://s3-media2.fl.yelpcdn.com/bphoto/zg_wGPqx7sQql5XKXx9T1Q/o.jpg", "is_closed": false, "url": "https://www.yelp.com/biz/berubes-roadside-kitchen-sterling?adjust_creative=ywY5UnLZrNrRl2b93Ruy_g&utm_campaign=yelp_api_v3&utm_medium=api_v3_business_search&utm_source=ywY5UnLZrNrRl2b93Ruy_g", "review_count": 4, "categories": [{"alias": "breakfast_brunch", "title": "Breakfast & Brunch"}, {"alias": "foodtrucks", "title": "Food Trucks"}], "rating": 4.5, "coordinates": {"latitude": 42.4522336950375, "longitude": -71.7463371902704}, "transactions": ["delivery"], "location": {"address1": "7 Chocksett Rd", "address2": "", "address3": null, "city": "Sterling", "zip_code": "01564", "country": "US", "state": "MA", "display_address": ["7 Chocksett Rd", "Sterling, MA 01564"]}, "phone": "+19785143012", "display_phone": "(978) 514-3012", "distance": 6276.493653110587}, {"id": "Fm_sb2dBwtlD5Spb_oXv4g", "alias": "grumpys-dogs-west-boylston", "name": "Grumpy's Dogs", "image_url": "https://s3-media2.fl.yelpcdn.com/bphoto/rct_30DNkSOenmgj90TuzA/o.jpg", "is_closed": false, "url": "https://www.yelp.com/biz/grumpys-dogs-west-boylston?adjust_creative=ywY5UnLZrNrRl2b93Ruy_g&utm_campaign=yelp_api_v3&utm_medium=api_v3_business_search&utm_source=ywY5UnLZrNrRl2b93Ruy_g", "review_count": 12, "categories": [{"alias": "hotdog", "title": "Hot Dogs"}, {"alias": "foodtrucks", "title": "Food Trucks"}], "rating": 4.5, "coordinates": {"latitude": 42.34927, "longitude": -71.78706}, "transactions": ["delivery"], "location": {"address1": "216 W Boylston St", "address2": null, "address3": "", "city": "West Boylston", "zip_code": "01583", "country": "US", "state": "MA", "display_address": ["216 W Boylston St", "West Boylston, MA 01583"]}, "phone": "", "display_phone": "", "distance": 10587.77137496849}, {"id": "lwN11ANz2k1ihdFbAm5-1Q", "alias": "johns-sandwich-shop-clinton", "name": "John's Sandwich Shop", "image_url": "", "is_closed": false, "url": "https://www.yelp.com/biz/johns-sandwich-shop-clinton?adjust_creative=ywY5UnLZrNrRl2b93Ruy_g&utm_campaign=yelp_api_v3&utm_medium=api_v3_business_search&utm_source=ywY5UnLZrNrRl2b93Ruy_g", "review_count": 3, "categories": [{"alias": "sandwiches", "title": "Sandwiches"}], "rating": 2.5, "coordinates": {"latitude": 42.42366, "longitude": -71.68716}, "transactions": ["delivery"], "price": "$", "location": {"address1": "727 Main St", "address2": "", "address3": "", "city": "Clinton", "zip_code": "01510", "country": "US", "state": "MA", "display_address": ["727 Main St", "Clinton, MA 01510"]}, "phone": "+19783680388", "display_phone": "(978) 368-0388", "distance": 1223.0553353364262}, {"id": "Ng-RnKVv-nntF42XOY_-kg", "alias": "tgi-fridays-marlborough-2", "name": "TGI Fridays", "image_url": "https://s3-media2.fl.yelpcdn.com/bphoto/9HfneEXOKWtNIqskwoQGJQ/o.jpg", "is_closed": false, "url": "https://www.yelp.com/biz/tgi-fridays-marlborough-2?adjust_creative=ywY5UnLZrNrRl2b93Ruy_g&utm_campaign=yelp_api_v3&utm_medium=api_v3_business_search&utm_source=ywY5UnLZrNrRl2b93Ruy_g", "review_count": 70, "categories": [{"alias": "tradamerican", "title": "American (Traditional)"}], "rating": 2.5, "coordinates": {"latitude": 42.356914, "longitude": -71.611919}, "transactions": ["delivery"], "price": "$$", "location": {"address1": "601 Donald Lynch Blvd", "address2": "Ste  4258", "address3": "", "city": "Marlborough", "zip_code": "01752", "country": "US", "state": "MA", "display_address": ["601 Donald Lynch Blvd", "Ste  4258", "Marlborough, MA 01752"]}, "phone": "+15083030996", "display_phone": "(508) 303-0996", "distance": 9025.378060012355}, {"id": "KPa9Kz1Q7pEAzx5-eLxqWQ", "alias": "sandees-restaurant-lancaster", "name": "Sandee's Restaurant", "image_url": "https://s3-media4.fl.yelpcdn.com/bphoto/V6NrzbLT9iN0EGRHRsiW2A/o.jpg", "is_closed": false, "url": "https://www.yelp.com/biz/sandees-restaurant-lancaster?adjust_creative=ywY5UnLZrNrRl2b93Ruy_g&utm_campaign=yelp_api_v3&utm_medium=api_v3_business_search&utm_source=ywY5UnLZrNrRl2b93Ruy_g", "review_count": 34, "categories": [{"alias": "breakfast_brunch", "title": "Breakfast & Brunch"}, {"alias": "diners", "title": "Diners"}, {"alias": "burgers", "title": "Burgers"}], "rating": 3.5, "coordinates": {"latitude": 42.4408645629883, "longitude": -71.687141418457}, "transactions": [], "price": "$", "location": {"address1": "162 Main St", "address2": "", "address3": "", "city": "Lancaster", "zip_code": "01523", "country": "US", "state": "MA", "display_address": ["162 Main St", "Lancaster, MA 01523"]}, "phone": "+19783651950", "display_phone": "(978) 365-1950", "distance": 3101.282497211246}, {"id": "wHIuQWsIVNQtWuXsUzN5Kg", "alias": "travelin-bones-bbq-marlborough", "name": "Travelin Bones Bbq", "image_url": "https://s3-media2.fl.yelpcdn.com/bphoto/MhdJnwFIHWILSlfgKN7D7Q/o.jpg", "is_closed": false, "url": "https://www.yelp.com/biz/travelin-bones-bbq-marlborough?adjust_creative=ywY5UnLZrNrRl2b93Ruy_g&utm_campaign=yelp_api_v3&utm_medium=api_v3_business_search&utm_source=ywY5UnLZrNrRl2b93Ruy_g", "review_count": 15, "categories": [{"alias": "foodtrucks", "title": "Food Trucks"}, {"alias": "bbq", "title": "Barbeque"}], "rating": 3.0, "coordinates": {"latitude": 42.362768, "longitude": -71.604012}, "transactions": ["delivery", "pickup"], "location": {"address1": "325 Donald Lynch Blvd", "address2": null, "address3": "", "city": "Marlborough", "zip_code": "01752", "country": "US", "state": "MA", "display_address": ["325 Donald Lynch Blvd", "Marlborough, MA 01752"]}, "phone": "+15085567670", "display_phone": "(508) 556-7670", "distance": 9090.527559482996}, {"id": "1IwPjiTEABZV8j8sFywliw", "alias": "the-village-cafe-and-pizza-berlin", "name": "The Village Cafe and Pizza", "image_url": "https://s3-media1.fl.yelpcdn.com/bphoto/PTuYMCLEFif4i7qWjlu81g/o.jpg", "is_closed": false, "url": "https://www.yelp.com/biz/the-village-cafe-and-pizza-berlin?adjust_creative=ywY5UnLZrNrRl2b93Ruy_g&utm_campaign=yelp_api_v3&utm_medium=api_v3_business_search&utm_source=ywY5UnLZrNrRl2b93Ruy_g", "review_count": 7, "categories": [{"alias": "pizza", "title": "Pizza"}, {"alias": "cafes", "title": "Cafes"}], "rating": 3.5, "coordinates": {"latitude": 42.36693, "longitude": -71.62872}, "transactions": ["delivery", "pickup"], "location": {"address1": "3 Bassett Rd", "address2": "", "address3": null, "city": "Berlin", "zip_code": "01503", "country": "US", "state": "MA", "display_address": ["3 Bassett Rd", "Berlin, MA 01503"]}, "phone": "+19784150291", "display_phone": "(978) 415-0291", "distance": 8539.448228024698}, {"id": "XUbM1FeToadQxA_glrwRlA", "alias": "olive-garden-to-go-and-delivery-available-marlborough", "name": "Olive Garden - To Go & Delivery Available", "image_url": "https://s3-media2.fl.yelpcdn.com/bphoto/lyPtO8UkikGpnP394WXRnw/o.jpg", "is_closed": false, "url": "https://www.yelp.com/biz/olive-garden-to-go-and-delivery-available-marlborough?adjust_creative=ywY5UnLZrNrRl2b93Ruy_g&utm_campaign=yelp_api_v3&utm_medium=api_v3_business_search&utm_source=ywY5UnLZrNrRl2b93Ruy_g", "review_count": 109, "categories": [{"alias": "italian", "title": "Italian"}, {"alias": "salad", "title": "Salad"}, {"alias": "soup", "title": "Soup"}], "rating": 3.0, "coordinates": {"latitude": 42.3525329102251, "longitude": -71.6159126766424}, "transactions": [], "price": "$$", "location": {"address1": "728 Donald Lynch Blvd", "address2": "", "address3": "", "city": "Marlborough", "zip_code": "01752", "country": "US", "state": "MA", "display_address": ["728 Donald Lynch Blvd", "Marlborough, MA 01752"]}, "phone": "+15083036558", "display_phone": "(508) 303-6558", "distance": 9143.897436515324}, {"id": "VyHG7u9e512tM6vlMLM3yw", "alias": "murphs-hot-dogs-lancaster", "name": "Murph's Hot Dogs", "image_url": "https://s3-media3.fl.yelpcdn.com/bphoto/u3IowlEBysVHKius99uafQ/o.jpg", "is_closed": false, "url": "https://www.yelp.com/biz/murphs-hot-dogs-lancaster?adjust_creative=ywY5UnLZrNrRl2b93Ruy_g&utm_campaign=yelp_api_v3&utm_medium=api_v3_business_search&utm_source=ywY5UnLZrNrRl2b93Ruy_g", "review_count": 27, "categories": [{"alias": "hotdog", "title": "Hot Dogs"}, {"alias": "foodtrucks", "title": "Food Trucks"}], "rating": 4.5, "coordinates": {"latitude": 42.487669047809, "longitude": -71.7163467407227}, "transactions": [], "price": "$", "location": {"address1": "Bartlett Pond", "address2": "", "address3": "Rt 117", "city": "Lancaster", "zip_code": "01523", "country": "US", "state": "MA", "display_address": ["Bartlett Pond", "Rt 117", "Lancaster, MA 01523"]}, "phone": "", "display_phone": "", "distance": 8547.896090900005}, {"id": "6Rb1cZiuhBPILcHxfbInig", "alias": "primo-pizza-clinton", "name": "Primo Pizza", "image_url": "https://s3-media3.fl.yelpcdn.com/bphoto/kj98GjsK_Khsx-nE2FtE4A/o.jpg", "is_closed": false, "url": "https://www.yelp.com/biz/primo-pizza-clinton?adjust_creative=ywY5UnLZrNrRl2b93Ruy_g&utm_campaign=yelp_api_v3&utm_medium=api_v3_business_search&utm_source=ywY5UnLZrNrRl2b93Ruy_g", "review_count": 16, "categories": [{"alias": "pizza", "title": "Pizza"}], "rating": 2.5, "coordinates": {"latitude": 42.434662, "longitude": -71.684218}, "transactions": ["delivery"], "price": "$", "location": {"address1": "1175 Main St", "address2": "Ste 18", "address3": "", "city": "Clinton", "zip_code": "01510", "country": "US", "state": "MA", "display_address": ["1175 Main St", "Ste 18", "Clinton, MA 01510"]}, "phone": "+19783655585", "display_phone": "(978) 365-5585", "distance": 2471.7811994687577}, {"id": "YQ-UAwXKU5ktO0ZCA1Hr1A", "alias": "mooyah-burgers-fries-and-shakes-hudson-2", "name": "MOOYAH Burgers, Fries & Shakes", "image_url": "https://s3-media4.fl.yelpcdn.com/bphoto/128G1trh07RHZSbF9fQZSg/o.jpg", "is_closed": false, "url": "https://www.yelp.com/biz/mooyah-burgers-fries-and-shakes-hudson-2?adjust_creative=ywY5UnLZrNrRl2b93Ruy_g&utm_campaign=yelp_api_v3&utm_medium=api_v3_business_search&utm_source=ywY5UnLZrNrRl2b93Ruy_g", "review_count": 93, "categories": [{"alias": "burgers", "title": "Burgers"}, {"alias": "icecream", "title": "Ice Cream & Frozen Yogurt"}, {"alias": "hotdog", "title": "Hot Dogs"}], "rating": 3.5, "coordinates": {"latitude": 42.392368, "longitude": -71.598199}, "transactions": [], "price": "$$", "location": {"address1": "48 Highland Commons E", "address2": "Ste 100", "address3": "", "city": "Hudson", "zip_code": "01749", "country": "US", "state": "MA", "display_address": ["48 Highland Commons E", "Ste 100", "Hudson, MA 01749"]}, "phone": "+19782613042", "display_phone": "(978) 261-3042", "distance": 7981.710614282216}, {"id": "4rq3qD6K5oDPrQjxSTrV0g", "alias": "bertuccis-italian-restaurant-marlborough-3", "name": "Bertucci's Italian Restaurant", "image_url": "https://s3-media2.fl.yelpcdn.com/bphoto/hGmZBrO4kbwnBO8QhkAFXw/o.jpg", "is_closed": false, "url": "https://www.yelp.com/biz/bertuccis-italian-restaurant-marlborough-3?adjust_creative=ywY5UnLZrNrRl2b93Ruy_g&utm_campaign=yelp_api_v3&utm_medium=api_v3_business_search&utm_source=ywY5UnLZrNrRl2b93Ruy_g", "review_count": 58, "categories": [{"alias": "pizza", "title": "Pizza"}, {"alias": "italian", "title": "Italian"}, {"alias": "chicken_wings", "title": "Chicken Wings"}], "rating": 2.5, "coordinates": {"latitude": 42.35519, "longitude": -71.61291}, "transactions": ["delivery", "pickup"], "price": "$$", "location": {"address1": "601 Donald Lynch", "address2": null, "address3": "", "city": "Marlborough", "zip_code": "01752", "country": "US", "state": "MA", "display_address": ["601 Donald Lynch", "Marlborough, MA 01752"]}, "phone": "+15084853636", "display_phone": "(508) 485-3636", "distance": 9032.346856971053}, {"id": "AeCi3KKDstaMU2tCJZ7lFQ", "alias": "berlin-general-store-berlin-2", "name": "Berlin General Store", "image_url": "https://s3-media2.fl.yelpcdn.com/bphoto/PxGeXh54LuhkbS615KCN1Q/o.jpg", "is_closed": false, "url": "https://www.yelp.com/biz/berlin-general-store-berlin-2?adjust_creative=ywY5UnLZrNrRl2b93Ruy_g&utm_campaign=yelp_api_v3&utm_medium=api_v3_business_search&utm_source=ywY5UnLZrNrRl2b93Ruy_g", "review_count": 8, "categories": [{"alias": "sandwiches", "title": "Sandwiches"}], "rating": 4.0, "coordinates": {"latitude": 42.3813453, "longitude": -71.6362201}, "transactions": [], "price": "$", "location": {"address1": "19 Central St", "address2": "", "address3": "", "city": "Berlin", "zip_code": "01503", "country": "US", "state": "MA", "display_address": ["19 Central St", "Berlin, MA 01503"]}, "phone": "+19788382459", "display_phone": "(978) 838-2459", "distance": 5746.314835565098}, {"id": "d6LUMwleo8IGJedyJjZQsQ", "alias": "ajs-pizzeria-west-boylston", "name": "Aj's Pizzeria", "image_url": "https://s3-media2.fl.yelpcdn.com/bphoto/M22T3ZjOpyLXc4igGeOiyw/o.jpg", "is_closed": false, "url": "https://www.yelp.com/biz/ajs-pizzeria-west-boylston?adjust_creative=ywY5UnLZrNrRl2b93Ruy_g&utm_campaign=yelp_api_v3&utm_medium=api_v3_business_search&utm_source=ywY5UnLZrNrRl2b93Ruy_g", "review_count": 18, "categories": [{"alias": "pizza", "title": "Pizza"}], "rating": 4.0, "coordinates": {"latitude": 42.359012, "longitude": -71.782928}, "transactions": ["delivery", "pickup"], "price": "$$", "location": {"address1": "67 W Boylston St", "address2": null, "address3": null, "city": "West Boylston", "zip_code": "01583", "country": "US", "state": "MA", "display_address": ["67 W Boylston St", "West Boylston, MA 01583"]}, "phone": "+15088359100", "display_phone": "(508) 835-9100", "distance": 9618.173372434901}, {"id": "egwkiOPy-JojbFdXL4Z-CA", "alias": "bolton-orchards-bolton", "name": "Bolton Orchards", "image_url": "https://s3-media4.fl.yelpcdn.com/bphoto/bVitnhAdBjcwNRZBgJU6Uw/o.jpg", "is_closed": false, "url": "https://www.yelp.com/biz/bolton-orchards-bolton?adjust_creative=ywY5UnLZrNrRl2b93Ruy_g&utm_campaign=yelp_api_v3&utm_medium=api_v3_business_search&utm_source=ywY5UnLZrNrRl2b93Ruy_g", "review_count": 52, "categories": [{"alias": "delis", "title": "Delis"}, {"alias": "bakeries", "title": "Bakeries"}, {"alias": "grocery", "title": "Grocery"}], "rating": 3.5, "coordinates": {"latitude": 42.4543058646799, "longitude": -71.6431814849075}, "transactions": [], "price": "$$", "location": {"address1": "125 Still River Rd", "address2": "", "address3": "", "city": "Bolton", "zip_code": "01740", "country": "US", "state": "MA", "display_address": ["125 Still River Rd", "Bolton, MA 01740"]}, "phone": "+19787792733", "display_phone": "(978) 779-2733", "distance": 6051.905007743268}, {"id": "wRQGanWsfJdNzQWsQMkqtQ", "alias": "china-taste-marlborough", "name": "China Taste", "image_url": "https://s3-media2.fl.yelpcdn.com/bphoto/2ieD0_GLms9ODo_r-wYHlw/o.jpg", "is_closed": false, "url": "https://www.yelp.com/biz/china-taste-marlborough?adjust_creative=ywY5UnLZrNrRl2b93Ruy_g&utm_campaign=yelp_api_v3&utm_medium=api_v3_business_search&utm_source=ywY5UnLZrNrRl2b93Ruy_g", "review_count": 88, "categories": [{"alias": "chinese", "title": "Chinese"}], "rating": 3.0, "coordinates": {"latitude": 42.3389753, "longitude": -71.5902808}, "transactions": [], "price": "$$", "location": {"address1": "197 A Boston Post Rd W", "address2": "", "address3": "", "city": "Marlborough", "zip_code": "01752", "country": "US", "state": "MA", "display_address": ["197 A Boston Post Rd W", "Marlborough, MA 01752"]}, "phone": "+15082292882", "display_phone": "(508) 229-2882", "distance": 11557.183489130713}, {"id": "HV3akc1IaHARvIcOy4AD2g", "alias": "subway-clinton-60", "name": "Subway", "image_url": "https://s3-media3.fl.yelpcdn.com/bphoto/n5GQOdbju3siwAgCNcxOdg/o.jpg", "is_closed": false, "url": "https://www.yelp.com/biz/subway-clinton-60?adjust_creative=ywY5UnLZrNrRl2b93Ruy_g&utm_campaign=yelp_api_v3&utm_medium=api_v3_business_search&utm_source=ywY5UnLZrNrRl2b93Ruy_g", "review_count": 4, "categories": [{"alias": "sandwiches", "title": "Sandwiches"}], "rating": 2.5, "coordinates": {"latitude": 42.409043, "longitude": -71.697736}, "transactions": [], "price": "$", "location": {"address1": "1175 Main St", "address2": "", "address3": "Woodruff Plaza", "city": "Clinton", "zip_code": "01510", "country": "US", "state": "MA", "display_address": ["1175 Main St", "Woodruff Plaza", "Clinton, MA 01510"]}, "phone": "+19787334343", "display_phone": "(978) 733-4343", "distance": 692.3985031187577}, {"id": "TAwUQ0_Bq3hj0Ho3KHxj-Q", "alias": "sterling-deli-and-chinese-take-out-sterling-2", "name": "Sterling Deli & Chinese Take Out", "image_url": "https://s3-media4.fl.yelpcdn.com/bphoto/6DO7gOfQxOqTctoqRamwvQ/o.jpg", "is_closed": false, "url": "https://www.yelp.com/biz/sterling-deli-and-chinese-take-out-sterling-2?adjust_creative=ywY5UnLZrNrRl2b93Ruy_g&utm_campaign=yelp_api_v3&utm_medium=api_v3_business_search&utm_source=ywY5UnLZrNrRl2b93Ruy_g", "review_count": 10, "categories": [{"alias": "convenience", "title": "Convenience Stores"}, {"alias": "delis", "title": "Delis"}], "rating": 3.5, "coordinates": {"latitude": 42.44432, "longitude": -71.7524}, "transactions": [], "price": "$", "location": {"address1": "50 Leominster Rd", "address2": "", "address3": "", "city": "Sterling", "zip_code": "01564", "country": "US", "state": "MA", "display_address": ["50 Leominster Rd", "Sterling, MA 01564"]}, "phone": "+19784220421", "display_phone": "(978) 422-0421", "distance": 6123.018666057496}, {"id": "uvWmAD9vUTMTeInixmXjAg", "alias": "cafe-fresh-bagel-sterling", "name": "Cafe Fresh Bagel", "image_url": "https://s3-media2.fl.yelpcdn.com/bphoto/VQ9EcCkoi86bmSCuGbbA5w/o.jpg", "is_closed": false, "url": "https://www.yelp.com/biz/cafe-fresh-bagel-sterling?adjust_creative=ywY5UnLZrNrRl2b93Ruy_g&utm_campaign=yelp_api_v3&utm_medium=api_v3_business_search&utm_source=ywY5UnLZrNrRl2b93Ruy_g", "review_count": 52, "categories": [{"alias": "breakfast_brunch", "title": "Breakfast & Brunch"}, {"alias": "bagels", "title": "Bagels"}], "rating": 4.0, "coordinates": {"latitude": 42.4449632316828, "longitude": -71.7221798747778}, "transactions": [], "price": "$", "location": {"address1": "167 Clinton Rd", "address2": "", "address3": "", "city": "Sterling", "zip_code": "01564", "country": "US", "state": "MA", "display_address": ["167 Clinton Rd", "Sterling, MA 01564"]}, "phone": "", "display_phone": "", "distance": 4282.717396307305}, {"id": "wPpAR3cN45Bt7sxbaJf8ZQ", "alias": "mcdonalds-clinton-20", "name": "McDonald's", "image_url": "https://s3-media2.fl.yelpcdn.com/bphoto/X16zfqwOetDoDp403Z1uag/o.jpg", "is_closed": false, "url": "https://www.yelp.com/biz/mcdonalds-clinton-20?adjust_creative=ywY5UnLZrNrRl2b93Ruy_g&utm_campaign=yelp_api_v3&utm_medium=api_v3_business_search&utm_source=ywY5UnLZrNrRl2b93Ruy_g", "review_count": 17, "categories": [{"alias": "hotdogs", "title": "Fast Food"}, {"alias": "burgers", "title": "Burgers"}, {"alias": "coffee", "title": "Coffee & Tea"}], "rating": 1.5, "coordinates": {"latitude": 42.4324091207016, "longitude": -71.6871465649592}, "transactions": ["delivery"], "price": "$", "location": {"address1": "1040 Main St", "address2": "", "address3": "", "city": "Clinton", "zip_code": "01510", "country": "US", "state": "MA", "display_address": ["1040 Main St", "Clinton, MA 01510"]}, "phone": "+19783659894", "display_phone": "(978) 365-9894", "distance": 2178.8928914841795}, {"id": "SryYzSaUJpnVxuaSL_AbTA", "alias": "steves-pizzeria-west-boylston", "name": "Steve's Pizzeria", "image_url": "https://s3-media3.fl.yelpcdn.com/bphoto/xgRIQdOriFiZW3-2IyMb0A/o.jpg", "is_closed": false, "url": "https://www.yelp.com/biz/steves-pizzeria-west-boylston?adjust_creative=ywY5UnLZrNrRl2b93Ruy_g&utm_campaign=yelp_api_v3&utm_medium=api_v3_business_search&utm_source=ywY5UnLZrNrRl2b93Ruy_g", "review_count": 79, "categories": [{"alias": "pizza", "title": "Pizza"}], "rating": 3.5, "coordinates": {"latitude": 42.340185, "longitude": -71.788176}, "transactions": ["delivery"], "price": "$$", "location": {"address1": "341 W Boylston St", "address2": "", "address3": "", "city": "West Boylston", "zip_code": "01583", "country": "US", "state": "MA", "display_address": ["341 W Boylston St", "West Boylston, MA 01583"]}, "phone": "+15088526526", "display_phone": "(508) 852-6526", "distance": 11357.693990984972}, {"id": "mGcEgS2MsAnDOJqkS0262w", "alias": "sarku-japan-marlborough", "name": "Sarku Japan", "image_url": "https://s3-media4.fl.yelpcdn.com/bphoto/QhdQPGSACFtIZ5gCJ03OkA/o.jpg", "is_closed": false, "url": "https://www.yelp.com/biz/sarku-japan-marlborough?adjust_creative=ywY5UnLZrNrRl2b93Ruy_g&utm_campaign=yelp_api_v3&utm_medium=api_v3_business_search&utm_source=ywY5UnLZrNrRl2b93Ruy_g", "review_count": 24, "categories": [{"alias": "japanese", "title": "Japanese"}], "rating": 3.5, "coordinates": {"latitude": 42.355641, "longitude": -71.612216}, "transactions": ["delivery"], "price": "$", "location": {"address1": "601 Donald Lynch Blvd", "address2": "", "address3": "", "city": "Marlborough", "zip_code": "01752", "country": "US", "state": "MA", "display_address": ["601 Donald Lynch Blvd", "Marlborough, MA 01752"]}, "phone": "+15087860604", "display_phone": "(508) 786-0604", "distance": 9106.490088029877}, {"id": "mC8OlNPwNOStBS1q_lsd5w", "alias": "classic-pizza-restaurant-iii-bolton", "name": "Classic Pizza Restaurant III", "image_url": "https://s3-media3.fl.yelpcdn.com/bphoto/yGH313pdLyHwlrkpPPe9VA/o.jpg", "is_closed": false, "url": "https://www.yelp.com/biz/classic-pizza-restaurant-iii-bolton?adjust_creative=ywY5UnLZrNrRl2b93Ruy_g&utm_campaign=yelp_api_v3&utm_medium=api_v3_business_search&utm_source=ywY5UnLZrNrRl2b93Ruy_g", "review_count": 30, "categories": [{"alias": "pizza", "title": "Pizza"}], "rating": 3.0, "coordinates": {"latitude": 42.44892, "longitude": -71.63441}, "transactions": ["delivery"], "price": "$$", "location": {"address1": "1076 Main St", "address2": "", "address3": "", "city": "Bolton", "zip_code": "01740", "country": "US", "state": "MA", "display_address": ["1076 Main St", "Bolton, MA 01740"]}, "phone": "+19787790200", "display_phone": "(978) 779-0200", "distance": 6128.1734981015625}, {"id": "Erfno6ptFGUGeEvnlQciyw", "alias": "panera-bread-hudson-2", "name": "Panera Bread", "image_url": "https://s3-media2.fl.yelpcdn.com/bphoto/u4tl0Nmycr-3TtROLij1WA/o.jpg", "is_closed": false, "url": "https://www.yelp.com/biz/panera-bread-hudson-2?adjust_creative=ywY5UnLZrNrRl2b93Ruy_g&utm_campaign=yelp_api_v3&utm_medium=api_v3_business_search&utm_source=ywY5UnLZrNrRl2b93Ruy_g", "review_count": 22, "categories": [{"alias": "sandwiches", "title": "Sandwiches"}, {"alias": "salad", "title": "Salad"}, {"alias": "soup", "title": "Soup"}], "rating": 2.0, "coordinates": {"latitude": 42.395639, "longitude": -71.594483}, "transactions": [], "location": {"address1": "2 Highland Common E", "address2": "Ste 100", "address3": null, "city": "Hudson", "zip_code": "01749", "country": "US", "state": "MA", "display_address": ["2 Highland Common E", "Ste 100", "Hudson, MA 01749"]}, "phone": "+19787638160", "display_phone": "(978) 763-8160", "distance": 8180.507335275379}, {"id": "DM0VEu56t1whcQ0ECc8v0g", "alias": "burger-king-marlborough", "name": "Burger King", "image_url": "https://s3-media3.fl.yelpcdn.com/bphoto/4QKBegFt_h9Xa8Nx8TOT1A/o.jpg", "is_closed": false, "url": "https://www.yelp.com/biz/burger-king-marlborough?adjust_creative=ywY5UnLZrNrRl2b93Ruy_g&utm_campaign=yelp_api_v3&utm_medium=api_v3_business_search&utm_source=ywY5UnLZrNrRl2b93Ruy_g", "review_count": 1, "categories": [{"alias": "burgers", "title": "Burgers"}, {"alias": "hotdogs", "title": "Fast Food"}], "rating": 4.0, "coordinates": {"latitude": 42.3460006713867, "longitude": -71.5559844970703}, "transactions": [], "price": "$", "location": {"address1": "Solomon Pond Mall", "address2": "", "address3": "", "city": "Marlborough", "zip_code": "01752", "country": "US", "state": "MA", "display_address": ["Solomon Pond Mall", "Marlborough, MA 01752"]}, "phone": "", "display_phone": "", "distance": 9061.683579630155}, {"id": "apMFnbZtBBXeVeX6QO4wBQ", "alias": "sterling-village-pizza-and-more-sterling", "name": "Sterling Village Pizza & More", "image_url": "https://s3-media4.fl.yelpcdn.com/bphoto/38sX-TxNKuL0EXWqmrSiwA/o.jpg", "is_closed": false, "url": "https://www.yelp.com/biz/sterling-village-pizza-and-more-sterling?adjust_creative=ywY5UnLZrNrRl2b93Ruy_g&utm_campaign=yelp_api_v3&utm_medium=api_v3_business_search&utm_source=ywY5UnLZrNrRl2b93Ruy_g", "review_count": 22, "categories": [{"alias": "pizza", "title": "Pizza"}, {"alias": "burgers", "title": "Burgers"}], "rating": 3.5, "coordinates": {"latitude": 42.43527, "longitude": -71.76212}, "transactions": [], "price": "$", "location": {"address1": "239 Worcester Rd", "address2": "", "address3": "", "city": "Sterling", "zip_code": "01564", "country": "US", "state": "MA", "display_address": ["239 Worcester Rd", "Sterling, MA 01564"]}, "phone": "+19784227166", "display_phone": "(978) 422-7166", "distance": 6347.000453555989}, {"id": "0pvSEQUyGRIn6Mi4wrq99g", "alias": "meolas-wayside-ice-cream-west-boylston-2", "name": "Meola's Wayside Ice Cream", "image_url": "https://s3-media3.fl.yelpcdn.com/bphoto/xeeK9_iG8Ud51KwA7GePdg/o.jpg", "is_closed": false, "url": "https://www.yelp.com/biz/meolas-wayside-ice-cream-west-boylston-2?adjust_creative=ywY5UnLZrNrRl2b93Ruy_g&utm_campaign=yelp_api_v3&utm_medium=api_v3_business_search&utm_source=ywY5UnLZrNrRl2b93Ruy_g", "review_count": 60, "categories": [{"alias": "icecream", "title": "Ice Cream & Frozen Yogurt"}, {"alias": "hotdog", "title": "Hot Dogs"}], "rating": 3.5, "coordinates": {"latitude": 42.35178, "longitude": -71.78354}, "transactions": ["delivery"], "price": "$$", "location": {"address1": "165 W Boylston St", "address2": null, "address3": null, "city": "West Boylston", "zip_code": "01583", "country": "US", "state": "MA", "display_address": ["165 W Boylston St", "West Boylston, MA 01583"]}, "phone": "+15088359747", "display_phone": "(508) 835-9747", "distance": 10236.110596097675}, {"id": "IMCjnRdJyP_VTrtErUsEKQ", "alias": "fresh-pond-panini-and-smoothie-bar-marlborough", "name": "Fresh Pond Panini & Smoothie Bar", "image_url": "https://s3-media2.fl.yelpcdn.com/bphoto/1n6wB4E354dAcqEG9GSwaA/o.jpg", "is_closed": false, "url": "https://www.yelp.com/biz/fresh-pond-panini-and-smoothie-bar-marlborough?adjust_creative=ywY5UnLZrNrRl2b93Ruy_g&utm_campaign=yelp_api_v3&utm_medium=api_v3_business_search&utm_source=ywY5UnLZrNrRl2b93Ruy_g", "review_count": 3, "categories": [{"alias": "sandwiches", "title": "Sandwiches"}, {"alias": "icecream", "title": "Ice Cream & Frozen Yogurt"}, {"alias": "juicebars", "title": "Juice Bars & Smoothies"}], "rating": 2.5, "coordinates": {"latitude": 42.35519, "longitude": -71.61291}, "transactions": ["delivery", "pickup"], "location": {"address1": "601 Donald Lynch Blvd", "address2": null, "address3": "Food Court", "city": "Marlborough", "zip_code": "01752", "country": "US", "state": "MA", "display_address": ["601 Donald Lynch Blvd", "Food Court", "Marlborough, MA 01752"]}, "phone": "+15087871008", "display_phone": "(508) 787-1008", "distance": 9032.346856971053}, {"id": "HEw4JlokXWYKmMdfU9nHPQ", "alias": "acropolis-greek-and-american-grill-west-boylston", "name": "Acropolis Greek and American Grill", "image_url": "", "is_closed": false, "url": "https://www.yelp.com/biz/acropolis-greek-and-american-grill-west-boylston?adjust_creative=ywY5UnLZrNrRl2b93Ruy_g&utm_campaign=yelp_api_v3&utm_medium=api_v3_business_search&utm_source=ywY5UnLZrNrRl2b93Ruy_g", "review_count": 1, "categories": [{"alias": "greek", "title": "Greek"}], "rating": 1.0, "coordinates": {"latitude": 42.361314, "longitude": -71.782889}, "transactions": [], "location": {"address1": "26 West Boylston St Rt 12", "address2": "", "address3": "", "city": "West Boylston", "zip_code": "01583", "country": "US", "state": "MA", "display_address": ["26 West Boylston St Rt 12", "West Boylston, MA 01583"]}, "phone": "", "display_phone": "", "distance": 9471.042203564824}, {"id": "YUxowY8Ame8SPyj9qkUnng", "alias": "regina-pizzeria-marlborough-2", "name": "Regina Pizzeria", "image_url": "https://s3-media3.fl.yelpcdn.com/bphoto/A_wuBGa5HMu_r5jw5CCCyw/o.jpg", "is_closed": false, "url": "https://www.yelp.com/biz/regina-pizzeria-marlborough-2?adjust_creative=ywY5UnLZrNrRl2b93Ruy_g&utm_campaign=yelp_api_v3&utm_medium=api_v3_business_search&utm_source=ywY5UnLZrNrRl2b93Ruy_g", "review_count": 20, "categories": [{"alias": "pizza", "title": "Pizza"}, {"alias": "italian", "title": "Italian"}], "rating": 3.5, "coordinates": {"latitude": 42.355494, "longitude": -71.612622}, "transactions": [], "price": "$", "location": {"address1": "601 Donald Lynch Blvd", "address2": "", "address3": "", "city": "Marlborough", "zip_code": "01752", "country": "US", "state": "MA", "display_address": ["601 Donald Lynch Blvd", "Marlborough, MA 01752"]}, "phone": "+15083036999", "display_phone": "(508) 303-6999", "distance": 9094.241841747411}, {"id": "qjWBHFSIMws1oCJD4olJ4Q", "alias": "starlight-grille-marlborough", "name": "Starlight Grille", "image_url": "https://s3-media1.fl.yelpcdn.com/bphoto/E24AlgEugkefMmQWyFWCGg/o.jpg", "is_closed": false, "url": "https://www.yelp.com/biz/starlight-grille-marlborough?adjust_creative=ywY5UnLZrNrRl2b93Ruy_g&utm_campaign=yelp_api_v3&utm_medium=api_v3_business_search&utm_source=ywY5UnLZrNrRl2b93Ruy_g", "review_count": 5, "categories": [{"alias": "tradamerican", "title": "American (Traditional)"}, {"alias": "hotdogs", "title": "Fast Food"}], "rating": 3.0, "coordinates": {"latitude": 42.365141, "longitude": -71.596324}, "transactions": [], "location": {"address1": "121 Donald Lynch Blvd", "address2": "", "address3": "", "city": "Marlborough", "zip_code": "01752", "country": "US", "state": "MA", "display_address": ["121 Donald Lynch Blvd", "Marlborough, MA 01752"]}, "phone": "+15082292700", "display_phone": "(508) 229-2700", "distance": 9444.789424966273}, {"id": "Sy8YT5YwR19EkvHX-1p6Cw", "alias": "qdoba-mexican-eats-hudson", "name": "QDOBA Mexican Eats", "image_url": "https://s3-media1.fl.yelpcdn.com/bphoto/Ymzud6NpYDuycYNG94Z2Mg/o.jpg", "is_closed": false, "url": "https://www.yelp.com/biz/qdoba-mexican-eats-hudson?adjust_creative=ywY5UnLZrNrRl2b93Ruy_g&utm_campaign=yelp_api_v3&utm_medium=api_v3_business_search&utm_source=ywY5UnLZrNrRl2b93Ruy_g", "review_count": 23, "categories": [{"alias": "hotdogs", "title": "Fast Food"}, {"alias": "mexican", "title": "Mexican"}], "rating": 2.5, "coordinates": {"latitude": 42.3954159497321, "longitude": -71.5940485499634}, "transactions": [], "price": "$", "location": {"address1": "42 Highland Cmn E", "address2": null, "address3": null, "city": "Hudson", "zip_code": "01749", "country": "US", "state": "MA", "display_address": ["42 Highland Cmn E", "Hudson, MA 01749"]}, "phone": "+19785670630", "display_phone": "(978) 567-0630", "distance": 8164.091935439055}, {"id": "Mp68LGnhRbzCI57gkW1qGQ", "alias": "master-wok-marlborough", "name": "Master Wok", "image_url": "https://s3-media2.fl.yelpcdn.com/bphoto/W09TOJafQ22H7Y6wNnU2_g/o.jpg", "is_closed": false, "url": "https://www.yelp.com/biz/master-wok-marlborough?adjust_creative=ywY5UnLZrNrRl2b93Ruy_g&utm_campaign=yelp_api_v3&utm_medium=api_v3_business_search&utm_source=ywY5UnLZrNrRl2b93Ruy_g", "review_count": 1, "categories": [{"alias": "restaurants", "title": "Restaurants"}], "rating": 2.0, "coordinates": {"latitude": 42.3460006713867, "longitude": -71.5559844970703}, "transactions": [], "location": {"address1": "Solomon Pond Mall", "address2": "", "address3": "", "city": "Marlborough", "zip_code": "01752", "country": "US", "state": "MA", "display_address": ["Solomon Pond Mall", "Marlborough, MA 01752"]}, "phone": "+15083036210", "display_phone": "(508) 303-6210", "distance": 9061.683579630155}, {"id": "DDAANeLkCBpNF3nwN7D4GQ", "alias": "country-kettle-cafe-west-boylston", "name": "Country Kettle Cafe", "image_url": "https://s3-media2.fl.yelpcdn.com/bphoto/eFMiua3nz1E8JblTs3nYbw/o.jpg", "is_closed": false, "url": "https://www.yelp.com/biz/country-kettle-cafe-west-boylston?adjust_creative=ywY5UnLZrNrRl2b93Ruy_g&utm_campaign=yelp_api_v3&utm_medium=api_v3_business_search&utm_source=ywY5UnLZrNrRl2b93Ruy_g", "review_count": 30, "categories": [{"alias": "breakfast_brunch", "title": "Breakfast & Brunch"}, {"alias": "tradamerican", "title": "American (Traditional)"}], "rating": 3.5, "coordinates": {"latitude": 42.3764191, "longitude": -71.7769394}, "transactions": ["delivery"], "price": "$", "location": {"address1": "27 Sterling St", "address2": "", "address3": "", "city": "West Boylston", "zip_code": "01583", "country": "US", "state": "MA", "display_address": ["27 Sterling St", "West Boylston, MA 01583"]}, "phone": "+15088354027", "display_phone": "(508) 835-4027", "distance": 8129.196269301584}, {"id": "yxv0_h9LfjHIltPh1inHpQ", "alias": "shannons-pizza-west-boylston", "name": "Shannons Pizza", "image_url": "https://s3-media3.fl.yelpcdn.com/bphoto/wpVDoYek5giFh2B8lt6iDQ/o.jpg", "is_closed": false, "url": "https://www.yelp.com/biz/shannons-pizza-west-boylston?adjust_creative=ywY5UnLZrNrRl2b93Ruy_g&utm_campaign=yelp_api_v3&utm_medium=api_v3_business_search&utm_source=ywY5UnLZrNrRl2b93Ruy_g", "review_count": 13, "categories": [{"alias": "pizza", "title": "Pizza"}], "rating": 3.0, "coordinates": {"latitude": 42.367748, "longitude": -71.78379}, "transactions": ["delivery"], "price": "$", "location": {"address1": "76 Central St", "address2": null, "address3": null, "city": "West Boylston", "zip_code": "01583", "country": "US", "state": "MA", "display_address": ["76 Central St", "West Boylston, MA 01583"]}, "phone": "+15088356813", "display_phone": "(508) 835-6813", "distance": 9134.333629887602}, {"id": "oeHSR1eibOi2lTKIXvwQHQ", "alias": "all-star-bar-and-grill-marlborough", "name": "All-Star Bar & Grill", "image_url": "https://s3-media2.fl.yelpcdn.com/bphoto/VFxAizYotJArdnCVxzXaBQ/o.jpg", "is_closed": false, "url": "https://www.yelp.com/biz/all-star-bar-and-grill-marlborough?adjust_creative=ywY5UnLZrNrRl2b93Ruy_g&utm_campaign=yelp_api_v3&utm_medium=api_v3_business_search&utm_source=ywY5UnLZrNrRl2b93Ruy_g", "review_count": 20, "categories": [{"alias": "bars", "title": "Bars"}, {"alias": "steak", "title": "Steakhouses"}, {"alias": "burgers", "title": "Burgers"}], "rating": 2.5, "coordinates": {"latitude": 42.34231, "longitude": -71.59046}, "transactions": ["delivery"], "price": "$$", "location": {"address1": "181 Boston Post Rd W", "address2": "", "address3": "", "city": "Marlborough", "zip_code": "01752", "country": "US", "state": "MA", "display_address": ["181 Boston Post Rd W", "Marlborough, MA 01752"]}, "phone": "+15083031783", "display_phone": "(508) 303-1783", "distance": 11422.24646522449}, {"id": "zU9QHY90IKHi7vyZXNJulg", "alias": "master-wok-marlborough-2", "name": "Master Wok", "image_url": "https://s3-media3.fl.yelpcdn.com/bphoto/Kb6YFVrwowDK5Js2hwgkkg/o.jpg", "is_closed": false, "url": "https://www.yelp.com/biz/master-wok-marlborough-2?adjust_creative=ywY5UnLZrNrRl2b93Ruy_g&utm_campaign=yelp_api_v3&utm_medium=api_v3_business_search&utm_source=ywY5UnLZrNrRl2b93Ruy_g", "review_count": 1, "categories": [{"alias": "chinese", "title": "Chinese"}], "rating": 1.0, "coordinates": {"latitude": 42.3551903, "longitude": -71.6129074}, "transactions": ["delivery"], "location": {"address1": "601 Donald Lynch Blvd", "address2": "Ste 5205", "address3": "", "city": "Marlborough", "zip_code": "01752", "country": "US", "state": "MA", "display_address": ["601 Donald Lynch Blvd", "Ste 5205", "Marlborough, MA 01752"]}, "phone": "+15083036210", "display_phone": "(508) 303-6210", "distance": 9100.986563267836}, {"id": "Tb4jlXQf-wq-jJC_MtaTgw", "alias": "jakes-cafe-west-boylston", "name": "Jake's Cafe", "image_url": "https://s3-media4.fl.yelpcdn.com/bphoto/51PjdDRBIxYMxvlN6-2aUg/o.jpg", "is_closed": false, "url": "https://www.yelp.com/biz/jakes-cafe-west-boylston?adjust_creative=ywY5UnLZrNrRl2b93Ruy_g&utm_campaign=yelp_api_v3&utm_medium=api_v3_business_search&utm_source=ywY5UnLZrNrRl2b93Ruy_g", "review_count": 27, "categories": [{"alias": "diners", "title": "Diners"}, {"alias": "breakfast_brunch", "title": "Breakfast & Brunch"}], "rating": 4.0, "coordinates": {"latitude": 42.346852, "longitude": -71.785415}, "transactions": ["delivery"], "price": "$", "location": {"address1": "235 W Boylston St", "address2": "", "address3": "", "city": "West Boylston", "zip_code": "01583", "country": "US", "state": "MA", "display_address": ["235 W Boylston St", "West Boylston, MA 01583"]}, "phone": "+15088353189", "display_phone": "(508) 835-3189", "distance": 10707.229195025175}, {"id": "i1HmNfSIn_t5C0S4Bze8Jw", "alias": "wendys-marlborough", "name": "Wendy's", "image_url": "https://s3-media3.fl.yelpcdn.com/bphoto/4NBmAj37SE7arzhti1O3xQ/o.jpg", "is_closed": false, "url": "https://www.yelp.com/biz/wendys-marlborough?adjust_creative=ywY5UnLZrNrRl2b93Ruy_g&utm_campaign=yelp_api_v3&utm_medium=api_v3_business_search&utm_source=ywY5UnLZrNrRl2b93Ruy_g", "review_count": 33, "categories": [{"alias": "burgers", "title": "Burgers"}, {"alias": "hotdogs", "title": "Fast Food"}], "rating": 2.5, "coordinates": {"latitude": 42.33865, "longitude": -71.58912}, "transactions": ["delivery"], "price": "$", "location": {"address1": "176 Boston Post Rd West", "address2": "", "address3": "", "city": "Marlborough", "zip_code": "01752", "country": "US", "state": "MA", "display_address": ["176 Boston Post Rd West", "Marlborough, MA 01752"]}, "phone": "+15084815366", "display_phone": "(508) 481-5366", "distance": 11793.204678011882}, {"id": "fGK0ImEngoNgYxJirHcPqQ", "alias": "chipotle-mexican-grill-marlborough-4", "name": "Chipotle Mexican Grill", "image_url": "https://s3-media3.fl.yelpcdn.com/bphoto/qJWkJoGBUPOx1gmCnG7LVA/o.jpg", "is_closed": false, "url": "https://www.yelp.com/biz/chipotle-mexican-grill-marlborough-4?adjust_creative=ywY5UnLZrNrRl2b93Ruy_g&utm_campaign=yelp_api_v3&utm_medium=api_v3_business_search&utm_source=ywY5UnLZrNrRl2b93Ruy_g", "review_count": 80, "categories": [{"alias": "mexican", "title": "Mexican"}, {"alias": "hotdogs", "title": "Fast Food"}], "rating": 3.0, "coordinates": {"latitude": 42.3387512123398, "longitude": -71.5914185643296}, "transactions": [], "price": "$", "location": {"address1": "237 Boston Post Rd W", "address2": "", "address3": "", "city": "Marlborough", "zip_code": "01752", "country": "US", "state": "MA", "display_address": ["237 Boston Post Rd W", "Marlborough, MA 01752"]}, "phone": "+15084808412", "display_phone": "(508) 480-8412", "distance": 11642.843412523825}, {"id": "MD9Qy7TWqc91C-y1tog7Zg", "alias": "arbys-marlborough", "name": "Arby's", "image_url": "https://s3-media2.fl.yelpcdn.com/bphoto/WVJiE-QJxo7BjOHKNsOJfQ/o.jpg", "is_closed": false, "url": "https://www.yelp.com/biz/arbys-marlborough?adjust_creative=ywY5UnLZrNrRl2b93Ruy_g&utm_campaign=yelp_api_v3&utm_medium=api_v3_business_search&utm_source=ywY5UnLZrNrRl2b93Ruy_g", "review_count": 15, "categories": [{"alias": "hotdogs", "title": "Fast Food"}, {"alias": "sandwiches", "title": "Sandwiches"}], "rating": 3.5, "coordinates": {"latitude": 42.355756, "longitude": -71.61244}, "transactions": [], "price": "$", "location": {"address1": "601 Donald Lynch Blvd", "address2": "", "address3": "Solomon Pond Mall", "city": "Marlborough", "zip_code": "01752", "country": "US", "state": "MA", "display_address": ["601 Donald Lynch Blvd", "Solomon Pond Mall", "Marlborough, MA 01752"]}, "phone": "+15083036265", "display_phone": "(508) 303-6265", "distance": 9084.402287483439}, {"id": "B-iD3SYSDP-1olw8dobScg", "alias": "ruby-thai-kitchen-marlborough", "name": "Ruby Thai Kitchen", "image_url": "https://s3-media2.fl.yelpcdn.com/bphoto/AWF84ND20-eV0NZiCrEd9g/o.jpg", "is_closed": false, "url": "https://www.yelp.com/biz/ruby-thai-kitchen-marlborough?adjust_creative=ywY5UnLZrNrRl2b93Ruy_g&utm_campaign=yelp_api_v3&utm_medium=api_v3_business_search&utm_source=ywY5UnLZrNrRl2b93Ruy_g", "review_count": 12, "categories": [{"alias": "thai", "title": "Thai"}, {"alias": "halal", "title": "Halal"}], "rating": 2.5, "coordinates": {"latitude": 42.355432, "longitude": -71.612767}, "transactions": [], "price": "$", "location": {"address1": "601 Donald Lynch Blvd", "address2": "Ste 5203", "address3": null, "city": "Marlborough", "zip_code": "01752", "country": "US", "state": "MA", "display_address": ["601 Donald Lynch Blvd", "Ste 5203", "Marlborough, MA 01752"]}, "phone": "+15087865858", "display_phone": "(508) 786-5858", "distance": 9090.645054286426}, {"id": "iCl2PKQKuTe7Z0cgTtVudg", "alias": "five-guys-marlborough", "name": "Five Guys", "image_url": "https://s3-media3.fl.yelpcdn.com/bphoto/g9IVV_zp5GfeI2Iqmbmj-g/o.jpg", "is_closed": false, "url": "https://www.yelp.com/biz/five-guys-marlborough?adjust_creative=ywY5UnLZrNrRl2b93Ruy_g&utm_campaign=yelp_api_v3&utm_medium=api_v3_business_search&utm_source=ywY5UnLZrNrRl2b93Ruy_g", "review_count": 78, "categories": [{"alias": "hotdogs", "title": "Fast Food"}, {"alias": "burgers", "title": "Burgers"}], "rating": 3.5, "coordinates": {"latitude": 42.3405515, "longitude": -71.590334}, "transactions": ["delivery"], "price": "$", "location": {"address1": "197 Boston Post Rd W", "address2": "", "address3": "", "city": "Marlborough", "zip_code": "01752", "country": "US", "state": "MA", "display_address": ["197 Boston Post Rd W", "Marlborough, MA 01752"]}, "phone": "+15082814855", "display_phone": "(508) 281-4855", "distance": 11565.279907986205}, {"id": "FutajazHZCV7ih_iqIq-qw", "alias": "west-boylston-house-of-pizza-west-boylston", "name": "West Boylston House of Pizza", "image_url": "https://s3-media3.fl.yelpcdn.com/bphoto/3TebkHGS_QZQzOyYIPup7Q/o.jpg", "is_closed": false, "url": "https://www.yelp.com/biz/west-boylston-house-of-pizza-west-boylston?adjust_creative=ywY5UnLZrNrRl2b93Ruy_g&utm_campaign=yelp_api_v3&utm_medium=api_v3_business_search&utm_source=ywY5UnLZrNrRl2b93Ruy_g", "review_count": 8, "categories": [{"alias": "pizza", "title": "Pizza"}], "rating": 3.5, "coordinates": {"latitude": 42.3780633, "longitude": -71.775263}, "transactions": ["delivery"], "price": "$$", "location": {"address1": "69 Sterling St", "address2": "", "address3": "", "city": "West Boylston", "zip_code": "01583", "country": "US", "state": "MA", "display_address": ["69 Sterling St", "West Boylston, MA 01583"]}, "phone": "+15088356655", "display_phone": "(508) 835-6655", "distance": 7836.180300386923}, {"id": "rxIUgtD5PnH1ARq20Vh9zQ", "alias": "friendlys-marlborough-marlborough", "name": "Friendly's Marlborough", "image_url": "https://s3-media3.fl.yelpcdn.com/bphoto/AlkYKst0XFCWGxM8C9xCPw/o.jpg", "is_closed": false, "url": "https://www.yelp.com/biz/friendlys-marlborough-marlborough?adjust_creative=ywY5UnLZrNrRl2b93Ruy_g&utm_campaign=yelp_api_v3&utm_medium=api_v3_business_search&utm_source=ywY5UnLZrNrRl2b93Ruy_g", "review_count": 48, "categories": [{"alias": "icecream", "title": "Ice Cream & Frozen Yogurt"}, {"alias": "breakfast_brunch", "title": "Breakfast & Brunch"}, {"alias": "burgers", "title": "Burgers"}], "rating": 2.0, "coordinates": {"latitude": 42.337283, "longitude": -71.590525}, "transactions": ["delivery"], "price": "$$", "location": {"address1": "157 Apex Dr", "address2": null, "address3": "", "city": "Marlborough", "zip_code": "01752", "country": "US", "state": "MA", "display_address": ["157 Apex Dr", "Marlborough, MA 01752"]}, "phone": "+15082511006", "display_phone": "(508) 251-1006", "distance": 11810.646960333812}, {"id": "vkudX74xiGZBLI2XHo41og", "alias": "boston-market-marlborough", "name": "Boston Market", "image_url": "https://s3-media2.fl.yelpcdn.com/bphoto/nvrBKGjuwRN63-qgR8VOcg/o.jpg", "is_closed": false, "url": "https://www.yelp.com/biz/boston-market-marlborough?adjust_creative=ywY5UnLZrNrRl2b93Ruy_g&utm_campaign=yelp_api_v3&utm_medium=api_v3_business_search&utm_source=ywY5UnLZrNrRl2b93Ruy_g", "review_count": 29, "categories": [{"alias": "comfortfood", "title": "Comfort Food"}, {"alias": "tradamerican", "title": "American (Traditional)"}, {"alias": "sandwiches", "title": "Sandwiches"}], "rating": 2.5, "coordinates": {"latitude": 42.3393397675136, "longitude": -71.5893567502826}, "transactions": ["delivery", "pickup"], "price": "$", "location": {"address1": "189 Boston Post Rd W", "address2": "", "address3": "", "city": "Marlborough", "zip_code": "01752", "country": "US", "state": "MA", "display_address": ["189 Boston Post Rd W", "Marlborough, MA 01752"]}, "phone": "+15082292525", "display_phone": "(508) 229-2525", "distance": 11716.886925047367}, {"id": "hEkS9SwhKIbfUAnmZM-DMw", "alias": "dairy-queen-west-boylston-2", "name": "Dairy Queen Grill & Chill", "image_url": "https://s3-media1.fl.yelpcdn.com/bphoto/2m0oG2VA8aiz4w9A7vpNvg/o.jpg", "is_closed": false, "url": "https://www.yelp.com/biz/dairy-queen-west-boylston-2?adjust_creative=ywY5UnLZrNrRl2b93Ruy_g&utm_campaign=yelp_api_v3&utm_medium=api_v3_business_search&utm_source=ywY5UnLZrNrRl2b93Ruy_g", "review_count": 28, "categories": [{"alias": "hotdogs", "title": "Fast Food"}, {"alias": "icecream", "title": "Ice Cream & Frozen Yogurt"}, {"alias": "burgers", "title": "Burgers"}], "rating": 3.0, "coordinates": {"latitude": 42.341277, "longitude": -71.788578}, "transactions": [], "price": "$", "location": {"address1": "328 W Boylston St", "address2": "", "address3": "", "city": "West Boylston", "zip_code": "01583", "country": "US", "state": "MA", "display_address": ["328 W Boylston St", "West Boylston, MA 01583"]}, "phone": "+15088532700", "display_phone": "(508) 853-2700", "distance": 11294.683011734987}, {"id": "CqQJf8JnQezdPk5jH3RF9g", "alias": "subway-marlborough-8", "name": "Subway", "image_url": "https://s3-media2.fl.yelpcdn.com/bphoto/VMmT843Gm_TYEOgJnlpdZw/o.jpg", "is_closed": false, "url": "https://www.yelp.com/biz/subway-marlborough-8?adjust_creative=ywY5UnLZrNrRl2b93Ruy_g&utm_campaign=yelp_api_v3&utm_medium=api_v3_business_search&utm_source=ywY5UnLZrNrRl2b93Ruy_g", "review_count": 11, "categories": [{"alias": "sandwiches", "title": "Sandwiches"}], "rating": 2.5, "coordinates": {"latitude": 42.33892251754, "longitude": -71.5915068147788}, "transactions": [], "price": "$", "location": {"address1": "237 Boston Post Rd W", "address2": "", "address3": "", "city": "Marlborough", "zip_code": "01752", "country": "US", "state": "MA", "display_address": ["237 Boston Post Rd W", "Marlborough, MA 01752"]}, "phone": "+15084813464", "display_phone": "(508) 481-3464", "distance": 11624.21374946357}, {"id": "CHxt3VFg-9NloQ5zLv5yVA", "alias": "subway-bolton-12", "name": "Subway", "image_url": "https://s3-media1.fl.yelpcdn.com/bphoto/2wfPwCXAyukEqi9EoRkNMQ/o.jpg", "is_closed": false, "url": "https://www.yelp.com/biz/subway-bolton-12?adjust_creative=ywY5UnLZrNrRl2b93Ruy_g&utm_campaign=yelp_api_v3&utm_medium=api_v3_business_search&utm_source=ywY5UnLZrNrRl2b93Ruy_g", "review_count": 3, "categories": [{"alias": "sandwiches", "title": "Sandwiches"}], "rating": 3.0, "coordinates": {"latitude": 42.430049, "longitude": -71.589063}, "transactions": [], "price": "$", "location": {"address1": "476 Main St Hwy", "address2": "", "address3": null, "city": "Bolton", "zip_code": "01740", "country": "US", "state": "MA", "display_address": ["476 Main St Hwy", "Bolton, MA 01740"]}, "phone": "+19787799911", "display_phone": "(978) 779-9911", "distance": 8602.877385186848}, {"id": "7K5xFc-xwHktS50xX3hAeQ", "alias": "hot-table-marlborough", "name": "Hot Table", "image_url": "https://s3-media2.fl.yelpcdn.com/bphoto/HR3IzbwM7BIlB9EKL4pDsg/o.jpg", "is_closed": false, "url": "https://www.yelp.com/biz/hot-table-marlborough?adjust_creative=ywY5UnLZrNrRl2b93Ruy_g&utm_campaign=yelp_api_v3&utm_medium=api_v3_business_search&utm_source=ywY5UnLZrNrRl2b93Ruy_g", "review_count": 47, "categories": [{"alias": "salad", "title": "Salad"}, {"alias": "wraps", "title": "Wraps"}, {"alias": "sandwiches", "title": "Sandwiches"}], "rating": 4.0, "coordinates": {"latitude": 42.338304, "longitude": -71.5909500426612}, "transactions": ["delivery"], "price": "$$", "location": {"address1": "160 Apex Dr", "address2": "", "address3": null, "city": "Marlborough", "zip_code": "01752", "country": "US", "state": "MA", "display_address": ["160 Apex Dr", "Marlborough, MA 01752"]}, "phone": "+15086308617", "display_phone": "(508) 630-8617", "distance": 11705.271164844246}, {"id": "P0RXAa3cMlZSE1-A26MmJQ", "alias": "bolton-bean-bolton-2", "name": "Bolton Bean", "image_url": "https://s3-media4.fl.yelpcdn.com/bphoto/rbblzfbULvLDhvkOk_XdFg/o.jpg", "is_closed": false, "url": "https://www.yelp.com/biz/bolton-bean-bolton-2?adjust_creative=ywY5UnLZrNrRl2b93Ruy_g&utm_campaign=yelp_api_v3&utm_medium=api_v3_business_search&utm_source=ywY5UnLZrNrRl2b93Ruy_g", "review_count": 96, "categories": [{"alias": "cafes", "title": "Cafes"}, {"alias": "coffee", "title": "Coffee & Tea"}, {"alias": "sandwiches", "title": "Sandwiches"}], "rating": 4.5, "coordinates": {"latitude": 42.4314856948864, "longitude": -71.6026036441326}, "transactions": [], "price": "$", "location": {"address1": "626 Main St", "address2": "", "address3": null, "city": "Bolton", "zip_code": "01740", "country": "US", "state": "MA", "display_address": ["626 Main St", "Bolton, MA 01740"]}, "phone": "+19786341188", "display_phone": "(978) 634-1188", "distance": 7562.230491622013}, {"id": "yYcoeNFnV3NVNLx2_qLLDA", "alias": "panera-bread-marlborough", "name": "Panera Bread", "image_url": "https://s3-media4.fl.yelpcdn.com/bphoto/cex4-VBW6C9S9Yaq41B69A/o.jpg", "is_closed": false, "url": "https://www.yelp.com/biz/panera-bread-marlborough?adjust_creative=ywY5UnLZrNrRl2b93Ruy_g&utm_campaign=yelp_api_v3&utm_medium=api_v3_business_search&utm_source=ywY5UnLZrNrRl2b93Ruy_g", "review_count": 81, "categories": [{"alias": "sandwiches", "title": "Sandwiches"}, {"alias": "salad", "title": "Salad"}, {"alias": "soup", "title": "Soup"}], "rating": 2.0, "coordinates": {"latitude": 42.3403280224013, "longitude": -71.5913133323738}, "transactions": ["delivery"], "price": "$$", "location": {"address1": "197 Boston Post Rd W", "address2": "", "address3": "", "city": "Marlborough", "zip_code": "01752", "country": "US", "state": "MA", "display_address": ["197 Boston Post Rd W", "Marlborough, MA 01752"]}, "phone": "+15082816161", "display_phone": "(508) 281-6161", "distance": 11525.169914162765}, {"id": "-_qHxz_vk4mqHissnPjBTQ", "alias": "subway-west-boylston-3", "name": "Subway", "image_url": "https://s3-media3.fl.yelpcdn.com/bphoto/4FEkCh4a8NmXTh1kJftqFw/o.jpg", "is_closed": false, "url": "https://www.yelp.com/biz/subway-west-boylston-3?adjust_creative=ywY5UnLZrNrRl2b93Ruy_g&utm_campaign=yelp_api_v3&utm_medium=api_v3_business_search&utm_source=ywY5UnLZrNrRl2b93Ruy_g", "review_count": 3, "categories": [{"alias": "sandwiches", "title": "Sandwiches"}], "rating": 3.5, "coordinates": {"latitude": 42.3495089044627, "longitude": -71.7852469606379}, "transactions": [], "price": "$", "location": {"address1": "197 W Boylston St", "address2": "Ste 2", "address3": "", "city": "West Boylston", "zip_code": "01583", "country": "US", "state": "MA", "display_address": ["197 W Boylston St", "Ste 2", "West Boylston, MA 01583"]}, "phone": "+15088359928", "display_phone": "(508) 835-9928", "distance": 10463.759856440198}]