[{"id": "k0cxsbUUhNq8ukwyKiuOug", "alias": "the-bridge-restaurant-sheffield", "name": "The Bridge Restaurant", "image_url": "https://s3-media2.fl.yelpcdn.com/bphoto/xJt0rNtMmqk6h2FdOQglYw/o.jpg", "is_closed": false, "url": "https://www.yelp.com/biz/the-bridge-restaurant-sheffield?adjust_creative=h5HwbyQ0TYvQjBo6Ys5Bgw&utm_campaign=yelp_api_v3&utm_medium=api_v3_business_search&utm_source=h5HwbyQ0TYvQjBo6Ys5Bgw", "review_count": 29, "categories": [{"alias": "tradamerican", "title": "American (Traditional)"}], "rating": 4.5, "coordinates": {"latitude": 42.123809, "longitude": -73.356906}, "transactions": [], "price": "$$", "location": {"address1": "650 N Main St", "address2": "", "address3": "", "city": "Sheffield", "zip_code": "01257", "country": "US", "state": "MA", "display_address": ["650 N Main St", "Sheffield, MA 01257"]}, "phone": "+14132299000", "display_phone": "(413) 229-9000", "distance": 7546.151715400824}, {"id": "KvDsKP3pvTjryvkzyibs-Q", "alias": "cantina-229-new-marlborough", "name": "Cantina 229", "image_url": "https://s3-media3.fl.yelpcdn.com/bphoto/Hw1Rq3WEBuXL4bUR_0T4hQ/o.jpg", "is_closed": false, "url": "https://www.yelp.com/biz/cantina-229-new-marlborough?adjust_creative=h5HwbyQ0TYvQjBo6Ys5Bgw&utm_campaign=yelp_api_v3&utm_medium=api_v3_business_search&utm_source=h5HwbyQ0TYvQjBo6Ys5Bgw", "review_count": 54, "categories": [{"alias": "tapas", "title": "Tapas Bars"}, {"alias": "vegetarian", "title": "Vegetarian"}, {"alias": "asianfusion", "title": "Asian Fusion"}], "rating": 4.5, "coordinates": {"latitude": 42.123587790542, "longitude": -73.2348696057758}, "transactions": [], "price": "$$", "location": {"address1": "229 Hartsville New Marlboro Rd", "address2": "", "address3": null, "city": "New Marlborough", "zip_code": "01230", "country": "US", "state": "MA", "display_address": ["229 Hartsville New Marlboro Rd", "New Marlborough, MA 01230"]}, "phone": "+14132293276", "display_phone": "(413) 229-3276", "distance": 10090.407877898508}, {"id": "eagVNLK809UgivZVlepoIQ", "alias": "blackberry-river-bistro-canaan", "name": "Blackberry River Bistro", "image_url": "https://s3-media2.fl.yelpcdn.com/bphoto/6-IrneDTV_keASpNXxQLpA/o.jpg", "is_closed": false, "url": "https://www.yelp.com/biz/blackberry-river-bistro-canaan?adjust_creative=h5HwbyQ0TYvQjBo6Ys5Bgw&utm_campaign=yelp_api_v3&utm_medium=api_v3_business_search&utm_source=h5HwbyQ0TYvQjBo6Ys5Bgw", "review_count": 4, "categories": [{"alias": "mexican", "title": "Mexican"}, {"alias": "breakfast_brunch", "title": "Breakfast & Brunch"}], "rating": 5.0, "coordinates": {"latitude": 42.0272641, "longitude": -73.3301197}, "transactions": [], "location": {"address1": "99 Main St", "address2": "", "address3": null, "city": "Canaan", "zip_code": "06018", "country": "US", "state": "CT", "display_address": ["99 Main St", "Canaan, CT 06018"]}, "phone": "+18604534067", "display_phone": "(860) 453-4067", "distance": 3768.6104974461673}, {"id": "dP6zXo-o6Z5SYcBHiPZQlQ", "alias": "stagecoach-tavern-sheffield", "name": "Stagecoach Tavern", "image_url": "https://s3-media2.fl.yelpcdn.com/bphoto/UGJktwFIjl9k-_dk9SNrWA/o.jpg", "is_closed": false, "url": "https://www.yelp.com/biz/stagecoach-tavern-sheffield?adjust_creative=h5HwbyQ0TYvQjBo6Ys5Bgw&utm_campaign=yelp_api_v3&utm_medium=api_v3_business_search&utm_source=h5HwbyQ0TYvQjBo6Ys5Bgw", "review_count": 45, "categories": [{"alias": "tradamerican", "title": "American (Traditional)"}], "rating": 4.0, "coordinates": {"latitude": 42.08495, "longitude": -73.41214}, "transactions": [], "price": "$$", "location": {"address1": "854 S Undermountain Rd", "address2": "", "address3": "", "city": "Sheffield", "zip_code": "01257", "country": "US", "state": "MA", "display_address": ["854 S Undermountain Rd", "Sheffield, MA 01257"]}, "phone": "+14132298585", "display_phone": "(413) 229-8585", "distance": 7805.07346455444}, {"id": "8ZThcsITzv3xpH_oBtEZHA", "alias": "roma-pizzeria-canaan", "name": "Roma Pizzeria", "image_url": "https://s3-media2.fl.yelpcdn.com/bphoto/jroNxbHKaz7vVWvXnopUIg/o.jpg", "is_closed": false, "url": "https://www.yelp.com/biz/roma-pizzeria-canaan?adjust_creative=h5HwbyQ0TYvQjBo6Ys5Bgw&utm_campaign=yelp_api_v3&utm_medium=api_v3_business_search&utm_source=h5HwbyQ0TYvQjBo6Ys5Bgw", "review_count": 27, "categories": [{"alias": "pizza", "title": "Pizza"}, {"alias": "italian", "title": "Italian"}], "rating": 4.5, "coordinates": {"latitude": 42.0266059894012, "longitude": -73.3295079127326}, "transactions": [], "price": "$$", "location": {"address1": "81 Main St", "address2": "", "address3": "", "city": "Canaan", "zip_code": "06018", "country": "US", "state": "CT", "display_address": ["81 Main St", "Canaan, CT 06018"]}, "phone": "+18608248125", "display_phone": "(860) 824-8125", "distance": 3833.6323785222526}, {"id": "Ol7s9NMuX-FYocOlwd3E-A", "alias": "race-brook-lodge-sheffield", "name": "Race Brook Lodge", "image_url": "https://s3-media1.fl.yelpcdn.com/bphoto/WNTsKPFcmStpfBKMKxyv2w/o.jpg", "is_closed": false, "url": "https://www.yelp.com/biz/race-brook-lodge-sheffield?adjust_creative=h5HwbyQ0TYvQjBo6Ys5Bgw&utm_campaign=yelp_api_v3&utm_medium=api_v3_business_search&utm_source=h5HwbyQ0TYvQjBo6Ys5Bgw", "review_count": 29, "categories": [{"alias": "hotels", "title": "Hotels"}, {"alias": "bedbreakfast", "title": "Bed & Breakfast"}, {"alias": "newamerican", "title": "American (New)"}], "rating": 4.5, "coordinates": {"latitude": 42.08503, "longitude": -73.41326}, "transactions": [], "price": "$$", "location": {"address1": "864 S Undermountain Rd", "address2": "", "address3": "", "city": "Sheffield", "zip_code": "01257", "country": "US", "state": "MA", "display_address": ["864 S Undermountain Rd", "Sheffield, MA 01257"]}, "phone": "+14132292916", "display_phone": "(413) 229-2916", "distance": 7957.170635750796}, {"id": "8YTBXv2LZPsRhyxLRAHh6Q", "alias": "railway-cafe-canaan", "name": "Railway Cafe", "image_url": "https://s3-media2.fl.yelpcdn.com/bphoto/kT1rf2_2NxYfGKYsLtJGtQ/o.jpg", "is_closed": false, "url": "https://www.yelp.com/biz/railway-cafe-canaan?adjust_creative=h5HwbyQ0TYvQjBo6Ys5Bgw&utm_campaign=yelp_api_v3&utm_medium=api_v3_business_search&utm_source=h5HwbyQ0TYvQjBo6Ys5Bgw", "review_count": 4, "categories": [{"alias": "breakfast_brunch", "title": "Breakfast & Brunch"}, {"alias": "tradamerican", "title": "American (Traditional)"}], "rating": 5.0, "coordinates": {"latitude": 42.017632, "longitude": -73.331305}, "transactions": [], "price": "$", "location": {"address1": "77 S Canaan Rd", "address2": null, "address3": "", "city": "Canaan", "zip_code": "06031", "country": "US", "state": "CT", "display_address": ["77 S Canaan Rd", "Canaan, CT 06031"]}, "phone": "+18608242610", "display_phone": "(860) 824-2610", "distance": 4842.441236630717}, {"id": "gBfD--biUtBgB-vLlSBYkg", "alias": "barnstormers-burgers-north-canaan", "name": "Barnstormers Burgers", "image_url": "https://s3-media1.fl.yelpcdn.com/bphoto/31fsydvk3ISVC5UZsWe63A/o.jpg", "is_closed": false, "url": "https://www.yelp.com/biz/barnstormers-burgers-north-canaan?adjust_creative=h5HwbyQ0TYvQjBo6Ys5Bgw&utm_campaign=yelp_api_v3&utm_medium=api_v3_business_search&utm_source=h5HwbyQ0TYvQjBo6Ys5Bgw", "review_count": 4, "categories": [{"alias": "foodtrucks", "title": "Food Trucks"}, {"alias": "burgers", "title": "Burgers"}], "rating": 5.0, "coordinates": {"latitude": 42.02657, "longitude": -73.32907}, "transactions": [], "location": {"address1": null, "address2": null, "address3": null, "city": "North Canaan", "zip_code": "06018", "country": "US", "state": "CT", "display_address": ["North Canaan, CT 06018"]}, "phone": "+18602944806", "display_phone": "(860) 294-4806", "distance": 4480.174636757759}, {"id": "DmetKxKYhXoqaI_R5DwyJQ", "alias": "gedney-farm-new-marlborough", "name": "Gedney Farm", "image_url": "https://s3-media2.fl.yelpcdn.com/bphoto/nLWn288VzwTefgTsWAeQfA/o.jpg", "is_closed": false, "url": "https://www.yelp.com/biz/gedney-farm-new-marlborough?adjust_creative=h5HwbyQ0TYvQjBo6Ys5Bgw&utm_campaign=yelp_api_v3&utm_medium=api_v3_business_search&utm_source=h5HwbyQ0TYvQjBo6Ys5Bgw", "review_count": 28, "categories": [{"alias": "venues", "title": "Venues & Event Spaces"}, {"alias": "vegetarian", "title": "Vegetarian"}, {"alias": "tradamerican", "title": "American (Traditional)"}], "rating": 4.0, "coordinates": {"latitude": 42.1218836220813, "longitude": -73.2255731630722}, "transactions": [], "price": "$$$", "location": {"address1": "34 Hartsville-New Marlboro Rd", "address2": "", "address3": "", "city": "New Marlborough", "zip_code": "01230", "country": "US", "state": "MA", "display_address": ["34 Hartsville-New Marlboro Rd", "New Marlborough, MA 01230"]}, "phone": "+14132293131", "display_phone": "(413) 229-3131", "distance": 10533.908419993078}, {"id": "29kkATTOucG-9BIq8hxYeg", "alias": "main-street-restaurant-and-pub-north-canaan", "name": "Main Street Restaurant And Pub", "image_url": "https://s3-media1.fl.yelpcdn.com/bphoto/fgKNU6YaLA7QyhPWDFk6ww/o.jpg", "is_closed": false, "url": "https://www.yelp.com/biz/main-street-restaurant-and-pub-north-canaan?adjust_creative=h5HwbyQ0TYvQjBo6Ys5Bgw&utm_campaign=yelp_api_v3&utm_medium=api_v3_business_search&utm_source=h5HwbyQ0TYvQjBo6Ys5Bgw", "review_count": 1, "categories": [{"alias": "tradamerican", "title": "American (Traditional)"}, {"alias": "pubs", "title": "Pubs"}], "rating": 4.0, "coordinates": {"latitude": 42.0268419326169, "longitude": -73.3295238018036}, "transactions": [], "location": {"address1": "85 Main St", "address2": "", "address3": "", "city": "North Canaan", "zip_code": "06018", "country": "US", "state": "CT", "display_address": ["85 Main St", "North Canaan, CT 06018"]}, "phone": "", "display_phone": "", "distance": 3807.8322795333374}, {"id": "akdGp78cMY3swQrF8r69TA", "alias": "stateline-pizza-canaan", "name": "Stateline Pizza", "image_url": "https://s3-media4.fl.yelpcdn.com/bphoto/h21nNfGafKheHyhwIINKVg/o.jpg", "is_closed": false, "url": "https://www.yelp.com/biz/stateline-pizza-canaan?adjust_creative=h5HwbyQ0TYvQjBo6Ys5Bgw&utm_campaign=yelp_api_v3&utm_medium=api_v3_business_search&utm_source=h5HwbyQ0TYvQjBo6Ys5Bgw", "review_count": 19, "categories": [{"alias": "pizza", "title": "Pizza"}, {"alias": "italian", "title": "Italian"}], "rating": 3.5, "coordinates": {"latitude": 42.036883, "longitude": -73.324765}, "transactions": [], "price": "$$", "location": {"address1": "340 N Elm St", "address2": "", "address3": "", "city": "Canaan", "zip_code": "06018", "country": "US", "state": "CT", "display_address": ["340 N Elm St", "Canaan, CT 06018"]}, "phone": "+18608241554", "display_phone": "(860) 824-1554", "distance": 2657.7263288478152}, {"id": "3w4KYQPWvG4yCCo2aEqb_g", "alias": "snack-shack-canaan", "name": "Snack Shack", "image_url": "https://s3-media4.fl.yelpcdn.com/bphoto/cyThE8zucNhvltmLxW3WYg/o.jpg", "is_closed": false, "url": "https://www.yelp.com/biz/snack-shack-canaan?adjust_creative=h5HwbyQ0TYvQjBo6Ys5Bgw&utm_campaign=yelp_api_v3&utm_medium=api_v3_business_search&utm_source=h5HwbyQ0TYvQjBo6Ys5Bgw", "review_count": 3, "categories": [{"alias": "hotdogs", "title": "Fast Food"}], "rating": 4.5, "coordinates": {"latitude": 42.0389642379813, "longitude": -73.3257486093574}, "transactions": [], "price": "$", "location": {"address1": "350 Ashley Falls Rd", "address2": "", "address3": "", "city": "Canaan", "zip_code": "06018", "country": "US", "state": "CT", "display_address": ["350 Ashley Falls Rd", "Canaan, CT 06018"]}, "phone": "+18608247072", "display_phone": "(860) 824-7072", "distance": 2386.042136201905}, {"id": "TlSjI37wmBlYf2rQg8S5Rg", "alias": "the-marketplace-cafe-sheffield-2", "name": "The Marketplace Cafe", "image_url": "https://s3-media1.fl.yelpcdn.com/bphoto/64u1i13Jxs1E2T9MKbo9bw/o.jpg", "is_closed": false, "url": "https://www.yelp.com/biz/the-marketplace-cafe-sheffield-2?adjust_creative=h5HwbyQ0TYvQjBo6Ys5Bgw&utm_campaign=yelp_api_v3&utm_medium=api_v3_business_search&utm_source=h5HwbyQ0TYvQjBo6Ys5Bgw", "review_count": 33, "categories": [{"alias": "coffee", "title": "Coffee & Tea"}, {"alias": "sandwiches", "title": "Sandwiches"}, {"alias": "cafes", "title": "Cafes"}], "rating": 4.0, "coordinates": {"latitude": 42.109022, "longitude": -73.353077}, "transactions": [], "price": "$", "location": {"address1": "18 Elm Ct", "address2": "", "address3": "", "city": "Sheffield", "zip_code": "01257", "country": "US", "state": "MA", "display_address": ["18 Elm Ct", "Sheffield, MA 01257"]}, "phone": "+14132485040", "display_phone": "(413) 248-5040", "distance": 5910.079365770866}, {"id": "ii-lBBvuuS2M0W6is1c4pw", "alias": "olde-school-deli-canaan", "name": "Olde School Deli", "image_url": "https://s3-media1.fl.yelpcdn.com/bphoto/Ufo0Papm3oyoCfBvnsJH7g/o.jpg", "is_closed": false, "url": "https://www.yelp.com/biz/olde-school-deli-canaan?adjust_creative=h5HwbyQ0TYvQjBo6Ys5Bgw&utm_campaign=yelp_api_v3&utm_medium=api_v3_business_search&utm_source=h5HwbyQ0TYvQjBo6Ys5Bgw", "review_count": 11, "categories": [{"alias": "delis", "title": "Delis"}, {"alias": "sandwiches", "title": "Sandwiches"}], "rating": 4.0, "coordinates": {"latitude": 42.02776, "longitude": -73.32955}, "transactions": [], "location": {"address1": "21 Railroad St", "address2": null, "address3": null, "city": "Canaan", "zip_code": "06018", "country": "US", "state": "CT", "display_address": ["21 Railroad St", "Canaan, CT 06018"]}, "phone": "+18608245800", "display_phone": "(860) 824-5800", "distance": 3707.621290081694}, {"id": "vEF7HiRxl9fFJX_Ju5kjNA", "alias": "collins-diner-canaan-3", "name": "Collins Diner", "image_url": "https://s3-media2.fl.yelpcdn.com/bphoto/FdIm_wHhkH7zwJ-inH-E9A/o.jpg", "is_closed": false, "url": "https://www.yelp.com/biz/collins-diner-canaan-3?adjust_creative=h5HwbyQ0TYvQjBo6Ys5Bgw&utm_campaign=yelp_api_v3&utm_medium=api_v3_business_search&utm_source=h5HwbyQ0TYvQjBo6Ys5Bgw", "review_count": 19, "categories": [{"alias": "diners", "title": "Diners"}], "rating": 2.5, "coordinates": {"latitude": 42.026151, "longitude": -73.328879}, "transactions": [], "price": "$", "location": {"address1": "53 Main St", "address2": "", "address3": "", "city": "Canaan", "zip_code": "06018", "country": "US", "state": "CT", "display_address": ["53 Main St", "Canaan, CT 06018"]}, "phone": "+18608247040", "display_phone": "(860) 824-7040", "distance": 3877.009189233376}, {"id": "5K6ZYxpipMn96vOEs5uf2Q", "alias": "pops-diner-canaan", "name": "Pops Diner", "image_url": "https://s3-media4.fl.yelpcdn.com/bphoto/ndOF2LNM-1BdQ-bNn7-wjA/o.jpg", "is_closed": false, "url": "https://www.yelp.com/biz/pops-diner-canaan?adjust_creative=h5HwbyQ0TYvQjBo6Ys5Bgw&utm_campaign=yelp_api_v3&utm_medium=api_v3_business_search&utm_source=h5HwbyQ0TYvQjBo6Ys5Bgw", "review_count": 20, "categories": [{"alias": "diners", "title": "Diners"}, {"alias": "breakfast_brunch", "title": "Breakfast & Brunch"}], "rating": 4.0, "coordinates": {"latitude": 42.026821, "longitude": -73.329581}, "transactions": [], "location": {"address1": "85 Main St", "address2": null, "address3": "", "city": "Canaan", "zip_code": "06018", "country": "US", "state": "CT", "display_address": ["85 Main St", "Canaan, CT 06018"]}, "phone": "+18604534448", "display_phone": "(860) 453-4448", "distance": 3810.7979266488887}, {"id": "HF70uw8I7Q_FqS5Lrg8kPg", "alias": "blackberry-river-baking-canaan", "name": "Blackberry River Baking", "image_url": "https://s3-media4.fl.yelpcdn.com/bphoto/c0yCKEcCnWprQXQY_9O2Lg/o.jpg", "is_closed": false, "url": "https://www.yelp.com/biz/blackberry-river-baking-canaan?adjust_creative=h5HwbyQ0TYvQjBo6Ys5Bgw&utm_campaign=yelp_api_v3&utm_medium=api_v3_business_search&utm_source=h5HwbyQ0TYvQjBo6Ys5Bgw", "review_count": 49, "categories": [{"alias": "breakfast_brunch", "title": "Breakfast & Brunch"}, {"alias": "bakeries", "title": "Bakeries"}, {"alias": "newamerican", "title": "American (New)"}], "rating": 4.0, "coordinates": {"latitude": 42.0235841721296, "longitude": -73.32145370543}, "transactions": [], "price": "$", "location": {"address1": "18 E Main St", "address2": "", "address3": "", "city": "Canaan", "zip_code": "06018", "country": "US", "state": "CT", "display_address": ["18 E Main St", "Canaan, CT 06018"]}, "phone": "+18608248275", "display_phone": "(860) 824-8275", "distance": 3960.3983119483873}, {"id": "jzF6OdB3sQiYlP-xWjk-Hw", "alias": "great-wall-kitchen-canaan", "name": "Great Wall Kitchen", "image_url": "https://s3-media2.fl.yelpcdn.com/bphoto/T2VWtmstJHoOADLbxJDDiA/o.jpg", "is_closed": false, "url": "https://www.yelp.com/biz/great-wall-kitchen-canaan?adjust_creative=h5HwbyQ0TYvQjBo6Ys5Bgw&utm_campaign=yelp_api_v3&utm_medium=api_v3_business_search&utm_source=h5HwbyQ0TYvQjBo6Ys5Bgw", "review_count": 7, "categories": [{"alias": "chinese", "title": "Chinese"}], "rating": 2.5, "coordinates": {"latitude": 42.0266001, "longitude": -73.3342631}, "transactions": [], "location": {"address1": "97 Church St", "address2": "", "address3": "", "city": "Canaan", "zip_code": "06018", "country": "US", "state": "CT", "display_address": ["97 Church St", "Canaan, CT 06018"]}, "phone": "+18608247399", "display_phone": "(860) 824-7399", "distance": 3915.6097471533226}, {"id": "Df1B7OuftxRpZkFnHj-_9A", "alias": "the-publick-house-canaan", "name": "The Publick House", "image_url": "https://s3-media3.fl.yelpcdn.com/bphoto/Oa5-nCFZ9Qt0AlzRZNNo5Q/o.jpg", "is_closed": false, "url": "https://www.yelp.com/biz/the-publick-house-canaan?adjust_creative=h5HwbyQ0TYvQjBo6Ys5Bgw&utm_campaign=yelp_api_v3&utm_medium=api_v3_business_search&utm_source=h5HwbyQ0TYvQjBo6Ys5Bgw", "review_count": 1, "categories": [{"alias": "pubs", "title": "Pubs"}, {"alias": "comfortfood", "title": "Comfort Food"}], "rating": 2.0, "coordinates": {"latitude": 42.0275883418489, "longitude": -73.3294041082263}, "transactions": [], "location": {"address1": "15 Railroad St", "address2": "", "address3": "", "city": "Canaan", "zip_code": "06018", "country": "US", "state": "CT", "display_address": ["15 Railroad St", "Canaan, CT 06018"]}, "phone": "+18604534134", "display_phone": "(860) 453-4134", "distance": 3724.267938750806}, {"id": "CH05e_baAf7AkI94JPuWvg", "alias": "restaurants-old-inn-on-the-green-new-marlborough", "name": "Restaurants Old Inn On The Green", "image_url": "", "is_closed": false, "url": "https://www.yelp.com/biz/restaurants-old-inn-on-the-green-new-marlborough?adjust_creative=h5HwbyQ0TYvQjBo6Ys5Bgw&utm_campaign=yelp_api_v3&utm_medium=api_v3_business_search&utm_source=h5HwbyQ0TYvQjBo6Ys5Bgw", "review_count": 1, "categories": [{"alias": "coffee", "title": "Coffee & Tea"}, {"alias": "breakfast_brunch", "title": "Breakfast & Brunch"}, {"alias": "wine_bars", "title": "Wine Bars"}], "rating": 5.0, "coordinates": {"latitude": 42.122804, "longitude": -73.230522}, "transactions": [], "location": {"address1": "134 Hartsville-New Marlborough Rd", "address2": "", "address3": null, "city": "New Marlborough", "zip_code": "01230", "country": "US", "state": "MA", "display_address": ["134 Hartsville-New Marlborough Rd", "New Marlborough, MA 01230"]}, "phone": "+14132297924", "display_phone": "(413) 229-7924", "distance": 10295.240208317171}, {"id": "CB7oCmfIzSP7crYkltd3GQ", "alias": "provisions-the-white-hart-inn-salisbury", "name": "Provisions @ the White Hart Inn", "image_url": "https://s3-media1.fl.yelpcdn.com/bphoto/l3DDD8JNbqM8UDoP6WyK-g/o.jpg", "is_closed": false, "url": "https://www.yelp.com/biz/provisions-the-white-hart-inn-salisbury?adjust_creative=h5HwbyQ0TYvQjBo6Ys5Bgw&utm_campaign=yelp_api_v3&utm_medium=api_v3_business_search&utm_source=h5HwbyQ0TYvQjBo6Ys5Bgw", "review_count": 5, "categories": [{"alias": "cafes", "title": "Cafes"}], "rating": 4.0, "coordinates": {"latitude": 41.9846964741086, "longitude": -73.4224485794624}, "transactions": [], "location": {"address1": "15 Under Mountain Rd", "address2": "", "address3": null, "city": "Salisbury", "zip_code": "06068", "country": "US", "state": "CT", "display_address": ["15 Under Mountain Rd", "Salisbury, CT 06068"]}, "phone": "+18604350030", "display_phone": "(860) 435-0030", "distance": 11784.467313177714}, {"id": "wdSZnN7k6IIAMxNER-VW1A", "alias": "blue-door-market-and-cafe-sheffield", "name": "Blue Door Market & Cafe", "image_url": "https://s3-media1.fl.yelpcdn.com/bphoto/TjHtEWR5YNtrzhZyyzjEeg/o.jpg", "is_closed": false, "url": "https://www.yelp.com/biz/blue-door-market-and-cafe-sheffield?adjust_creative=h5HwbyQ0TYvQjBo6Ys5Bgw&utm_campaign=yelp_api_v3&utm_medium=api_v3_business_search&utm_source=h5HwbyQ0TYvQjBo6Ys5Bgw", "review_count": 8, "categories": [{"alias": "beer_and_wine", "title": "Beer, Wine & Spirits"}, {"alias": "breakfast_brunch", "title": "Breakfast & Brunch"}, {"alias": "sandwiches", "title": "Sandwiches"}], "rating": 3.5, "coordinates": {"latitude": 42.103159, "longitude": -73.3546993779793}, "transactions": [], "price": "$", "location": {"address1": "139 S Main St", "address2": null, "address3": "", "city": "Sheffield", "zip_code": "01257", "country": "US", "state": "MA", "display_address": ["139 S Main St", "Sheffield, MA 01257"]}, "phone": "+14132481223", "display_phone": "(413) 248-1223", "distance": 5388.579064067179}, {"id": "BAJESGPWmLCLIpdMaiGUqA", "alias": "the-southfield-store-southfield", "name": "The Southfield Store", "image_url": "https://s3-media4.fl.yelpcdn.com/bphoto/s18dzfzxa4KvnnKwX7dqzw/o.jpg", "is_closed": false, "url": "https://www.yelp.com/biz/the-southfield-store-southfield?adjust_creative=h5HwbyQ0TYvQjBo6Ys5Bgw&utm_campaign=yelp_api_v3&utm_medium=api_v3_business_search&utm_source=h5HwbyQ0TYvQjBo6Ys5Bgw", "review_count": 40, "categories": [{"alias": "bakeries", "title": "Bakeries"}, {"alias": "coffee", "title": "Coffee & Tea"}, {"alias": "newamerican", "title": "American (New)"}], "rating": 3.5, "coordinates": {"latitude": 42.100691, "longitude": -73.233851}, "transactions": [], "price": "$$", "location": {"address1": "163 Norfolk Rd", "address2": null, "address3": null, "city": "Southfield", "zip_code": "01259", "country": "US", "state": "MA", "display_address": ["163 Norfolk Rd", "Southfield, MA 01259"]}, "phone": "+14132295050", "display_phone": "(413) 229-5050", "distance": 8607.833381561468}, {"id": "De5rJ-0mw5IsitejUtHjLw", "alias": "subway-canaan-2", "name": "Subway", "image_url": "https://s3-media2.fl.yelpcdn.com/bphoto/0qePcqThluNI183btfRnNw/o.jpg", "is_closed": false, "url": "https://www.yelp.com/biz/subway-canaan-2?adjust_creative=h5HwbyQ0TYvQjBo6Ys5Bgw&utm_campaign=yelp_api_v3&utm_medium=api_v3_business_search&utm_source=h5HwbyQ0TYvQjBo6Ys5Bgw", "review_count": 2, "categories": [{"alias": "sandwiches", "title": "Sandwiches"}], "rating": 1.0, "coordinates": {"latitude": 42.0264998659979, "longitude": -73.3343232281038}, "transactions": [], "price": "$", "location": {"address1": "101 Church St", "address2": "Unit 4", "address3": "", "city": "Canaan", "zip_code": "06018", "country": "US", "state": "CT", "display_address": ["101 Church St", "Unit 4", "Canaan, CT 06018"]}, "phone": "+18608247404", "display_phone": "(860) 824-7404", "distance": 3919.8976238123796}, {"id": "jggoKFAzikS8cM0EOz_DHg", "alias": "mcdonalds-canaan-4", "name": "McDonald's", "image_url": "https://s3-media1.fl.yelpcdn.com/bphoto/60Z-hiWY_A03HVFoxi1OpA/o.jpg", "is_closed": false, "url": "https://www.yelp.com/biz/mcdonalds-canaan-4?adjust_creative=h5HwbyQ0TYvQjBo6Ys5Bgw&utm_campaign=yelp_api_v3&utm_medium=api_v3_business_search&utm_source=h5HwbyQ0TYvQjBo6Ys5Bgw", "review_count": 8, "categories": [{"alias": "hotdogs", "title": "Fast Food"}, {"alias": "burgers", "title": "Burgers"}, {"alias": "coffee", "title": "Coffee & Tea"}], "rating": 2.0, "coordinates": {"latitude": 42.0251903348961, "longitude": -73.3256873971095}, "transactions": [], "price": "$", "location": {"address1": "18 Main St", "address2": "", "address3": "", "city": "Canaan", "zip_code": "06018", "country": "US", "state": "CT", "display_address": ["18 Main St", "Canaan, CT 06018"]}, "phone": "+18608245281", "display_phone": "(860) 824-5281", "distance": 3960.100386659593}, {"id": "C4OiIXuNN6PbCq8gaMyc1Q", "alias": "papas-best-batch-red-hook", "name": "Papa's Best Batch", "image_url": "https://s3-media2.fl.yelpcdn.com/bphoto/TP_X6t_lwfuT-1MI915hhA/o.jpg", "is_closed": false, "url": "https://www.yelp.com/biz/papas-best-batch-red-hook?adjust_creative=h5HwbyQ0TYvQjBo6Ys5Bgw&utm_campaign=yelp_api_v3&utm_medium=api_v3_business_search&utm_source=h5HwbyQ0TYvQjBo6Ys5Bgw", "review_count": 44, "categories": [{"alias": "bbq", "title": "Barbeque"}, {"alias": "foodtrucks", "title": "Food Trucks"}], "rating": 5.0, "coordinates": {"latitude": 42.028686, "longitude": -73.852675}, "transactions": [], "price": "$$", "location": {"address1": "243 Pitcher Ln", "address2": "", "address3": "Greig Farm", "city": "Red Hook", "zip_code": "12571", "country": "US", "state": "NY", "display_address": ["243 Pitcher Ln", "Greig Farm", "Red Hook, NY 12571"]}, "phone": "+19143885202", "display_phone": "(914) 388-5202", "distance": 43875.33124992784}, {"id": "uAsX05YvKYKX7XMqdYFNZQ", "alias": "lobstercraft-fairfield-3", "name": "LobsterCraft", "image_url": "https://s3-media2.fl.yelpcdn.com/bphoto/DnyEPuomFzB1F68FecbYfQ/o.jpg", "is_closed": false, "url": "https://www.yelp.com/biz/lobstercraft-fairfield-3?adjust_creative=h5HwbyQ0TYvQjBo6Ys5Bgw&utm_campaign=yelp_api_v3&utm_medium=api_v3_business_search&utm_source=h5HwbyQ0TYvQjBo6Ys5Bgw", "review_count": 77, "categories": [{"alias": "foodtrucks", "title": "Food Trucks"}, {"alias": "seafood", "title": "Seafood"}], "rating": 4.5, "coordinates": {"latitude": 41.140451, "longitude": -73.264689}, "transactions": ["pickup"], "price": "$$", "location": {"address1": "1891 Post Rd", "address2": null, "address3": "", "city": "Fairfield", "zip_code": "06824", "country": "US", "state": "CT", "display_address": ["1891 Post Rd", "Fairfield, CT 06824"]}, "phone": "+12039565656", "display_phone": "(203) 956-5656", "distance": 102447.91097487847}, {"id": "qqA8YX58xnmEXLyanHfdUg", "alias": "stufd-food-truck-brooklyn", "name": "Stuf'd Food Truck", "image_url": "https://s3-media2.fl.yelpcdn.com/bphoto/_Wn0i-tLIOFinw8BPAqxPA/o.jpg", "is_closed": false, "url": "https://www.yelp.com/biz/stufd-food-truck-brooklyn?adjust_creative=h5HwbyQ0TYvQjBo6Ys5Bgw&utm_campaign=yelp_api_v3&utm_medium=api_v3_business_search&utm_source=h5HwbyQ0TYvQjBo6Ys5Bgw", "review_count": 4, "categories": [{"alias": "sandwiches", "title": "Sandwiches"}, {"alias": "foodtrucks", "title": "Food Trucks"}], "rating": 4.0, "coordinates": {"latitude": 40.7124539, "longitude": -73.9287374}, "transactions": [], "location": {"address1": "178 Varick Ave", "address2": "", "address3": null, "city": "Brooklyn", "zip_code": "11237", "country": "US", "state": "NY", "display_address": ["178 Varick Ave", "Brooklyn, NY 11237"]}, "phone": "+18457091808", "display_phone": "(845) 709-1808", "distance": 158207.4864536523}]