[{"id": "M7ozuK7U2sh_FRQN3eoFkw", "alias": "latinos-kitchen-springfield", "name": "Latino's Kitchen", "image_url": "https://s3-media1.fl.yelpcdn.com/bphoto/XJ4i7hNcfK0hUkD2LuWivA/o.jpg", "is_closed": false, "url": "https://www.yelp.com/biz/latinos-kitchen-springfield?adjust_creative=h5HwbyQ0TYvQjBo6Ys5Bgw&utm_campaign=yelp_api_v3&utm_medium=api_v3_business_search&utm_source=h5HwbyQ0TYvQjBo6Ys5Bgw", "review_count": 10, "categories": [{"alias": "latin", "title": "Latin American"}], "rating": 4.0, "coordinates": {"latitude": 42.116042599082, "longitude": -72.6065866649151}, "transactions": [], "price": "$", "location": {"address1": "2757 Main St", "address2": "", "address3": "", "city": "Springfield", "zip_code": "01107", "country": "US", "state": "MA", "display_address": ["2757 Main St", "Springfield, MA 01107"]}, "phone": "+14137372142", "display_phone": "(413) 737-2142", "distance": 545.4372368701996}, {"id": "qL1PzRBmx2pN-aP1zO6quw", "alias": "the-gluten-thief-springfield", "name": "The Gluten Thief", "image_url": "", "is_closed": false, "url": "https://www.yelp.com/biz/the-gluten-thief-springfield?adjust_creative=h5HwbyQ0TYvQjBo6Ys5Bgw&utm_campaign=yelp_api_v3&utm_medium=api_v3_business_search&utm_source=h5HwbyQ0TYvQjBo6Ys5Bgw", "review_count": 1, "categories": [{"alias": "gluten_free", "title": "Gluten-Free"}, {"alias": "desserts", "title": "Desserts"}], "rating": 5.0, "coordinates": {"latitude": 42.11754, "longitude": -72.60278}, "transactions": [], "location": {"address1": null, "address2": null, "address3": "", "city": "Springfield", "zip_code": "01107", "country": "US", "state": "MA", "display_address": ["Springfield, MA 01107"]}, "phone": "+14137269077", "display_phone": "(413) 726-9077", "distance": 575.5724846343514}, {"id": "FQ0movUHHPaLRt2rV7lCOQ", "alias": "premier-pizza-springfield", "name": "Premier Pizza", "image_url": "https://s3-media4.fl.yelpcdn.com/bphoto/Y91QEbeZMDeOJTk8A-S8yQ/o.jpg", "is_closed": false, "url": "https://www.yelp.com/biz/premier-pizza-springfield?adjust_creative=h5HwbyQ0TYvQjBo6Ys5Bgw&utm_campaign=yelp_api_v3&utm_medium=api_v3_business_search&utm_source=h5HwbyQ0TYvQjBo6Ys5Bgw", "review_count": 1, "categories": [{"alias": "pizza", "title": "Pizza"}], "rating": 4.0, "coordinates": {"latitude": 42.11313, "longitude": -72.60537}, "transactions": [], "location": {"address1": "2550 Main St", "address2": "", "address3": null, "city": "Springfield", "zip_code": "01107", "country": "US", "state": "MA", "display_address": ["2550 Main St", "Springfield, MA 01107"]}, "phone": "+14133177417", "display_phone": "(413) 317-7417", "distance": 836.6801474301241}, {"id": "G0Uu59n_62hM_jvl97AJeg", "alias": "north-end-pizzeria-and-seafood-springfield-2", "name": "North End Pizzeria And Seafood", "image_url": "https://s3-media1.fl.yelpcdn.com/bphoto/A4IyupFXiFIz6K7Rsd6LBg/o.jpg", "is_closed": false, "url": "https://www.yelp.com/biz/north-end-pizzeria-and-seafood-springfield-2?adjust_creative=h5HwbyQ0TYvQjBo6Ys5Bgw&utm_campaign=yelp_api_v3&utm_medium=api_v3_business_search&utm_source=h5HwbyQ0TYvQjBo6Ys5Bgw", "review_count": 6, "categories": [{"alias": "pizza", "title": "Pizza"}], "rating": 2.5, "coordinates": {"latitude": 42.1131287, "longitude": -72.6053696}, "transactions": ["delivery"], "location": {"address1": "2550 Main St", "address2": "", "address3": "", "city": "Springfield", "zip_code": "01107", "country": "US", "state": "MA", "display_address": ["2550 Main St", "Springfield, MA 01107"]}, "phone": "", "display_phone": "", "distance": 836.6801474301241}, {"id": "nJ0SbaKmw3iX4WFOswydzQ", "alias": "mcdonalds-springfield-47", "name": "McDonald's", "image_url": "https://s3-media3.fl.yelpcdn.com/bphoto/c259VZyO9hHvXesyNpN0GA/o.jpg", "is_closed": false, "url": "https://www.yelp.com/biz/mcdonalds-springfield-47?adjust_creative=h5HwbyQ0TYvQjBo6Ys5Bgw&utm_campaign=yelp_api_v3&utm_medium=api_v3_business_search&utm_source=h5HwbyQ0TYvQjBo6Ys5Bgw", "review_count": 2, "categories": [{"alias": "burgers", "title": "Burgers"}, {"alias": "hotdogs", "title": "Fast Food"}, {"alias": "coffee", "title": "Coffee & Tea"}], "rating": 1.0, "coordinates": {"latitude": 42.1112787039254, "longitude": -72.6040318608284}, "transactions": ["delivery"], "price": "$", "location": {"address1": "2392 Main St", "address2": "", "address3": "", "city": "Springfield", "zip_code": "01107", "country": "US", "state": "MA", "display_address": ["2392 Main St", "Springfield, MA 01107"]}, "phone": "+14137812603", "display_phone": "(413) 781-2603", "distance": 1049.2212083285146}]