[{"id": "VvAcjLH87MhtrZC67tPpww", "alias": "cold-river-cafe-and-restaurant-charlemont", "name": "Cold River Cafe & Restaurant", "image_url": "https://s3-media2.fl.yelpcdn.com/bphoto/PV_66NvbKtHue0PFwzD6Eg/o.jpg", "is_closed": false, "url": "https://www.yelp.com/biz/cold-river-cafe-and-restaurant-charlemont?adjust_creative=ywY5UnLZrNrRl2b93Ruy_g&utm_campaign=yelp_api_v3&utm_medium=api_v3_business_search&utm_source=ywY5UnLZrNrRl2b93Ruy_g", "review_count": 48, "categories": [{"alias": "breakfast_brunch", "title": "Breakfast & Brunch"}, {"alias": "cafes", "title": "Cafes"}, {"alias": "pizza", "title": "Pizza"}], "rating": 3.5, "coordinates": {"latitude": 42.62666, "longitude": -72.88171}, "transactions": [], "price": "$$", "location": {"address1": "31A Main St", "address2": "", "address3": "", "city": "Charlemont", "zip_code": "01339", "country": "US", "state": "MA", "display_address": ["31A Main St", "Charlemont, MA 01339"]}, "phone": "+14133390000", "display_phone": "(413) 339-0000", "distance": 568.8807548184076}, {"id": "owKxbDnhxlBpqhcfiBjGiA", "alias": "berkshire-pizzeria-charlemont", "name": "Berkshire Pizzeria", "image_url": "https://s3-media1.fl.yelpcdn.com/bphoto/devT5oL9Ji6IwzHm5rv5sA/o.jpg", "is_closed": false, "url": "https://www.yelp.com/biz/berkshire-pizzeria-charlemont?adjust_creative=ywY5UnLZrNrRl2b93Ruy_g&utm_campaign=yelp_api_v3&utm_medium=api_v3_business_search&utm_source=ywY5UnLZrNrRl2b93Ruy_g", "review_count": 36, "categories": [{"alias": "pizza", "title": "Pizza"}, {"alias": "breakfast_brunch", "title": "Breakfast & Brunch"}, {"alias": "wraps", "title": "Wraps"}], "rating": 4.0, "coordinates": {"latitude": 42.6270903, "longitude": -72.8787897}, "transactions": [], "price": "$", "location": {"address1": "72 Main St", "address2": "", "address3": "", "city": "Charlemont", "zip_code": "01339", "country": "US", "state": "MA", "display_address": ["72 Main St", "Charlemont, MA 01339"]}, "phone": "+14133375501", "display_phone": "(413) 337-5501", "distance": 708.7216837413945}, {"id": "X_gLEwRckCC3wGGVIGhvuQ", "alias": "crazy-horse-lounge-charlemont", "name": "crazy horse lounge", "image_url": "https://s3-media2.fl.yelpcdn.com/bphoto/sh9BCRP3oQ9exZUdvJRQsw/o.jpg", "is_closed": false, "url": "https://www.yelp.com/biz/crazy-horse-lounge-charlemont?adjust_creative=ywY5UnLZrNrRl2b93Ruy_g&utm_campaign=yelp_api_v3&utm_medium=api_v3_business_search&utm_source=ywY5UnLZrNrRl2b93Ruy_g", "review_count": 1, "categories": [{"alias": "salad", "title": "Salad"}, {"alias": "cafes", "title": "Cafes"}], "rating": 3.0, "coordinates": {"latitude": 42.6225341098203, "longitude": -72.8777315857901}, "transactions": [], "location": {"address1": "66 S River Rd", "address2": "", "address3": "", "city": "Charlemont", "zip_code": "01339", "country": "US", "state": "MA", "display_address": ["66 S River Rd", "Charlemont, MA 01339"]}, "phone": "+14133396617", "display_phone": "(413) 339-6617", "distance": 466.18218194155855}, {"id": "1FDg-B7ddSPoZirUJXsdtQ", "alias": "the-ashfield-lake-house-ashfield", "name": "The Ashfield Lake House", "image_url": "https://s3-media4.fl.yelpcdn.com/bphoto/YK6BItbmmR7rbQZzniZojQ/o.jpg", "is_closed": false, "url": "https://www.yelp.com/biz/the-ashfield-lake-house-ashfield?adjust_creative=ywY5UnLZrNrRl2b93Ruy_g&utm_campaign=yelp_api_v3&utm_medium=api_v3_business_search&utm_source=ywY5UnLZrNrRl2b93Ruy_g", "review_count": 38, "categories": [{"alias": "bars", "title": "Bars"}, {"alias": "tradamerican", "title": "American (Traditional)"}, {"alias": "comfortfood", "title": "Comfort Food"}], "rating": 3.0, "coordinates": {"latitude": 42.53083, "longitude": -72.8026299}, "transactions": [], "price": "$$", "location": {"address1": "141 Buckland Rd", "address2": "", "address3": "", "city": "Ashfield", "zip_code": "01330", "country": "US", "state": "MA", "display_address": ["141 Buckland Rd", "Ashfield, MA 01330"]}, "phone": "+14136280158", "display_phone": "(413) 628-0158", "distance": 12292.053951837335}, {"id": "_9sO066L6e1kjQRf2jzd7g", "alias": "countrypie-pizza-company-ashfield", "name": "Countrypie Pizza Company", "image_url": "https://s3-media2.fl.yelpcdn.com/bphoto/YIZ24sof1VTPO1xtqCK6cg/o.jpg", "is_closed": false, "url": "https://www.yelp.com/biz/countrypie-pizza-company-ashfield?adjust_creative=ywY5UnLZrNrRl2b93Ruy_g&utm_campaign=yelp_api_v3&utm_medium=api_v3_business_search&utm_source=ywY5UnLZrNrRl2b93Ruy_g", "review_count": 30, "categories": [{"alias": "pizza", "title": "Pizza"}], "rating": 4.5, "coordinates": {"latitude": 42.526902, "longitude": -72.794253}, "transactions": [], "price": "$", "location": {"address1": "343 Main St", "address2": "", "address3": "", "city": "Ashfield", "zip_code": "01330", "country": "US", "state": "MA", "display_address": ["343 Main St", "Ashfield, MA 01330"]}, "phone": "+14136284488", "display_phone": "(413) 628-4488", "distance": 12807.793950444919}, {"id": "wkIOjcec-3uGidfIXcOpJA", "alias": "elmers-store-restaurant-ashfield", "name": "Elmer's Store Restaurant", "image_url": "https://s3-media3.fl.yelpcdn.com/bphoto/2AgISV-Z2E7y_ISdmkzroA/o.jpg", "is_closed": false, "url": "https://www.yelp.com/biz/elmers-store-restaurant-ashfield?adjust_creative=ywY5UnLZrNrRl2b93Ruy_g&utm_campaign=yelp_api_v3&utm_medium=api_v3_business_search&utm_source=ywY5UnLZrNrRl2b93Ruy_g", "review_count": 45, "categories": [{"alias": "breakfast_brunch", "title": "Breakfast & Brunch"}, {"alias": "bars", "title": "Bars"}], "rating": 4.0, "coordinates": {"latitude": 42.5261756, "longitude": -72.7924932}, "transactions": [], "price": "$$", "location": {"address1": "396 Main St", "address2": null, "address3": "", "city": "Ashfield", "zip_code": "01330", "country": "US", "state": "MA", "display_address": ["396 Main St", "Ashfield, MA 01330"]}, "phone": "+14136284003", "display_phone": "(413) 628-4003", "distance": 12961.20614602756}, {"id": "qqA8YX58xnmEXLyanHfdUg", "alias": "stufd-food-truck-brooklyn", "name": "Stuf'd Food Truck", "image_url": "https://s3-media2.fl.yelpcdn.com/bphoto/_Wn0i-tLIOFinw8BPAqxPA/o.jpg", "is_closed": false, "url": "https://www.yelp.com/biz/stufd-food-truck-brooklyn?adjust_creative=ywY5UnLZrNrRl2b93Ruy_g&utm_campaign=yelp_api_v3&utm_medium=api_v3_business_search&utm_source=ywY5UnLZrNrRl2b93Ruy_g", "review_count": 4, "categories": [{"alias": "sandwiches", "title": "Sandwiches"}, {"alias": "foodtrucks", "title": "Food Trucks"}], "rating": 4.0, "coordinates": {"latitude": 40.7124539, "longitude": -73.9287374}, "transactions": [], "location": {"address1": "178 Varick Ave", "address2": "", "address3": null, "city": "Brooklyn", "zip_code": "11237", "country": "US", "state": "NY", "display_address": ["178 Varick Ave", "Brooklyn, NY 11237"]}, "phone": "+18457091808", "display_phone": "(845) 709-1808", "distance": 229361.51771644095}]