[{"id": "m1AUh5Enj2_8pIs1W2mGdQ", "alias": "palate-springfield", "name": "Palate", "image_url": "https://s3-media2.fl.yelpcdn.com/bphoto/48R9VlmZ-IxwFG46FvSBGQ/o.jpg", "is_closed": false, "url": "https://www.yelp.com/biz/palate-springfield?adjust_creative=h5HwbyQ0TYvQjBo6Ys5Bgw&utm_campaign=yelp_api_v3&utm_medium=api_v3_business_search&utm_source=h5HwbyQ0TYvQjBo6Ys5Bgw", "review_count": 51, "categories": [{"alias": "latin", "title": "Latin American"}], "rating": 4.0, "coordinates": {"latitude": 42.139824, "longitude": -72.505369}, "transactions": ["delivery"], "price": "$$", "location": {"address1": "1168 Boston Rd", "address2": "", "address3": "", "city": "Springfield", "zip_code": "01119", "country": "US", "state": "MA", "display_address": ["1168 Boston Rd", "Springfield, MA 01119"]}, "phone": "+14133632354", "display_phone": "(413) 363-2354", "distance": 1967.786462374588}, {"id": "jB9DMn0GcWxchOJPEFvS3A", "alias": "galo-rei-springfield", "name": "Galo Rei", "image_url": "https://s3-media4.fl.yelpcdn.com/bphoto/qropt5cv4grc7v5h8FKMXA/o.jpg", "is_closed": false, "url": "https://www.yelp.com/biz/galo-rei-springfield?adjust_creative=h5HwbyQ0TYvQjBo6Ys5Bgw&utm_campaign=yelp_api_v3&utm_medium=api_v3_business_search&utm_source=h5HwbyQ0TYvQjBo6Ys5Bgw", "review_count": 24, "categories": [{"alias": "bbq", "title": "Barbeque"}, {"alias": "portuguese", "title": "Portuguese"}], "rating": 4.0, "coordinates": {"latitude": 42.1382959, "longitude": -72.5112822}, "transactions": [], "price": "$$", "location": {"address1": "995 Boston Rd", "address2": null, "address3": null, "city": "Springfield", "zip_code": "01119", "country": "US", "state": "MA", "display_address": ["995 Boston Rd", "Springfield, MA 01119"]}, "phone": "+14134552847", "display_phone": "(413) 455-2847", "distance": 1861.9181463305727}, {"id": "IFFkEPwixhBQgg9IfCCobQ", "alias": "juicy-seafood-springfield", "name": "Juicy Seafood", "image_url": "https://s3-media4.fl.yelpcdn.com/bphoto/inUvguwXC1lZFMIecoKmfQ/o.jpg", "is_closed": false, "url": "https://www.yelp.com/biz/juicy-seafood-springfield?adjust_creative=h5HwbyQ0TYvQjBo6Ys5Bgw&utm_campaign=yelp_api_v3&utm_medium=api_v3_business_search&utm_source=h5HwbyQ0TYvQjBo6Ys5Bgw", "review_count": 49, "categories": [{"alias": "seafood", "title": "Seafood"}, {"alias": "cajun", "title": "Cajun/Creole"}], "rating": 3.5, "coordinates": {"latitude": 42.14188, "longitude": -72.497}, "transactions": ["delivery"], "price": "$$", "location": {"address1": "1404 Boston Rd", "address2": null, "address3": null, "city": "Springfield", "zip_code": "01119", "country": "US", "state": "MA", "display_address": ["1404 Boston Rd", "Springfield, MA 01119"]}, "phone": "+14132098297", "display_phone": "(413) 209-8297", "distance": 2298.682961503563}, {"id": "5X92ui8x506lAwx5ofZYRw", "alias": "hannas-diner-and-deli-shoppe-indian-orchard-4", "name": "Hanna's Diner & Deli Shoppe", "image_url": "https://s3-media2.fl.yelpcdn.com/bphoto/Llv3sA7pfDzN-ml5x7SYTA/o.jpg", "is_closed": false, "url": "https://www.yelp.com/biz/hannas-diner-and-deli-shoppe-indian-orchard-4?adjust_creative=h5HwbyQ0TYvQjBo6Ys5Bgw&utm_campaign=yelp_api_v3&utm_medium=api_v3_business_search&utm_source=h5HwbyQ0TYvQjBo6Ys5Bgw", "review_count": 23, "categories": [{"alias": "polish", "title": "Polish"}, {"alias": "diners", "title": "Diners"}], "rating": 4.5, "coordinates": {"latitude": 42.1596145629883, "longitude": -72.5013809204102}, "transactions": [], "price": "$$", "location": {"address1": "186 Main St", "address2": "", "address3": "", "city": "Indian Orchard", "zip_code": "01151", "country": "US", "state": "MA", "display_address": ["186 Main St", "Indian Orchard, MA 01151"]}, "phone": "+14133424367", "display_phone": "(413) 342-4367", "distance": 1689.108720432702}, {"id": "G7iGNtqXZ6kceDOXVCSAPw", "alias": "bentleys-caf\u00e9-springfield-3", "name": "Bentley's Caf\u00e9", "image_url": "https://s3-media1.fl.yelpcdn.com/bphoto/yvmDbLukoIiFBBB31KeSdA/o.jpg", "is_closed": false, "url": "https://www.yelp.com/biz/bentleys-caf%C3%A9-springfield-3?adjust_creative=h5HwbyQ0TYvQjBo6Ys5Bgw&utm_campaign=yelp_api_v3&utm_medium=api_v3_business_search&utm_source=h5HwbyQ0TYvQjBo6Ys5Bgw", "review_count": 1, "categories": [{"alias": "cafes", "title": "Cafes"}, {"alias": "hotdogs", "title": "Fast Food"}, {"alias": "sandwiches", "title": "Sandwiches"}], "rating": 5.0, "coordinates": {"latitude": 42.14954504605, "longitude": -72.5180600211024}, "transactions": [], "location": {"address1": "1142 Berkshire Ave", "address2": "(inside Bentley's Barbershop)", "address3": null, "city": "Springfield", "zip_code": "01151", "country": "US", "state": "MA", "display_address": ["1142 Berkshire Ave", "(inside Bentley's Barbershop)", "Springfield, MA 01151"]}, "phone": "+14133780989", "display_phone": "(413) 378-0989", "distance": 492.32518469845843}, {"id": "pP6B5AyV9abQyV_SOTavcQ", "alias": "yaad-food-indian-orchard", "name": "Yaad Food", "image_url": "https://s3-media1.fl.yelpcdn.com/bphoto/AxPAZhugFT53riQkF7H6LQ/o.jpg", "is_closed": false, "url": "https://www.yelp.com/biz/yaad-food-indian-orchard?adjust_creative=h5HwbyQ0TYvQjBo6Ys5Bgw&utm_campaign=yelp_api_v3&utm_medium=api_v3_business_search&utm_source=h5HwbyQ0TYvQjBo6Ys5Bgw", "review_count": 30, "categories": [{"alias": "caribbean", "title": "Caribbean"}], "rating": 4.0, "coordinates": {"latitude": 42.1595868, "longitude": -72.5062708}, "transactions": ["delivery", "pickup"], "price": "$", "location": {"address1": "89 Main St", "address2": null, "address3": "", "city": "Indian Orchard", "zip_code": "01151", "country": "US", "state": "MA", "display_address": ["89 Main St", "Indian Orchard, MA 01151"]}, "phone": "+14138838364", "display_phone": "(413) 883-8364", "distance": 1326.078801791044}, {"id": "j7EyXTceNDiMlgHE0ZBotg", "alias": "solmar-restaurant-indian-orchard", "name": "Solmar Restaurant", "image_url": "https://s3-media3.fl.yelpcdn.com/bphoto/oroPEnWbcvDauPDwAioYdg/o.jpg", "is_closed": false, "url": "https://www.yelp.com/biz/solmar-restaurant-indian-orchard?adjust_creative=h5HwbyQ0TYvQjBo6Ys5Bgw&utm_campaign=yelp_api_v3&utm_medium=api_v3_business_search&utm_source=h5HwbyQ0TYvQjBo6Ys5Bgw", "review_count": 17, "categories": [{"alias": "newamerican", "title": "American (New)"}, {"alias": "portuguese", "title": "Portuguese"}], "rating": 3.0, "coordinates": {"latitude": 42.1598964, "longitude": -72.5041924}, "transactions": ["delivery", "pickup"], "price": "$$", "location": {"address1": "132 Main St", "address2": "", "address3": "", "city": "Indian Orchard", "zip_code": "01151", "country": "US", "state": "MA", "display_address": ["132 Main St", "Indian Orchard, MA 01151"]}, "phone": "+14135437901", "display_phone": "(413) 543-7901", "distance": 1492.0020132593465}, {"id": "n7HMrtLa4dNArFDKzmoDVQ", "alias": "frontera-grill-of-springfield-springfield", "name": "Frontera Grill Of Springfield", "image_url": "https://s3-media4.fl.yelpcdn.com/bphoto/R5GcTHKPgMYkX32zXKiwtw/o.jpg", "is_closed": false, "url": "https://www.yelp.com/biz/frontera-grill-of-springfield-springfield?adjust_creative=h5HwbyQ0TYvQjBo6Ys5Bgw&utm_campaign=yelp_api_v3&utm_medium=api_v3_business_search&utm_source=h5HwbyQ0TYvQjBo6Ys5Bgw", "review_count": 58, "categories": [{"alias": "mexican", "title": "Mexican"}, {"alias": "bars", "title": "Bars"}], "rating": 3.5, "coordinates": {"latitude": 42.1409001047393, "longitude": -72.4963237345219}, "transactions": ["delivery"], "location": {"address1": "1411 Boston Rd", "address2": "", "address3": null, "city": "Springfield", "zip_code": "01129", "country": "US", "state": "MA", "display_address": ["1411 Boston Rd", "Springfield, MA 01129"]}, "phone": "+14134552050", "display_phone": "(413) 455-2050", "distance": 2429.4609616277116}, {"id": "nha2i8VoLnpwMQ9YW9n4hQ", "alias": "pos-chinese-restaurant-chicopee", "name": "Po's Chinese Restaurant", "image_url": "https://s3-media3.fl.yelpcdn.com/bphoto/XQ8V51OC-zUed3EbJzuaJQ/o.jpg", "is_closed": false, "url": "https://www.yelp.com/biz/pos-chinese-restaurant-chicopee?adjust_creative=h5HwbyQ0TYvQjBo6Ys5Bgw&utm_campaign=yelp_api_v3&utm_medium=api_v3_business_search&utm_source=h5HwbyQ0TYvQjBo6Ys5Bgw", "review_count": 24, "categories": [{"alias": "chinese", "title": "Chinese"}], "rating": 3.5, "coordinates": {"latitude": 42.1684757620096, "longitude": -72.5429633259773}, "transactions": ["delivery"], "price": "$$", "location": {"address1": "480 Burnett Rd", "address2": "", "address3": "", "city": "Chicopee", "zip_code": "01020", "country": "US", "state": "MA", "display_address": ["480 Burnett Rd", "Chicopee, MA 01020"]}, "phone": "+14135988826", "display_phone": "(413) 598-8826", "distance": 2487.1067959291386}, {"id": "nrLxUbJiQd6De_8yx7_jIQ", "alias": "crazy-arepas-springfield", "name": "Crazy Arepas", "image_url": "https://s3-media2.fl.yelpcdn.com/bphoto/xBRYNve2vxH1M1iG5Gm4lQ/o.jpg", "is_closed": false, "url": "https://www.yelp.com/biz/crazy-arepas-springfield?adjust_creative=h5HwbyQ0TYvQjBo6Ys5Bgw&utm_campaign=yelp_api_v3&utm_medium=api_v3_business_search&utm_source=h5HwbyQ0TYvQjBo6Ys5Bgw", "review_count": 3, "categories": [{"alias": "foodtrucks", "title": "Food Trucks"}, {"alias": "spanish", "title": "Spanish"}, {"alias": "tradamerican", "title": "American (Traditional)"}], "rating": 5.0, "coordinates": {"latitude": 42.1191, "longitude": -72.55044}, "transactions": [], "location": {"address1": null, "address2": null, "address3": null, "city": "Springfield", "zip_code": "01109", "country": "US", "state": "MA", "display_address": ["Springfield, MA 01109"]}, "phone": "+14138888083", "display_phone": "(413) 888-8083", "distance": 4140.027342340005}, {"id": "_rFWs84CLzUfjcrvN9lYbQ", "alias": "el-morro-springfield", "name": "El Morro", "image_url": "https://s3-media2.fl.yelpcdn.com/bphoto/PMJ9l1zfSSIiq5h7qcXhZQ/o.jpg", "is_closed": false, "url": "https://www.yelp.com/biz/el-morro-springfield?adjust_creative=h5HwbyQ0TYvQjBo6Ys5Bgw&utm_campaign=yelp_api_v3&utm_medium=api_v3_business_search&utm_source=h5HwbyQ0TYvQjBo6Ys5Bgw", "review_count": 4, "categories": [{"alias": "desserts", "title": "Desserts"}, {"alias": "salad", "title": "Salad"}, {"alias": "latin", "title": "Latin American"}], "rating": 3.5, "coordinates": {"latitude": 42.1402489618456, "longitude": -72.498977958315}, "transactions": [], "location": {"address1": "1333 Boston Rd", "address2": "", "address3": null, "city": "Springfield", "zip_code": "01119", "country": "US", "state": "MA", "display_address": ["1333 Boston Rd", "Springfield, MA 01119"]}, "phone": "+14133639086", "display_phone": "(413) 363-9086", "distance": 2301.7887316519545}, {"id": "jz-t1jQYPEeJ7ROvcn960A", "alias": "moes-southwest-grill-springfield-5", "name": "Moe's Southwest Grill", "image_url": "https://s3-media2.fl.yelpcdn.com/bphoto/QKVKxY4SYH61f0fu6TxF_w/o.jpg", "is_closed": false, "url": "https://www.yelp.com/biz/moes-southwest-grill-springfield-5?adjust_creative=h5HwbyQ0TYvQjBo6Ys5Bgw&utm_campaign=yelp_api_v3&utm_medium=api_v3_business_search&utm_source=h5HwbyQ0TYvQjBo6Ys5Bgw", "review_count": 3, "categories": [{"alias": "tex-mex", "title": "Tex-Mex"}, {"alias": "mexican", "title": "Mexican"}], "rating": 3.0, "coordinates": {"latitude": 42.14131, "longitude": -72.50057}, "transactions": [], "location": {"address1": "1300 Boston Rd", "address2": null, "address3": null, "city": "Springfield", "zip_code": "01119", "country": "US", "state": "MA", "display_address": ["1300 Boston Rd", "Springfield, MA 01119"]}, "phone": "+14133631397", "display_phone": "(413) 363-1397", "distance": 2124.5989833812982}, {"id": "Oxl9N7e8El0PaERKNQwMPg", "alias": "o-briens-corner-springfield", "name": "O'Brien's Corner", "image_url": "https://s3-media2.fl.yelpcdn.com/bphoto/lxOE8w_1QajTQAk4cT6gGw/o.jpg", "is_closed": false, "url": "https://www.yelp.com/biz/o-briens-corner-springfield?adjust_creative=h5HwbyQ0TYvQjBo6Ys5Bgw&utm_campaign=yelp_api_v3&utm_medium=api_v3_business_search&utm_source=h5HwbyQ0TYvQjBo6Ys5Bgw", "review_count": 13, "categories": [{"alias": "sportsbars", "title": "Sports Bars"}, {"alias": "breakfast_brunch", "title": "Breakfast & Brunch"}], "rating": 3.5, "coordinates": {"latitude": 42.14762, "longitude": -72.54379}, "transactions": ["delivery"], "price": "$$", "location": {"address1": "1082 Page Blvd", "address2": "", "address3": "", "city": "Springfield", "zip_code": "01104", "country": "US", "state": "MA", "display_address": ["1082 Page Blvd", "Springfield, MA 01104"]}, "phone": "+14137349832", "display_phone": "(413) 734-9832", "distance": 2055.254701084251}, {"id": "piI3Xinn-3Y7zZSjJ1YmHw", "alias": "ionas-cafe-and-grill-indian-orchard", "name": "Iona's Cafe & Grill", "image_url": "https://s3-media3.fl.yelpcdn.com/bphoto/IxYidzgV0A_J4pr5y0JwEg/o.jpg", "is_closed": false, "url": "https://www.yelp.com/biz/ionas-cafe-and-grill-indian-orchard?adjust_creative=h5HwbyQ0TYvQjBo6Ys5Bgw&utm_campaign=yelp_api_v3&utm_medium=api_v3_business_search&utm_source=h5HwbyQ0TYvQjBo6Ys5Bgw", "review_count": 1, "categories": [{"alias": "breakfast_brunch", "title": "Breakfast & Brunch"}, {"alias": "sandwiches", "title": "Sandwiches"}, {"alias": "seafood", "title": "Seafood"}], "rating": 5.0, "coordinates": {"latitude": 42.1593261325029, "longitude": -72.5031261666701}, "transactions": ["delivery", "pickup"], "price": "$", "location": {"address1": "37 Oak St", "address2": "", "address3": null, "city": "Indian Orchard", "zip_code": "01151", "country": "US", "state": "MA", "display_address": ["37 Oak St", "Indian Orchard, MA 01151"]}, "phone": "+14135431718", "display_phone": "(413) 543-1718", "distance": 1544.4094490162265}, {"id": "H7DBOUIGVgBBPCYH6eNjYw", "alias": "best-pizza-indian-orchard", "name": "Best Pizza", "image_url": "https://s3-media4.fl.yelpcdn.com/bphoto/hFpGS-EyKQX-jisgWbFMmw/o.jpg", "is_closed": false, "url": "https://www.yelp.com/biz/best-pizza-indian-orchard?adjust_creative=h5HwbyQ0TYvQjBo6Ys5Bgw&utm_campaign=yelp_api_v3&utm_medium=api_v3_business_search&utm_source=h5HwbyQ0TYvQjBo6Ys5Bgw", "review_count": 11, "categories": [{"alias": "pizza", "title": "Pizza"}], "rating": 3.5, "coordinates": {"latitude": 42.14677, "longitude": -72.50399}, "transactions": ["delivery"], "price": "$", "location": {"address1": "306 Pasco Rd", "address2": "", "address3": "", "city": "Indian Orchard", "zip_code": "01151", "country": "US", "state": "MA", "display_address": ["306 Pasco Rd", "Indian Orchard, MA 01151"]}, "phone": "+14135432805", "display_phone": "(413) 543-2805", "distance": 1549.087230254273}, {"id": "Wi2ErQPmjlBNSnAileL03w", "alias": "fifties-diner-chicopee", "name": "Fifties Diner", "image_url": "https://s3-media1.fl.yelpcdn.com/bphoto/ONsijm4olWGT4dQxNW06IA/o.jpg", "is_closed": false, "url": "https://www.yelp.com/biz/fifties-diner-chicopee?adjust_creative=h5HwbyQ0TYvQjBo6Ys5Bgw&utm_campaign=yelp_api_v3&utm_medium=api_v3_business_search&utm_source=h5HwbyQ0TYvQjBo6Ys5Bgw", "review_count": 66, "categories": [{"alias": "tradamerican", "title": "American (Traditional)"}, {"alias": "diners", "title": "Diners"}, {"alias": "breakfast_brunch", "title": "Breakfast & Brunch"}], "rating": 3.0, "coordinates": {"latitude": 42.1660070555322, "longitude": -72.5451809033657}, "transactions": ["delivery"], "price": "$", "location": {"address1": "363 Burnett Rd", "address2": "", "address3": "", "city": "Chicopee", "zip_code": "01020", "country": "US", "state": "MA", "display_address": ["363 Burnett Rd", "Chicopee, MA 01020"]}, "phone": "+14135945436", "display_phone": "(413) 594-5436", "distance": 2471.78847140501}, {"id": "rh87yudqa5a-iURHMZJfrA", "alias": "olive-garden-italian-restaurant-springfield-6", "name": "Olive Garden Italian Restaurant", "image_url": "https://s3-media2.fl.yelpcdn.com/bphoto/3v5oKIs389GmjNQEgRjlfg/o.jpg", "is_closed": false, "url": "https://www.yelp.com/biz/olive-garden-italian-restaurant-springfield-6?adjust_creative=h5HwbyQ0TYvQjBo6Ys5Bgw&utm_campaign=yelp_api_v3&utm_medium=api_v3_business_search&utm_source=h5HwbyQ0TYvQjBo6Ys5Bgw", "review_count": 27, "categories": [{"alias": "italian", "title": "Italian"}, {"alias": "salad", "title": "Salad"}, {"alias": "soup", "title": "Soup"}], "rating": 3.0, "coordinates": {"latitude": 42.1415320426003, "longitude": -72.4975126214264}, "transactions": [], "price": "$$", "location": {"address1": "1380 Boston Rd", "address2": "", "address3": "", "city": "Springfield", "zip_code": "01119", "country": "US", "state": "MA", "display_address": ["1380 Boston Rd", "Springfield, MA 01119"]}, "phone": "+14137839003", "display_phone": "(413) 783-9003", "distance": 2308.8531707626753}, {"id": "616-oQCamCRDa5JhXQnBuw", "alias": "cantina-curbside-grill-springfield", "name": "Cantina Curbside Grill", "image_url": "https://s3-media3.fl.yelpcdn.com/bphoto/DmWL1gUNkbEH9PdiO9Or9g/o.jpg", "is_closed": false, "url": "https://www.yelp.com/biz/cantina-curbside-grill-springfield?adjust_creative=h5HwbyQ0TYvQjBo6Ys5Bgw&utm_campaign=yelp_api_v3&utm_medium=api_v3_business_search&utm_source=h5HwbyQ0TYvQjBo6Ys5Bgw", "review_count": 1, "categories": [{"alias": "latin", "title": "Latin American"}, {"alias": "foodtrucks", "title": "Food Trucks"}], "rating": 5.0, "coordinates": {"latitude": 42.1011632858, "longitude": -72.5874854261}, "transactions": [], "location": {"address1": null, "address2": null, "address3": null, "city": "Springfield", "zip_code": "01103", "country": "US", "state": "MA", "display_address": ["Springfield, MA 01103"]}, "phone": "+14134262604", "display_phone": "(413) 426-2604", "distance": 8052.435444456805}, {"id": "v4sRuHrAxqilOZ-mD1xn9A", "alias": "big-daddys-ice-cream-and-hot-dogs-springfield", "name": "Big Daddy's Ice Cream & Hot Dogs", "image_url": "https://s3-media1.fl.yelpcdn.com/bphoto/4512-qHGMdEn43Ipk2yTQg/o.jpg", "is_closed": false, "url": "https://www.yelp.com/biz/big-daddys-ice-cream-and-hot-dogs-springfield?adjust_creative=h5HwbyQ0TYvQjBo6Ys5Bgw&utm_campaign=yelp_api_v3&utm_medium=api_v3_business_search&utm_source=h5HwbyQ0TYvQjBo6Ys5Bgw", "review_count": 11, "categories": [{"alias": "icecream", "title": "Ice Cream & Frozen Yogurt"}, {"alias": "hotdog", "title": "Hot Dogs"}], "rating": 3.0, "coordinates": {"latitude": 42.13781, "longitude": -72.51256}, "transactions": ["delivery"], "price": "$", "location": {"address1": "955 Boston Rd", "address2": "", "address3": "", "city": "Springfield", "zip_code": "01119", "country": "US", "state": "MA", "display_address": ["955 Boston Rd", "Springfield, MA 01119"]}, "phone": "+14137836300", "display_phone": "(413) 783-6300", "distance": 1879.2415060002634}, {"id": "M_ToVgKYo4gMrvvWFFGdCg", "alias": "906-homwin-chinese-restaurant-springfield", "name": "906 Homwin Chinese Restaurant", "image_url": "https://s3-media4.fl.yelpcdn.com/bphoto/fDMm2WOy_0gPslhjKFgLlA/o.jpg", "is_closed": false, "url": "https://www.yelp.com/biz/906-homwin-chinese-restaurant-springfield?adjust_creative=h5HwbyQ0TYvQjBo6Ys5Bgw&utm_campaign=yelp_api_v3&utm_medium=api_v3_business_search&utm_source=h5HwbyQ0TYvQjBo6Ys5Bgw", "review_count": 20, "categories": [{"alias": "chinese", "title": "Chinese"}], "rating": 3.0, "coordinates": {"latitude": 42.1379699707031, "longitude": -72.5143661499023}, "transactions": ["delivery", "pickup"], "location": {"address1": "906 Boston Rd", "address2": null, "address3": null, "city": "Springfield", "zip_code": "01119", "country": "US", "state": "MA", "display_address": ["906 Boston Rd", "Springfield, MA 01119"]}, "phone": "+14137838906", "display_phone": "(413) 783-8906", "distance": 1807.830127426561}, {"id": "DPOSF_hwd_0G_Q60dLvxMg", "alias": "5-star-supermarket-springfield", "name": "5 Star Supermarket", "image_url": "https://s3-media3.fl.yelpcdn.com/bphoto/4NSVmtXcjyFMB1H0QXEldA/o.jpg", "is_closed": false, "url": "https://www.yelp.com/biz/5-star-supermarket-springfield?adjust_creative=h5HwbyQ0TYvQjBo6Ys5Bgw&utm_campaign=yelp_api_v3&utm_medium=api_v3_business_search&utm_source=h5HwbyQ0TYvQjBo6Ys5Bgw", "review_count": 13, "categories": [{"alias": "grocery", "title": "Grocery"}, {"alias": "delis", "title": "Delis"}, {"alias": "seafood", "title": "Seafood"}], "rating": 4.5, "coordinates": {"latitude": 42.1369964, "longitude": -72.5190457}, "transactions": [], "price": "$$", "location": {"address1": "780 Boston Rd", "address2": "", "address3": null, "city": "Springfield", "zip_code": "01119", "country": "US", "state": "MA", "display_address": ["780 Boston Rd", "Springfield, MA 01119"]}, "phone": "+14137828888", "display_phone": "(413) 782-8888", "distance": 1718.7257408653709}, {"id": "h8pzuk06KFhryJllLX0eYw", "alias": "golden-corral-buffet-and-grill-springfield", "name": "Golden Corral Buffet & Grill", "image_url": "https://s3-media3.fl.yelpcdn.com/bphoto/r7DXf51bYm5Z4pViuboGfA/o.jpg", "is_closed": false, "url": "https://www.yelp.com/biz/golden-corral-buffet-and-grill-springfield?adjust_creative=h5HwbyQ0TYvQjBo6Ys5Bgw&utm_campaign=yelp_api_v3&utm_medium=api_v3_business_search&utm_source=h5HwbyQ0TYvQjBo6Ys5Bgw", "review_count": 107, "categories": [{"alias": "tradamerican", "title": "American (Traditional)"}, {"alias": "buffets", "title": "Buffets"}], "rating": 3.0, "coordinates": {"latitude": 42.142661, "longitude": -72.495958}, "transactions": [], "price": "$$", "location": {"address1": "436 Parker Street", "address2": "", "address3": "", "city": "Springfield", "zip_code": "01129", "country": "US", "state": "MA", "display_address": ["436 Parker Street", "Springfield, MA 01129"]}, "phone": "+14135434600", "display_phone": "(413) 543-4600", "distance": 2344.076953027561}, {"id": "jvpKH8Nx47Deg_Elp7mvxA", "alias": "applebees-grill-bar-springfield-6", "name": "Applebee's Grill + Bar", "image_url": "https://s3-media4.fl.yelpcdn.com/bphoto/0l58-UKuM4rr325rlP3iKA/o.jpg", "is_closed": false, "url": "https://www.yelp.com/biz/applebees-grill-bar-springfield-6?adjust_creative=h5HwbyQ0TYvQjBo6Ys5Bgw&utm_campaign=yelp_api_v3&utm_medium=api_v3_business_search&utm_source=h5HwbyQ0TYvQjBo6Ys5Bgw", "review_count": 23, "categories": [{"alias": "tradamerican", "title": "American (Traditional)"}, {"alias": "sportsbars", "title": "Sports Bars"}, {"alias": "burgers", "title": "Burgers"}], "rating": 2.0, "coordinates": {"latitude": 42.140482, "longitude": -72.498442}, "transactions": ["delivery"], "price": "$$", "location": {"address1": "1349 Boston Rd", "address2": null, "address3": null, "city": "Springfield", "zip_code": "01119", "country": "US", "state": "MA", "display_address": ["1349 Boston Rd", "Springfield, MA 01119"]}, "phone": "+14137968183", "display_phone": "(413) 796-8183", "distance": 2319.137384035054}, {"id": "E-GBzX-_puSiAIQBHf5XTA", "alias": "holyoke-hummus-company-holyoke", "name": "Holyoke Hummus Company", "image_url": "https://s3-media2.fl.yelpcdn.com/bphoto/K-RvwwHMrU-8EFC9r_j1bw/o.jpg", "is_closed": false, "url": "https://www.yelp.com/biz/holyoke-hummus-company-holyoke?adjust_creative=h5HwbyQ0TYvQjBo6Ys5Bgw&utm_campaign=yelp_api_v3&utm_medium=api_v3_business_search&utm_source=h5HwbyQ0TYvQjBo6Ys5Bgw", "review_count": 65, "categories": [{"alias": "mideastern", "title": "Middle Eastern"}, {"alias": "foodtrucks", "title": "Food Trucks"}, {"alias": "breakfast_brunch", "title": "Breakfast & Brunch"}], "rating": 4.5, "coordinates": {"latitude": 42.206426, "longitude": -72.6086119}, "transactions": ["delivery", "pickup"], "price": "$", "location": {"address1": "285 High St", "address2": null, "address3": "", "city": "Holyoke", "zip_code": "01040", "country": "US", "state": "MA", "display_address": ["285 High St", "Holyoke, MA 01040"]}, "phone": "+14132251755", "display_phone": "(413) 225-1755", "distance": 9351.10803590184}, {"id": "dSYlB7JL1ki4zNqMvFIszg", "alias": "sianos-pizzeria-and-restaurant-springfield", "name": "Siano's Pizzeria & Restaurant", "image_url": "https://s3-media4.fl.yelpcdn.com/bphoto/m_uRYfQafNUEH_mdKuumLw/o.jpg", "is_closed": false, "url": "https://www.yelp.com/biz/sianos-pizzeria-and-restaurant-springfield?adjust_creative=h5HwbyQ0TYvQjBo6Ys5Bgw&utm_campaign=yelp_api_v3&utm_medium=api_v3_business_search&utm_source=h5HwbyQ0TYvQjBo6Ys5Bgw", "review_count": 35, "categories": [{"alias": "pizza", "title": "Pizza"}, {"alias": "italian", "title": "Italian"}, {"alias": "sandwiches", "title": "Sandwiches"}], "rating": 3.5, "coordinates": {"latitude": 42.1379737854004, "longitude": -72.5121154785156}, "transactions": ["delivery", "pickup"], "price": "$$", "location": {"address1": "965 Boston Rd", "address2": "", "address3": "", "city": "Springfield", "zip_code": "01119", "country": "US", "state": "MA", "display_address": ["965 Boston Rd", "Springfield, MA 01119"]}, "phone": "+14137820066", "display_phone": "(413) 782-0066", "distance": 1871.7558413479394}, {"id": "joB60NYFypqX91UefDkKCw", "alias": "boston-road-pizza-springfield", "name": "Boston Road Pizza", "image_url": "https://s3-media4.fl.yelpcdn.com/bphoto/zzm584Ek6rLBnf0I6QzDVA/o.jpg", "is_closed": false, "url": "https://www.yelp.com/biz/boston-road-pizza-springfield?adjust_creative=h5HwbyQ0TYvQjBo6Ys5Bgw&utm_campaign=yelp_api_v3&utm_medium=api_v3_business_search&utm_source=h5HwbyQ0TYvQjBo6Ys5Bgw", "review_count": 8, "categories": [{"alias": "pizza", "title": "Pizza"}, {"alias": "burgers", "title": "Burgers"}, {"alias": "chicken_wings", "title": "Chicken Wings"}], "rating": 3.5, "coordinates": {"latitude": 42.1403859, "longitude": -72.5008455}, "transactions": ["delivery", "pickup"], "location": {"address1": "1291 Boston Post Rd", "address2": "", "address3": "", "city": "Springfield", "zip_code": "01119", "country": "US", "state": "MA", "display_address": ["1291 Boston Post Rd", "Springfield, MA 01119"]}, "phone": "+14137967777", "display_phone": "(413) 796-7777", "distance": 2198.1637726430477}, {"id": "TjbjQM4AbQXMscKqljhLNw", "alias": "pleasant-snack-bar-springfield", "name": "Pleasant Snack Bar", "image_url": "https://s3-media3.fl.yelpcdn.com/bphoto/KFd1JVaE7CoTwrQh1ROryA/o.jpg", "is_closed": false, "url": "https://www.yelp.com/biz/pleasant-snack-bar-springfield?adjust_creative=h5HwbyQ0TYvQjBo6Ys5Bgw&utm_campaign=yelp_api_v3&utm_medium=api_v3_business_search&utm_source=h5HwbyQ0TYvQjBo6Ys5Bgw", "review_count": 2, "categories": [{"alias": "breakfast_brunch", "title": "Breakfast & Brunch"}], "rating": 3.5, "coordinates": {"latitude": 42.1596170961857, "longitude": -72.5020408630371}, "transactions": ["delivery"], "price": "$", "location": {"address1": "174 Main St", "address2": "", "address3": "", "city": "Springfield", "zip_code": "01151", "country": "US", "state": "MA", "display_address": ["174 Main St", "Springfield, MA 01151"]}, "phone": "+14135431300", "display_phone": "(413) 543-1300", "distance": 1636.3093961583268}, {"id": "oIaoPap-Da3ap4h305bV6A", "alias": "dominos-pizza-springfield-12", "name": "Domino's Pizza", "image_url": "https://s3-media2.fl.yelpcdn.com/bphoto/t-Svr-9kxNIi0CzZaVxqQw/o.jpg", "is_closed": false, "url": "https://www.yelp.com/biz/dominos-pizza-springfield-12?adjust_creative=h5HwbyQ0TYvQjBo6Ys5Bgw&utm_campaign=yelp_api_v3&utm_medium=api_v3_business_search&utm_source=h5HwbyQ0TYvQjBo6Ys5Bgw", "review_count": 15, "categories": [{"alias": "pizza", "title": "Pizza"}], "rating": 3.0, "coordinates": {"latitude": 42.1351395, "longitude": -72.5240021}, "transactions": [], "price": "$", "location": {"address1": "624 Boston Rd", "address2": "", "address3": "", "city": "Springfield", "zip_code": "01119", "country": "US", "state": "MA", "display_address": ["624 Boston Rd", "Springfield, MA 01119"]}, "phone": "+14137828601", "display_phone": "(413) 782-8601", "distance": 2088.5716415517645}, {"id": "0wX6Ax4ukobv7BhNlQZIXw", "alias": "subway-springfield-190", "name": "Subway", "image_url": "https://s3-media4.fl.yelpcdn.com/bphoto/8S5fz7iC0dALFhQt9qtIJg/o.jpg", "is_closed": false, "url": "https://www.yelp.com/biz/subway-springfield-190?adjust_creative=h5HwbyQ0TYvQjBo6Ys5Bgw&utm_campaign=yelp_api_v3&utm_medium=api_v3_business_search&utm_source=h5HwbyQ0TYvQjBo6Ys5Bgw", "review_count": 1, "categories": [{"alias": "sandwiches", "title": "Sandwiches"}], "rating": 5.0, "coordinates": {"latitude": 42.1360965978808, "longitude": -72.5068355491535}, "transactions": ["delivery", "pickup"], "price": "$", "location": {"address1": "1105 Boston Rd", "address2": null, "address3": null, "city": "Springfield", "zip_code": "01119", "country": "US", "state": "MA", "display_address": ["1105 Boston Rd", "Springfield, MA 01119"]}, "phone": "+14137830044", "display_phone": "(413) 783-0044", "distance": 2244.615815483748}, {"id": "03JlUap-Awz7BCewJ1zWZQ", "alias": "kfc-springfield-25", "name": "KFC", "image_url": "https://s3-media3.fl.yelpcdn.com/bphoto/6D1ljwZgXPfFrRHzYMZ8TA/o.jpg", "is_closed": false, "url": "https://www.yelp.com/biz/kfc-springfield-25?adjust_creative=h5HwbyQ0TYvQjBo6Ys5Bgw&utm_campaign=yelp_api_v3&utm_medium=api_v3_business_search&utm_source=h5HwbyQ0TYvQjBo6Ys5Bgw", "review_count": 1, "categories": [{"alias": "chickenshop", "title": "Chicken Shop"}, {"alias": "hotdogs", "title": "Fast Food"}, {"alias": "chicken_wings", "title": "Chicken Wings"}], "rating": 1.0, "coordinates": {"latitude": 42.1411035, "longitude": -72.4997394}, "transactions": ["delivery", "pickup"], "location": {"address1": "1324 Boston Rd", "address2": null, "address3": null, "city": "Springfield", "zip_code": "01129", "country": "US", "state": "MA", "display_address": ["1324 Boston Rd", "Springfield, MA 01129"]}, "phone": "+14133425184", "display_phone": "(413) 342-5184", "distance": 2192.612893106752}, {"id": "9olKBmrSreAQJn6QrEJC9g", "alias": "best-pizza-springfield", "name": "Best Pizza", "image_url": "https://s3-media3.fl.yelpcdn.com/bphoto/P4Wre9KPYLygHErQIX8FNw/o.jpg", "is_closed": false, "url": "https://www.yelp.com/biz/best-pizza-springfield?adjust_creative=h5HwbyQ0TYvQjBo6Ys5Bgw&utm_campaign=yelp_api_v3&utm_medium=api_v3_business_search&utm_source=h5HwbyQ0TYvQjBo6Ys5Bgw", "review_count": 1, "categories": [{"alias": "pizza", "title": "Pizza"}], "rating": 2.0, "coordinates": {"latitude": 42.1467699, "longitude": -72.50399}, "transactions": ["delivery"], "location": {"address1": "306 Pasco Rd", "address2": "", "address3": null, "city": "Springfield", "zip_code": "01151", "country": "US", "state": "MA", "display_address": ["306 Pasco Rd", "Springfield, MA 01151"]}, "phone": "+14135430100", "display_phone": "(413) 543-0100", "distance": 1549.087230254273}, {"id": "tHCH-nNzfwYV29tuj4n9Yw", "alias": "sonic-drive-in-springfield-21", "name": "Sonic Drive-In", "image_url": "https://s3-media2.fl.yelpcdn.com/bphoto/5kK3eUr0x8fX9MOLJsMwBg/o.jpg", "is_closed": false, "url": "https://www.yelp.com/biz/sonic-drive-in-springfield-21?adjust_creative=h5HwbyQ0TYvQjBo6Ys5Bgw&utm_campaign=yelp_api_v3&utm_medium=api_v3_business_search&utm_source=h5HwbyQ0TYvQjBo6Ys5Bgw", "review_count": 43, "categories": [{"alias": "hotdogs", "title": "Fast Food"}, {"alias": "burgers", "title": "Burgers"}, {"alias": "icecream", "title": "Ice Cream & Frozen Yogurt"}], "rating": 2.5, "coordinates": {"latitude": 42.138423, "longitude": -72.5085312}, "transactions": [], "price": "$", "location": {"address1": "1057 Boston Rd", "address2": "", "address3": "", "city": "Springfield", "zip_code": "01119", "country": "US", "state": "MA", "display_address": ["1057 Boston Rd", "Springfield, MA 01119"]}, "phone": "+14133042061", "display_phone": "(413) 304-2061", "distance": 1950.6269034295347}, {"id": "adXGDhLxejThaF6nu03hNw", "alias": "us-fried-chicken-and-gyro-indian-orchard", "name": "US Fried Chicken and Gyro", "image_url": "https://s3-media1.fl.yelpcdn.com/bphoto/Hw4fSDwGZGRpOZ2ex6JFzQ/o.jpg", "is_closed": false, "url": "https://www.yelp.com/biz/us-fried-chicken-and-gyro-indian-orchard?adjust_creative=h5HwbyQ0TYvQjBo6Ys5Bgw&utm_campaign=yelp_api_v3&utm_medium=api_v3_business_search&utm_source=h5HwbyQ0TYvQjBo6Ys5Bgw", "review_count": 2, "categories": [{"alias": "burgers", "title": "Burgers"}, {"alias": "chicken_wings", "title": "Chicken Wings"}, {"alias": "seafood", "title": "Seafood"}], "rating": 2.5, "coordinates": {"latitude": 42.1479196, "longitude": -72.5035626}, "transactions": ["delivery", "pickup"], "location": {"address1": "253 Pasco Rd Indian", "address2": "", "address3": null, "city": "Indian Orchard", "zip_code": "01151", "country": "US", "state": "MA", "display_address": ["253 Pasco Rd Indian", "Indian Orchard, MA 01151"]}, "phone": "+14135439314", "display_phone": "(413) 543-9314", "distance": 1529.4714980329995}, {"id": "SxFv8Ws2canmFCuA0-W2gQ", "alias": "westside-pizza-ludlow", "name": "Westside Pizza", "image_url": "https://s3-media2.fl.yelpcdn.com/bphoto/PxdWxXs7PA1zif2joLkTsA/o.jpg", "is_closed": false, "url": "https://www.yelp.com/biz/westside-pizza-ludlow?adjust_creative=h5HwbyQ0TYvQjBo6Ys5Bgw&utm_campaign=yelp_api_v3&utm_medium=api_v3_business_search&utm_source=h5HwbyQ0TYvQjBo6Ys5Bgw", "review_count": 1, "categories": [{"alias": "pizza", "title": "Pizza"}], "rating": 1.0, "coordinates": {"latitude": 42.1674767, "longitude": -72.5108948}, "transactions": ["delivery"], "location": {"address1": "103 West St", "address2": "", "address3": "", "city": "Ludlow", "zip_code": "01056", "country": "US", "state": "MA", "display_address": ["103 West St", "Ludlow, MA 01056"]}, "phone": "+14135470333", "display_phone": "(413) 547-0333", "distance": 1732.5462557655783}, {"id": "hj6VHG-Lko8RcrlIQjhbOw", "alias": "burger-king-springfield-36", "name": "Burger King", "image_url": "https://s3-media1.fl.yelpcdn.com/bphoto/oEyyrIrfji5UtRIx0SEDIw/o.jpg", "is_closed": false, "url": "https://www.yelp.com/biz/burger-king-springfield-36?adjust_creative=h5HwbyQ0TYvQjBo6Ys5Bgw&utm_campaign=yelp_api_v3&utm_medium=api_v3_business_search&utm_source=h5HwbyQ0TYvQjBo6Ys5Bgw", "review_count": 1, "categories": [{"alias": "burgers", "title": "Burgers"}, {"alias": "hotdogs", "title": "Fast Food"}], "rating": 2.0, "coordinates": {"latitude": 42.136097, "longitude": -72.520361}, "transactions": ["delivery"], "location": {"address1": "727 Boston Rd", "address2": null, "address3": null, "city": "Springfield", "zip_code": "01119", "country": "US", "state": "MA", "display_address": ["727 Boston Rd", "Springfield, MA 01119"]}, "phone": "", "display_phone": "", "distance": 1956.9610481947586}, {"id": "pQ0eNvBaT8F8C29Zv8oAyQ", "alias": "dennys-springfield-6", "name": "Denny's", "image_url": "https://s3-media1.fl.yelpcdn.com/bphoto/J5Jk7KhDY__B2MT94PxRoQ/o.jpg", "is_closed": false, "url": "https://www.yelp.com/biz/dennys-springfield-6?adjust_creative=h5HwbyQ0TYvQjBo6Ys5Bgw&utm_campaign=yelp_api_v3&utm_medium=api_v3_business_search&utm_source=h5HwbyQ0TYvQjBo6Ys5Bgw", "review_count": 48, "categories": [{"alias": "diners", "title": "Diners"}, {"alias": "tradamerican", "title": "American (Traditional)"}, {"alias": "breakfast_brunch", "title": "Breakfast & Brunch"}], "rating": 1.5, "coordinates": {"latitude": 42.140897, "longitude": -72.501202}, "transactions": ["delivery", "pickup"], "price": "$$", "location": {"address1": "1284 Boston Rd", "address2": null, "address3": null, "city": "Springfield", "zip_code": "01119", "country": "US", "state": "MA", "display_address": ["1284 Boston Rd", "Springfield, MA 01119"]}, "phone": "+14137823300", "display_phone": "(413) 782-3300", "distance": 2116.425931232383}, {"id": "NHE9EyCXID1wjUZHOPJTAA", "alias": "boston-market-springfield-2", "name": "Boston Market", "image_url": "https://s3-media3.fl.yelpcdn.com/bphoto/ixBAkU_Ekd4WluQAuP7fhA/o.jpg", "is_closed": false, "url": "https://www.yelp.com/biz/boston-market-springfield-2?adjust_creative=h5HwbyQ0TYvQjBo6Ys5Bgw&utm_campaign=yelp_api_v3&utm_medium=api_v3_business_search&utm_source=h5HwbyQ0TYvQjBo6Ys5Bgw", "review_count": 10, "categories": [{"alias": "comfortfood", "title": "Comfort Food"}, {"alias": "tradamerican", "title": "American (Traditional)"}, {"alias": "sandwiches", "title": "Sandwiches"}], "rating": 2.5, "coordinates": {"latitude": 42.1406152747576, "longitude": -72.4971927130878}, "transactions": ["delivery", "pickup"], "price": "$", "location": {"address1": "1387 Boston Rd", "address2": "", "address3": "", "city": "Springfield", "zip_code": "01119", "country": "US", "state": "MA", "display_address": ["1387 Boston Rd", "Springfield, MA 01119"]}, "phone": "+14132713808", "display_phone": "(413) 271-3808", "distance": 2390.792489683855}, {"id": "1e7CYOm8lBUHph7O03iANA", "alias": "taco-bell-springfield-43", "name": "Taco Bell", "image_url": "https://s3-media1.fl.yelpcdn.com/bphoto/Mp714EE5MOb9fy_S4Eq6wQ/o.jpg", "is_closed": false, "url": "https://www.yelp.com/biz/taco-bell-springfield-43?adjust_creative=h5HwbyQ0TYvQjBo6Ys5Bgw&utm_campaign=yelp_api_v3&utm_medium=api_v3_business_search&utm_source=h5HwbyQ0TYvQjBo6Ys5Bgw", "review_count": 9, "categories": [{"alias": "hotdogs", "title": "Fast Food"}, {"alias": "tacos", "title": "Tacos"}], "rating": 3.5, "coordinates": {"latitude": 42.14106, "longitude": -72.50295}, "transactions": ["delivery"], "price": "$", "location": {"address1": "1264 Boston Road", "address2": "", "address3": "", "city": "Springfield", "zip_code": "01119", "country": "US", "state": "MA", "display_address": ["1264 Boston Road", "Springfield, MA 01119"]}, "phone": "+14134269636", "display_phone": "(413) 426-9636", "distance": 1999.1436753912228}, {"id": "68WTARQY8lQB0rDUtVoYQA", "alias": "wendys-springfield-34", "name": "Wendy's", "image_url": "https://s3-media1.fl.yelpcdn.com/bphoto/XUfswDZa6AOLfj555fj6eA/o.jpg", "is_closed": false, "url": "https://www.yelp.com/biz/wendys-springfield-34?adjust_creative=h5HwbyQ0TYvQjBo6Ys5Bgw&utm_campaign=yelp_api_v3&utm_medium=api_v3_business_search&utm_source=h5HwbyQ0TYvQjBo6Ys5Bgw", "review_count": 10, "categories": [{"alias": "burgers", "title": "Burgers"}, {"alias": "hotdogs", "title": "Fast Food"}], "rating": 1.5, "coordinates": {"latitude": 42.136393, "longitude": -72.519296}, "transactions": ["delivery"], "price": "$", "location": {"address1": "757 Boston Road", "address2": "", "address3": "", "city": "Springfield", "zip_code": "01119", "country": "US", "state": "MA", "display_address": ["757 Boston Road", "Springfield, MA 01119"]}, "phone": "+14137825439", "display_phone": "(413) 782-5439", "distance": 1923.9446142558327}, {"id": "1R5pgDnnzXZcRSvpjmHpPQ", "alias": "mcdonalds-springfield-85", "name": "McDonald's", "image_url": "https://s3-media1.fl.yelpcdn.com/bphoto/ief_0gvHuuuDeLkojIqE9Q/o.jpg", "is_closed": false, "url": "https://www.yelp.com/biz/mcdonalds-springfield-85?adjust_creative=h5HwbyQ0TYvQjBo6Ys5Bgw&utm_campaign=yelp_api_v3&utm_medium=api_v3_business_search&utm_source=h5HwbyQ0TYvQjBo6Ys5Bgw", "review_count": 3, "categories": [{"alias": "coffee", "title": "Coffee & Tea"}, {"alias": "burgers", "title": "Burgers"}, {"alias": "hotdogs", "title": "Fast Food"}], "rating": 1.5, "coordinates": {"latitude": 42.136743, "longitude": -72.517783}, "transactions": ["delivery"], "price": "$", "location": {"address1": "809 Boston Rd", "address2": "", "address3": "", "city": "Springfield", "zip_code": "01109", "country": "US", "state": "MA", "display_address": ["809 Boston Rd", "Springfield, MA 01109"]}, "phone": "+14137832328", "display_phone": "(413) 783-2328", "distance": 1892.8164284634895}, {"id": "t8gNONm0Wj6l83mS5UWo_w", "alias": "subway-springfield-188", "name": "Subway", "image_url": "https://s3-media4.fl.yelpcdn.com/bphoto/7_Rz6QceP13u-qnePxw3Fw/o.jpg", "is_closed": false, "url": "https://www.yelp.com/biz/subway-springfield-188?adjust_creative=h5HwbyQ0TYvQjBo6Ys5Bgw&utm_campaign=yelp_api_v3&utm_medium=api_v3_business_search&utm_source=h5HwbyQ0TYvQjBo6Ys5Bgw", "review_count": 1, "categories": [{"alias": "sandwiches", "title": "Sandwiches"}], "rating": 1.0, "coordinates": {"latitude": 42.1347312, "longitude": -72.5234909}, "transactions": ["delivery", "pickup"], "price": "$", "location": {"address1": "625C Boston Rd", "address2": "", "address3": "", "city": "Springfield", "zip_code": "01119", "country": "US", "state": "MA", "display_address": ["625C Boston Rd", "Springfield, MA 01119"]}, "phone": "+14137832929", "display_phone": "(413) 783-2929", "distance": 2122.6955626646204}, {"id": "Io4C5tUwnb_YzeaMXHBqBA", "alias": "shuckin-truck-narragansett-2", "name": "Shuckin Truck", "image_url": "https://s3-media2.fl.yelpcdn.com/bphoto/r7QRORfe9UYVS7GGzUm9DQ/o.jpg", "is_closed": false, "url": "https://www.yelp.com/biz/shuckin-truck-narragansett-2?adjust_creative=h5HwbyQ0TYvQjBo6Ys5Bgw&utm_campaign=yelp_api_v3&utm_medium=api_v3_business_search&utm_source=h5HwbyQ0TYvQjBo6Ys5Bgw", "review_count": 24, "categories": [{"alias": "foodtrucks", "title": "Food Trucks"}, {"alias": "seafood", "title": "Seafood"}], "rating": 4.5, "coordinates": {"latitude": 41.4274482727051, "longitude": -71.4597778320313}, "transactions": [], "price": "$$", "location": {"address1": "", "address2": "", "address3": "", "city": "Narragansett", "zip_code": "02882", "country": "US", "state": "RI", "display_address": ["Narragansett, RI 02882"]}, "phone": "+14017415953", "display_phone": "(401) 741-5953", "distance": 119841.82009127976}, {"id": "qqA8YX58xnmEXLyanHfdUg", "alias": "stufd-food-truck-brooklyn", "name": "Stuf'd Food Truck", "image_url": "https://s3-media2.fl.yelpcdn.com/bphoto/_Wn0i-tLIOFinw8BPAqxPA/o.jpg", "is_closed": false, "url": "https://www.yelp.com/biz/stufd-food-truck-brooklyn?adjust_creative=h5HwbyQ0TYvQjBo6Ys5Bgw&utm_campaign=yelp_api_v3&utm_medium=api_v3_business_search&utm_source=h5HwbyQ0TYvQjBo6Ys5Bgw", "review_count": 4, "categories": [{"alias": "sandwiches", "title": "Sandwiches"}, {"alias": "foodtrucks", "title": "Food Trucks"}], "rating": 4.0, "coordinates": {"latitude": 40.7124539, "longitude": -73.9287374}, "transactions": [], "location": {"address1": "178 Varick Ave", "address2": "", "address3": null, "city": "Brooklyn", "zip_code": "11237", "country": "US", "state": "NY", "display_address": ["178 Varick Ave", "Brooklyn, NY 11237"]}, "phone": "+18457091808", "display_phone": "(845) 709-1808", "distance": 198662.5432187985}]