[{"id": "ekTKSMIx3hd5XXNmFeT-Bg", "alias": "salem-cross-inn-west-brookfield", "name": "Salem Cross Inn", "image_url": "https://s3-media4.fl.yelpcdn.com/bphoto/2OJ_dw5_3VL5zyJvN1czrA/o.jpg", "is_closed": false, "url": "https://www.yelp.com/biz/salem-cross-inn-west-brookfield?adjust_creative=asslzE1UV0XuKI953B1vtw&utm_campaign=yelp_api_v3&utm_medium=api_v3_business_search&utm_source=asslzE1UV0XuKI953B1vtw", "review_count": 113, "categories": [{"alias": "venues", "title": "Venues & Event Spaces"}, {"alias": "tradamerican", "title": "American (Traditional)"}], "rating": 4.0, "coordinates": {"latitude": 42.2460335987962, "longitude": -72.1747081086731}, "transactions": [], "price": "$$$", "location": {"address1": "260 W Main St Rt 9", "address2": "", "address3": "", "city": "West Brookfield", "zip_code": "01585", "country": "US", "state": "MA", "display_address": ["260 W Main St Rt 9", "West Brookfield, MA 01585"]}, "phone": "+15088672345", "display_phone": "(508) 867-2345", "distance": 5007.983263373208}, {"id": "2BIeNbfudbD_sPWyDv0pNQ", "alias": "masons-grille-warren", "name": "Mason's Grille", "image_url": "https://s3-media2.fl.yelpcdn.com/bphoto/KA3N3PP2O1OO_iykU_NoDw/o.jpg", "is_closed": false, "url": "https://www.yelp.com/biz/masons-grille-warren?adjust_creative=asslzE1UV0XuKI953B1vtw&utm_campaign=yelp_api_v3&utm_medium=api_v3_business_search&utm_source=asslzE1UV0XuKI953B1vtw", "review_count": 16, "categories": [{"alias": "breakfast_brunch", "title": "Breakfast & Brunch"}], "rating": 4.0, "coordinates": {"latitude": 42.2128038938205, "longitude": -72.1945668384433}, "transactions": [], "price": "$", "location": {"address1": "14 Milton Fountain Way", "address2": "", "address3": null, "city": "Warren", "zip_code": "01083", "country": "US", "state": "MA", "display_address": ["14 Milton Fountain Way", "Warren, MA 01083"]}, "phone": "+14134368042", "display_phone": "(413) 436-8042", "distance": 1190.4812579075392}, {"id": "Tj_HA19wOFNTttpgI9Oghg", "alias": "sturbridge-seafood-sturbridge", "name": "Sturbridge Seafood", "image_url": "https://s3-media1.fl.yelpcdn.com/bphoto/aD06QgTQDPoKwcFe9OWSQA/o.jpg", "is_closed": false, "url": "https://www.yelp.com/biz/sturbridge-seafood-sturbridge?adjust_creative=asslzE1UV0XuKI953B1vtw&utm_campaign=yelp_api_v3&utm_medium=api_v3_business_search&utm_source=asslzE1UV0XuKI953B1vtw", "review_count": 386, "categories": [{"alias": "seafood", "title": "Seafood"}, {"alias": "cocktailbars", "title": "Cocktail Bars"}], "rating": 4.0, "coordinates": {"latitude": 42.1110211366217, "longitude": -72.0949529}, "transactions": ["delivery", "restaurant_reservation"], "price": "$$", "location": {"address1": "376 Main St", "address2": "", "address3": "", "city": "Sturbridge", "zip_code": "01566", "country": "US", "state": "MA", "display_address": ["376 Main St", "Sturbridge, MA 01566"]}, "phone": "+15083472600", "display_phone": "(508) 347-2600", "distance": 12866.543035919603}, {"id": "HQEBY4lEJxmn6G5tDYWEVg", "alias": "russos-lakeside-seafood-and-steakhouse-palmer", "name": "Russo's Lakeside Seafood & Steakhouse", "image_url": "https://s3-media3.fl.yelpcdn.com/bphoto/cE5L8cxQbGhT18yqnV8RWw/o.jpg", "is_closed": false, "url": "https://www.yelp.com/biz/russos-lakeside-seafood-and-steakhouse-palmer?adjust_creative=asslzE1UV0XuKI953B1vtw&utm_campaign=yelp_api_v3&utm_medium=api_v3_business_search&utm_source=asslzE1UV0XuKI953B1vtw", "review_count": 45, "categories": [{"alias": "seafood", "title": "Seafood"}, {"alias": "steak", "title": "Steakhouses"}], "rating": 4.0, "coordinates": {"latitude": 42.210545, "longitude": -72.307816}, "transactions": ["delivery", "pickup"], "price": "$$", "location": {"address1": "702 River St", "address2": "", "address3": "", "city": "Palmer", "zip_code": "01069", "country": "US", "state": "MA", "display_address": ["702 River St", "Palmer, MA 01069"]}, "phone": "+14132892360", "display_phone": "(413) 289-2360", "distance": 9705.630254973228}, {"id": "Xgfi4591xeqagTByrp1JCw", "alias": "cedar-street-grille-sturbridge-2", "name": "Cedar Street Grille", "image_url": "https://s3-media1.fl.yelpcdn.com/bphoto/cPxc6_VXnItq47C8UJjxwg/o.jpg", "is_closed": false, "url": "https://www.yelp.com/biz/cedar-street-grille-sturbridge-2?adjust_creative=asslzE1UV0XuKI953B1vtw&utm_campaign=yelp_api_v3&utm_medium=api_v3_business_search&utm_source=asslzE1UV0XuKI953B1vtw", "review_count": 266, "categories": [{"alias": "newamerican", "title": "American (New)"}, {"alias": "tapasmallplates", "title": "Tapas/Small Plates"}, {"alias": "beerbar", "title": "Beer Bar"}], "rating": 4.0, "coordinates": {"latitude": 42.11328, "longitude": -72.09685}, "transactions": ["delivery"], "price": "$$", "location": {"address1": "12 Cedar St", "address2": "", "address3": "", "city": "Sturbridge", "zip_code": "01566", "country": "US", "state": "MA", "display_address": ["12 Cedar St", "Sturbridge, MA 01566"]}, "phone": "+15083475800", "display_phone": "(508) 347-5800", "distance": 12568.128103236102}, {"id": "Xk6_V-Sd08xSFqaQUCvZbw", "alias": "wicked-wing-ware", "name": "Wicked Wing", "image_url": "https://s3-media4.fl.yelpcdn.com/bphoto/jSg8-20Gf49RhkksAP3Iwg/o.jpg", "is_closed": false, "url": "https://www.yelp.com/biz/wicked-wing-ware?adjust_creative=asslzE1UV0XuKI953B1vtw&utm_campaign=yelp_api_v3&utm_medium=api_v3_business_search&utm_source=asslzE1UV0XuKI953B1vtw", "review_count": 34, "categories": [{"alias": "chicken_wings", "title": "Chicken Wings"}, {"alias": "breweries", "title": "Breweries"}, {"alias": "cocktailbars", "title": "Cocktail Bars"}], "rating": 4.0, "coordinates": {"latitude": 42.2672853535435, "longitude": -72.2480573767605}, "transactions": [], "location": {"address1": "136 Pleasant St", "address2": "", "address3": null, "city": "Ware", "zip_code": "01082", "country": "US", "state": "MA", "display_address": ["136 Pleasant St", "Ware, MA 01082"]}, "phone": "+14132770020", "display_phone": "(413) 277-0020", "distance": 8620.392801449918}, {"id": "O8RUnchuFOKrWg88txImOA", "alias": "sturbridge-porterhouse-sturbridge", "name": "Sturbridge Porterhouse", "image_url": "https://s3-media2.fl.yelpcdn.com/bphoto/7yVKkhNYeTkGulxxBLwv2g/o.jpg", "is_closed": false, "url": "https://www.yelp.com/biz/sturbridge-porterhouse-sturbridge?adjust_creative=asslzE1UV0XuKI953B1vtw&utm_campaign=yelp_api_v3&utm_medium=api_v3_business_search&utm_source=asslzE1UV0XuKI953B1vtw", "review_count": 101, "categories": [{"alias": "tradamerican", "title": "American (Traditional)"}, {"alias": "salad", "title": "Salad"}, {"alias": "cocktailbars", "title": "Cocktail Bars"}], "rating": 4.0, "coordinates": {"latitude": 42.11097, "longitude": -72.09596}, "transactions": ["delivery", "restaurant_reservation"], "price": "$$$", "location": {"address1": "407 Main St", "address2": "", "address3": null, "city": "Sturbridge", "zip_code": "01566", "country": "US", "state": "MA", "display_address": ["407 Main St", "Sturbridge, MA 01566"]}, "phone": "+15083472700", "display_phone": "(508) 347-2700", "distance": 12769.249778074962}, {"id": "HFSgx8AqyNaLVk8Ho_ATBA", "alias": "the-metro-bistrot-southbridge", "name": "The Metro Bistrot", "image_url": "https://s3-media3.fl.yelpcdn.com/bphoto/52wfxsg313B3hNd0--mMVw/o.jpg", "is_closed": false, "url": "https://www.yelp.com/biz/the-metro-bistrot-southbridge?adjust_creative=asslzE1UV0XuKI953B1vtw&utm_campaign=yelp_api_v3&utm_medium=api_v3_business_search&utm_source=asslzE1UV0XuKI953B1vtw", "review_count": 78, "categories": [{"alias": "french", "title": "French"}], "rating": 4.5, "coordinates": {"latitude": 42.0743435, "longitude": -72.031125}, "transactions": ["restaurant_reservation"], "price": "$$", "location": {"address1": "176 Main St", "address2": "", "address3": "", "city": "Southbridge", "zip_code": "01550", "country": "US", "state": "MA", "display_address": ["176 Main St", "Southbridge, MA 01550"]}, "phone": "+18602077135", "display_phone": "(860) 207-7135", "distance": 19386.053861403838}, {"id": "VfxlzltYQhYpAr2DMJfRJA", "alias": "the-stonewall-grille-fiskdale", "name": "The Stonewall Grille", "image_url": "https://s3-media4.fl.yelpcdn.com/bphoto/wrmH89jZ7ff5-5IaTTRq1Q/o.jpg", "is_closed": false, "url": "https://www.yelp.com/biz/the-stonewall-grille-fiskdale?adjust_creative=asslzE1UV0XuKI953B1vtw&utm_campaign=yelp_api_v3&utm_medium=api_v3_business_search&utm_source=asslzE1UV0XuKI953B1vtw", "review_count": 21, "categories": [{"alias": "italian", "title": "Italian"}, {"alias": "steak", "title": "Steakhouses"}, {"alias": "seafood", "title": "Seafood"}], "rating": 3.5, "coordinates": {"latitude": 42.116287, "longitude": -72.111987}, "transactions": [], "price": "$$", "location": {"address1": "538 Main St", "address2": "", "address3": null, "city": "Fiskdale", "zip_code": "01518", "country": "US", "state": "MA", "display_address": ["538 Main St", "Fiskdale, MA 01518"]}, "phone": "+17743041188", "display_phone": "(774) 304-1188", "distance": 11574.52429403792}, {"id": "w7OhIPtYkrCNLt8P2uIavA", "alias": "hanna-devines-restaurant-ware", "name": "Hanna Devine's Restaurant", "image_url": "https://s3-media3.fl.yelpcdn.com/bphoto/y0x0A04JfuP0gNbBhQAbOQ/o.jpg", "is_closed": false, "url": "https://www.yelp.com/biz/hanna-devines-restaurant-ware?adjust_creative=asslzE1UV0XuKI953B1vtw&utm_campaign=yelp_api_v3&utm_medium=api_v3_business_search&utm_source=asslzE1UV0XuKI953B1vtw", "review_count": 65, "categories": [{"alias": "seafood", "title": "Seafood"}, {"alias": "beer_and_wine", "title": "Beer, Wine & Spirits"}, {"alias": "newamerican", "title": "American (New)"}], "rating": 3.5, "coordinates": {"latitude": 42.2605129935206, "longitude": -72.2413601052226}, "transactions": [], "price": "$$", "location": {"address1": "91 Main St", "address2": "", "address3": null, "city": "Ware", "zip_code": "01082", "country": "US", "state": "MA", "display_address": ["91 Main St", "Ware, MA 01082"]}, "phone": "+14132770707", "display_phone": "(413) 277-0707", "distance": 7688.4820163986}, {"id": "qZ2mUZB1EFz2-Was9kft2Q", "alias": "ye-olde-tavern-west-brookfield-3", "name": "Ye Olde Tavern", "image_url": "https://s3-media2.fl.yelpcdn.com/bphoto/feqtvkBcHvmzmclvTYA-WQ/o.jpg", "is_closed": false, "url": "https://www.yelp.com/biz/ye-olde-tavern-west-brookfield-3?adjust_creative=asslzE1UV0XuKI953B1vtw&utm_campaign=yelp_api_v3&utm_medium=api_v3_business_search&utm_source=asslzE1UV0XuKI953B1vtw", "review_count": 31, "categories": [{"alias": "pizza", "title": "Pizza"}], "rating": 3.5, "coordinates": {"latitude": 42.2349328, "longitude": -72.1419567}, "transactions": [], "price": "$$", "location": {"address1": "7 E Main St", "address2": "", "address3": "", "city": "West Brookfield", "zip_code": "01585", "country": "US", "state": "MA", "display_address": ["7 E Main St", "West Brookfield, MA 01585"]}, "phone": "+15088679709", "display_phone": "(508) 867-9709", "distance": 5379.706121666786}, {"id": "9zY1OSIH3cq3_bk-QavVLg", "alias": "avellino-sturbridge", "name": "Avellino", "image_url": "https://s3-media1.fl.yelpcdn.com/bphoto/3eIoJ1HAzJ-4kgUXe4IPyw/o.jpg", "is_closed": false, "url": "https://www.yelp.com/biz/avellino-sturbridge?adjust_creative=asslzE1UV0XuKI953B1vtw&utm_campaign=yelp_api_v3&utm_medium=api_v3_business_search&utm_source=asslzE1UV0XuKI953B1vtw", "review_count": 60, "categories": [{"alias": "italian", "title": "Italian"}], "rating": 4.0, "coordinates": {"latitude": 42.115324, "longitude": -72.108366}, "transactions": ["delivery", "pickup"], "price": "$$", "location": {"address1": "502 Main St", "address2": "", "address3": "", "city": "Sturbridge", "zip_code": "01518", "country": "US", "state": "MA", "display_address": ["502 Main St", "Sturbridge, MA 01518"]}, "phone": "+15083472321", "display_phone": "(508) 347-2321", "distance": 11825.704028462444}, {"id": "OBhbnRg34SUC2CiWSg39zg", "alias": "b-t-s-smokehouse-sturbridge-3", "name": "B.T.'s Smokehouse", "image_url": "https://s3-media4.fl.yelpcdn.com/bphoto/1XoZm7kefHj1y6WChh0rcg/o.jpg", "is_closed": false, "url": "https://www.yelp.com/biz/b-t-s-smokehouse-sturbridge-3?adjust_creative=asslzE1UV0XuKI953B1vtw&utm_campaign=yelp_api_v3&utm_medium=api_v3_business_search&utm_source=asslzE1UV0XuKI953B1vtw", "review_count": 1039, "categories": [{"alias": "bbq", "title": "Barbeque"}, {"alias": "sandwiches", "title": "Sandwiches"}], "rating": 4.5, "coordinates": {"latitude": 42.111246811233, "longitude": -72.094700341653}, "transactions": ["delivery", "pickup"], "price": "$$", "location": {"address1": "392 Main St", "address2": "", "address3": "", "city": "Sturbridge", "zip_code": "01566", "country": "US", "state": "MA", "display_address": ["392 Main St", "Sturbridge, MA 01566"]}, "phone": "+15083473188", "display_phone": "(508) 347-3188", "distance": 12859.467672871644}, {"id": "UVo_ZqEbVZ3etybVhYOmLw", "alias": "wales-irish-pub-holland", "name": "Wales Irish Pub", "image_url": "https://s3-media2.fl.yelpcdn.com/bphoto/GpZVo9pR6Itx3P8e5697Zg/o.jpg", "is_closed": false, "url": "https://www.yelp.com/biz/wales-irish-pub-holland?adjust_creative=asslzE1UV0XuKI953B1vtw&utm_campaign=yelp_api_v3&utm_medium=api_v3_business_search&utm_source=asslzE1UV0XuKI953B1vtw", "review_count": 15, "categories": [{"alias": "irish_pubs", "title": "Irish Pub"}, {"alias": "tradamerican", "title": "American (Traditional)"}, {"alias": "diners", "title": "Diners"}], "rating": 4.5, "coordinates": {"latitude": 42.0777236263114, "longitude": -72.2023394443603}, "transactions": [], "price": "$$", "location": {"address1": "16 Holland Rd", "address2": "", "address3": "", "city": "Holland", "zip_code": "01521", "country": "US", "state": "MA", "display_address": ["16 Holland Rd", "Holland, MA 01521"]}, "phone": "+14132459730", "display_phone": "(413) 245-9730", "distance": 13912.862430521094}, {"id": "_M9tO4EUkGSL4mtSnECcrA", "alias": "teresas-restaurant-ware", "name": "Teresa's Restaurant", "image_url": "https://s3-media2.fl.yelpcdn.com/bphoto/O7o53uFX5smk1gOJzuoCzw/o.jpg", "is_closed": false, "url": "https://www.yelp.com/biz/teresas-restaurant-ware?adjust_creative=asslzE1UV0XuKI953B1vtw&utm_campaign=yelp_api_v3&utm_medium=api_v3_business_search&utm_source=asslzE1UV0XuKI953B1vtw", "review_count": 48, "categories": [{"alias": "pizza", "title": "Pizza"}, {"alias": "italian", "title": "Italian"}, {"alias": "venues", "title": "Venues & Event Spaces"}], "rating": 3.5, "coordinates": {"latitude": 42.24245, "longitude": -72.274393}, "transactions": [], "price": "$$", "location": {"address1": "315 Palmer Rd", "address2": "", "address3": "", "city": "Ware", "zip_code": "01082", "country": "US", "state": "MA", "display_address": ["315 Palmer Rd", "Ware, MA 01082"]}, "phone": "+14139677601", "display_phone": "(413) 967-7601", "distance": 8212.702213507055}, {"id": "Tl4vnrf3G4sSXzpSgvKczQ", "alias": "tables-at-the-farm-palmer", "name": "Tables at the Farm", "image_url": "https://s3-media1.fl.yelpcdn.com/bphoto/gpx2Q9o1H7Ijnpc2GYyF5w/o.jpg", "is_closed": false, "url": "https://www.yelp.com/biz/tables-at-the-farm-palmer?adjust_creative=asslzE1UV0XuKI953B1vtw&utm_campaign=yelp_api_v3&utm_medium=api_v3_business_search&utm_source=asslzE1UV0XuKI953B1vtw", "review_count": 19, "categories": [{"alias": "breakfast_brunch", "title": "Breakfast & Brunch"}, {"alias": "tradamerican", "title": "American (Traditional)"}], "rating": 4.0, "coordinates": {"latitude": 42.192764, "longitude": -72.35028967}, "transactions": [], "location": {"address1": "3092 Palmer St", "address2": "Ma-181", "address3": "", "city": "Palmer", "zip_code": "01069", "country": "US", "state": "MA", "display_address": ["3092 Palmer St", "Ma-181", "Palmer, MA 01069"]}, "phone": "+14133242986", "display_phone": "(413) 324-2986", "distance": 12796.63040298994}, {"id": "uAyUmojSQXzAhpTrOyF00A", "alias": "steaming-tender-restaurant-palmer", "name": "Steaming Tender Restaurant", "image_url": "https://s3-media4.fl.yelpcdn.com/bphoto/jSMFp3L69snOsgsKQWS5Cg/o.jpg", "is_closed": false, "url": "https://www.yelp.com/biz/steaming-tender-restaurant-palmer?adjust_creative=asslzE1UV0XuKI953B1vtw&utm_campaign=yelp_api_v3&utm_medium=api_v3_business_search&utm_source=asslzE1UV0XuKI953B1vtw", "review_count": 221, "categories": [{"alias": "tradamerican", "title": "American (Traditional)"}, {"alias": "bars", "title": "Bars"}, {"alias": "breakfast_brunch", "title": "Breakfast & Brunch"}], "rating": 4.0, "coordinates": {"latitude": 42.15578, "longitude": -72.3292}, "transactions": [], "price": "$$", "location": {"address1": "28 Depot St", "address2": "", "address3": "", "city": "Palmer", "zip_code": "01069", "country": "US", "state": "MA", "display_address": ["28 Depot St", "Palmer, MA 01069"]}, "phone": "+14132832744", "display_phone": "(413) 283-2744", "distance": 12553.611326627426}, {"id": "9CB1T3OCrceK3JRmagcoMA", "alias": "308-lakeside-east-brookfield", "name": "308 Lakeside", "image_url": "https://s3-media1.fl.yelpcdn.com/bphoto/u8Fqwre_2Owsm6MLE7bvIA/o.jpg", "is_closed": false, "url": "https://www.yelp.com/biz/308-lakeside-east-brookfield?adjust_creative=asslzE1UV0XuKI953B1vtw&utm_campaign=yelp_api_v3&utm_medium=api_v3_business_search&utm_source=asslzE1UV0XuKI953B1vtw", "review_count": 103, "categories": [{"alias": "newamerican", "title": "American (New)"}, {"alias": "beer_and_wine", "title": "Beer, Wine & Spirits"}], "rating": 3.0, "coordinates": {"latitude": 42.2270431518555, "longitude": -72.0465240478516}, "transactions": [], "price": "$$", "location": {"address1": "308 E Main St", "address2": "", "address3": "Rt 9", "city": "East Brookfield", "zip_code": "01515", "country": "US", "state": "MA", "display_address": ["308 E Main St", "Rt 9", "East Brookfield, MA 01515"]}, "phone": "+17744498333", "display_phone": "(774) 449-8333", "distance": 12156.90760913629}, {"id": "vDFiWgMLhkHSOxTwxUkuDg", "alias": "the-duck-sturbridge", "name": "The Duck", "image_url": "https://s3-media3.fl.yelpcdn.com/bphoto/_W2s1pipxpKFcC9m701RHw/o.jpg", "is_closed": false, "url": "https://www.yelp.com/biz/the-duck-sturbridge?adjust_creative=asslzE1UV0XuKI953B1vtw&utm_campaign=yelp_api_v3&utm_medium=api_v3_business_search&utm_source=asslzE1UV0XuKI953B1vtw", "review_count": 129, "categories": [{"alias": "newamerican", "title": "American (New)"}], "rating": 3.5, "coordinates": {"latitude": 42.1152532, "longitude": -72.1083662}, "transactions": ["delivery", "pickup"], "price": "$$", "location": {"address1": "502 Main St", "address2": "", "address3": "", "city": "Sturbridge", "zip_code": "01566", "country": "US", "state": "MA", "display_address": ["502 Main St", "Sturbridge, MA 01566"]}, "phone": "+15083472321", "display_phone": "(508) 347-2321", "distance": 11832.153403975628}, {"id": "PtAMmv9zA1q6y2NuKQNtPA", "alias": "pig-park-bbq-ware", "name": "Pig Park BBQ", "image_url": "https://s3-media2.fl.yelpcdn.com/bphoto/Iwqx3PvTvW2yy2hGxH5R8Q/o.jpg", "is_closed": false, "url": "https://www.yelp.com/biz/pig-park-bbq-ware?adjust_creative=asslzE1UV0XuKI953B1vtw&utm_campaign=yelp_api_v3&utm_medium=api_v3_business_search&utm_source=asslzE1UV0XuKI953B1vtw", "review_count": 13, "categories": [{"alias": "bbq", "title": "Barbeque"}], "rating": 4.0, "coordinates": {"latitude": 42.2599379693609, "longitude": -72.2281836193848}, "transactions": [], "price": "$$", "location": {"address1": "97 East St Rt 9", "address2": "", "address3": "Various Locations", "city": "Ware", "zip_code": "01082", "country": "US", "state": "MA", "display_address": ["97 East St Rt 9", "Various Locations", "Ware, MA 01082"]}, "phone": "+14135444712", "display_phone": "(413) 544-4712", "distance": 7097.8538709122295}, {"id": "tvP1MXfXcaJKD8pGyO31Mw", "alias": "matts-breakfast-nook-west-brookfield", "name": "Matt's Breakfast Nook", "image_url": "https://s3-media3.fl.yelpcdn.com/bphoto/BBidKu4IzxWx95_oclff3w/o.jpg", "is_closed": false, "url": "https://www.yelp.com/biz/matts-breakfast-nook-west-brookfield?adjust_creative=asslzE1UV0XuKI953B1vtw&utm_campaign=yelp_api_v3&utm_medium=api_v3_business_search&utm_source=asslzE1UV0XuKI953B1vtw", "review_count": 1, "categories": [{"alias": "breakfast_brunch", "title": "Breakfast & Brunch"}], "rating": 5.0, "coordinates": {"latitude": 42.2351378, "longitude": -72.1417457}, "transactions": [], "location": {"address1": "8 E Main St", "address2": "", "address3": null, "city": "West Brookfield", "zip_code": "01585", "country": "US", "state": "MA", "display_address": ["8 E Main St", "West Brookfield, MA 01585"]}, "phone": "+15086371166", "display_phone": "(508) 637-1166", "distance": 5409.377680381214}, {"id": "OgiLAYr-UVwtOJvN2xqP7w", "alias": "baba-sushi-sturbridge", "name": "Baba Sushi", "image_url": "https://s3-media1.fl.yelpcdn.com/bphoto/nBVAedHIhDbdMPa35AXT0w/o.jpg", "is_closed": false, "url": "https://www.yelp.com/biz/baba-sushi-sturbridge?adjust_creative=asslzE1UV0XuKI953B1vtw&utm_campaign=yelp_api_v3&utm_medium=api_v3_business_search&utm_source=asslzE1UV0XuKI953B1vtw", "review_count": 135, "categories": [{"alias": "japanese", "title": "Japanese"}, {"alias": "sushi", "title": "Sushi Bars"}, {"alias": "hotpot", "title": "Hot Pot"}], "rating": 4.0, "coordinates": {"latitude": 42.1131134033203, "longitude": -72.1032867431641}, "transactions": ["delivery", "restaurant_reservation", "pickup"], "price": "$$", "location": {"address1": "453 Main St", "address2": "", "address3": "", "city": "Sturbridge", "zip_code": "01518", "country": "US", "state": "MA", "display_address": ["453 Main St", "Sturbridge, MA 01518"]}, "phone": "+17743041068", "display_phone": "(774) 304-1068", "distance": 12245.374885331417}, {"id": "ca3CuO8cgZFfGWYE-t25Qg", "alias": "lins-garden-west-brookfield", "name": "Lin's Garden", "image_url": "https://s3-media4.fl.yelpcdn.com/bphoto/rWLFqA6Nvg7NGPsGDcSTXw/o.jpg", "is_closed": false, "url": "https://www.yelp.com/biz/lins-garden-west-brookfield?adjust_creative=asslzE1UV0XuKI953B1vtw&utm_campaign=yelp_api_v3&utm_medium=api_v3_business_search&utm_source=asslzE1UV0XuKI953B1vtw", "review_count": 38, "categories": [{"alias": "chinese", "title": "Chinese"}, {"alias": "soup", "title": "Soup"}, {"alias": "ramen", "title": "Ramen"}], "rating": 3.5, "coordinates": {"latitude": 42.233873, "longitude": -72.157657}, "transactions": ["delivery", "pickup"], "price": "$$", "location": {"address1": "152 W Main St", "address2": null, "address3": null, "city": "West Brookfield", "zip_code": "01585", "country": "US", "state": "MA", "display_address": ["152 W Main St", "West Brookfield, MA 01585"]}, "phone": "+15088674499", "display_phone": "(508) 867-4499", "distance": 4428.397282914544}, {"id": "SajwcXf2pvMEKwnB20qFiA", "alias": "homefield-kitchen-and-brewery-fiskdale", "name": "Homefield Kitchen & Brewery", "image_url": "https://s3-media3.fl.yelpcdn.com/bphoto/1-9CrFr4TXrMrZ6mrnYCNw/o.jpg", "is_closed": false, "url": "https://www.yelp.com/biz/homefield-kitchen-and-brewery-fiskdale?adjust_creative=asslzE1UV0XuKI953B1vtw&utm_campaign=yelp_api_v3&utm_medium=api_v3_business_search&utm_source=asslzE1UV0XuKI953B1vtw", "review_count": 55, "categories": [{"alias": "tapasmallplates", "title": "Tapas/Small Plates"}, {"alias": "sandwiches", "title": "Sandwiches"}, {"alias": "wine_bars", "title": "Wine Bars"}], "rating": 4.5, "coordinates": {"latitude": 42.1147600996541, "longitude": -72.1065116787681}, "transactions": [], "price": "$$", "location": {"address1": "3 Arnold Rd", "address2": "", "address3": null, "city": "Fiskdale", "zip_code": "01518", "country": "US", "state": "MA", "display_address": ["3 Arnold Rd", "Fiskdale, MA 01518"]}, "phone": "+17742426365", "display_phone": "(774) 242-6365", "distance": 11872.928940157652}, {"id": "t2YP9KwOFbufQ5CdDnGspw", "alias": "howards-drive-in-west-brookfield", "name": "Howards Drive In", "image_url": "https://s3-media1.fl.yelpcdn.com/bphoto/J29KRUefCK0T3bxmW4xEvw/o.jpg", "is_closed": false, "url": "https://www.yelp.com/biz/howards-drive-in-west-brookfield?adjust_creative=asslzE1UV0XuKI953B1vtw&utm_campaign=yelp_api_v3&utm_medium=api_v3_business_search&utm_source=asslzE1UV0XuKI953B1vtw", "review_count": 52, "categories": [{"alias": "tradamerican", "title": "American (Traditional)"}], "rating": 4.0, "coordinates": {"latitude": 42.2305, "longitude": -72.13282}, "transactions": [], "price": "$", "location": {"address1": "121 E Main St", "address2": "", "address3": "", "city": "West Brookfield", "zip_code": "01585", "country": "US", "state": "MA", "display_address": ["121 E Main St", "West Brookfield, MA 01585"]}, "phone": "+15088676504", "display_phone": "(508) 867-6504", "distance": 5681.872645938466}, {"id": "3NY6GIUCr-ZnypGT3kD-0w", "alias": "soup-to-nuts-fiskdale", "name": "Soup To Nuts", "image_url": "https://s3-media2.fl.yelpcdn.com/bphoto/UcDYXhgq9YT-y_ViHqxGjQ/o.jpg", "is_closed": false, "url": "https://www.yelp.com/biz/soup-to-nuts-fiskdale?adjust_creative=asslzE1UV0XuKI953B1vtw&utm_campaign=yelp_api_v3&utm_medium=api_v3_business_search&utm_source=asslzE1UV0XuKI953B1vtw", "review_count": 72, "categories": [{"alias": "tradamerican", "title": "American (Traditional)"}, {"alias": "salad", "title": "Salad"}, {"alias": "soup", "title": "Soup"}], "rating": 4.5, "coordinates": {"latitude": 42.11572, "longitude": -72.11337}, "transactions": ["delivery"], "price": "$", "location": {"address1": "559 Main St", "address2": "", "address3": "", "city": "Fiskdale", "zip_code": "01518", "country": "US", "state": "MA", "display_address": ["559 Main St", "Fiskdale, MA 01518"]}, "phone": "+15083479771", "display_phone": "(508) 347-9771", "distance": 11551.917710471067}, {"id": "fo_PdfhtHdZUvTR2QUgMCA", "alias": "teddy-gs-sturbridge-3", "name": "Teddy G's", "image_url": "https://s3-media4.fl.yelpcdn.com/bphoto/iI94KlYrZx8pMEBfy8olKg/o.jpg", "is_closed": false, "url": "https://www.yelp.com/biz/teddy-gs-sturbridge-3?adjust_creative=asslzE1UV0XuKI953B1vtw&utm_campaign=yelp_api_v3&utm_medium=api_v3_business_search&utm_source=asslzE1UV0XuKI953B1vtw", "review_count": 189, "categories": [{"alias": "pubs", "title": "Pubs"}, {"alias": "tradamerican", "title": "American (Traditional)"}], "rating": 4.0, "coordinates": {"latitude": 42.096327, "longitude": -72.072453}, "transactions": ["delivery"], "price": "$$", "location": {"address1": "179 Main St", "address2": "", "address3": "", "city": "Sturbridge", "zip_code": "01566", "country": "US", "state": "MA", "display_address": ["179 Main St", "Sturbridge, MA 01566"]}, "phone": "+15083471900", "display_phone": "(508) 347-1900", "distance": 15301.61380646159}, {"id": "AbtBV17tzg0-IqHnydKqsw", "alias": "francescos-restaurant-brimfield", "name": "Francesco's Restaurant", "image_url": "https://s3-media1.fl.yelpcdn.com/bphoto/1EZ14aKOmBthUK6d94z7Zg/o.jpg", "is_closed": false, "url": "https://www.yelp.com/biz/francescos-restaurant-brimfield?adjust_creative=asslzE1UV0XuKI953B1vtw&utm_campaign=yelp_api_v3&utm_medium=api_v3_business_search&utm_source=asslzE1UV0XuKI953B1vtw", "review_count": 43, "categories": [{"alias": "italian", "title": "Italian"}, {"alias": "pizza", "title": "Pizza"}], "rating": 3.5, "coordinates": {"latitude": 42.1200899, "longitude": -72.2150277}, "transactions": [], "price": "$$", "location": {"address1": "45 Palmer Rd", "address2": "", "address3": "", "city": "Brimfield", "zip_code": "01010", "country": "US", "state": "MA", "display_address": ["45 Palmer Rd", "Brimfield, MA 01010"]}, "phone": "+14132454640", "display_phone": "(413) 245-4640", "distance": 9388.226404264778}, {"id": "5XNM4ZhQAO64mQcEatrFpw", "alias": "angels-1376-palmer-restaurant-palmer", "name": "Angel's 1376 Palmer Restaurant", "image_url": "https://s3-media3.fl.yelpcdn.com/bphoto/1t1QlFaiIZlpnq_n4DQQzQ/o.jpg", "is_closed": false, "url": "https://www.yelp.com/biz/angels-1376-palmer-restaurant-palmer?adjust_creative=asslzE1UV0XuKI953B1vtw&utm_campaign=yelp_api_v3&utm_medium=api_v3_business_search&utm_source=asslzE1UV0XuKI953B1vtw", "review_count": 30, "categories": [{"alias": "breakfast_brunch", "title": "Breakfast & Brunch"}], "rating": 4.5, "coordinates": {"latitude": 42.1563998023598, "longitude": -72.3289753496647}, "transactions": [], "location": {"address1": "1376 Main St", "address2": "", "address3": null, "city": "Palmer", "zip_code": "01069", "country": "US", "state": "MA", "display_address": ["1376 Main St", "Palmer, MA 01069"]}, "phone": "+14132896956", "display_phone": "(413) 289-6956", "distance": 12512.442716580497}, {"id": "ZNH4DMILk2mdeYDM5GDfVw", "alias": "wrights-fish-and-chips-ware", "name": "Wrights Fish & Chips", "image_url": "", "is_closed": false, "url": "https://www.yelp.com/biz/wrights-fish-and-chips-ware?adjust_creative=asslzE1UV0XuKI953B1vtw&utm_campaign=yelp_api_v3&utm_medium=api_v3_business_search&utm_source=asslzE1UV0XuKI953B1vtw", "review_count": 3, "categories": [{"alias": "fishnchips", "title": "Fish & Chips"}], "rating": 3.0, "coordinates": {"latitude": 51.8108, "longitude": -0.02983}, "transactions": [], "location": {"address1": "3 East Street", "address2": "", "address3": "", "city": "Ware", "zip_code": "SG12 9HJ", "country": "GB", "state": "HRT", "display_address": ["3 East Street", "Ware SG12 9HJ", "United Kingdom"]}, "phone": "+441920462888", "display_phone": "+44 1920 462888", "distance": 7559.090967637288}, {"id": "aGFyqgUCXsusLVNCxZCGBw", "alias": "apple-barn-cafe-brimfield", "name": "Apple Barn Cafe", "image_url": "https://s3-media4.fl.yelpcdn.com/bphoto/3I9H6VSB6Aj4r2Q4WefGhw/o.jpg", "is_closed": false, "url": "https://www.yelp.com/biz/apple-barn-cafe-brimfield?adjust_creative=asslzE1UV0XuKI953B1vtw&utm_campaign=yelp_api_v3&utm_medium=api_v3_business_search&utm_source=asslzE1UV0XuKI953B1vtw", "review_count": 31, "categories": [{"alias": "cafes", "title": "Cafes"}], "rating": 4.5, "coordinates": {"latitude": 42.120546, "longitude": -72.216371}, "transactions": [], "price": "$", "location": {"address1": "52 Palmer Rd", "address2": null, "address3": null, "city": "Brimfield", "zip_code": "01010", "country": "US", "state": "MA", "display_address": ["52 Palmer Rd", "Brimfield, MA 01010"]}, "phone": "+14132454575", "display_phone": "(413) 245-4575", "distance": 9363.324279453003}, {"id": "T04Zol_-RBaQowkVUSlWGw", "alias": "yummy-asian-cuisine-palmer", "name": "Yummy Asian cuisine", "image_url": "https://s3-media2.fl.yelpcdn.com/bphoto/_nUjtBsR4HG_B5HWhWqDaw/o.jpg", "is_closed": false, "url": "https://www.yelp.com/biz/yummy-asian-cuisine-palmer?adjust_creative=asslzE1UV0XuKI953B1vtw&utm_campaign=yelp_api_v3&utm_medium=api_v3_business_search&utm_source=asslzE1UV0XuKI953B1vtw", "review_count": 24, "categories": [{"alias": "asianfusion", "title": "Asian Fusion"}], "rating": 4.5, "coordinates": {"latitude": 42.15904, "longitude": -72.3289999}, "transactions": [], "price": "$$", "location": {"address1": "1033 Thorndike St", "address2": null, "address3": "", "city": "Palmer", "zip_code": "01069", "country": "US", "state": "MA", "display_address": ["1033 Thorndike St", "Palmer, MA 01069"]}, "phone": "+14132836888", "display_phone": "(413) 283-6888", "distance": 12410.330795497726}, {"id": "sZ0p22_iFpei323pgUw8tQ", "alias": "old-village-grille-fiskdale", "name": "Old Village Grille", "image_url": "https://s3-media3.fl.yelpcdn.com/bphoto/RssS41UL5bJws7tgFmEnAA/o.jpg", "is_closed": false, "url": "https://www.yelp.com/biz/old-village-grille-fiskdale?adjust_creative=asslzE1UV0XuKI953B1vtw&utm_campaign=yelp_api_v3&utm_medium=api_v3_business_search&utm_source=asslzE1UV0XuKI953B1vtw", "review_count": 85, "categories": [{"alias": "breakfast_brunch", "title": "Breakfast & Brunch"}], "rating": 4.5, "coordinates": {"latitude": 42.1167144775391, "longitude": -72.1180419921875}, "transactions": [], "price": "$$", "location": {"address1": "25 Brookfield Rd", "address2": "", "address3": "", "city": "Fiskdale", "zip_code": "01518", "country": "US", "state": "MA", "display_address": ["25 Brookfield Rd", "Fiskdale, MA 01518"]}, "phone": "+15083472255", "display_phone": "(508) 347-2255", "distance": 11258.689794308899}, {"id": "s8ifd_imgK2jH0m0eZDntQ", "alias": "georges-pizza-and-subs-west-brookfield", "name": "George's Pizza and Subs", "image_url": "https://s3-media4.fl.yelpcdn.com/bphoto/Ch0ooY7hZwaElbMHeHk4Yw/o.jpg", "is_closed": false, "url": "https://www.yelp.com/biz/georges-pizza-and-subs-west-brookfield?adjust_creative=asslzE1UV0XuKI953B1vtw&utm_campaign=yelp_api_v3&utm_medium=api_v3_business_search&utm_source=asslzE1UV0XuKI953B1vtw", "review_count": 27, "categories": [{"alias": "salad", "title": "Salad"}, {"alias": "pizza", "title": "Pizza"}, {"alias": "sandwiches", "title": "Sandwiches"}], "rating": 3.5, "coordinates": {"latitude": 42.2348093, "longitude": -72.1424106}, "transactions": [], "price": "$", "location": {"address1": "4 East Main St", "address2": "", "address3": "", "city": "West Brookfield", "zip_code": "01585", "country": "US", "state": "MA", "display_address": ["4 East Main St", "West Brookfield, MA 01585"]}, "phone": "+15088678100", "display_phone": "(508) 867-8100", "distance": 5342.773168606215}, {"id": "USutlpAeiWDKGUnbOxz_HA", "alias": "debbie-wong-ware", "name": "Debbie Wong", "image_url": "https://s3-media4.fl.yelpcdn.com/bphoto/e5sprMEJfRyWwY1CoJryiQ/o.jpg", "is_closed": false, "url": "https://www.yelp.com/biz/debbie-wong-ware?adjust_creative=asslzE1UV0XuKI953B1vtw&utm_campaign=yelp_api_v3&utm_medium=api_v3_business_search&utm_source=asslzE1UV0XuKI953B1vtw", "review_count": 23, "categories": [{"alias": "chinese", "title": "Chinese"}], "rating": 4.0, "coordinates": {"latitude": 42.2601, "longitude": -72.24562}, "transactions": [], "price": "$$", "location": {"address1": "54 W Main St", "address2": "", "address3": "", "city": "Ware", "zip_code": "01082", "country": "US", "state": "MA", "display_address": ["54 W Main St", "Ware, MA 01082"]}, "phone": "+14139673336", "display_phone": "(413) 967-3336", "distance": 7856.40042510474}, {"id": "fVDP7GSAhHEkMOf0J3Jw6A", "alias": "giovanellos-italian-market-sturbridge", "name": "Giovanello's Italian Market", "image_url": "https://s3-media1.fl.yelpcdn.com/bphoto/MooOeoC7O4GOJ-Rv7jZVWw/o.jpg", "is_closed": false, "url": "https://www.yelp.com/biz/giovanellos-italian-market-sturbridge?adjust_creative=asslzE1UV0XuKI953B1vtw&utm_campaign=yelp_api_v3&utm_medium=api_v3_business_search&utm_source=asslzE1UV0XuKI953B1vtw", "review_count": 12, "categories": [{"alias": "italian", "title": "Italian"}, {"alias": "catering", "title": "Caterers"}], "rating": 4.5, "coordinates": {"latitude": 42.09389, "longitude": -72.06961}, "transactions": ["delivery"], "price": "$$", "location": {"address1": "139 Main St", "address2": "", "address3": "", "city": "Sturbridge", "zip_code": "01566", "country": "US", "state": "MA", "display_address": ["139 Main St", "Sturbridge, MA 01566"]}, "phone": "+15083471440", "display_phone": "(508) 347-1440", "distance": 15653.979693094996}, {"id": "aJleDSvGLb0dLrH8GPbVPg", "alias": "westview-farm-creamery-monson", "name": "Westview Farm Creamery", "image_url": "https://s3-media3.fl.yelpcdn.com/bphoto/g1oJzsOrHki5eDoyXoNsXA/o.jpg", "is_closed": false, "url": "https://www.yelp.com/biz/westview-farm-creamery-monson?adjust_creative=asslzE1UV0XuKI953B1vtw&utm_campaign=yelp_api_v3&utm_medium=api_v3_business_search&utm_source=asslzE1UV0XuKI953B1vtw", "review_count": 44, "categories": [{"alias": "icecream", "title": "Ice Cream & Frozen Yogurt"}, {"alias": "tradamerican", "title": "American (Traditional)"}], "rating": 4.0, "coordinates": {"latitude": 42.09952, "longitude": -72.2844}, "transactions": [], "price": "$", "location": {"address1": "111 E Hill Rd", "address2": "", "address3": "", "city": "Monson", "zip_code": "01057", "country": "US", "state": "MA", "display_address": ["111 E Hill Rd", "Monson, MA 01057"]}, "phone": "+14132675355", "display_phone": "(413) 267-5355", "distance": 13832.242206863413}, {"id": "3D10PFQnnqC94qkXe5TNqA", "alias": "enricos-brick-oven-pizzeria-sturbridge", "name": "Enricos Brick Oven Pizzeria", "image_url": "https://s3-media1.fl.yelpcdn.com/bphoto/40yl_J9bJfA4E7Z-z9g4VQ/o.jpg", "is_closed": false, "url": "https://www.yelp.com/biz/enricos-brick-oven-pizzeria-sturbridge?adjust_creative=asslzE1UV0XuKI953B1vtw&utm_campaign=yelp_api_v3&utm_medium=api_v3_business_search&utm_source=asslzE1UV0XuKI953B1vtw", "review_count": 131, "categories": [{"alias": "pizza", "title": "Pizza"}], "rating": 3.5, "coordinates": {"latitude": 42.11526, "longitude": -72.1077}, "transactions": ["delivery"], "price": "$$", "location": {"address1": "500 Main St", "address2": "", "address3": "", "city": "Sturbridge", "zip_code": "01518", "country": "US", "state": "MA", "display_address": ["500 Main St", "Sturbridge, MA 01518"]}, "phone": "+15083471740", "display_phone": "(508) 347-1740", "distance": 11845.422686738095}, {"id": "fTjZuicdfTMW8ZFve_JEkA", "alias": "marios-restaurant-southbridge", "name": "Mario's Restaurant", "image_url": "https://s3-media1.fl.yelpcdn.com/bphoto/w_AlEsorko1sKvhkG5C5jg/o.jpg", "is_closed": false, "url": "https://www.yelp.com/biz/marios-restaurant-southbridge?adjust_creative=asslzE1UV0XuKI953B1vtw&utm_campaign=yelp_api_v3&utm_medium=api_v3_business_search&utm_source=asslzE1UV0XuKI953B1vtw", "review_count": 17, "categories": [{"alias": "italian", "title": "Italian"}, {"alias": "steak", "title": "Steakhouses"}, {"alias": "seafood", "title": "Seafood"}], "rating": 4.0, "coordinates": {"latitude": 42.0760172, "longitude": -72.0329052}, "transactions": ["delivery"], "price": "$$", "location": {"address1": "52 Central St", "address2": "", "address3": "", "city": "Southbridge", "zip_code": "01550", "country": "US", "state": "MA", "display_address": ["52 Central St", "Southbridge, MA 01550"]}, "phone": "+15087648009", "display_phone": "(508) 764-8009", "distance": 19146.502509390277}, {"id": "1rd3Z8l2Ldh5GS2nhNintA", "alias": "rose32-bread-gilbertville", "name": "Rose32 Bread", "image_url": "https://s3-media1.fl.yelpcdn.com/bphoto/CYAKfGeh5XCrTses4exOhw/o.jpg", "is_closed": false, "url": "https://www.yelp.com/biz/rose32-bread-gilbertville?adjust_creative=asslzE1UV0XuKI953B1vtw&utm_campaign=yelp_api_v3&utm_medium=api_v3_business_search&utm_source=asslzE1UV0XuKI953B1vtw", "review_count": 85, "categories": [{"alias": "bakeries", "title": "Bakeries"}, {"alias": "breakfast_brunch", "title": "Breakfast & Brunch"}, {"alias": "tradamerican", "title": "American (Traditional)"}], "rating": 4.5, "coordinates": {"latitude": 42.304067, "longitude": -72.211452}, "transactions": [], "price": "$$", "location": {"address1": "412 Main St", "address2": "", "address3": "", "city": "Gilbertville", "zip_code": "01031", "country": "US", "state": "MA", "display_address": ["412 Main St", "Gilbertville, MA 01031"]}, "phone": "+14134779930", "display_phone": "(413) 477-9930", "distance": 11421.019003959824}, {"id": "3Z9VY5355u-Pk8mqPSeNgQ", "alias": "kaizen-sushi-bar-and-grill-fiskdale", "name": "Kaizen Sushi Bar & Grill", "image_url": "https://s3-media2.fl.yelpcdn.com/bphoto/2louFb67l58quUoQ92F6Cg/o.jpg", "is_closed": false, "url": "https://www.yelp.com/biz/kaizen-sushi-bar-and-grill-fiskdale?adjust_creative=asslzE1UV0XuKI953B1vtw&utm_campaign=yelp_api_v3&utm_medium=api_v3_business_search&utm_source=asslzE1UV0XuKI953B1vtw", "review_count": 209, "categories": [{"alias": "sushi", "title": "Sushi Bars"}, {"alias": "japanese", "title": "Japanese"}, {"alias": "seafood", "title": "Seafood"}], "rating": 4.5, "coordinates": {"latitude": 42.1140959214547, "longitude": -72.1061149612069}, "transactions": ["delivery"], "price": "$$", "location": {"address1": "479 Main St", "address2": "", "address3": "", "city": "Fiskdale", "zip_code": "01518", "country": "US", "state": "MA", "display_address": ["479 Main St", "Fiskdale, MA 01518"]}, "phone": "+15083471088", "display_phone": "(508) 347-1088", "distance": 12044.14203490929}, {"id": "W-if4K_9EljWBdVzXlb4SA", "alias": "black-and-white-grille-spencer", "name": "Black & White Grille", "image_url": "https://s3-media2.fl.yelpcdn.com/bphoto/UWWwnpVVKt-ypz8S9tD79A/o.jpg", "is_closed": false, "url": "https://www.yelp.com/biz/black-and-white-grille-spencer?adjust_creative=asslzE1UV0XuKI953B1vtw&utm_campaign=yelp_api_v3&utm_medium=api_v3_business_search&utm_source=asslzE1UV0XuKI953B1vtw", "review_count": 78, "categories": [{"alias": "tradamerican", "title": "American (Traditional)"}, {"alias": "italian", "title": "Italian"}, {"alias": "seafood", "title": "Seafood"}], "rating": 3.5, "coordinates": {"latitude": 42.302455, "longitude": -71.989682}, "transactions": [], "price": "$$", "location": {"address1": "206 N Spencer Rd", "address2": "", "address3": "", "city": "Spencer", "zip_code": "01562", "country": "US", "state": "MA", "display_address": ["206 N Spencer Rd", "Spencer, MA 01562"]}, "phone": "+15088855018", "display_phone": "(508) 885-5018", "distance": 19916.570832539455}, {"id": "8r4ilmXIWyFI5Xu_zR5ILA", "alias": "asian-garden-ware", "name": "Asian Garden", "image_url": "https://s3-media4.fl.yelpcdn.com/bphoto/E45FppSufn2iRvshzJY6Yw/o.jpg", "is_closed": false, "url": "https://www.yelp.com/biz/asian-garden-ware?adjust_creative=asslzE1UV0XuKI953B1vtw&utm_campaign=yelp_api_v3&utm_medium=api_v3_business_search&utm_source=asslzE1UV0XuKI953B1vtw", "review_count": 24, "categories": [{"alias": "chinese", "title": "Chinese"}, {"alias": "asianfusion", "title": "Asian Fusion"}], "rating": 4.0, "coordinates": {"latitude": 42.255543, "longitude": -72.249445}, "transactions": [], "price": "$$", "location": {"address1": "124 West St", "address2": "Ste 4", "address3": "", "city": "Ware", "zip_code": "01082", "country": "US", "state": "MA", "display_address": ["124 West St", "Ste 4", "Ware, MA 01082"]}, "phone": "+14132770725", "display_phone": "(413) 277-0725", "distance": 7667.214951770914}, {"id": "FhaArV8Sex3wL-Wyv6MQuw", "alias": "gin-mill-palmer", "name": "Gin Mill", "image_url": "https://s3-media1.fl.yelpcdn.com/bphoto/hzab8IojP7MVbmN__a9RtQ/o.jpg", "is_closed": false, "url": "https://www.yelp.com/biz/gin-mill-palmer?adjust_creative=asslzE1UV0XuKI953B1vtw&utm_campaign=yelp_api_v3&utm_medium=api_v3_business_search&utm_source=asslzE1UV0XuKI953B1vtw", "review_count": 11, "categories": [{"alias": "divebars", "title": "Dive Bars"}, {"alias": "tradamerican", "title": "American (Traditional)"}], "rating": 4.5, "coordinates": {"latitude": 42.213802, "longitude": -72.344717}, "transactions": [], "price": "$", "location": {"address1": "3095 Main St", "address2": "", "address3": "", "city": "Palmer", "zip_code": "01069", "country": "US", "state": "MA", "display_address": ["3095 Main St", "Palmer, MA 01069"]}, "phone": "+14132832014", "display_phone": "(413) 283-2014", "distance": 12765.410914622762}, {"id": "BR-rauP8Dl8iRI1xEOJLlw", "alias": "thai-house-restaurant-east-brookfield", "name": "Thai House Restaurant", "image_url": "https://s3-media3.fl.yelpcdn.com/bphoto/Xk332iy5p35LkQyZbVl6-Q/o.jpg", "is_closed": false, "url": "https://www.yelp.com/biz/thai-house-restaurant-east-brookfield?adjust_creative=asslzE1UV0XuKI953B1vtw&utm_campaign=yelp_api_v3&utm_medium=api_v3_business_search&utm_source=asslzE1UV0XuKI953B1vtw", "review_count": 38, "categories": [{"alias": "thai", "title": "Thai"}], "rating": 4.0, "coordinates": {"latitude": 42.2274131, "longitude": -72.0419256}, "transactions": [], "price": "$$", "location": {"address1": "355 E Main St", "address2": "", "address3": "", "city": "East Brookfield", "zip_code": "01515", "country": "US", "state": "MA", "display_address": ["355 E Main St", "East Brookfield, MA 01515"]}, "phone": "+15088674900", "display_phone": "(508) 867-4900", "distance": 12553.014530639992}, {"id": "Sot1yKepx0fuZ8hS8FT9aw", "alias": "burrito-hut-southbridge", "name": "Burrito Hut", "image_url": "https://s3-media1.fl.yelpcdn.com/bphoto/Zg0Nkz_FAVSCq0_LIVVISA/o.jpg", "is_closed": false, "url": "https://www.yelp.com/biz/burrito-hut-southbridge?adjust_creative=asslzE1UV0XuKI953B1vtw&utm_campaign=yelp_api_v3&utm_medium=api_v3_business_search&utm_source=asslzE1UV0XuKI953B1vtw", "review_count": 51, "categories": [{"alias": "tex-mex", "title": "Tex-Mex"}, {"alias": "mexican", "title": "Mexican"}, {"alias": "desserts", "title": "Desserts"}], "rating": 4.5, "coordinates": {"latitude": 42.0819542527904, "longitude": -72.0476240292192}, "transactions": ["delivery"], "price": "$", "location": {"address1": "936 Main St", "address2": "", "address3": "", "city": "Southbridge", "zip_code": "01550", "country": "US", "state": "MA", "display_address": ["936 Main St", "Southbridge, MA 01550"]}, "phone": "", "display_phone": "", "distance": 17846.409111261117}, {"id": "rNGs_-Ef-MWjnyQxMjarMw", "alias": "haymakers-grille-spencer", "name": "Haymakers Grille", "image_url": "https://s3-media4.fl.yelpcdn.com/bphoto/E72MqmerZQ4x1owwHKkuKQ/o.jpg", "is_closed": false, "url": "https://www.yelp.com/biz/haymakers-grille-spencer?adjust_creative=asslzE1UV0XuKI953B1vtw&utm_campaign=yelp_api_v3&utm_medium=api_v3_business_search&utm_source=asslzE1UV0XuKI953B1vtw", "review_count": 2, "categories": [{"alias": "tradamerican", "title": "American (Traditional)"}, {"alias": "breakfast_brunch", "title": "Breakfast & Brunch"}], "rating": 5.0, "coordinates": {"latitude": 42.243512, "longitude": -71.993321}, "transactions": [], "location": {"address1": "152 Main St", "address2": "", "address3": null, "city": "Spencer", "zip_code": "01562", "country": "US", "state": "MA", "display_address": ["152 Main St", "Spencer, MA 01562"]}, "phone": "+17747458095", "display_phone": "(774) 745-8095", "distance": 16862.705105087247}, {"id": "QAYlKRxw_hdSe8PjkVbgrg", "alias": "alvin-rondeaus-dairy-bar-palmer", "name": "Alvin Rondeau's Dairy Bar", "image_url": "https://s3-media2.fl.yelpcdn.com/bphoto/P7hATNpoqavOsVP2iG9akg/o.jpg", "is_closed": false, "url": "https://www.yelp.com/biz/alvin-rondeaus-dairy-bar-palmer?adjust_creative=asslzE1UV0XuKI953B1vtw&utm_campaign=yelp_api_v3&utm_medium=api_v3_business_search&utm_source=asslzE1UV0XuKI953B1vtw", "review_count": 33, "categories": [{"alias": "foodstands", "title": "Food Stands"}, {"alias": "hotdog", "title": "Hot Dogs"}, {"alias": "seafood", "title": "Seafood"}], "rating": 4.0, "coordinates": {"latitude": 42.21143, "longitude": -72.3027}, "transactions": [], "price": "$", "location": {"address1": "1300 Ware St", "address2": "", "address3": "", "city": "Palmer", "zip_code": "01069", "country": "US", "state": "MA", "display_address": ["1300 Ware St", "Palmer, MA 01069"]}, "phone": "+14132835281", "display_phone": "(413) 283-5281", "distance": 9301.61095101664}, {"id": "P4qT5mxnKXKpdE4G3WIUYA", "alias": "dianes-villa-nova-holland", "name": "Dianes Villa Nova", "image_url": "https://s3-media3.fl.yelpcdn.com/bphoto/Xs8GdYVdbJAcdCsR6WLUfg/o.jpg", "is_closed": false, "url": "https://www.yelp.com/biz/dianes-villa-nova-holland?adjust_creative=asslzE1UV0XuKI953B1vtw&utm_campaign=yelp_api_v3&utm_medium=api_v3_business_search&utm_source=asslzE1UV0XuKI953B1vtw", "review_count": 24, "categories": [{"alias": "italian", "title": "Italian"}], "rating": 4.0, "coordinates": {"latitude": 42.0660911, "longitude": -72.1638886}, "transactions": [], "price": "$$", "location": {"address1": "5 Brimfield Rd", "address2": "", "address3": "", "city": "Holland", "zip_code": "01521", "country": "US", "state": "MA", "display_address": ["5 Brimfield Rd", "Holland, MA 01521"]}, "phone": "+14132459090", "display_phone": "(413) 245-9090", "distance": 15329.484602128092}, {"id": "ZfVtwS5deJcw1Qcr2q3GwA", "alias": "fins-and-tales-southbridge", "name": "Fins & Tales", "image_url": "https://s3-media3.fl.yelpcdn.com/bphoto/21niY_8sWaV5lTWr4GAsuw/o.jpg", "is_closed": false, "url": "https://www.yelp.com/biz/fins-and-tales-southbridge?adjust_creative=asslzE1UV0XuKI953B1vtw&utm_campaign=yelp_api_v3&utm_medium=api_v3_business_search&utm_source=asslzE1UV0XuKI953B1vtw", "review_count": 78, "categories": [{"alias": "seafood", "title": "Seafood"}, {"alias": "bars", "title": "Bars"}, {"alias": "steak", "title": "Steakhouses"}], "rating": 3.5, "coordinates": {"latitude": 42.0812139, "longitude": -72.0454595}, "transactions": ["delivery"], "price": "$$", "location": {"address1": "858 Main St", "address2": "", "address3": "", "city": "Southbridge", "zip_code": "01550", "country": "US", "state": "MA", "display_address": ["858 Main St", "Southbridge, MA 01550"]}, "phone": "+15087643349", "display_phone": "(508) 764-3349", "distance": 17963.349171576676}, {"id": "yIhVtwTmftVIpNYcxf9yMA", "alias": "statz-sports-pub-and-grill-north-brookfield", "name": "Statz Sports Pub & Grill", "image_url": "https://s3-media3.fl.yelpcdn.com/bphoto/iOISgzMcfKXM9LCMMpr-xw/o.jpg", "is_closed": false, "url": "https://www.yelp.com/biz/statz-sports-pub-and-grill-north-brookfield?adjust_creative=asslzE1UV0XuKI953B1vtw&utm_campaign=yelp_api_v3&utm_medium=api_v3_business_search&utm_source=asslzE1UV0XuKI953B1vtw", "review_count": 5, "categories": [{"alias": "breakfast_brunch", "title": "Breakfast & Brunch"}, {"alias": "pubs", "title": "Pubs"}], "rating": 5.0, "coordinates": {"latitude": 42.275866, "longitude": -72.083283}, "transactions": [], "price": "$", "location": {"address1": "341 N Main St", "address2": "", "address3": null, "city": "North Brookfield", "zip_code": "01535", "country": "US", "state": "MA", "display_address": ["341 N Main St", "North Brookfield, MA 01535"]}, "phone": "+15088677204", "display_phone": "(508) 867-7204", "distance": 12016.036853675867}, {"id": "7Tw9y8vw6X94LfKhTZK28Q", "alias": "red-baron-diner-southbridge", "name": "Red Baron Diner", "image_url": "https://s3-media3.fl.yelpcdn.com/bphoto/4IB87F-gVrUe4ppqAjfoag/o.jpg", "is_closed": false, "url": "https://www.yelp.com/biz/red-baron-diner-southbridge?adjust_creative=asslzE1UV0XuKI953B1vtw&utm_campaign=yelp_api_v3&utm_medium=api_v3_business_search&utm_source=asslzE1UV0XuKI953B1vtw", "review_count": 17, "categories": [{"alias": "breakfast_brunch", "title": "Breakfast & Brunch"}, {"alias": "diners", "title": "Diners"}, {"alias": "sandwiches", "title": "Sandwiches"}], "rating": 5.0, "coordinates": {"latitude": 42.1014830050289, "longitude": -72.0381578430533}, "transactions": [], "location": {"address1": "220 Airport Access Rd", "address2": "", "address3": null, "city": "Southbridge", "zip_code": "01550", "country": "US", "state": "MA", "display_address": ["220 Airport Access Rd", "Southbridge, MA 01550"]}, "phone": "+15087655800", "display_phone": "(508) 765-5800", "distance": 16850.049833655616}, {"id": "Dlc_rrsrn7dBsnSOk1K0rA", "alias": "main-street-tavern-monson", "name": "Main Street Tavern", "image_url": "https://s3-media2.fl.yelpcdn.com/bphoto/A_2LpBoslXhrYltOad_VLw/o.jpg", "is_closed": false, "url": "https://www.yelp.com/biz/main-street-tavern-monson?adjust_creative=asslzE1UV0XuKI953B1vtw&utm_campaign=yelp_api_v3&utm_medium=api_v3_business_search&utm_source=asslzE1UV0XuKI953B1vtw", "review_count": 9, "categories": [{"alias": "beer_and_wine", "title": "Beer, Wine & Spirits"}, {"alias": "tapasmallplates", "title": "Tapas/Small Plates"}, {"alias": "sandwiches", "title": "Sandwiches"}], "rating": 4.0, "coordinates": {"latitude": 42.0961932, "longitude": -72.3123868}, "transactions": [], "location": {"address1": "218 Main St", "address2": "", "address3": null, "city": "Monson", "zip_code": "01057", "country": "US", "state": "MA", "display_address": ["218 Main St", "Monson, MA 01057"]}, "phone": "+14138939078", "display_phone": "(413) 893-9078", "distance": 15513.415964379341}, {"id": "yPx4L-3zWVT4bhD9wofJ0Q", "alias": "the-dashboard-diner-spencer", "name": "The Dashboard Diner", "image_url": "https://s3-media2.fl.yelpcdn.com/bphoto/eUHqsO9dzowr6TZxXLuwGg/o.jpg", "is_closed": false, "url": "https://www.yelp.com/biz/the-dashboard-diner-spencer?adjust_creative=asslzE1UV0XuKI953B1vtw&utm_campaign=yelp_api_v3&utm_medium=api_v3_business_search&utm_source=asslzE1UV0XuKI953B1vtw", "review_count": 7, "categories": [{"alias": "hotdog", "title": "Hot Dogs"}, {"alias": "burgers", "title": "Burgers"}, {"alias": "fishnchips", "title": "Fish & Chips"}], "rating": 5.0, "coordinates": {"latitude": 42.2376279610392, "longitude": -72.0048223919266}, "transactions": [], "price": "$", "location": {"address1": "6 W Main St", "address2": null, "address3": "", "city": "Spencer", "zip_code": "01562", "country": "US", "state": "MA", "display_address": ["6 W Main St", "Spencer, MA 01562"]}, "phone": "+15088645472", "display_phone": "(508) 864-5472", "distance": 15778.177368874258}, {"id": "muaz7D4kw9jGxtkkO297mg", "alias": "five-loaves-bakery-spencer", "name": "Five Loaves Bakery", "image_url": "https://s3-media2.fl.yelpcdn.com/bphoto/ZmhW-JBIdDp6h0bQ9a6iTA/o.jpg", "is_closed": false, "url": "https://www.yelp.com/biz/five-loaves-bakery-spencer?adjust_creative=asslzE1UV0XuKI953B1vtw&utm_campaign=yelp_api_v3&utm_medium=api_v3_business_search&utm_source=asslzE1UV0XuKI953B1vtw", "review_count": 34, "categories": [{"alias": "bakeries", "title": "Bakeries"}, {"alias": "cafes", "title": "Cafes"}, {"alias": "tradamerican", "title": "American (Traditional)"}], "rating": 4.5, "coordinates": {"latitude": 42.2433319091797, "longitude": -71.9930953979492}, "transactions": [], "price": "$$", "location": {"address1": "13 Mechanic St", "address2": null, "address3": null, "city": "Spencer", "zip_code": "01562", "country": "US", "state": "MA", "display_address": ["13 Mechanic St", "Spencer, MA 01562"]}, "phone": "+15088853760", "display_phone": "(508) 885-3760", "distance": 16861.266615906483}, {"id": "r_Zv8AQJ7V8_Bc5H275Zmw", "alias": "wen-ming-house-palmer", "name": "Wen Ming House", "image_url": "https://s3-media4.fl.yelpcdn.com/bphoto/_uqi-cjB7PvInUbkDJWcLQ/o.jpg", "is_closed": false, "url": "https://www.yelp.com/biz/wen-ming-house-palmer?adjust_creative=asslzE1UV0XuKI953B1vtw&utm_campaign=yelp_api_v3&utm_medium=api_v3_business_search&utm_source=asslzE1UV0XuKI953B1vtw", "review_count": 56, "categories": [{"alias": "sushi", "title": "Sushi Bars"}, {"alias": "chinese", "title": "Chinese"}, {"alias": "japanese", "title": "Japanese"}], "rating": 4.5, "coordinates": {"latitude": 42.1581185, "longitude": -72.3303866}, "transactions": [], "price": "$$", "location": {"address1": "1427 N Main St", "address2": "", "address3": "", "city": "Palmer", "zip_code": "01069", "country": "US", "state": "MA", "display_address": ["1427 N Main St", "Palmer, MA 01069"]}, "phone": "+14132896478", "display_phone": "(413) 289-6478", "distance": 12541.973401879186}, {"id": "Yom8r1dLF2HMO5aSwII0Lw", "alias": "charlies-diner-spencer", "name": "Charlies Diner", "image_url": "https://s3-media4.fl.yelpcdn.com/bphoto/Luprqfrv0Q_XSTQkE10zqQ/o.jpg", "is_closed": false, "url": "https://www.yelp.com/biz/charlies-diner-spencer?adjust_creative=asslzE1UV0XuKI953B1vtw&utm_campaign=yelp_api_v3&utm_medium=api_v3_business_search&utm_source=asslzE1UV0XuKI953B1vtw", "review_count": 99, "categories": [{"alias": "diners", "title": "Diners"}], "rating": 3.0, "coordinates": {"latitude": 42.237049280598, "longitude": -72.010635589954}, "transactions": [], "price": "$$", "location": {"address1": "5 Meadow Rd", "address2": null, "address3": null, "city": "Spencer", "zip_code": "01562", "country": "US", "state": "MA", "display_address": ["5 Meadow Rd", "Spencer, MA 01562"]}, "phone": "+15088854033", "display_phone": "(508) 885-4033", "distance": 15298.60078005033}, {"id": "o3g3py94erorbByKE47i2g", "alias": "marias-pizzeria-and-seafood-monson", "name": "Maria's Pizzeria & Seafood", "image_url": "https://s3-media1.fl.yelpcdn.com/bphoto/RepwC3NKpAJLyYzPQqUCHA/o.jpg", "is_closed": false, "url": "https://www.yelp.com/biz/marias-pizzeria-and-seafood-monson?adjust_creative=asslzE1UV0XuKI953B1vtw&utm_campaign=yelp_api_v3&utm_medium=api_v3_business_search&utm_source=asslzE1UV0XuKI953B1vtw", "review_count": 16, "categories": [{"alias": "seafood", "title": "Seafood"}, {"alias": "pizza", "title": "Pizza"}], "rating": 4.5, "coordinates": {"latitude": 42.104267, "longitude": -72.317604}, "transactions": [], "price": "$$", "location": {"address1": "52 Main St", "address2": "", "address3": "", "city": "Monson", "zip_code": "01057", "country": "US", "state": "MA", "display_address": ["52 Main St", "Monson, MA 01057"]}, "phone": "+14132670111", "display_phone": "(413) 267-0111", "distance": 15139.815258505221}, {"id": "M5Simi8q6gjwA9yngORcwg", "alias": "lazers-pizza-and-roast-beef-ware-2", "name": "Lazer's Pizza & Roast Beef", "image_url": "https://s3-media4.fl.yelpcdn.com/bphoto/4k1itVfqoWojH6QJtS4isA/o.jpg", "is_closed": false, "url": "https://www.yelp.com/biz/lazers-pizza-and-roast-beef-ware-2?adjust_creative=asslzE1UV0XuKI953B1vtw&utm_campaign=yelp_api_v3&utm_medium=api_v3_business_search&utm_source=asslzE1UV0XuKI953B1vtw", "review_count": 27, "categories": [{"alias": "pizza", "title": "Pizza"}], "rating": 4.5, "coordinates": {"latitude": 42.2599814229054, "longitude": -72.2400694034169}, "transactions": [], "price": "$", "location": {"address1": "41 Main St", "address2": "", "address3": "", "city": "Ware", "zip_code": "01082", "country": "US", "state": "MA", "display_address": ["41 Main St", "Ware, MA 01082"]}, "phone": "+14139673181", "display_phone": "(413) 967-3181", "distance": 7581.237983927027}, {"id": "sv1DM6SpMcc2IdMCnqYZBg", "alias": "brookies-east-brookfield", "name": "Brookies", "image_url": "https://s3-media4.fl.yelpcdn.com/bphoto/2FfwT0DTSC7L6bNbZUIeKQ/o.jpg", "is_closed": false, "url": "https://www.yelp.com/biz/brookies-east-brookfield?adjust_creative=asslzE1UV0XuKI953B1vtw&utm_campaign=yelp_api_v3&utm_medium=api_v3_business_search&utm_source=asslzE1UV0XuKI953B1vtw", "review_count": 9, "categories": [{"alias": "burgers", "title": "Burgers"}], "rating": 5.0, "coordinates": {"latitude": 42.21592, "longitude": -72.07718}, "transactions": [], "price": "$$", "location": {"address1": "285 W Main St", "address2": "", "address3": "", "city": "East Brookfield", "zip_code": "01515", "country": "US", "state": "MA", "display_address": ["285 W Main St", "East Brookfield, MA 01515"]}, "phone": "+17742000537", "display_phone": "(774) 200-0537", "distance": 9449.349634465549}, {"id": "Ul1WGrfWjffNRGfMmBkihg", "alias": "ware-cafe-and-catering-services-ware", "name": "Ware Cafe & Catering Services", "image_url": "https://s3-media3.fl.yelpcdn.com/bphoto/J9Tsr8IiCAe_0-QYes39-g/o.jpg", "is_closed": false, "url": "https://www.yelp.com/biz/ware-cafe-and-catering-services-ware?adjust_creative=asslzE1UV0XuKI953B1vtw&utm_campaign=yelp_api_v3&utm_medium=api_v3_business_search&utm_source=asslzE1UV0XuKI953B1vtw", "review_count": 15, "categories": [{"alias": "cafes", "title": "Cafes"}, {"alias": "catering", "title": "Caterers"}], "rating": 4.5, "coordinates": {"latitude": 42.26047, "longitude": -72.24379}, "transactions": [], "price": "$", "location": {"address1": "24 W Main St", "address2": "", "address3": "", "city": "Ware", "zip_code": "01082", "country": "US", "state": "MA", "display_address": ["24 W Main St", "Ware, MA 01082"]}, "phone": "+14139674611", "display_phone": "(413) 967-4611", "distance": 7795.781217361065}, {"id": "nB8kYU2SLIJHpHy3HskVDA", "alias": "mexicali-cantina-grill-ware", "name": "Mexicali Cantina Grill", "image_url": "https://s3-media3.fl.yelpcdn.com/bphoto/--DwcVl27eu8ZhHc0vgjZg/o.jpg", "is_closed": false, "url": "https://www.yelp.com/biz/mexicali-cantina-grill-ware?adjust_creative=asslzE1UV0XuKI953B1vtw&utm_campaign=yelp_api_v3&utm_medium=api_v3_business_search&utm_source=asslzE1UV0XuKI953B1vtw", "review_count": 67, "categories": [{"alias": "mexican", "title": "Mexican"}], "rating": 3.5, "coordinates": {"latitude": 42.2555114, "longitude": -72.2521185}, "transactions": [], "price": "$$", "location": {"address1": "146 West St", "address2": "", "address3": "", "city": "Ware", "zip_code": "01082", "country": "US", "state": "MA", "display_address": ["146 West St", "Ware, MA 01082"]}, "phone": "+14132770925", "display_phone": "(413) 277-0925", "distance": 7775.580583930505}, {"id": "ooC2guPCI2B1e9Yxg7XBgw", "alias": "salernos-taste-of-philadelphia-monson-2", "name": "Salerno's Taste of Philadelphia", "image_url": "https://s3-media3.fl.yelpcdn.com/bphoto/I4zfMyAynhDje0hzSsTSqA/o.jpg", "is_closed": false, "url": "https://www.yelp.com/biz/salernos-taste-of-philadelphia-monson-2?adjust_creative=asslzE1UV0XuKI953B1vtw&utm_campaign=yelp_api_v3&utm_medium=api_v3_business_search&utm_source=asslzE1UV0XuKI953B1vtw", "review_count": 7, "categories": [{"alias": "icecream", "title": "Ice Cream & Frozen Yogurt"}, {"alias": "gelato", "title": "Gelato"}, {"alias": "sandwiches", "title": "Sandwiches"}], "rating": 4.5, "coordinates": {"latitude": 42.0963302033287, "longitude": -72.3127286916714}, "transactions": [], "location": {"address1": "223 Main St", "address2": "", "address3": null, "city": "Monson", "zip_code": "01057", "country": "US", "state": "MA", "display_address": ["223 Main St", "Monson, MA 01057"]}, "phone": "+14138939444", "display_phone": "(413) 893-9444", "distance": 15525.453531421912}, {"id": "TqWRsIhBFxhdQLTm-lofFQ", "alias": "bake-shoppe-sturbridge", "name": "Bake Shoppe", "image_url": "https://s3-media2.fl.yelpcdn.com/bphoto/8M7ysUM076SeJcJXUAiY9A/o.jpg", "is_closed": false, "url": "https://www.yelp.com/biz/bake-shoppe-sturbridge?adjust_creative=asslzE1UV0XuKI953B1vtw&utm_campaign=yelp_api_v3&utm_medium=api_v3_business_search&utm_source=asslzE1UV0XuKI953B1vtw", "review_count": 4, "categories": [{"alias": "hotels", "title": "Hotels"}, {"alias": "restaurants", "title": "Restaurants"}], "rating": 4.5, "coordinates": {"latitude": 42.1041, "longitude": -72.08089}, "transactions": [], "location": {"address1": "277 Main St", "address2": "", "address3": "", "city": "Sturbridge", "zip_code": "01566", "country": "US", "state": "MA", "display_address": ["277 Main St", "Sturbridge, MA 01566"]}, "phone": "+15083473313", "display_phone": "(508) 347-3313", "distance": 14057.719810627763}, {"id": "NkHjumQE57NYn1nqmrBoag", "alias": "kahula-restaurant-sturbridge", "name": "Kahula Restaurant", "image_url": "https://s3-media3.fl.yelpcdn.com/bphoto/pKkq9zqfTA9WbrBLpCRNYA/o.jpg", "is_closed": false, "url": "https://www.yelp.com/biz/kahula-restaurant-sturbridge?adjust_creative=asslzE1UV0XuKI953B1vtw&utm_campaign=yelp_api_v3&utm_medium=api_v3_business_search&utm_source=asslzE1UV0XuKI953B1vtw", "review_count": 60, "categories": [{"alias": "chinese", "title": "Chinese"}], "rating": 3.0, "coordinates": {"latitude": 42.09101, "longitude": -72.06768}, "transactions": ["delivery"], "price": "$$", "location": {"address1": "119 Main St", "address2": "", "address3": "", "city": "Sturbridge", "zip_code": "01566", "country": "US", "state": "MA", "display_address": ["119 Main St", "Sturbridge, MA 01566"]}, "phone": "+15083477121", "display_phone": "(508) 347-7121", "distance": 16004.68154563138}, {"id": "SQ8HF9mJ39f04WN6NSaw7A", "alias": "lake-george-tavern-wales-2", "name": "Lake George Tavern", "image_url": "https://s3-media4.fl.yelpcdn.com/bphoto/ahxT5yqU6nYh2pW2zAAJww/o.jpg", "is_closed": false, "url": "https://www.yelp.com/biz/lake-george-tavern-wales-2?adjust_creative=asslzE1UV0XuKI953B1vtw&utm_campaign=yelp_api_v3&utm_medium=api_v3_business_search&utm_source=asslzE1UV0XuKI953B1vtw", "review_count": 6, "categories": [{"alias": "pizza", "title": "Pizza"}, {"alias": "seafood", "title": "Seafood"}, {"alias": "italian", "title": "Italian"}], "rating": 3.5, "coordinates": {"latitude": 42.0641008810944, "longitude": -72.2226690128446}, "transactions": [], "location": {"address1": "2 Main St", "address2": "", "address3": null, "city": "Wales", "zip_code": "01081", "country": "US", "state": "MA", "display_address": ["2 Main St", "Wales, MA 01081"]}, "phone": "+14132450103", "display_phone": "(413) 245-0103", "distance": 15620.44522529556}, {"id": "Nb5fL0yMe1YUGQhMwEVsnA", "alias": "rise-n-shine-diner-east-brookfield", "name": "Rise N' Shine Diner", "image_url": "https://s3-media3.fl.yelpcdn.com/bphoto/pRz0fJ8uPJ4CgXUH9Wl-0w/o.jpg", "is_closed": false, "url": "https://www.yelp.com/biz/rise-n-shine-diner-east-brookfield?adjust_creative=asslzE1UV0XuKI953B1vtw&utm_campaign=yelp_api_v3&utm_medium=api_v3_business_search&utm_source=asslzE1UV0XuKI953B1vtw", "review_count": 6, "categories": [{"alias": "diners", "title": "Diners"}], "rating": 4.0, "coordinates": {"latitude": 42.219766, "longitude": -72.069581}, "transactions": [], "price": "$", "location": {"address1": "237 W Main St", "address2": null, "address3": null, "city": "East Brookfield", "zip_code": "01515", "country": "US", "state": "MA", "display_address": ["237 W Main St", "East Brookfield, MA 01515"]}, "phone": "+15088670034", "display_phone": "(508) 867-0034", "distance": 10139.41965282404}, {"id": "ytaSuRAfFw7NyjugZlGSkQ", "alias": "crystal-springs-dairy-bar-ware", "name": "Crystal Springs Dairy Bar", "image_url": "https://s3-media4.fl.yelpcdn.com/bphoto/ByMuRu-K-s8EeeqHKW_BGA/o.jpg", "is_closed": false, "url": "https://www.yelp.com/biz/crystal-springs-dairy-bar-ware?adjust_creative=asslzE1UV0XuKI953B1vtw&utm_campaign=yelp_api_v3&utm_medium=api_v3_business_search&utm_source=asslzE1UV0XuKI953B1vtw", "review_count": 15, "categories": [{"alias": "icecream", "title": "Ice Cream & Frozen Yogurt"}, {"alias": "breakfast_brunch", "title": "Breakfast & Brunch"}], "rating": 4.0, "coordinates": {"latitude": 42.2543680923477, "longitude": -72.2541291419154}, "transactions": [], "price": "$", "location": {"address1": "166 West St", "address2": "", "address3": "", "city": "Ware", "zip_code": "01082", "country": "US", "state": "MA", "display_address": ["166 West St", "Ware, MA 01082"]}, "phone": "+14139676190", "display_phone": "(413) 967-6190", "distance": 7755.272539581505}, {"id": "8RnBXTS9l6P_J3YBFGP8tA", "alias": "milk-and-sugar-cafe-charlton", "name": "Milk & Sugar Cafe", "image_url": "https://s3-media4.fl.yelpcdn.com/bphoto/TvkLIvAFdqogjIYUSY2SiQ/o.jpg", "is_closed": false, "url": "https://www.yelp.com/biz/milk-and-sugar-cafe-charlton?adjust_creative=asslzE1UV0XuKI953B1vtw&utm_campaign=yelp_api_v3&utm_medium=api_v3_business_search&utm_source=asslzE1UV0XuKI953B1vtw", "review_count": 1, "categories": [{"alias": "cafes", "title": "Cafes"}, {"alias": "coffee", "title": "Coffee & Tea"}, {"alias": "breakfast_brunch", "title": "Breakfast & Brunch"}], "rating": 5.0, "coordinates": {"latitude": 42.146816, "longitude": -71.98802}, "transactions": [], "location": {"address1": "7 Brookfield Rd", "address2": "", "address3": null, "city": "Charlton", "zip_code": "01507", "country": "US", "state": "MA", "display_address": ["7 Brookfield Rd", "Charlton, MA 01507"]}, "phone": "+15084340727", "display_phone": "(508) 434-0727", "distance": 17796.955520476717}, {"id": "kRWGiUKxF_14PzZAgAo89A", "alias": "mexicali-cantina-grill-spencer", "name": "Mexicali Cantina Grill", "image_url": "https://s3-media1.fl.yelpcdn.com/bphoto/x0mEHm-y5XbQaW49354aIQ/o.jpg", "is_closed": false, "url": "https://www.yelp.com/biz/mexicali-cantina-grill-spencer?adjust_creative=asslzE1UV0XuKI953B1vtw&utm_campaign=yelp_api_v3&utm_medium=api_v3_business_search&utm_source=asslzE1UV0XuKI953B1vtw", "review_count": 103, "categories": [{"alias": "mexican", "title": "Mexican"}], "rating": 4.0, "coordinates": {"latitude": 42.244031, "longitude": -71.99444}, "transactions": ["delivery", "pickup"], "price": "$$", "location": {"address1": "117 Main St", "address2": "", "address3": "", "city": "Spencer", "zip_code": "01562", "country": "US", "state": "MA", "display_address": ["117 Main St", "Spencer, MA 01562"]}, "phone": "+17747458200", "display_phone": "(774) 745-8200", "distance": 16788.693427209695}, {"id": "B64xV_p3vrtrcyRoFK2DIQ", "alias": "burgundy-brook-cafe-three-rivers", "name": "Burgundy Brook Cafe", "image_url": "https://s3-media2.fl.yelpcdn.com/bphoto/RPDX7aqpoHYxn2gLVQ4OCw/o.jpg", "is_closed": false, "url": "https://www.yelp.com/biz/burgundy-brook-cafe-three-rivers?adjust_creative=asslzE1UV0XuKI953B1vtw&utm_campaign=yelp_api_v3&utm_medium=api_v3_business_search&utm_source=asslzE1UV0XuKI953B1vtw", "review_count": 100, "categories": [{"alias": "delis", "title": "Delis"}, {"alias": "sandwiches", "title": "Sandwiches"}, {"alias": "breakfast_brunch", "title": "Breakfast & Brunch"}], "rating": 3.5, "coordinates": {"latitude": 42.180909, "longitude": -72.363095}, "transactions": [], "price": "$$", "location": {"address1": "2048 Main St", "address2": null, "address3": null, "city": "Three Rivers", "zip_code": "01080", "country": "US", "state": "MA", "display_address": ["2048 Main St", "Three Rivers, MA 01080"]}, "phone": "+14132896359", "display_phone": "(413) 289-6359", "distance": 14423.04147840671}, {"id": "5Cx_U0_NCW4GQfpeaf50rw", "alias": "radars-pub-three-rivers", "name": "Radar's Pub", "image_url": "https://s3-media1.fl.yelpcdn.com/bphoto/bygx9tBJhB56ciwwoDxBYw/o.jpg", "is_closed": false, "url": "https://www.yelp.com/biz/radars-pub-three-rivers?adjust_creative=asslzE1UV0XuKI953B1vtw&utm_campaign=yelp_api_v3&utm_medium=api_v3_business_search&utm_source=asslzE1UV0XuKI953B1vtw", "review_count": 3, "categories": [{"alias": "seafood", "title": "Seafood"}, {"alias": "sandwiches", "title": "Sandwiches"}, {"alias": "burgers", "title": "Burgers"}], "rating": 2.5, "coordinates": {"latitude": 42.180993, "longitude": -72.3629807308316}, "transactions": [], "location": {"address1": "2052 Main St", "address2": "", "address3": null, "city": "Three Rivers", "zip_code": "01080", "country": "US", "state": "MA", "display_address": ["2052 Main St", "Three Rivers, MA 01080"]}, "phone": "+14132836989", "display_phone": "(413) 283-6989", "distance": 14412.194652841757}, {"id": "77l6FoUUyafxTM1-c3SbJg", "alias": "chef-sau-restaurant-spencer", "name": "Chef Sau Restaurant", "image_url": "https://s3-media4.fl.yelpcdn.com/bphoto/bAZ4EsoOPNyBKn_Ex0UC4Q/o.jpg", "is_closed": false, "url": "https://www.yelp.com/biz/chef-sau-restaurant-spencer?adjust_creative=asslzE1UV0XuKI953B1vtw&utm_campaign=yelp_api_v3&utm_medium=api_v3_business_search&utm_source=asslzE1UV0XuKI953B1vtw", "review_count": 16, "categories": [{"alias": "chinese", "title": "Chinese"}], "rating": 4.0, "coordinates": {"latitude": 42.24369, "longitude": -71.99381}, "transactions": [], "price": "$$", "location": {"address1": "148 Main St", "address2": "", "address3": "", "city": "Spencer", "zip_code": "01562", "country": "US", "state": "MA", "display_address": ["148 Main St", "Spencer, MA 01562"]}, "phone": "+15088853995", "display_phone": "(508) 885-3995", "distance": 16828.25234674886}, {"id": "FNOazjjpZFEJdkPa6oXapw", "alias": "oxhead-tavern-sturbridge", "name": "Oxhead Tavern", "image_url": "https://s3-media4.fl.yelpcdn.com/bphoto/QSkzLrh2096f62De7KIedg/o.jpg", "is_closed": false, "url": "https://www.yelp.com/biz/oxhead-tavern-sturbridge?adjust_creative=asslzE1UV0XuKI953B1vtw&utm_campaign=yelp_api_v3&utm_medium=api_v3_business_search&utm_source=asslzE1UV0XuKI953B1vtw", "review_count": 124, "categories": [{"alias": "burgers", "title": "Burgers"}, {"alias": "salad", "title": "Salad"}, {"alias": "soup", "title": "Soup"}], "rating": 2.5, "coordinates": {"latitude": 42.11358, "longitude": -72.089915}, "transactions": ["delivery"], "price": "$$", "location": {"address1": "366 Main St", "address2": "", "address3": "", "city": "Sturbridge", "zip_code": "01566", "country": "US", "state": "MA", "display_address": ["366 Main St", "Sturbridge, MA 01566"]}, "phone": "+15083477393", "display_phone": "(508) 347-7393", "distance": 13034.503508299536}, {"id": "ydG7dmQFYzlPBzQuyTprXA", "alias": "the-clam-box-brookfield", "name": "The Clam Box", "image_url": "https://s3-media2.fl.yelpcdn.com/bphoto/Pqk2Fslfyhnap4IagwfaWA/o.jpg", "is_closed": false, "url": "https://www.yelp.com/biz/the-clam-box-brookfield?adjust_creative=asslzE1UV0XuKI953B1vtw&utm_campaign=yelp_api_v3&utm_medium=api_v3_business_search&utm_source=asslzE1UV0XuKI953B1vtw", "review_count": 55, "categories": [{"alias": "tradamerican", "title": "American (Traditional)"}, {"alias": "seafood", "title": "Seafood"}, {"alias": "burgers", "title": "Burgers"}], "rating": 3.0, "coordinates": {"latitude": 42.2111, "longitude": -72.085135}, "transactions": [], "price": "$$", "location": {"address1": "53 S Maple St", "address2": "", "address3": "", "city": "Brookfield", "zip_code": "01506", "country": "US", "state": "MA", "display_address": ["53 S Maple St", "Brookfield, MA 01506"]}, "phone": "+15086371790", "display_phone": "(508) 637-1790", "distance": 8726.334605481572}, {"id": "dGVCip_BkzndR8zohkJSqg", "alias": "bullard-tavern-sturbridge-2", "name": "Bullard Tavern", "image_url": "https://s3-media3.fl.yelpcdn.com/bphoto/_zV578TZSLuk7WSPE6pLtg/o.jpg", "is_closed": false, "url": "https://www.yelp.com/biz/bullard-tavern-sturbridge-2?adjust_creative=asslzE1UV0XuKI953B1vtw&utm_campaign=yelp_api_v3&utm_medium=api_v3_business_search&utm_source=asslzE1UV0XuKI953B1vtw", "review_count": 6, "categories": [{"alias": "tradamerican", "title": "American (Traditional)"}], "rating": 4.0, "coordinates": {"latitude": 42.104532, "longitude": -72.098969}, "transactions": [], "location": {"address1": "1 Old Sturbrdge Vlg Rd", "address2": "", "address3": "Old Sturbridge Village Museam", "city": "Sturbridge", "zip_code": "01566", "country": "US", "state": "MA", "display_address": ["1 Old Sturbrdge Vlg Rd", "Old Sturbridge Village Museam", "Sturbridge, MA 01566"]}, "phone": "+15083470397", "display_phone": "(508) 347-0397", "distance": 13253.528695671126}, {"id": "hCPrLuebRkRGMJHh1iBY9w", "alias": "johnny-hot-dogs-southbridge", "name": "Johnny Hot Dogs", "image_url": "https://s3-media4.fl.yelpcdn.com/bphoto/VXEXzxY6fwYtfMpZqS64tg/o.jpg", "is_closed": false, "url": "https://www.yelp.com/biz/johnny-hot-dogs-southbridge?adjust_creative=asslzE1UV0XuKI953B1vtw&utm_campaign=yelp_api_v3&utm_medium=api_v3_business_search&utm_source=asslzE1UV0XuKI953B1vtw", "review_count": 2, "categories": [{"alias": "hotdog", "title": "Hot Dogs"}, {"alias": "streetvendors", "title": "Street Vendors"}], "rating": 5.0, "coordinates": {"latitude": 42.0750465393066, "longitude": -72.0327835083008}, "transactions": ["delivery"], "location": {"address1": "256 Main St", "address2": null, "address3": "", "city": "Southbridge", "zip_code": "01550", "country": "US", "state": "MA", "display_address": ["256 Main St", "Southbridge, MA 01550"]}, "phone": "+15082025441", "display_phone": "(508) 202-5441", "distance": 19235.846634147467}, {"id": "OYcyLRQP551-8KpTHxeq0w", "alias": "napoli-pizzeria-iii-sturbridge", "name": "Napoli Pizzeria III", "image_url": "https://s3-media3.fl.yelpcdn.com/bphoto/4NXKX7pxpxYaKq3hmn5CKQ/o.jpg", "is_closed": false, "url": "https://www.yelp.com/biz/napoli-pizzeria-iii-sturbridge?adjust_creative=asslzE1UV0XuKI953B1vtw&utm_campaign=yelp_api_v3&utm_medium=api_v3_business_search&utm_source=asslzE1UV0XuKI953B1vtw", "review_count": 64, "categories": [{"alias": "pizza", "title": "Pizza"}], "rating": 4.5, "coordinates": {"latitude": 42.0871878421181, "longitude": -72.0623428423839}, "transactions": ["delivery"], "price": "$", "location": {"address1": "57 Main St", "address2": "", "address3": "", "city": "Sturbridge", "zip_code": "01566", "country": "US", "state": "MA", "display_address": ["57 Main St", "Sturbridge, MA 01566"]}, "phone": "+15083478225", "display_phone": "(508) 347-8225", "distance": 16616.40053721934}, {"id": "YaUyFH6QUO0Qk4V7pwPrag", "alias": "guaguan\u0107o-restaurant-southbridge", "name": "Guaguan\u0107o Restaurant", "image_url": "https://s3-media4.fl.yelpcdn.com/bphoto/T9XFBy0DCTVUb1cMDqdXCw/o.jpg", "is_closed": false, "url": "https://www.yelp.com/biz/guaguan%C4%87o-restaurant-southbridge?adjust_creative=asslzE1UV0XuKI953B1vtw&utm_campaign=yelp_api_v3&utm_medium=api_v3_business_search&utm_source=asslzE1UV0XuKI953B1vtw", "review_count": 3, "categories": [{"alias": "cuban", "title": "Cuban"}], "rating": 3.5, "coordinates": {"latitude": 42.0803750333197, "longitude": -72.0352535646502}, "transactions": [], "location": {"address1": "12 Crane St", "address2": "", "address3": null, "city": "Southbridge", "zip_code": "01550", "country": "US", "state": "MA", "display_address": ["12 Crane St", "Southbridge, MA 01550"]}, "phone": "+17744028880", "display_phone": "(774) 402-8880", "distance": 18662.897246285916}, {"id": "LMDM5k-YkN_rxeKHAFhXyQ", "alias": "e-b-flatts-east-brookfield", "name": "E.B. Flatts", "image_url": "https://s3-media2.fl.yelpcdn.com/bphoto/7dwd-U0nCvf74XXhwFKY2Q/o.jpg", "is_closed": false, "url": "https://www.yelp.com/biz/e-b-flatts-east-brookfield?adjust_creative=asslzE1UV0XuKI953B1vtw&utm_campaign=yelp_api_v3&utm_medium=api_v3_business_search&utm_source=asslzE1UV0XuKI953B1vtw", "review_count": 56, "categories": [{"alias": "tradamerican", "title": "American (Traditional)"}, {"alias": "breakfast_brunch", "title": "Breakfast & Brunch"}], "rating": 3.5, "coordinates": {"latitude": 42.2192947517887, "longitude": -72.0708427230705}, "transactions": [], "price": "$$", "location": {"address1": "245 W Main St Rte 9", "address2": "", "address3": "", "city": "East Brookfield", "zip_code": "01515", "country": "US", "state": "MA", "display_address": ["245 W Main St Rte 9", "East Brookfield, MA 01515"]}, "phone": "+15088676643", "display_phone": "(508) 867-6643", "distance": 10027.562410469902}, {"id": "I0zvQlGF1--ymQeJcxTO2A", "alias": "nikos-pizza-ware", "name": "Niko's Pizza", "image_url": "https://s3-media4.fl.yelpcdn.com/bphoto/icDNBI1khs1fOAC3cVhvZw/o.jpg", "is_closed": false, "url": "https://www.yelp.com/biz/nikos-pizza-ware?adjust_creative=asslzE1UV0XuKI953B1vtw&utm_campaign=yelp_api_v3&utm_medium=api_v3_business_search&utm_source=asslzE1UV0XuKI953B1vtw", "review_count": 6, "categories": [{"alias": "pizza", "title": "Pizza"}, {"alias": "greek", "title": "Greek"}], "rating": 4.0, "coordinates": {"latitude": 42.260562, "longitude": -72.242328}, "transactions": [], "price": "$$", "location": {"address1": "118 Main St", "address2": "", "address3": null, "city": "Ware", "zip_code": "01082", "country": "US", "state": "MA", "display_address": ["118 Main St", "Ware, MA 01082"]}, "phone": "+14139670436", "display_phone": "(413) 967-0436", "distance": 7736.736493708464}, {"id": "1t09LSm3g0nBY_VDZ5b-PA", "alias": "jimmy-ds-sturbridge", "name": "Jimmy D's", "image_url": "https://s3-media4.fl.yelpcdn.com/bphoto/BoPqIrP8RxnoVczsnh3IZg/o.jpg", "is_closed": false, "url": "https://www.yelp.com/biz/jimmy-ds-sturbridge?adjust_creative=asslzE1UV0XuKI953B1vtw&utm_campaign=yelp_api_v3&utm_medium=api_v3_business_search&utm_source=asslzE1UV0XuKI953B1vtw", "review_count": 40, "categories": [{"alias": "icecream", "title": "Ice Cream & Frozen Yogurt"}, {"alias": "sandwiches", "title": "Sandwiches"}], "rating": 4.0, "coordinates": {"latitude": 42.111444, "longitude": -72.097315}, "transactions": ["delivery"], "price": "$", "location": {"address1": "413 Main St", "address2": "", "address3": "", "city": "Sturbridge", "zip_code": "01518", "country": "US", "state": "MA", "display_address": ["413 Main St", "Sturbridge, MA 01518"]}, "phone": "+17743041023", "display_phone": "(774) 304-1023", "distance": 12607.088390951298}, {"id": "6AhxPdBYNVZsPJo73k2TPg", "alias": "oliver-wight-tavern-sturbridge", "name": "Oliver Wight Tavern", "image_url": "https://s3-media2.fl.yelpcdn.com/bphoto/oN_xaxUA4L8MWiJZkNzftQ/o.jpg", "is_closed": false, "url": "https://www.yelp.com/biz/oliver-wight-tavern-sturbridge?adjust_creative=asslzE1UV0XuKI953B1vtw&utm_campaign=yelp_api_v3&utm_medium=api_v3_business_search&utm_source=asslzE1UV0XuKI953B1vtw", "review_count": 41, "categories": [{"alias": "tradamerican", "title": "American (Traditional)"}], "rating": 2.5, "coordinates": {"latitude": 42.108951, "longitude": -72.098735}, "transactions": [], "price": "$$", "location": {"address1": "1 Old Sturbridge Village Rd", "address2": "", "address3": "Old Sturbridge Village", "city": "Sturbridge", "zip_code": "01566", "country": "US", "state": "MA", "display_address": ["1 Old Sturbridge Village Rd", "Old Sturbridge Village", "Sturbridge, MA 01566"]}, "phone": "+15083470397", "display_phone": "(508) 347-0397", "distance": 12863.71728565809}, {"id": "Mhc3mcpYnT4B8iEHSZf2Sg", "alias": "cedar-street-caf\u00e9-sturbridge", "name": "Cedar Street Caf\u00e9", "image_url": "https://s3-media2.fl.yelpcdn.com/bphoto/8tXeX0iRZIcYW6ktkH1svg/o.jpg", "is_closed": false, "url": "https://www.yelp.com/biz/cedar-street-caf%C3%A9-sturbridge?adjust_creative=asslzE1UV0XuKI953B1vtw&utm_campaign=yelp_api_v3&utm_medium=api_v3_business_search&utm_source=asslzE1UV0XuKI953B1vtw", "review_count": 54, "categories": [{"alias": "cafes", "title": "Cafes"}, {"alias": "coffee", "title": "Coffee & Tea"}, {"alias": "sandwiches", "title": "Sandwiches"}], "rating": 4.5, "coordinates": {"latitude": 42.112913536056, "longitude": -72.0982651412487}, "transactions": ["delivery"], "price": "$", "location": {"address1": "420 Main St", "address2": "", "address3": null, "city": "Sturbridge", "zip_code": "01566", "country": "US", "state": "MA", "display_address": ["420 Main St", "Sturbridge, MA 01566"]}, "phone": "+15083476800", "display_phone": "(508) 347-6800", "distance": 12533.271553935487}, {"id": "FuNUH_0Y3ipMPRuXv9Ji9g", "alias": "cjs-seafood-monson", "name": "CJ's Seafood", "image_url": "https://s3-media3.fl.yelpcdn.com/bphoto/r-H0J8wlpvcJ3LktQbboyw/o.jpg", "is_closed": false, "url": "https://www.yelp.com/biz/cjs-seafood-monson?adjust_creative=asslzE1UV0XuKI953B1vtw&utm_campaign=yelp_api_v3&utm_medium=api_v3_business_search&utm_source=asslzE1UV0XuKI953B1vtw", "review_count": 13, "categories": [{"alias": "seafood", "title": "Seafood"}], "rating": 3.5, "coordinates": {"latitude": 42.1540140149064, "longitude": -72.3711890485418}, "transactions": [], "price": "$", "location": {"address1": "322-376 Wilbraham St", "address2": "", "address3": "", "city": "Monson", "zip_code": "01057", "country": "US", "state": "MA", "display_address": ["322-376 Wilbraham St", "Monson, MA 01057"]}, "phone": "+14132832196", "display_phone": "(413) 283-2196", "distance": 15838.429823316883}, {"id": "0u096yYEmPF_74mcDYKFOQ", "alias": "panda-garden-2-east-brookfield", "name": "Panda Garden 2", "image_url": "https://s3-media1.fl.yelpcdn.com/bphoto/F8G-Hgio3ROhaSmbX4d81w/o.jpg", "is_closed": false, "url": "https://www.yelp.com/biz/panda-garden-2-east-brookfield?adjust_creative=asslzE1UV0XuKI953B1vtw&utm_campaign=yelp_api_v3&utm_medium=api_v3_business_search&utm_source=asslzE1UV0XuKI953B1vtw", "review_count": 13, "categories": [{"alias": "chinese", "title": "Chinese"}], "rating": 3.0, "coordinates": {"latitude": 42.219459, "longitude": -72.070868}, "transactions": [], "location": {"address1": "237 W Main St", "address2": "", "address3": "", "city": "East Brookfield", "zip_code": "01515", "country": "US", "state": "MA", "display_address": ["237 W Main St", "East Brookfield, MA 01515"]}, "phone": "+15088673799", "display_phone": "(508) 867-3799", "distance": 10150.847266832663}, {"id": "ZJo82cXL2ocRUPjbuSvxmQ", "alias": "monson-italian-pizza-monson", "name": "Monson Italian Pizza", "image_url": "https://s3-media1.fl.yelpcdn.com/bphoto/J0j62N81ieBqHR8TanmEiQ/o.jpg", "is_closed": false, "url": "https://www.yelp.com/biz/monson-italian-pizza-monson?adjust_creative=asslzE1UV0XuKI953B1vtw&utm_campaign=yelp_api_v3&utm_medium=api_v3_business_search&utm_source=asslzE1UV0XuKI953B1vtw", "review_count": 15, "categories": [{"alias": "italian", "title": "Italian"}, {"alias": "pizza", "title": "Pizza"}], "rating": 4.0, "coordinates": {"latitude": 42.0985418558121, "longitude": -72.3145960271358}, "transactions": [], "location": {"address1": "136 Main St", "address2": "", "address3": "", "city": "Monson", "zip_code": "01057", "country": "US", "state": "MA", "display_address": ["136 Main St", "Monson, MA 01057"]}, "phone": "+14132679792", "display_phone": "(413) 267-9792", "distance": 15413.840550385608}, {"id": "2LdyJd-Jumkp0W2adGDa4Q", "alias": "village-pizza-restaurant-fiskdale", "name": "Village Pizza Restaurant", "image_url": "https://s3-media3.fl.yelpcdn.com/bphoto/zMjMstOEM76E5tf2SBnioQ/o.jpg", "is_closed": false, "url": "https://www.yelp.com/biz/village-pizza-restaurant-fiskdale?adjust_creative=asslzE1UV0XuKI953B1vtw&utm_campaign=yelp_api_v3&utm_medium=api_v3_business_search&utm_source=asslzE1UV0XuKI953B1vtw", "review_count": 39, "categories": [{"alias": "pizza", "title": "Pizza"}], "rating": 3.0, "coordinates": {"latitude": 42.11436, "longitude": -72.10714}, "transactions": ["delivery"], "price": "$$", "location": {"address1": "487 Main St", "address2": "", "address3": "", "city": "Fiskdale", "zip_code": "01518", "country": "US", "state": "MA", "display_address": ["487 Main St", "Fiskdale, MA 01518"]}, "phone": "+15083477166", "display_phone": "(508) 347-7166", "distance": 11967.215261024347}, {"id": "IRgfRxgOYrAUAKckb22N1A", "alias": "charlies-diner-brimfield", "name": "Charlie's Diner", "image_url": "https://s3-media1.fl.yelpcdn.com/bphoto/RU4nB5aESMd3EfQZjYzUUg/o.jpg", "is_closed": false, "url": "https://www.yelp.com/biz/charlies-diner-brimfield?adjust_creative=asslzE1UV0XuKI953B1vtw&utm_campaign=yelp_api_v3&utm_medium=api_v3_business_search&utm_source=asslzE1UV0XuKI953B1vtw", "review_count": 2, "categories": [{"alias": "tradamerican", "title": "American (Traditional)"}, {"alias": "breakfast_brunch", "title": "Breakfast & Brunch"}, {"alias": "diners", "title": "Diners"}], "rating": 4.0, "coordinates": {"latitude": 42.1219487485498, "longitude": -72.2029420360923}, "transactions": [], "location": {"address1": "17 Main St", "address2": "", "address3": null, "city": "Brimfield", "zip_code": "01010", "country": "US", "state": "MA", "display_address": ["17 Main St", "Brimfield, MA 01010"]}, "phone": "+14132457711", "display_phone": "(413) 245-7711", "distance": 9019.548186369522}, {"id": "OiVSoTv67Te99DAk73_abg", "alias": "beth-family-dining-monson", "name": "Beth Family Dining", "image_url": "https://s3-media1.fl.yelpcdn.com/bphoto/GTVFMcNFvxNmrdTMeW8tjw/o.jpg", "is_closed": false, "url": "https://www.yelp.com/biz/beth-family-dining-monson?adjust_creative=asslzE1UV0XuKI953B1vtw&utm_campaign=yelp_api_v3&utm_medium=api_v3_business_search&utm_source=asslzE1UV0XuKI953B1vtw", "review_count": 6, "categories": [{"alias": "diners", "title": "Diners"}], "rating": 3.0, "coordinates": {"latitude": 42.0990982, "longitude": -72.3160934}, "transactions": [], "price": "$", "location": {"address1": "107 Main St", "address2": null, "address3": null, "city": "Monson", "zip_code": "01057", "country": "US", "state": "MA", "display_address": ["107 Main St", "Monson, MA 01057"]}, "phone": "+14132679641", "display_phone": "(413) 267-9641", "distance": 15476.55974570859}, {"id": "sPH06k6JL5WtFngmAzp2VA", "alias": "margauxs-deli-and-catering-southbridge", "name": "Margaux's Deli & Catering", "image_url": "https://s3-media3.fl.yelpcdn.com/bphoto/Qab5ZFcDGbKBceMUGj5r2g/o.jpg", "is_closed": false, "url": "https://www.yelp.com/biz/margauxs-deli-and-catering-southbridge?adjust_creative=asslzE1UV0XuKI953B1vtw&utm_campaign=yelp_api_v3&utm_medium=api_v3_business_search&utm_source=asslzE1UV0XuKI953B1vtw", "review_count": 19, "categories": [{"alias": "delis", "title": "Delis"}], "rating": 4.5, "coordinates": {"latitude": 42.0742, "longitude": -72.02733}, "transactions": ["delivery"], "price": "$", "location": {"address1": "33 Crystal St", "address2": "", "address3": "", "city": "Southbridge", "zip_code": "01550", "country": "US", "state": "MA", "display_address": ["33 Crystal St", "Southbridge, MA 01550"]}, "phone": "+15087650954", "display_phone": "(508) 765-0954", "distance": 19608.451007684183}, {"id": "KnJIbX__Sh1jW2XOu1wfQA", "alias": "united-china-restaurant-ware", "name": "United China Restaurant", "image_url": "https://s3-media2.fl.yelpcdn.com/bphoto/uYRYVKANPSbSYi59nvdg-Q/o.jpg", "is_closed": false, "url": "https://www.yelp.com/biz/united-china-restaurant-ware?adjust_creative=asslzE1UV0XuKI953B1vtw&utm_campaign=yelp_api_v3&utm_medium=api_v3_business_search&utm_source=asslzE1UV0XuKI953B1vtw", "review_count": 10, "categories": [{"alias": "chinese", "title": "Chinese"}], "rating": 2.5, "coordinates": {"latitude": 42.25453, "longitude": -72.25311}, "transactions": [], "price": "$", "location": {"address1": "164 West St", "address2": "", "address3": "", "city": "Ware", "zip_code": "01082", "country": "US", "state": "MA", "display_address": ["164 West St", "Ware, MA 01082"]}, "phone": "+14139670311", "display_phone": "(413) 967-0311", "distance": 7752.053844568898}, {"id": "JDJEMD0M4Q0l31-YS0mC-w", "alias": "northeast-pizza-west-brookfield", "name": "Northeast Pizza", "image_url": "https://s3-media2.fl.yelpcdn.com/bphoto/JY4uYYJAdshPFLYGjWeFjw/o.jpg", "is_closed": false, "url": "https://www.yelp.com/biz/northeast-pizza-west-brookfield?adjust_creative=asslzE1UV0XuKI953B1vtw&utm_campaign=yelp_api_v3&utm_medium=api_v3_business_search&utm_source=asslzE1UV0XuKI953B1vtw", "review_count": 12, "categories": [{"alias": "pizza", "title": "Pizza"}], "rating": 2.0, "coordinates": {"latitude": 42.2389831542969, "longitude": -72.1653747558594}, "transactions": [], "price": "$", "location": {"address1": "208 W Main St", "address2": null, "address3": null, "city": "West Brookfield", "zip_code": "01585", "country": "US", "state": "MA", "display_address": ["208 W Main St", "West Brookfield, MA 01585"]}, "phone": "+15088679567", "display_phone": "(508) 867-9567", "distance": 4555.006371071071}, {"id": "g9IrY-bv316Znx-bJ6JIHA", "alias": "thai-orchid-southbridge", "name": "Thai Orchid", "image_url": "https://s3-media3.fl.yelpcdn.com/bphoto/Hy3JbFdvtkdcJMkFgBHOGg/o.jpg", "is_closed": false, "url": "https://www.yelp.com/biz/thai-orchid-southbridge?adjust_creative=asslzE1UV0XuKI953B1vtw&utm_campaign=yelp_api_v3&utm_medium=api_v3_business_search&utm_source=asslzE1UV0XuKI953B1vtw", "review_count": 81, "categories": [{"alias": "thai", "title": "Thai"}], "rating": 4.5, "coordinates": {"latitude": 42.0788953453302, "longitude": -72.027493044734}, "transactions": ["delivery"], "price": "$", "location": {"address1": "90 Charlton St", "address2": null, "address3": null, "city": "Southbridge", "zip_code": "01550", "country": "US", "state": "MA", "display_address": ["90 Charlton St", "Southbridge, MA 01550"]}, "phone": "+15087654809", "display_phone": "(508) 765-4809", "distance": 19223.359449659725}, {"id": "PDWsw_neHOTUg8EKhdW8IA", "alias": "apollo-1-pizza-palmer", "name": "Apollo 1 Pizza", "image_url": "https://s3-media4.fl.yelpcdn.com/bphoto/zafy9Uw4USWs6hZGoBxr1Q/o.jpg", "is_closed": false, "url": "https://www.yelp.com/biz/apollo-1-pizza-palmer?adjust_creative=asslzE1UV0XuKI953B1vtw&utm_campaign=yelp_api_v3&utm_medium=api_v3_business_search&utm_source=asslzE1UV0XuKI953B1vtw", "review_count": 42, "categories": [{"alias": "pizza", "title": "Pizza"}], "rating": 3.5, "coordinates": {"latitude": 42.163029, "longitude": -72.341228}, "transactions": [], "price": "$$", "location": {"address1": "1581 N Main St", "address2": "", "address3": "", "city": "Palmer", "zip_code": "01069", "country": "US", "state": "MA", "display_address": ["1581 N Main St", "Palmer, MA 01069"]}, "phone": "+14132839939", "display_phone": "(413) 283-9939", "distance": 13133.617527694883}, {"id": "7aaixOV3b5CQ-dvYUrwCEg", "alias": "panera-bread-sturbridge", "name": "Panera Bread", "image_url": "https://s3-media4.fl.yelpcdn.com/bphoto/nTD8fhu6J_g9LepuUu269Q/o.jpg", "is_closed": false, "url": "https://www.yelp.com/biz/panera-bread-sturbridge?adjust_creative=asslzE1UV0XuKI953B1vtw&utm_campaign=yelp_api_v3&utm_medium=api_v3_business_search&utm_source=asslzE1UV0XuKI953B1vtw", "review_count": 9, "categories": [{"alias": "salad", "title": "Salad"}, {"alias": "soup", "title": "Soup"}, {"alias": "sandwiches", "title": "Sandwiches"}], "rating": 4.0, "coordinates": {"latitude": 42.11355, "longitude": -72.0853}, "transactions": [], "price": "$$", "location": {"address1": "21 New Boston Rd", "address2": null, "address3": null, "city": "Sturbridge", "zip_code": "01566", "country": "US", "state": "MA", "display_address": ["21 New Boston Rd", "Sturbridge, MA 01566"]}, "phone": "+17749221860", "display_phone": "(774) 922-1860", "distance": 13153.93853924379}, {"id": "myeXXntCGzO1I77zfpa-kg", "alias": "annies-country-kitchen-sturbridge", "name": "Annie's Country Kitchen", "image_url": "https://s3-media3.fl.yelpcdn.com/bphoto/ZldhmjEmpN5B8Yf7RYx2zQ/o.jpg", "is_closed": false, "url": "https://www.yelp.com/biz/annies-country-kitchen-sturbridge?adjust_creative=asslzE1UV0XuKI953B1vtw&utm_campaign=yelp_api_v3&utm_medium=api_v3_business_search&utm_source=asslzE1UV0XuKI953B1vtw", "review_count": 135, "categories": [{"alias": "diners", "title": "Diners"}, {"alias": "breakfast_brunch", "title": "Breakfast & Brunch"}, {"alias": "tradamerican", "title": "American (Traditional)"}], "rating": 4.0, "coordinates": {"latitude": 42.09361, "longitude": -72.06773}, "transactions": ["delivery", "pickup"], "price": "$", "location": {"address1": "140 Main St", "address2": "", "address3": "", "city": "Sturbridge", "zip_code": "01566", "country": "US", "state": "MA", "display_address": ["140 Main St", "Sturbridge, MA 01566"]}, "phone": "+15083472320", "display_phone": "(508) 347-2320", "distance": 15768.072842502886}, {"id": "Oa9YXvAs50RB-Xhc2BwXlg", "alias": "mimis-coffeehouse-of-hardwick-hardwick", "name": "Mimi's CoffeeHouse Of Hardwick", "image_url": "https://s3-media4.fl.yelpcdn.com/bphoto/NMlDkOX7whn4nYEiejmeSg/o.jpg", "is_closed": false, "url": "https://www.yelp.com/biz/mimis-coffeehouse-of-hardwick-hardwick?adjust_creative=asslzE1UV0XuKI953B1vtw&utm_campaign=yelp_api_v3&utm_medium=api_v3_business_search&utm_source=asslzE1UV0XuKI953B1vtw", "review_count": 3, "categories": [{"alias": "coffee", "title": "Coffee & Tea"}, {"alias": "breakfast_brunch", "title": "Breakfast & Brunch"}, {"alias": "sandwiches", "title": "Sandwiches"}], "rating": 4.5, "coordinates": {"latitude": 42.3486171468542, "longitude": -72.1993167786787}, "transactions": [], "price": "$$", "location": {"address1": "14 Barre Rd", "address2": "", "address3": null, "city": "Hardwick", "zip_code": "01037", "country": "US", "state": "MA", "display_address": ["14 Barre Rd", "Hardwick, MA 01037"]}, "phone": "+14134771144", "display_phone": "(413) 477-1144", "distance": 16259.799835452523}, {"id": "4eJhLya5NEK4wpAOWBwJHQ", "alias": "the-thai-place-sturbridge", "name": "The Thai Place", "image_url": "https://s3-media3.fl.yelpcdn.com/bphoto/N0-t-YfHH3GMAw1SwA2-qQ/o.jpg", "is_closed": false, "url": "https://www.yelp.com/biz/the-thai-place-sturbridge?adjust_creative=asslzE1UV0XuKI953B1vtw&utm_campaign=yelp_api_v3&utm_medium=api_v3_business_search&utm_source=asslzE1UV0XuKI953B1vtw", "review_count": 107, "categories": [{"alias": "thai", "title": "Thai"}], "rating": 3.5, "coordinates": {"latitude": 42.11048, "longitude": -72.09087}, "transactions": ["delivery"], "price": "$$", "location": {"address1": "371 Main St", "address2": "", "address3": "", "city": "Sturbridge", "zip_code": "01566", "country": "US", "state": "MA", "display_address": ["371 Main St", "Sturbridge, MA 01566"]}, "phone": "+15083472999", "display_phone": "(508) 347-2999", "distance": 13000.16065060924}, {"id": "LHU-3f0kpPrG8cB7lkDhpw", "alias": "depot-square-deli-and-package-store-east-brookfield", "name": "Depot Square Deli &Package Store", "image_url": "https://s3-media3.fl.yelpcdn.com/bphoto/w5mkcnXJy8KCBx3a3AMLxw/o.jpg", "is_closed": false, "url": "https://www.yelp.com/biz/depot-square-deli-and-package-store-east-brookfield?adjust_creative=asslzE1UV0XuKI953B1vtw&utm_campaign=yelp_api_v3&utm_medium=api_v3_business_search&utm_source=asslzE1UV0XuKI953B1vtw", "review_count": 3, "categories": [{"alias": "desserts", "title": "Desserts"}, {"alias": "delis", "title": "Delis"}, {"alias": "sandwiches", "title": "Sandwiches"}], "rating": 5.0, "coordinates": {"latitude": 42.2256833290215, "longitude": -72.04646605713}, "transactions": [], "price": "$", "location": {"address1": "104 Pleasant St", "address2": "", "address3": "", "city": "East Brookfield", "zip_code": "01515", "country": "US", "state": "MA", "display_address": ["104 Pleasant St", "East Brookfield, MA 01515"]}, "phone": "+15088673412", "display_phone": "(508) 867-3412", "distance": 12136.01622295628}, {"id": "8rQlNJmWffGVZ0KN7rdA7A", "alias": "fedeles-coffee-shop-and-restaurant-southbridge", "name": "Fedele's Coffee Shop & Restaurant", "image_url": "https://s3-media2.fl.yelpcdn.com/bphoto/kszFyi9EEZF5ncLBBKrCyA/o.jpg", "is_closed": false, "url": "https://www.yelp.com/biz/fedeles-coffee-shop-and-restaurant-southbridge?adjust_creative=asslzE1UV0XuKI953B1vtw&utm_campaign=yelp_api_v3&utm_medium=api_v3_business_search&utm_source=asslzE1UV0XuKI953B1vtw", "review_count": 29, "categories": [{"alias": "diners", "title": "Diners"}], "rating": 4.5, "coordinates": {"latitude": 42.0756589, "longitude": -72.0336335}, "transactions": ["delivery"], "price": "$", "location": {"address1": "13 Central St", "address2": "", "address3": "", "city": "Southbridge", "zip_code": "01550", "country": "US", "state": "MA", "display_address": ["13 Central St", "Southbridge, MA 01550"]}, "phone": "+15087648019", "display_phone": "(508) 764-8019", "distance": 19143.954288024037}, {"id": "pMAyOdSf-r0M2Z2bdlpVQw", "alias": "yamato-asian-bistro-spencer", "name": "Yamato Asian Bistro", "image_url": "https://s3-media3.fl.yelpcdn.com/bphoto/-EGCOg_xmnRyvXecFXLq4g/o.jpg", "is_closed": false, "url": "https://www.yelp.com/biz/yamato-asian-bistro-spencer?adjust_creative=asslzE1UV0XuKI953B1vtw&utm_campaign=yelp_api_v3&utm_medium=api_v3_business_search&utm_source=asslzE1UV0XuKI953B1vtw", "review_count": 41, "categories": [{"alias": "asianfusion", "title": "Asian Fusion"}, {"alias": "sushi", "title": "Sushi Bars"}], "rating": 3.5, "coordinates": {"latitude": 42.23375, "longitude": -72.01408}, "transactions": [], "price": "$$", "location": {"address1": "62 West Main St", "address2": null, "address3": "", "city": "Spencer", "zip_code": "01562", "country": "US", "state": "MA", "display_address": ["62 West Main St", "Spencer, MA 01562"]}, "phone": "+15088855288", "display_phone": "(508) 885-5288", "distance": 14930.153503093816}, {"id": "EOaQtECguXla5hB1BJLU-w", "alias": "dynasty-chinese-restaurant-southbridge", "name": "Dynasty Chinese Restaurant", "image_url": "https://s3-media3.fl.yelpcdn.com/bphoto/98_YyhbeAnMwLpw7V_3lvQ/o.jpg", "is_closed": false, "url": "https://www.yelp.com/biz/dynasty-chinese-restaurant-southbridge?adjust_creative=asslzE1UV0XuKI953B1vtw&utm_campaign=yelp_api_v3&utm_medium=api_v3_business_search&utm_source=asslzE1UV0XuKI953B1vtw", "review_count": 34, "categories": [{"alias": "chinese", "title": "Chinese"}], "rating": 3.5, "coordinates": {"latitude": 42.07605, "longitude": -72.03468}, "transactions": ["delivery"], "price": "$", "location": {"address1": "344 Main St", "address2": "", "address3": "", "city": "Southbridge", "zip_code": "01550", "country": "US", "state": "MA", "display_address": ["344 Main St", "Southbridge, MA 01550"]}, "phone": "+15087650398", "display_phone": "(508) 765-0398", "distance": 19044.50134332223}, {"id": "Ta3RtU27BULz8gypO2tz1g", "alias": "kostas-cafe-spencer", "name": "Kosta's Cafe", "image_url": "https://s3-media3.fl.yelpcdn.com/bphoto/TxC1BRbDhKJP6lTm_ChMzw/o.jpg", "is_closed": false, "url": "https://www.yelp.com/biz/kostas-cafe-spencer?adjust_creative=asslzE1UV0XuKI953B1vtw&utm_campaign=yelp_api_v3&utm_medium=api_v3_business_search&utm_source=asslzE1UV0XuKI953B1vtw", "review_count": 34, "categories": [{"alias": "breakfast_brunch", "title": "Breakfast & Brunch"}, {"alias": "coffee", "title": "Coffee & Tea"}], "rating": 4.0, "coordinates": {"latitude": 42.246032, "longitude": -71.995498}, "transactions": [], "price": "$", "location": {"address1": "31 Pleasant St", "address2": "", "address3": "", "city": "Spencer", "zip_code": "01562", "country": "US", "state": "MA", "display_address": ["31 Pleasant St", "Spencer, MA 01562"]}, "phone": "+15088857705", "display_phone": "(508) 885-7705", "distance": 16767.523305006565}, {"id": "2lPx57IP0188-v2tPlJw-Q", "alias": "new-china-monson", "name": "New China", "image_url": "https://s3-media3.fl.yelpcdn.com/bphoto/Qf9rO6YsSe8l8thvXJWl0g/o.jpg", "is_closed": false, "url": "https://www.yelp.com/biz/new-china-monson?adjust_creative=asslzE1UV0XuKI953B1vtw&utm_campaign=yelp_api_v3&utm_medium=api_v3_business_search&utm_source=asslzE1UV0XuKI953B1vtw", "review_count": 2, "categories": [{"alias": "chinese", "title": "Chinese"}, {"alias": "seafood", "title": "Seafood"}, {"alias": "noodles", "title": "Noodles"}], "rating": 4.0, "coordinates": {"latitude": 42.0976973187631, "longitude": -72.3157599121258}, "transactions": ["pickup", "delivery"], "location": {"address1": "123 Main St", "address2": "", "address3": "", "city": "Monson", "zip_code": "01057", "country": "US", "state": "MA", "display_address": ["123 Main St", "Monson, MA 01057"]}, "phone": "+14132670505", "display_phone": "(413) 267-0505", "distance": 15574.645106091319}, {"id": "CFF7RjSKuryLyaC6JipesA", "alias": "great-oak-pizza-southbridge", "name": "Great Oak Pizza", "image_url": "https://s3-media3.fl.yelpcdn.com/bphoto/-n5e-cwycDwi3GpjPS7-fg/o.jpg", "is_closed": false, "url": "https://www.yelp.com/biz/great-oak-pizza-southbridge?adjust_creative=asslzE1UV0XuKI953B1vtw&utm_campaign=yelp_api_v3&utm_medium=api_v3_business_search&utm_source=asslzE1UV0XuKI953B1vtw", "review_count": 12, "categories": [{"alias": "pizza", "title": "Pizza"}, {"alias": "salad", "title": "Salad"}, {"alias": "burgers", "title": "Burgers"}], "rating": 4.0, "coordinates": {"latitude": 42.0819071, "longitude": -72.0478964}, "transactions": ["delivery"], "price": "$$", "location": {"address1": "922 Main St", "address2": "", "address3": "", "city": "Southbridge", "zip_code": "01550", "country": "US", "state": "MA", "display_address": ["922 Main St", "Southbridge, MA 01550"]}, "phone": "+15087652929", "display_phone": "(508) 765-2929", "distance": 17835.542253707514}, {"id": "BCuYMYSCsV3K2Ei1MLZoLQ", "alias": "panda-garden-southbridge", "name": "Panda Garden", "image_url": "https://s3-media1.fl.yelpcdn.com/bphoto/G3RyZt0NkDwv6X_Xd3oAMA/o.jpg", "is_closed": false, "url": "https://www.yelp.com/biz/panda-garden-southbridge?adjust_creative=asslzE1UV0XuKI953B1vtw&utm_campaign=yelp_api_v3&utm_medium=api_v3_business_search&utm_source=asslzE1UV0XuKI953B1vtw", "review_count": 13, "categories": [{"alias": "chinese", "title": "Chinese"}], "rating": 3.0, "coordinates": {"latitude": 42.07645, "longitude": -72.02657}, "transactions": ["delivery"], "price": "$$", "location": {"address1": "102 Mechanic St", "address2": "", "address3": "", "city": "Southbridge", "zip_code": "01550", "country": "US", "state": "MA", "display_address": ["102 Mechanic St", "Southbridge, MA 01550"]}, "phone": "+15087642052", "display_phone": "(508) 764-2052", "distance": 19473.04004500001}, {"id": "P3GSgNPUBIVmkGJTil5Wwg", "alias": "athens-pizza-brimfield", "name": "Athens Pizza", "image_url": "https://s3-media1.fl.yelpcdn.com/bphoto/jttJHc-xQMWnq1Zod5wIYA/o.jpg", "is_closed": false, "url": "https://www.yelp.com/biz/athens-pizza-brimfield?adjust_creative=asslzE1UV0XuKI953B1vtw&utm_campaign=yelp_api_v3&utm_medium=api_v3_business_search&utm_source=asslzE1UV0XuKI953B1vtw", "review_count": 10, "categories": [{"alias": "pizza", "title": "Pizza"}], "rating": 3.5, "coordinates": {"latitude": 42.11982, "longitude": -72.19916}, "transactions": [], "price": "$", "location": {"address1": "26 Sturbridge Rd", "address2": "", "address3": "", "city": "Brimfield", "zip_code": "01010", "country": "US", "state": "MA", "display_address": ["26 Sturbridge Rd", "Brimfield, MA 01010"]}, "phone": "+14132459437", "display_phone": "(413) 245-9437", "distance": 9223.330353921823}, {"id": "o-TMMW8o9tLLMzARuAXQ4A", "alias": "applebees-grill-bar-sturbridge", "name": "Applebee's Grill + Bar", "image_url": "https://s3-media2.fl.yelpcdn.com/bphoto/g-y-VY5yJdtqk5Rzml6LQQ/o.jpg", "is_closed": false, "url": "https://www.yelp.com/biz/applebees-grill-bar-sturbridge?adjust_creative=asslzE1UV0XuKI953B1vtw&utm_campaign=yelp_api_v3&utm_medium=api_v3_business_search&utm_source=asslzE1UV0XuKI953B1vtw", "review_count": 29, "categories": [{"alias": "tradamerican", "title": "American (Traditional)"}, {"alias": "sportsbars", "title": "Sports Bars"}, {"alias": "burgers", "title": "Burgers"}], "rating": 2.5, "coordinates": {"latitude": 42.123408, "longitude": -72.058825}, "transactions": [], "price": "$$", "location": {"address1": "120 Charlton Rd", "address2": "", "address3": "", "city": "Sturbridge", "zip_code": "01566", "country": "US", "state": "MA", "display_address": ["120 Charlton Rd", "Sturbridge, MA 01566"]}, "phone": "+15083470174", "display_phone": "(508) 347-0174", "distance": 13969.833155470926}, {"id": "zO_mZR9-JBJq6e8SaOsGLw", "alias": "village-hotdog-sturbridge", "name": "Village Hotdog", "image_url": "https://s3-media4.fl.yelpcdn.com/bphoto/VHJM9QbGDLZctqiuTY2z0A/o.jpg", "is_closed": false, "url": "https://www.yelp.com/biz/village-hotdog-sturbridge?adjust_creative=asslzE1UV0XuKI953B1vtw&utm_campaign=yelp_api_v3&utm_medium=api_v3_business_search&utm_source=asslzE1UV0XuKI953B1vtw", "review_count": 17, "categories": [{"alias": "hotdog", "title": "Hot Dogs"}], "rating": 4.0, "coordinates": {"latitude": 42.1126999, "longitude": -72.09148}, "transactions": ["delivery"], "price": "$", "location": {"address1": "376 Main St", "address2": "", "address3": "", "city": "Sturbridge", "zip_code": "01566", "country": "US", "state": "MA", "display_address": ["376 Main St", "Sturbridge, MA 01566"]}, "phone": "+17742399998", "display_phone": "(774) 239-9998", "distance": 12898.77815807848}, {"id": "y1XxQtglRjrnlzJqLEhpHw", "alias": "acropolis-pizza-palmer", "name": "Acropolis Pizza", "image_url": "https://s3-media3.fl.yelpcdn.com/bphoto/7JsSTFTxkoASrYfGHTlZTA/o.jpg", "is_closed": false, "url": "https://www.yelp.com/biz/acropolis-pizza-palmer?adjust_creative=asslzE1UV0XuKI953B1vtw&utm_campaign=yelp_api_v3&utm_medium=api_v3_business_search&utm_source=asslzE1UV0XuKI953B1vtw", "review_count": 14, "categories": [{"alias": "pizza", "title": "Pizza"}], "rating": 3.5, "coordinates": {"latitude": 42.15189, "longitude": -72.31515}, "transactions": [], "price": "$", "location": {"address1": "1240 Park St", "address2": "Ste 3", "address3": "", "city": "Palmer", "zip_code": "01069", "country": "US", "state": "MA", "display_address": ["1240 Park St", "Ste 3", "Palmer, MA 01069"]}, "phone": "+14132833488", "display_phone": "(413) 283-3488", "distance": 11673.328535688004}, {"id": "nO0WHyU8hH-fZox4vFx_Tw", "alias": "trolley-stop-restaurant-east-brookfield", "name": "Trolley Stop Restaurant", "image_url": "https://s3-media3.fl.yelpcdn.com/bphoto/ssiKoGUtgz6GULs3biiPxw/o.jpg", "is_closed": false, "url": "https://www.yelp.com/biz/trolley-stop-restaurant-east-brookfield?adjust_creative=asslzE1UV0XuKI953B1vtw&utm_campaign=yelp_api_v3&utm_medium=api_v3_business_search&utm_source=asslzE1UV0XuKI953B1vtw", "review_count": 7, "categories": [{"alias": "breakfast_brunch", "title": "Breakfast & Brunch"}], "rating": 3.5, "coordinates": {"latitude": 42.226512, "longitude": -72.047706}, "transactions": [], "price": "$", "location": {"address1": "294 E Main St", "address2": "", "address3": "", "city": "East Brookfield", "zip_code": "01515", "country": "US", "state": "MA", "display_address": ["294 E Main St", "East Brookfield, MA 01515"]}, "phone": "+15088675995", "display_phone": "(508) 867-5995", "distance": 12067.061318950458}, {"id": "DeSyCZVRHBSBr1MUq34uQQ", "alias": "day-and-night-diner-palmer", "name": "Day & Night Diner", "image_url": "https://s3-media1.fl.yelpcdn.com/bphoto/e0MxzR5XQ_BYUKAcqEcy1g/o.jpg", "is_closed": false, "url": "https://www.yelp.com/biz/day-and-night-diner-palmer?adjust_creative=asslzE1UV0XuKI953B1vtw&utm_campaign=yelp_api_v3&utm_medium=api_v3_business_search&utm_source=asslzE1UV0XuKI953B1vtw", "review_count": 22, "categories": [{"alias": "diners", "title": "Diners"}], "rating": 3.0, "coordinates": {"latitude": 42.15815, "longitude": -72.3315}, "transactions": [], "price": "$", "location": {"address1": "1456 N Main St", "address2": "", "address3": "", "city": "Palmer", "zip_code": "01069", "country": "US", "state": "MA", "display_address": ["1456 N Main St", "Palmer, MA 01069"]}, "phone": "+14132834536", "display_phone": "(413) 283-4536", "distance": 12605.868404251834}, {"id": "DXgDN6EItxuEWx-o7sYInA", "alias": "china-house-restaurant-palmer", "name": "China House Restaurant", "image_url": "https://s3-media2.fl.yelpcdn.com/bphoto/LmrBfsuE4xtY8tWJdiV-eQ/o.jpg", "is_closed": false, "url": "https://www.yelp.com/biz/china-house-restaurant-palmer?adjust_creative=asslzE1UV0XuKI953B1vtw&utm_campaign=yelp_api_v3&utm_medium=api_v3_business_search&utm_source=asslzE1UV0XuKI953B1vtw", "review_count": 8, "categories": [{"alias": "chinese", "title": "Chinese"}], "rating": 2.5, "coordinates": {"latitude": 42.15189, "longitude": -72.31515}, "transactions": [], "price": "$$", "location": {"address1": "1240 Park St", "address2": "", "address3": "", "city": "Palmer", "zip_code": "01069", "country": "US", "state": "MA", "display_address": ["1240 Park St", "Palmer, MA 01069"]}, "phone": "+14132838983", "display_phone": "(413) 283-8983", "distance": 11673.328535688004}, {"id": "vlFtM9aSiPijxP6nYuRHvA", "alias": "reeds-country-store-new-braintree", "name": "Reed's Country Store", "image_url": "", "is_closed": false, "url": "https://www.yelp.com/biz/reeds-country-store-new-braintree?adjust_creative=asslzE1UV0XuKI953B1vtw&utm_campaign=yelp_api_v3&utm_medium=api_v3_business_search&utm_source=asslzE1UV0XuKI953B1vtw", "review_count": 3, "categories": [{"alias": "tradamerican", "title": "American (Traditional)"}], "rating": 3.0, "coordinates": {"latitude": 42.3236541748047, "longitude": -72.1021881103516}, "transactions": [], "price": "$", "location": {"address1": "753 Barre Rd", "address2": "", "address3": "", "city": "New Braintree", "zip_code": "01531", "country": "US", "state": "MA", "display_address": ["753 Barre Rd", "New Braintree, MA 01531"]}, "phone": "+15088679512", "display_phone": "(508) 867-9512", "distance": 15302.40571018757}, {"id": "vO_yNJ3WuJv2Me0L9rxh_A", "alias": "empire-buffet-southbridge", "name": "Empire Buffet", "image_url": "https://s3-media2.fl.yelpcdn.com/bphoto/n7aIk0QtgxkRHm0VJ2jClA/o.jpg", "is_closed": false, "url": "https://www.yelp.com/biz/empire-buffet-southbridge?adjust_creative=asslzE1UV0XuKI953B1vtw&utm_campaign=yelp_api_v3&utm_medium=api_v3_business_search&utm_source=asslzE1UV0XuKI953B1vtw", "review_count": 16, "categories": [{"alias": "chinese", "title": "Chinese"}, {"alias": "buffets", "title": "Buffets"}], "rating": 3.0, "coordinates": {"latitude": 42.081335, "longitude": -72.045451}, "transactions": ["delivery"], "price": "$$", "location": {"address1": "846 Main St", "address2": "", "address3": "", "city": "Southbridge", "zip_code": "01550", "country": "US", "state": "MA", "display_address": ["846 Main St", "Southbridge, MA 01550"]}, "phone": "+15087649801", "display_phone": "(508) 764-9801", "distance": 18016.64225080369}, {"id": "UDJ3fIh3TjsVrKBFDLzLKg", "alias": "spencer-pizza-house-spencer", "name": "Spencer Pizza House", "image_url": "https://s3-media1.fl.yelpcdn.com/bphoto/GiQku7izwr1tz1zuQliGOw/o.jpg", "is_closed": false, "url": "https://www.yelp.com/biz/spencer-pizza-house-spencer?adjust_creative=asslzE1UV0XuKI953B1vtw&utm_campaign=yelp_api_v3&utm_medium=api_v3_business_search&utm_source=asslzE1UV0XuKI953B1vtw", "review_count": 16, "categories": [{"alias": "pizza", "title": "Pizza"}, {"alias": "seafood", "title": "Seafood"}, {"alias": "sandwiches", "title": "Sandwiches"}], "rating": 4.5, "coordinates": {"latitude": 42.24288, "longitude": -71.99309}, "transactions": [], "price": "$", "location": {"address1": "19 Mechanic St", "address2": "", "address3": "", "city": "Spencer", "zip_code": "01562", "country": "US", "state": "MA", "display_address": ["19 Mechanic St", "Spencer, MA 01562"]}, "phone": "+15088850000", "display_phone": "(508) 885-0000", "distance": 16854.686191060988}, {"id": "h5qoswGegDM9_5p7tL9ZCw", "alias": "crown-fried-chicken-southbridge", "name": "Crown Fried Chicken", "image_url": "https://s3-media1.fl.yelpcdn.com/bphoto/O3EbxIJ3EljzqGelp9daQw/o.jpg", "is_closed": false, "url": "https://www.yelp.com/biz/crown-fried-chicken-southbridge?adjust_creative=asslzE1UV0XuKI953B1vtw&utm_campaign=yelp_api_v3&utm_medium=api_v3_business_search&utm_source=asslzE1UV0XuKI953B1vtw", "review_count": 7, "categories": [{"alias": "chicken_wings", "title": "Chicken Wings"}], "rating": 3.0, "coordinates": {"latitude": 42.07698, "longitude": -72.0340712}, "transactions": ["delivery"], "price": "$", "location": {"address1": "45 Hamilton St", "address2": "", "address3": "", "city": "Southbridge", "zip_code": "01550", "country": "US", "state": "MA", "display_address": ["45 Hamilton St", "Southbridge, MA 01550"]}, "phone": "+15087646363", "display_phone": "(508) 764-6363", "distance": 19005.67814924471}, {"id": "uLvlyJle6VxAdZyw5wGqKg", "alias": "astronaut-pizza-house-ware", "name": "Astronaut Pizza House", "image_url": "https://s3-media1.fl.yelpcdn.com/bphoto/hnCmjlVlZG-RPFldt0QL7A/o.jpg", "is_closed": false, "url": "https://www.yelp.com/biz/astronaut-pizza-house-ware?adjust_creative=asslzE1UV0XuKI953B1vtw&utm_campaign=yelp_api_v3&utm_medium=api_v3_business_search&utm_source=asslzE1UV0XuKI953B1vtw", "review_count": 8, "categories": [{"alias": "pizza", "title": "Pizza"}], "rating": 2.5, "coordinates": {"latitude": 42.251477, "longitude": -72.258679}, "transactions": [], "price": "$$", "location": {"address1": "197 West St", "address2": "", "address3": "", "city": "Ware", "zip_code": "01082", "country": "US", "state": "MA", "display_address": ["197 West St", "Ware, MA 01082"]}, "phone": "+14139675685", "display_phone": "(413) 967-5685", "distance": 7820.017763257364}, {"id": "7GKsD-3YyjvRbl8bf43Rog", "alias": "alexanders-golden-greek-southbridge", "name": "Alexander's Golden Greek", "image_url": "https://s3-media4.fl.yelpcdn.com/bphoto/teM4W4R0oY2krIEXp3rnMA/o.jpg", "is_closed": false, "url": "https://www.yelp.com/biz/alexanders-golden-greek-southbridge?adjust_creative=asslzE1UV0XuKI953B1vtw&utm_campaign=yelp_api_v3&utm_medium=api_v3_business_search&utm_source=asslzE1UV0XuKI953B1vtw", "review_count": 14, "categories": [{"alias": "italian", "title": "Italian"}, {"alias": "greek", "title": "Greek"}, {"alias": "tradamerican", "title": "American (Traditional)"}], "rating": 3.0, "coordinates": {"latitude": 42.067065, "longitude": -72.008723}, "transactions": ["delivery"], "price": "$$", "location": {"address1": "6 Sandersdale Rd", "address2": "", "address3": "", "city": "Southbridge", "zip_code": "01550", "country": "US", "state": "MA", "display_address": ["6 Sandersdale Rd", "Southbridge, MA 01550"]}, "phone": "+15087650211", "display_phone": "(508) 765-0211", "distance": 21247.982680744855}, {"id": "6-UBeV-s9neyFr_u6hMh9w", "alias": "churchills-village-eatery-sturbridge", "name": "Churchill's Village Eatery", "image_url": "https://s3-media2.fl.yelpcdn.com/bphoto/WM-3PfNV7BWEURFfVeptlA/o.jpg", "is_closed": false, "url": "https://www.yelp.com/biz/churchills-village-eatery-sturbridge?adjust_creative=asslzE1UV0XuKI953B1vtw&utm_campaign=yelp_api_v3&utm_medium=api_v3_business_search&utm_source=asslzE1UV0XuKI953B1vtw", "review_count": 51, "categories": [{"alias": "tradamerican", "title": "American (Traditional)"}, {"alias": "breakfast_brunch", "title": "Breakfast & Brunch"}, {"alias": "burgers", "title": "Burgers"}], "rating": 4.0, "coordinates": {"latitude": 42.11605, "longitude": -72.10226}, "transactions": ["delivery"], "price": "$", "location": {"address1": "450 Main St", "address2": "", "address3": "", "city": "Sturbridge", "zip_code": "01518", "country": "US", "state": "MA", "display_address": ["450 Main St", "Sturbridge, MA 01518"]}, "phone": "+15083477455", "display_phone": "(508) 347-7455", "distance": 12251.202511111129}, {"id": "5LnJZPd5i8WaQaZSyBzxlw", "alias": "georges-pizza-and-subs-charlton-2", "name": "George's Pizza & Subs", "image_url": "https://s3-media4.fl.yelpcdn.com/bphoto/yakVXZqs_knjbkKEe3wAcA/o.jpg", "is_closed": false, "url": "https://www.yelp.com/biz/georges-pizza-and-subs-charlton-2?adjust_creative=asslzE1UV0XuKI953B1vtw&utm_campaign=yelp_api_v3&utm_medium=api_v3_business_search&utm_source=asslzE1UV0XuKI953B1vtw", "review_count": 10, "categories": [{"alias": "pizza", "title": "Pizza"}, {"alias": "seafood", "title": "Seafood"}, {"alias": "chicken_wings", "title": "Chicken Wings"}], "rating": 2.5, "coordinates": {"latitude": 42.14948, "longitude": -71.98911}, "transactions": ["delivery"], "location": {"address1": "9 City Depot Rd", "address2": "", "address3": null, "city": "Charlton", "zip_code": "01507", "country": "US", "state": "MA", "display_address": ["9 City Depot Rd", "Charlton, MA 01507"]}, "phone": "+15082482048", "display_phone": "(508) 248-2048", "distance": 17611.56665654659}, {"id": "nyhbSselfpJd_ajuEVYNAw", "alias": "uno-pizzeria-and-grill-sturbridge", "name": "Uno Pizzeria & Grill", "image_url": "https://s3-media4.fl.yelpcdn.com/bphoto/kjxDZ4P5Gk_DHqC8H3RBXw/o.jpg", "is_closed": false, "url": "https://www.yelp.com/biz/uno-pizzeria-and-grill-sturbridge?adjust_creative=asslzE1UV0XuKI953B1vtw&utm_campaign=yelp_api_v3&utm_medium=api_v3_business_search&utm_source=asslzE1UV0XuKI953B1vtw", "review_count": 65, "categories": [{"alias": "pizza", "title": "Pizza"}, {"alias": "gluten_free", "title": "Gluten-Free"}, {"alias": "tradamerican", "title": "American (Traditional)"}], "rating": 3.0, "coordinates": {"latitude": 42.124927, "longitude": -72.058578}, "transactions": ["pickup", "delivery"], "price": "$$", "location": {"address1": "100 Charlton Rd", "address2": "", "address3": "", "city": "Sturbridge", "zip_code": "01566", "country": "US", "state": "MA", "display_address": ["100 Charlton Rd", "Sturbridge, MA 01566"]}, "phone": "+15083476420", "display_phone": "(508) 347-6420", "distance": 13879.910413226635}, {"id": "xHaYttFhZE8GwhkPXP0r8w", "alias": "sturbridge-coffee-house-sturbridge", "name": "Sturbridge Coffee House", "image_url": "https://s3-media3.fl.yelpcdn.com/bphoto/BSNhu_kGhfBpNxBip8pNcg/o.jpg", "is_closed": false, "url": "https://www.yelp.com/biz/sturbridge-coffee-house-sturbridge?adjust_creative=asslzE1UV0XuKI953B1vtw&utm_campaign=yelp_api_v3&utm_medium=api_v3_business_search&utm_source=asslzE1UV0XuKI953B1vtw", "review_count": 67, "categories": [{"alias": "tradamerican", "title": "American (Traditional)"}, {"alias": "coffee", "title": "Coffee & Tea"}, {"alias": "breakfast_brunch", "title": "Breakfast & Brunch"}], "rating": 4.0, "coordinates": {"latitude": 42.11097, "longitude": -72.09596}, "transactions": [], "price": "$", "location": {"address1": "407B Main St", "address2": null, "address3": "", "city": "Sturbridge", "zip_code": "01566", "country": "US", "state": "MA", "display_address": ["407B Main St", "Sturbridge, MA 01566"]}, "phone": "+15083472288", "display_phone": "(508) 347-2288", "distance": 12769.338213352674}, {"id": "miO060zZkIlbbXeDr1YFRw", "alias": "ricks-parkside-drivein-restaurant-palmer", "name": "Rick's Parkside Drivein Restaurant", "image_url": "https://s3-media4.fl.yelpcdn.com/bphoto/ZZ2d6kyVBm2529cuzKXiWg/o.jpg", "is_closed": false, "url": "https://www.yelp.com/biz/ricks-parkside-drivein-restaurant-palmer?adjust_creative=asslzE1UV0XuKI953B1vtw&utm_campaign=yelp_api_v3&utm_medium=api_v3_business_search&utm_source=asslzE1UV0XuKI953B1vtw", "review_count": 9, "categories": [{"alias": "icecream", "title": "Ice Cream & Frozen Yogurt"}, {"alias": "burgers", "title": "Burgers"}, {"alias": "hotdog", "title": "Hot Dogs"}], "rating": 3.0, "coordinates": {"latitude": 42.1496238, "longitude": -72.307246}, "transactions": [], "price": "$", "location": {"address1": "1189 Park St", "address2": "", "address3": "", "city": "Palmer", "zip_code": "01069", "country": "US", "state": "MA", "display_address": ["1189 Park St", "Palmer, MA 01069"]}, "phone": "+14132833517", "display_phone": "(413) 283-3517", "distance": 11278.616570996172}, {"id": "t48BTpI_RaUbsgw_UVSesQ", "alias": "roms-italian-market-sturbridge", "name": "Rom's Italian Market", "image_url": "", "is_closed": false, "url": "https://www.yelp.com/biz/roms-italian-market-sturbridge?adjust_creative=asslzE1UV0XuKI953B1vtw&utm_campaign=yelp_api_v3&utm_medium=api_v3_business_search&utm_source=asslzE1UV0XuKI953B1vtw", "review_count": 3, "categories": [{"alias": "italian", "title": "Italian"}], "rating": 2.5, "coordinates": {"latitude": 42.0956326234707, "longitude": -72.070764452219}, "transactions": [], "location": {"address1": "139 Main St", "address2": "", "address3": "", "city": "Sturbridge", "zip_code": "01566", "country": "US", "state": "MA", "display_address": ["139 Main St", "Sturbridge, MA 01566"]}, "phone": "+15083471440", "display_phone": "(508) 347-1440", "distance": 15449.864045496905}, {"id": "87nWwQ6ApFXYhaKWr3wjrw", "alias": "empire-village-sturbridge", "name": "Empire Village", "image_url": "https://s3-media4.fl.yelpcdn.com/bphoto/RzgZwzlUkvJFiO3Dc94IKQ/o.jpg", "is_closed": false, "url": "https://www.yelp.com/biz/empire-village-sturbridge?adjust_creative=asslzE1UV0XuKI953B1vtw&utm_campaign=yelp_api_v3&utm_medium=api_v3_business_search&utm_source=asslzE1UV0XuKI953B1vtw", "review_count": 54, "categories": [{"alias": "chinese", "title": "Chinese"}, {"alias": "seafood", "title": "Seafood"}, {"alias": "soup", "title": "Soup"}], "rating": 2.5, "coordinates": {"latitude": 42.11386, "longitude": -72.101336}, "transactions": ["delivery"], "price": "$", "location": {"address1": "446 Main St", "address2": "", "address3": "", "city": "Sturbridge", "zip_code": "01566", "country": "US", "state": "MA", "display_address": ["446 Main St", "Sturbridge, MA 01566"]}, "phone": "+15083476588", "display_phone": "(508) 347-6588", "distance": 12296.818432973674}, {"id": "0uZi3bproBbPbYdli72dSg", "alias": "north-brookfield-pizza-palace-north-brookfield-2", "name": "North Brookfield Pizza Palace", "image_url": "", "is_closed": false, "url": "https://www.yelp.com/biz/north-brookfield-pizza-palace-north-brookfield-2?adjust_creative=asslzE1UV0XuKI953B1vtw&utm_campaign=yelp_api_v3&utm_medium=api_v3_business_search&utm_source=asslzE1UV0XuKI953B1vtw", "review_count": 10, "categories": [{"alias": "pizza", "title": "Pizza"}], "rating": 3.5, "coordinates": {"latitude": 42.2685891, "longitude": -72.0822442}, "transactions": [], "price": "$", "location": {"address1": "60 School St", "address2": "", "address3": "", "city": "North Brookfield", "zip_code": "01535", "country": "US", "state": "MA", "display_address": ["60 School St", "North Brookfield, MA 01535"]}, "phone": "+15088670060", "display_phone": "(508) 867-0060", "distance": 11547.346295544183}, {"id": "aaju-ywg8FrSJ3-DG-rxKQ", "alias": "shades-lounge-southbridge", "name": "Shade's Lounge", "image_url": "https://s3-media2.fl.yelpcdn.com/bphoto/6xBfRQT1bOR66mfsVIgaww/o.jpg", "is_closed": false, "url": "https://www.yelp.com/biz/shades-lounge-southbridge?adjust_creative=asslzE1UV0XuKI953B1vtw&utm_campaign=yelp_api_v3&utm_medium=api_v3_business_search&utm_source=asslzE1UV0XuKI953B1vtw", "review_count": 5, "categories": [{"alias": "tradamerican", "title": "American (Traditional)"}, {"alias": "cocktailbars", "title": "Cocktail Bars"}], "rating": 3.0, "coordinates": {"latitude": 42.07509, "longitude": -72.02553}, "transactions": ["delivery"], "location": {"address1": "14 Mechanic Street", "address2": null, "address3": null, "city": "Southbridge", "zip_code": "01550", "country": "US", "state": "MA", "display_address": ["14 Mechanic Street", "Southbridge, MA 01550"]}, "phone": "+15087654003", "display_phone": "(508) 765-4003", "distance": 19624.103948786957}, {"id": "B4nNgnSMIqxGNyksVG1VZw", "alias": "elm-centre-cafe-southbridge", "name": "Elm Centre Cafe", "image_url": "https://s3-media2.fl.yelpcdn.com/bphoto/6ihpAqOaMjtQ6WH-3_6L0g/o.jpg", "is_closed": false, "url": "https://www.yelp.com/biz/elm-centre-cafe-southbridge?adjust_creative=asslzE1UV0XuKI953B1vtw&utm_campaign=yelp_api_v3&utm_medium=api_v3_business_search&utm_source=asslzE1UV0XuKI953B1vtw", "review_count": 59, "categories": [{"alias": "diners", "title": "Diners"}, {"alias": "breakfast_brunch", "title": "Breakfast & Brunch"}], "rating": 4.5, "coordinates": {"latitude": 42.073748, "longitude": -72.033803}, "transactions": ["delivery"], "price": "$", "location": {"address1": "39 Elm St", "address2": "Ste 1", "address3": "", "city": "Southbridge", "zip_code": "01550", "country": "US", "state": "MA", "display_address": ["39 Elm St", "Ste 1", "Southbridge, MA 01550"]}, "phone": "+15087647288", "display_phone": "(508) 764-7288", "distance": 19260.488539337435}, {"id": "5iQpqjcmYJVWLR8gEUHqEg", "alias": "tang-chinese-restaurant-palmer", "name": "Tang Chinese Restaurant", "image_url": "https://s3-media4.fl.yelpcdn.com/bphoto/L7UePEGADkjZb2pPbS8IcA/o.jpg", "is_closed": false, "url": "https://www.yelp.com/biz/tang-chinese-restaurant-palmer?adjust_creative=asslzE1UV0XuKI953B1vtw&utm_campaign=yelp_api_v3&utm_medium=api_v3_business_search&utm_source=asslzE1UV0XuKI953B1vtw", "review_count": 12, "categories": [{"alias": "chinese", "title": "Chinese"}], "rating": 3.5, "coordinates": {"latitude": 42.162835, "longitude": -72.340593}, "transactions": [], "price": "$", "location": {"address1": "1581 N Main St", "address2": "", "address3": "", "city": "Palmer", "zip_code": "01069", "country": "US", "state": "MA", "display_address": ["1581 N Main St", "Palmer, MA 01069"]}, "phone": "+14132832988", "display_phone": "(413) 283-2988", "distance": 13133.263384382179}, {"id": "lQwRGkdMNvY6e_Zo1RSDVQ", "alias": "villas-pizza-restaurant-ware", "name": "Villa's Pizza Restaurant", "image_url": "https://s3-media2.fl.yelpcdn.com/bphoto/MHYLDAcp33fb74RF2IZojg/o.jpg", "is_closed": false, "url": "https://www.yelp.com/biz/villas-pizza-restaurant-ware?adjust_creative=asslzE1UV0XuKI953B1vtw&utm_campaign=yelp_api_v3&utm_medium=api_v3_business_search&utm_source=asslzE1UV0XuKI953B1vtw", "review_count": 4, "categories": [{"alias": "pizza", "title": "Pizza"}], "rating": 3.5, "coordinates": {"latitude": 42.26092, "longitude": -72.2427}, "transactions": [], "price": "$", "location": {"address1": "123 Main St", "address2": "", "address3": "", "city": "Ware", "zip_code": "01082", "country": "US", "state": "MA", "display_address": ["123 Main St", "Ware, MA 01082"]}, "phone": "+14139674490", "display_phone": "(413) 967-4490", "distance": 7776.643326563125}, {"id": "r9-dhj_D6aMgxqIEIIzxLQ", "alias": "hardwick-house-of-pizza-gilbertville", "name": "Hardwick House of Pizza", "image_url": "https://s3-media3.fl.yelpcdn.com/bphoto/U1v5kFxk8Fot1l3t8QEiWQ/o.jpg", "is_closed": false, "url": "https://www.yelp.com/biz/hardwick-house-of-pizza-gilbertville?adjust_creative=asslzE1UV0XuKI953B1vtw&utm_campaign=yelp_api_v3&utm_medium=api_v3_business_search&utm_source=asslzE1UV0XuKI953B1vtw", "review_count": 6, "categories": [{"alias": "pizza", "title": "Pizza"}], "rating": 2.0, "coordinates": {"latitude": 42.3129577, "longitude": -72.2049821}, "transactions": [], "price": "$", "location": {"address1": "2 Main", "address2": "", "address3": null, "city": "Gilbertville", "zip_code": "01031", "country": "US", "state": "MA", "display_address": ["2 Main", "Gilbertville, MA 01031"]}, "phone": "+14134776001", "display_phone": "(413) 477-6001", "distance": 12339.701436380607}, {"id": "3gPEJ6FE1_Ivtq4MEuhCgg", "alias": "girlys-grill-palmer-2", "name": "Girly's Grill", "image_url": "https://s3-media2.fl.yelpcdn.com/bphoto/mrjt2150qBzPkV6EpdzvbA/o.jpg", "is_closed": false, "url": "https://www.yelp.com/biz/girlys-grill-palmer-2?adjust_creative=asslzE1UV0XuKI953B1vtw&utm_campaign=yelp_api_v3&utm_medium=api_v3_business_search&utm_source=asslzE1UV0XuKI953B1vtw", "review_count": 27, "categories": [{"alias": "diners", "title": "Diners"}, {"alias": "breakfast_brunch", "title": "Breakfast & Brunch"}, {"alias": "tradamerican", "title": "American (Traditional)"}], "rating": 3.5, "coordinates": {"latitude": 42.1501241705257, "longitude": -72.3098161605006}, "transactions": [], "price": "$$", "location": {"address1": "1315 Park St", "address2": "", "address3": "", "city": "Palmer", "zip_code": "01069", "country": "US", "state": "MA", "display_address": ["1315 Park St", "Palmer, MA 01069"]}, "phone": "+14132840005", "display_phone": "(413) 284-0005", "distance": 11431.343908452618}, {"id": "korFZpunosGkNq5HYJkuhg", "alias": "johns-pizza-spencer", "name": "John's Pizza", "image_url": "https://s3-media2.fl.yelpcdn.com/bphoto/WK44ri8DaBsfonFXQwUrdg/o.jpg", "is_closed": false, "url": "https://www.yelp.com/biz/johns-pizza-spencer?adjust_creative=asslzE1UV0XuKI953B1vtw&utm_campaign=yelp_api_v3&utm_medium=api_v3_business_search&utm_source=asslzE1UV0XuKI953B1vtw", "review_count": 22, "categories": [{"alias": "pizza", "title": "Pizza"}], "rating": 3.0, "coordinates": {"latitude": 42.24354, "longitude": -71.99274}, "transactions": [], "price": "$$", "location": {"address1": "158 Main St", "address2": "Ste 3", "address3": "", "city": "Spencer", "zip_code": "01562", "country": "US", "state": "MA", "display_address": ["158 Main St", "Ste 3", "Spencer, MA 01562"]}, "phone": "+15088856936", "display_phone": "(508) 885-6936", "distance": 16912.69609652328}, {"id": "venvJKnBEfhfP9QWGH0p5g", "alias": "cjs-restaurant-palmer", "name": "Cj's Restaurant", "image_url": "https://s3-media1.fl.yelpcdn.com/bphoto/rcvvBPRnm8H4L8mGBvqdeg/o.jpg", "is_closed": false, "url": "https://www.yelp.com/biz/cjs-restaurant-palmer?adjust_creative=asslzE1UV0XuKI953B1vtw&utm_campaign=yelp_api_v3&utm_medium=api_v3_business_search&utm_source=asslzE1UV0XuKI953B1vtw", "review_count": 7, "categories": [{"alias": "seafood", "title": "Seafood"}, {"alias": "diners", "title": "Diners"}, {"alias": "sandwiches", "title": "Sandwiches"}], "rating": 2.5, "coordinates": {"latitude": 42.1540048194058, "longitude": -72.3712067658539}, "transactions": [], "price": "$$", "location": {"address1": "371 Wilbraham St", "address2": "", "address3": "", "city": "Palmer", "zip_code": "01069", "country": "US", "state": "MA", "display_address": ["371 Wilbraham St", "Palmer, MA 01069"]}, "phone": "", "display_phone": "", "distance": 15840.151779813432}, {"id": "x7yFaf0pMFT-YVl_wEQF5w", "alias": "friendlys-palmer-2", "name": "Friendly's", "image_url": "https://s3-media3.fl.yelpcdn.com/bphoto/7hjR8G0ItbLVVEoI_EpXNQ/o.jpg", "is_closed": false, "url": "https://www.yelp.com/biz/friendlys-palmer-2?adjust_creative=asslzE1UV0XuKI953B1vtw&utm_campaign=yelp_api_v3&utm_medium=api_v3_business_search&utm_source=asslzE1UV0XuKI953B1vtw", "review_count": 32, "categories": [{"alias": "burgers", "title": "Burgers"}, {"alias": "icecream", "title": "Ice Cream & Frozen Yogurt"}, {"alias": "tradamerican", "title": "American (Traditional)"}], "rating": 2.5, "coordinates": {"latitude": 42.16064453125, "longitude": -72.3360443115234}, "transactions": [], "price": "$$", "location": {"address1": "1519 N Main St", "address2": "", "address3": "", "city": "Palmer", "zip_code": "01069", "country": "US", "state": "MA", "display_address": ["1519 N Main St", "Palmer, MA 01069"]}, "phone": "+14132837648", "display_phone": "(413) 283-7648", "distance": 12877.119158316402}, {"id": "0GF5VFxjfJZqJ3lb69RZbQ", "alias": "uncle-sams-pizza-east-brookfield", "name": "Uncle Sam's Pizza", "image_url": "https://s3-media3.fl.yelpcdn.com/bphoto/rJTXt0bkE5p4q83tG5v0cw/o.jpg", "is_closed": false, "url": "https://www.yelp.com/biz/uncle-sams-pizza-east-brookfield?adjust_creative=asslzE1UV0XuKI953B1vtw&utm_campaign=yelp_api_v3&utm_medium=api_v3_business_search&utm_source=asslzE1UV0XuKI953B1vtw", "review_count": 11, "categories": [{"alias": "pizza", "title": "Pizza"}], "rating": 3.0, "coordinates": {"latitude": 42.22993, "longitude": -72.0374}, "transactions": [], "price": "$", "location": {"address1": "400 E Main St", "address2": "", "address3": "", "city": "East Brookfield", "zip_code": "01515", "country": "US", "state": "MA", "display_address": ["400 E Main St", "East Brookfield, MA 01515"]}, "phone": "+15088855019", "display_phone": "(508) 885-5019", "distance": 12970.840625249448}, {"id": "JNRdBxmhf3BaiWwQX8VJmw", "alias": "jims-pizza-north-brookfield", "name": "Jim's Pizza", "image_url": "", "is_closed": false, "url": "https://www.yelp.com/biz/jims-pizza-north-brookfield?adjust_creative=asslzE1UV0XuKI953B1vtw&utm_campaign=yelp_api_v3&utm_medium=api_v3_business_search&utm_source=asslzE1UV0XuKI953B1vtw", "review_count": 14, "categories": [{"alias": "pizza", "title": "Pizza"}], "rating": 3.0, "coordinates": {"latitude": 42.269747, "longitude": -72.085661}, "transactions": [], "price": "$", "location": {"address1": "219 N Main St", "address2": "", "address3": "", "city": "North Brookfield", "zip_code": "01535", "country": "US", "state": "MA", "display_address": ["219 N Main St", "North Brookfield, MA 01535"]}, "phone": "+15088678373", "display_phone": "(508) 867-8373", "distance": 11415.514390592423}, {"id": "mT-H7hC-8x0mMu7alu_InA", "alias": "jenny-chans-chinese-restaurant-palmer", "name": "Jenny Chan's Chinese Restaurant", "image_url": "", "is_closed": false, "url": "https://www.yelp.com/biz/jenny-chans-chinese-restaurant-palmer?adjust_creative=asslzE1UV0XuKI953B1vtw&utm_campaign=yelp_api_v3&utm_medium=api_v3_business_search&utm_source=asslzE1UV0XuKI953B1vtw", "review_count": 7, "categories": [{"alias": "chinese", "title": "Chinese"}], "rating": 1.5, "coordinates": {"latitude": 42.15904, "longitude": -72.3289999}, "transactions": [], "price": "$", "location": {"address1": "1033 Thorndike St", "address2": "", "address3": "", "city": "Palmer", "zip_code": "01069", "country": "US", "state": "MA", "display_address": ["1033 Thorndike St", "Palmer, MA 01069"]}, "phone": "+14132891008", "display_phone": "(413) 289-1008", "distance": 12410.330795497726}, {"id": "LKII1liZPjWE70RJY1CigA", "alias": "focus-fitness-center-southbridge", "name": "Focus Fitness Center", "image_url": "", "is_closed": false, "url": "https://www.yelp.com/biz/focus-fitness-center-southbridge?adjust_creative=asslzE1UV0XuKI953B1vtw&utm_campaign=yelp_api_v3&utm_medium=api_v3_business_search&utm_source=asslzE1UV0XuKI953B1vtw", "review_count": 1, "categories": [{"alias": "hotels", "title": "Hotels"}, {"alias": "restaurants", "title": "Restaurants"}], "rating": 2.0, "coordinates": {"latitude": 42.07509, "longitude": -72.02553}, "transactions": [], "location": {"address1": "14 Mechanic St", "address2": "", "address3": "", "city": "Southbridge", "zip_code": "01550", "country": "US", "state": "MA", "display_address": ["14 Mechanic St", "Southbridge, MA 01550"]}, "phone": "+15087654569", "display_phone": "(508) 765-4569", "distance": 19624.103948786957}, {"id": "Fl_AW8AT7kHFFzDsTGwwvQ", "alias": "roadside-pizza-and-grinders-palmer", "name": "Roadside Pizza & Grinders", "image_url": "https://s3-media3.fl.yelpcdn.com/bphoto/hjglCEymUsObTMuhYn7ytA/o.jpg", "is_closed": false, "url": "https://www.yelp.com/biz/roadside-pizza-and-grinders-palmer?adjust_creative=asslzE1UV0XuKI953B1vtw&utm_campaign=yelp_api_v3&utm_medium=api_v3_business_search&utm_source=asslzE1UV0XuKI953B1vtw", "review_count": 19, "categories": [{"alias": "pizza", "title": "Pizza"}, {"alias": "burgers", "title": "Burgers"}, {"alias": "sandwiches", "title": "Sandwiches"}], "rating": 3.5, "coordinates": {"latitude": 42.1592066, "longitude": -72.3291096}, "transactions": [], "price": "$", "location": {"address1": "1037 Thorndike St", "address2": "", "address3": "", "city": "Palmer", "zip_code": "01069", "country": "US", "state": "MA", "display_address": ["1037 Thorndike St", "Palmer, MA 01069"]}, "phone": "+14132891111", "display_phone": "(413) 289-1111", "distance": 12397.71219038918}, {"id": "PWkP3vd_SJxEyh5xbYfJ-A", "alias": "pizza-hut-spencer-7", "name": "Pizza Hut", "image_url": "https://s3-media3.fl.yelpcdn.com/bphoto/hTGz8wP4UAjVvGJneraX9w/o.jpg", "is_closed": false, "url": "https://www.yelp.com/biz/pizza-hut-spencer-7?adjust_creative=asslzE1UV0XuKI953B1vtw&utm_campaign=yelp_api_v3&utm_medium=api_v3_business_search&utm_source=asslzE1UV0XuKI953B1vtw", "review_count": 3, "categories": [{"alias": "pizza", "title": "Pizza"}, {"alias": "italian", "title": "Italian"}], "rating": 4.0, "coordinates": {"latitude": 42.2333170257464, "longitude": -72.0150576948935}, "transactions": [], "price": "$", "location": {"address1": "62 W Main St", "address2": "", "address3": "", "city": "Spencer", "zip_code": "01562", "country": "US", "state": "MA", "display_address": ["62 W Main St", "Spencer, MA 01562"]}, "phone": "+15088855345", "display_phone": "(508) 885-5345", "distance": 14845.64773262384}, {"id": "zJ9X1B8wV4yCTlfvQ7T5SQ", "alias": "danny-gs-sturbridge", "name": "Danny G's", "image_url": "", "is_closed": false, "url": "https://www.yelp.com/biz/danny-gs-sturbridge?adjust_creative=asslzE1UV0XuKI953B1vtw&utm_campaign=yelp_api_v3&utm_medium=api_v3_business_search&utm_source=asslzE1UV0XuKI953B1vtw", "review_count": 1, "categories": [{"alias": "seafood", "title": "Seafood"}], "rating": 2.0, "coordinates": {"latitude": 42.0973344, "longitude": -72.0726332}, "transactions": [], "location": {"address1": "Rt 131", "address2": "", "address3": "", "city": "Sturbridge", "zip_code": "", "country": "US", "state": "MA", "display_address": ["Rt 131", "Sturbridge, MA"]}, "phone": "", "display_phone": "", "distance": 15205.78025111014}, {"id": "Dpyal9p7-E1HJgcRixQLdg", "alias": "american-motor-lodge-best-western-sturbridge", "name": "American Motor Lodge-Best Western", "image_url": "", "is_closed": false, "url": "https://www.yelp.com/biz/american-motor-lodge-best-western-sturbridge?adjust_creative=asslzE1UV0XuKI953B1vtw&utm_campaign=yelp_api_v3&utm_medium=api_v3_business_search&utm_source=asslzE1UV0XuKI953B1vtw", "review_count": 1, "categories": [{"alias": "hotels", "title": "Hotels"}, {"alias": "restaurants", "title": "Restaurants"}], "rating": 1.0, "coordinates": {"latitude": 42.113239, "longitude": -72.084112}, "transactions": [], "location": {"address1": "Rt 20", "address2": "", "address3": "", "city": "Sturbridge", "zip_code": "01566", "country": "US", "state": "MA", "display_address": ["Rt 20", "Sturbridge, MA 01566"]}, "phone": "+15083479121", "display_phone": "(508) 347-9121", "distance": 13246.056935239496}, {"id": "yKsnnipj8FuKdgfxR_yKgQ", "alias": "northend-pizza-and-wings-palmer", "name": "Northend Pizza & Wings", "image_url": "", "is_closed": false, "url": "https://www.yelp.com/biz/northend-pizza-and-wings-palmer?adjust_creative=asslzE1UV0XuKI953B1vtw&utm_campaign=yelp_api_v3&utm_medium=api_v3_business_search&utm_source=asslzE1UV0XuKI953B1vtw", "review_count": 2, "categories": [{"alias": "chicken_wings", "title": "Chicken Wings"}, {"alias": "pizza", "title": "Pizza"}], "rating": 3.0, "coordinates": {"latitude": 42.1627883911133, "longitude": -72.3428649902344}, "transactions": [], "location": {"address1": "1620 N Main St", "address2": null, "address3": null, "city": "Palmer", "zip_code": "01069", "country": "US", "state": "MA", "display_address": ["1620 N Main St", "Palmer, MA 01069"]}, "phone": "+14132835555", "display_phone": "(413) 283-5555", "distance": 13306.245914430536}, {"id": "K3bdvsIEAHX53hBMGuko8Q", "alias": "cracker-barrel-old-country-store-sturbridge", "name": "Cracker Barrel Old Country Store", "image_url": "https://s3-media4.fl.yelpcdn.com/bphoto/hK_-AwZKpJMrCCt1vxPY9g/o.jpg", "is_closed": false, "url": "https://www.yelp.com/biz/cracker-barrel-old-country-store-sturbridge?adjust_creative=asslzE1UV0XuKI953B1vtw&utm_campaign=yelp_api_v3&utm_medium=api_v3_business_search&utm_source=asslzE1UV0XuKI953B1vtw", "review_count": 141, "categories": [{"alias": "tradamerican", "title": "American (Traditional)"}, {"alias": "breakfast_brunch", "title": "Breakfast & Brunch"}, {"alias": "southern", "title": "Southern"}], "rating": 3.5, "coordinates": {"latitude": 42.1162022993265, "longitude": -72.0665799951547}, "transactions": [], "price": "$$", "location": {"address1": "215 Charlton Rd", "address2": "", "address3": "", "city": "Sturbridge", "zip_code": "01566", "country": "US", "state": "MA", "display_address": ["215 Charlton Rd", "Sturbridge, MA 01566"]}, "phone": "+15083478925", "display_phone": "(508) 347-8925", "distance": 14015.946547802967}, {"id": "784Vt8PqZY5G_t2Rw_9W9Q", "alias": "may-garden-southbridge", "name": "May Garden", "image_url": "https://s3-media4.fl.yelpcdn.com/bphoto/5o5xFU0R2Fu0N1TloVkbuQ/o.jpg", "is_closed": false, "url": "https://www.yelp.com/biz/may-garden-southbridge?adjust_creative=asslzE1UV0XuKI953B1vtw&utm_campaign=yelp_api_v3&utm_medium=api_v3_business_search&utm_source=asslzE1UV0XuKI953B1vtw", "review_count": 11, "categories": [{"alias": "chinese", "title": "Chinese"}], "rating": 2.0, "coordinates": {"latitude": 42.082959, "longitude": -72.047237}, "transactions": ["delivery"], "price": "$", "location": {"address1": "920 Main St", "address2": "", "address3": "", "city": "Southbridge", "zip_code": "01550", "country": "US", "state": "MA", "display_address": ["920 Main St", "Southbridge, MA 01550"]}, "phone": "+15087651993", "display_phone": "(508) 765-1993", "distance": 17783.737541269333}, {"id": "vmneGdXXMuwZ9lHfDAvtZg", "alias": "subway-north-brookfield-3", "name": "Subway", "image_url": "https://s3-media4.fl.yelpcdn.com/bphoto/9KjpYjzDWKMP1NWSCBnLYw/o.jpg", "is_closed": false, "url": "https://www.yelp.com/biz/subway-north-brookfield-3?adjust_creative=asslzE1UV0XuKI953B1vtw&utm_campaign=yelp_api_v3&utm_medium=api_v3_business_search&utm_source=asslzE1UV0XuKI953B1vtw", "review_count": 1, "categories": [{"alias": "sandwiches", "title": "Sandwiches"}], "rating": 5.0, "coordinates": {"latitude": 42.268020271248, "longitude": -72.0853124141208}, "transactions": [], "price": "$", "location": {"address1": "163 N Main St", "address2": "", "address3": "", "city": "North Brookfield", "zip_code": "01535", "country": "US", "state": "MA", "display_address": ["163 N Main St", "North Brookfield, MA 01535"]}, "phone": "+15088678800", "display_phone": "(508) 867-8800", "distance": 11312.783831541796}, {"id": "eZe_SqA9OCE_UxBfnpIwAA", "alias": "d-angelo-sandwich-shop-charlton", "name": "D'Angelo Sandwich Shop", "image_url": "https://s3-media4.fl.yelpcdn.com/bphoto/UqpzoHw-svV_S_rdsgjLmQ/o.jpg", "is_closed": false, "url": "https://www.yelp.com/biz/d-angelo-sandwich-shop-charlton?adjust_creative=asslzE1UV0XuKI953B1vtw&utm_campaign=yelp_api_v3&utm_medium=api_v3_business_search&utm_source=asslzE1UV0XuKI953B1vtw", "review_count": 7, "categories": [{"alias": "sandwiches", "title": "Sandwiches"}], "rating": 2.0, "coordinates": {"latitude": 42.138691842556, "longitude": -72.0235615968704}, "transactions": ["delivery"], "location": {"address1": "166 Sturbridge Rd", "address2": "", "address3": "", "city": "Charlton", "zip_code": "01507", "country": "US", "state": "MA", "display_address": ["166 Sturbridge Rd", "Charlton, MA 01507"]}, "phone": "+15082481061", "display_phone": "(508) 248-1061", "distance": 15327.927440017213}, {"id": "gMOB92qCnBO46CtdtgzRgw", "alias": "sunburst-restaurant-sturbridge", "name": "Sunburst Restaurant", "image_url": "https://s3-media3.fl.yelpcdn.com/bphoto/moqMmeW2aAHll5tjrgSvug/o.jpg", "is_closed": false, "url": "https://www.yelp.com/biz/sunburst-restaurant-sturbridge?adjust_creative=asslzE1UV0XuKI953B1vtw&utm_campaign=yelp_api_v3&utm_medium=api_v3_business_search&utm_source=asslzE1UV0XuKI953B1vtw", "review_count": 17, "categories": [{"alias": "breakfast_brunch", "title": "Breakfast & Brunch"}], "rating": 4.0, "coordinates": {"latitude": 42.11496, "longitude": -72.10682}, "transactions": ["delivery"], "price": "$", "location": {"address1": "484 Main St", "address2": "", "address3": "", "city": "Sturbridge", "zip_code": "01518", "country": "US", "state": "MA", "display_address": ["484 Main St", "Sturbridge, MA 01518"]}, "phone": "+15083473097", "display_phone": "(508) 347-3097", "distance": 11960.362956712992}, {"id": "mH00R5oYFyvgIi6DsRGspg", "alias": "hearthstone-market-and-catering-fiskdale", "name": "Hearthstone Market & Catering", "image_url": "", "is_closed": false, "url": "https://www.yelp.com/biz/hearthstone-market-and-catering-fiskdale?adjust_creative=asslzE1UV0XuKI953B1vtw&utm_campaign=yelp_api_v3&utm_medium=api_v3_business_search&utm_source=asslzE1UV0XuKI953B1vtw", "review_count": 2, "categories": [{"alias": "salad", "title": "Salad"}, {"alias": "sandwiches", "title": "Sandwiches"}], "rating": 3.0, "coordinates": {"latitude": 42.11431, "longitude": -72.11979}, "transactions": [], "location": {"address1": "630 Main St", "address2": "", "address3": null, "city": "Fiskdale", "zip_code": "01566", "country": "US", "state": "MA", "display_address": ["630 Main St", "Fiskdale, MA 01566"]}, "phone": "+15083477077", "display_phone": "(508) 347-7077", "distance": 11420.59564681815}, {"id": "uNVJBRZSTtjrKbF7eb0IdQ", "alias": "the-mug-n-muffin-monson", "name": "The Mug 'N' Muffin", "image_url": "https://s3-media4.fl.yelpcdn.com/bphoto/MwaXfqhL8eabnw9u8f9NiQ/o.jpg", "is_closed": false, "url": "https://www.yelp.com/biz/the-mug-n-muffin-monson?adjust_creative=asslzE1UV0XuKI953B1vtw&utm_campaign=yelp_api_v3&utm_medium=api_v3_business_search&utm_source=asslzE1UV0XuKI953B1vtw", "review_count": 23, "categories": [{"alias": "breakfast_brunch", "title": "Breakfast & Brunch"}, {"alias": "cafes", "title": "Cafes"}], "rating": 4.0, "coordinates": {"latitude": 42.1127899, "longitude": -72.31469}, "transactions": [], "price": "$", "location": {"address1": "25 Palmer Rd", "address2": "", "address3": "", "city": "Monson", "zip_code": "01057", "country": "US", "state": "MA", "display_address": ["25 Palmer Rd", "Monson, MA 01057"]}, "phone": "+14132674300", "display_phone": "(413) 267-4300", "distance": 14298.403766800922}, {"id": "6t8IvGO0TwYwcyckJqCTFw", "alias": "brothers-pizza-house-southbridge", "name": "Brothers Pizza House", "image_url": "https://s3-media2.fl.yelpcdn.com/bphoto/Bg90gUX_UEaavCfXviTl5w/o.jpg", "is_closed": false, "url": "https://www.yelp.com/biz/brothers-pizza-house-southbridge?adjust_creative=asslzE1UV0XuKI953B1vtw&utm_campaign=yelp_api_v3&utm_medium=api_v3_business_search&utm_source=asslzE1UV0XuKI953B1vtw", "review_count": 18, "categories": [{"alias": "pizza", "title": "Pizza"}], "rating": 3.5, "coordinates": {"latitude": 42.0702171, "longitude": -72.0118779}, "transactions": ["delivery"], "price": "$", "location": {"address1": "485 E Main St", "address2": "", "address3": "", "city": "Southbridge", "zip_code": "01550", "country": "US", "state": "MA", "display_address": ["485 E Main St", "Southbridge, MA 01550"]}, "phone": "+15087655857", "display_phone": "(508) 765-5857", "distance": 21154.193695186048}, {"id": "WxhnbSCk4_X_RNECbOoCDg", "alias": "old-sturbridge-pizza-and-restaurant-sturbridge", "name": "Old Sturbridge Pizza & Restaurant", "image_url": "https://s3-media2.fl.yelpcdn.com/bphoto/qY9AbV-zpWWelPTYDYb2uQ/o.jpg", "is_closed": false, "url": "https://www.yelp.com/biz/old-sturbridge-pizza-and-restaurant-sturbridge?adjust_creative=asslzE1UV0XuKI953B1vtw&utm_campaign=yelp_api_v3&utm_medium=api_v3_business_search&utm_source=asslzE1UV0XuKI953B1vtw", "review_count": 32, "categories": [{"alias": "pizza", "title": "Pizza"}], "rating": 3.0, "coordinates": {"latitude": 42.1112301914023, "longitude": -72.0940843108447}, "transactions": ["pickup", "delivery"], "price": "$", "location": {"address1": "398 Main St", "address2": "", "address3": "", "city": "Sturbridge", "zip_code": "01566", "country": "US", "state": "MA", "display_address": ["398 Main St", "Sturbridge, MA 01566"]}, "phone": "+15083475111", "display_phone": "(508) 347-5111", "distance": 12892.160479197359}, {"id": "VnMToh_1nc5YOy4YJj9abg", "alias": "subway-southbridge-2", "name": "Subway", "image_url": "https://s3-media3.fl.yelpcdn.com/bphoto/_5JWkw9yDgKHqozE4iOy7g/o.jpg", "is_closed": false, "url": "https://www.yelp.com/biz/subway-southbridge-2?adjust_creative=asslzE1UV0XuKI953B1vtw&utm_campaign=yelp_api_v3&utm_medium=api_v3_business_search&utm_source=asslzE1UV0XuKI953B1vtw", "review_count": 12, "categories": [{"alias": "sandwiches", "title": "Sandwiches"}], "rating": 2.0, "coordinates": {"latitude": 42.0744082687491, "longitude": -72.0312722927807}, "transactions": [], "price": "$", "location": {"address1": "176 Main St", "address2": "Ste 300", "address3": "", "city": "Southbridge", "zip_code": "01550", "country": "US", "state": "MA", "display_address": ["176 Main St", "Ste 300", "Southbridge, MA 01550"]}, "phone": "+15087646396", "display_phone": "(508) 764-6396", "distance": 19372.522997969965}, {"id": "QZeRPF40_EJkoHnrxi7bAA", "alias": "friendlys-sturbridge", "name": "Friendly's", "image_url": "https://s3-media4.fl.yelpcdn.com/bphoto/3-sC2VNRMVzbYXCYAkQ2yg/o.jpg", "is_closed": false, "url": "https://www.yelp.com/biz/friendlys-sturbridge?adjust_creative=asslzE1UV0XuKI953B1vtw&utm_campaign=yelp_api_v3&utm_medium=api_v3_business_search&utm_source=asslzE1UV0XuKI953B1vtw", "review_count": 53, "categories": [{"alias": "icecream", "title": "Ice Cream & Frozen Yogurt"}, {"alias": "burgers", "title": "Burgers"}, {"alias": "tradamerican", "title": "American (Traditional)"}], "rating": 2.0, "coordinates": {"latitude": 42.11148, "longitude": -72.08972}, "transactions": ["delivery"], "price": "$", "location": {"address1": "367 Main St", "address2": "", "address3": "", "city": "Sturbridge", "zip_code": "01566", "country": "US", "state": "MA", "display_address": ["367 Main St", "Sturbridge, MA 01566"]}, "phone": "+15083477155", "display_phone": "(508) 347-7155", "distance": 13074.011023757535}, {"id": "yAZHUhdwTi2ygoFS_J4F0g", "alias": "maine-attraction-holland", "name": "Maine Attraction", "image_url": "https://s3-media2.fl.yelpcdn.com/bphoto/NVkj_B7kO8QmwJxWG4azsA/o.jpg", "is_closed": false, "url": "https://www.yelp.com/biz/maine-attraction-holland?adjust_creative=asslzE1UV0XuKI953B1vtw&utm_campaign=yelp_api_v3&utm_medium=api_v3_business_search&utm_source=asslzE1UV0XuKI953B1vtw", "review_count": 35, "categories": [{"alias": "seafood", "title": "Seafood"}, {"alias": "icecream", "title": "Ice Cream & Frozen Yogurt"}, {"alias": "tradamerican", "title": "American (Traditional)"}], "rating": 3.0, "coordinates": {"latitude": 42.0582043, "longitude": -72.1612952}, "transactions": [], "price": "$$", "location": {"address1": "154 Mashapaug Rd", "address2": "", "address3": "", "city": "Holland", "zip_code": "01521", "country": "US", "state": "MA", "display_address": ["154 Mashapaug Rd", "Holland, MA 01521"]}, "phone": "+14132456043", "display_phone": "(413) 245-6043", "distance": 16228.275849708649}, {"id": "qRFuMb17qMMNq3jvJhUpzw", "alias": "zoes-pizza-southbridge", "name": "Zoe's Pizza", "image_url": "https://s3-media3.fl.yelpcdn.com/bphoto/DdEm8KmJhDCJHOle2KSr_w/o.jpg", "is_closed": false, "url": "https://www.yelp.com/biz/zoes-pizza-southbridge?adjust_creative=asslzE1UV0XuKI953B1vtw&utm_campaign=yelp_api_v3&utm_medium=api_v3_business_search&utm_source=asslzE1UV0XuKI953B1vtw", "review_count": 25, "categories": [{"alias": "pizza", "title": "Pizza"}], "rating": 3.5, "coordinates": {"latitude": 42.074879, "longitude": -72.033808}, "transactions": ["delivery"], "price": "$$", "location": {"address1": "289 Main St", "address2": "", "address3": "", "city": "Southbridge", "zip_code": "01550", "country": "US", "state": "MA", "display_address": ["289 Main St", "Southbridge, MA 01550"]}, "phone": "+15087648080", "display_phone": "(508) 764-8080", "distance": 19176.01651252264}, {"id": "nfuiVd0LD91z7VI7hnw7Hw", "alias": "subway-sturbridge-5", "name": "Subway", "image_url": "https://s3-media2.fl.yelpcdn.com/bphoto/fnm9zmbg2fUwYitCrw91lw/o.jpg", "is_closed": false, "url": "https://www.yelp.com/biz/subway-sturbridge-5?adjust_creative=asslzE1UV0XuKI953B1vtw&utm_campaign=yelp_api_v3&utm_medium=api_v3_business_search&utm_source=asslzE1UV0XuKI953B1vtw", "review_count": 1, "categories": [{"alias": "sandwiches", "title": "Sandwiches"}], "rating": 3.0, "coordinates": {"latitude": 42.1161151, "longitude": -72.1131776}, "transactions": [], "price": "$", "location": {"address1": "559 Main St", "address2": "Unit 208", "address3": "", "city": "Sturbridge", "zip_code": "01581", "country": "US", "state": "MA", "display_address": ["559 Main St", "Unit 208", "Sturbridge, MA 01581"]}, "phone": "+15083472412", "display_phone": "(508) 347-2412", "distance": 11529.839820529212}, {"id": "lbAWpf-AuXcY6M_DT1ewmw", "alias": "southbridge-village-pizza-southbridge", "name": "Southbridge Village Pizza", "image_url": "https://s3-media2.fl.yelpcdn.com/bphoto/EdVjpvhcpsnaUSj0Nyy36Q/o.jpg", "is_closed": false, "url": "https://www.yelp.com/biz/southbridge-village-pizza-southbridge?adjust_creative=asslzE1UV0XuKI953B1vtw&utm_campaign=yelp_api_v3&utm_medium=api_v3_business_search&utm_source=asslzE1UV0XuKI953B1vtw", "review_count": 14, "categories": [{"alias": "pizza", "title": "Pizza"}], "rating": 3.0, "coordinates": {"latitude": 42.0704117, "longitude": -72.0357971}, "transactions": [], "price": "$", "location": {"address1": "177 Elm St", "address2": "", "address3": "", "city": "Southbridge", "zip_code": "01550", "country": "US", "state": "MA", "display_address": ["177 Elm St", "Southbridge, MA 01550"]}, "phone": "+15087656500", "display_phone": "(508) 765-6500", "distance": 19438.469888000618}, {"id": "oezkPKl17Ik8NLM7Gn83dw", "alias": "pizza-chef-southbridge-2", "name": "Pizza Chef", "image_url": "https://s3-media2.fl.yelpcdn.com/bphoto/MR7sy1rIZUw_Hk_kc1nAAA/o.jpg", "is_closed": false, "url": "https://www.yelp.com/biz/pizza-chef-southbridge-2?adjust_creative=asslzE1UV0XuKI953B1vtw&utm_campaign=yelp_api_v3&utm_medium=api_v3_business_search&utm_source=asslzE1UV0XuKI953B1vtw", "review_count": 18, "categories": [{"alias": "italian", "title": "Italian"}, {"alias": "pizza", "title": "Pizza"}], "rating": 3.5, "coordinates": {"latitude": 42.0777016, "longitude": -72.0346222}, "transactions": ["delivery"], "price": "$", "location": {"address1": "85 Hamilton St", "address2": null, "address3": null, "city": "Southbridge", "zip_code": "01550", "country": "US", "state": "MA", "display_address": ["85 Hamilton St", "Southbridge, MA 01550"]}, "phone": "+15087655979", "display_phone": "(508) 765-5979", "distance": 18920.991975454657}, {"id": "6G7I24vIiyLp4_7nSNICew", "alias": "whistle-stop-restaurant-hardwick", "name": "Whistle Stop Restaurant", "image_url": "https://s3-media4.fl.yelpcdn.com/bphoto/co5S3IgUc4H4d2Nf597Nlw/o.jpg", "is_closed": false, "url": "https://www.yelp.com/biz/whistle-stop-restaurant-hardwick?adjust_creative=asslzE1UV0XuKI953B1vtw&utm_campaign=yelp_api_v3&utm_medium=api_v3_business_search&utm_source=asslzE1UV0XuKI953B1vtw", "review_count": 3, "categories": [{"alias": "tradamerican", "title": "American (Traditional)"}, {"alias": "breakfast_brunch", "title": "Breakfast & Brunch"}, {"alias": "sandwiches", "title": "Sandwiches"}], "rating": 2.0, "coordinates": {"latitude": 42.30823, "longitude": -72.21081}, "transactions": [], "price": "$", "location": {"address1": "248 Main", "address2": "", "address3": "", "city": "Hardwick", "zip_code": "01037", "country": "US", "state": "MA", "display_address": ["248 Main", "Hardwick, MA 01037"]}, "phone": "+14134778888", "display_phone": "(413) 477-8888", "distance": 11873.184983726862}, {"id": "MwToLNoS7ocAP983G30vrg", "alias": "wendys-palmer-2", "name": "Wendy's", "image_url": "https://s3-media3.fl.yelpcdn.com/bphoto/xOLby4pZ-wowdApIyQMYkw/o.jpg", "is_closed": false, "url": "https://www.yelp.com/biz/wendys-palmer-2?adjust_creative=asslzE1UV0XuKI953B1vtw&utm_campaign=yelp_api_v3&utm_medium=api_v3_business_search&utm_source=asslzE1UV0XuKI953B1vtw", "review_count": 5, "categories": [{"alias": "burgers", "title": "Burgers"}, {"alias": "hotdogs", "title": "Fast Food"}], "rating": 2.0, "coordinates": {"latitude": 42.17377, "longitude": -72.32249}, "transactions": [], "price": "$", "location": {"address1": "1213 Thorndyke St", "address2": "", "address3": "", "city": "Palmer", "zip_code": "01069", "country": "US", "state": "MA", "display_address": ["1213 Thorndyke St", "Palmer, MA 01069"]}, "phone": "+14132833037", "display_phone": "(413) 283-3037", "distance": 11335.191385380886}, {"id": "DqykbdUgYwboKgNhqjuAIA", "alias": "dominos-pizza-palmer", "name": "Domino's Pizza", "image_url": "", "is_closed": false, "url": "https://www.yelp.com/biz/dominos-pizza-palmer?adjust_creative=asslzE1UV0XuKI953B1vtw&utm_campaign=yelp_api_v3&utm_medium=api_v3_business_search&utm_source=asslzE1UV0XuKI953B1vtw", "review_count": 3, "categories": [{"alias": "chicken_wings", "title": "Chicken Wings"}, {"alias": "pizza", "title": "Pizza"}, {"alias": "sandwiches", "title": "Sandwiches"}], "rating": 3.5, "coordinates": {"latitude": 42.1744194030762, "longitude": -72.3206405639648}, "transactions": [], "price": "$", "location": {"address1": "1219 Thorndike St", "address2": null, "address3": null, "city": "Palmer", "zip_code": "01069", "country": "US", "state": "MA", "display_address": ["1219 Thorndike St", "Palmer, MA 01069"]}, "phone": "+14132896245", "display_phone": "(413) 289-6245", "distance": 11238.353527759378}, {"id": "5Reotu9GfyMCaMcAC4ET0w", "alias": "east-brookfield-pizza-east-brookfield", "name": "East Brookfield Pizza", "image_url": "https://s3-media1.fl.yelpcdn.com/bphoto/basBKLvUpIDlq39TVjad6w/o.jpg", "is_closed": false, "url": "https://www.yelp.com/biz/east-brookfield-pizza-east-brookfield?adjust_creative=asslzE1UV0XuKI953B1vtw&utm_campaign=yelp_api_v3&utm_medium=api_v3_business_search&utm_source=asslzE1UV0XuKI953B1vtw", "review_count": 8, "categories": [{"alias": "pizza", "title": "Pizza"}], "rating": 3.5, "coordinates": {"latitude": 42.226144, "longitude": -72.047749}, "transactions": [], "price": "$$", "location": {"address1": "289 East Main St", "address2": null, "address3": null, "city": "East Brookfield", "zip_code": "01515", "country": "US", "state": "MA", "display_address": ["289 East Main St", "East Brookfield, MA 01515"]}, "phone": "+15088678777", "display_phone": "(508) 867-8777", "distance": 12043.803156767228}, {"id": "kURqF15vnpJMKlzO9yOQjw", "alias": "subway-w-brookfield", "name": "Subway", "image_url": "https://s3-media1.fl.yelpcdn.com/bphoto/0a4AVwVVylrCsUo6T_Or7A/o.jpg", "is_closed": false, "url": "https://www.yelp.com/biz/subway-w-brookfield?adjust_creative=asslzE1UV0XuKI953B1vtw&utm_campaign=yelp_api_v3&utm_medium=api_v3_business_search&utm_source=asslzE1UV0XuKI953B1vtw", "review_count": 3, "categories": [{"alias": "sandwiches", "title": "Sandwiches"}], "rating": 1.5, "coordinates": {"latitude": 42.2341074710016, "longitude": -72.1557967975961}, "transactions": [], "price": "$", "location": {"address1": "143 W Main St", "address2": null, "address3": null, "city": "W Brookfield", "zip_code": "01585", "country": "US", "state": "MA", "display_address": ["143 W Main St", "W Brookfield, MA 01585"]}, "phone": "+15088673433", "display_phone": "(508) 867-3433", "distance": 4525.490210274885}, {"id": "ylq0USkDk2_iHropwVHUww", "alias": "paramount-pizza-iii-palmer", "name": "Paramount Pizza III", "image_url": "https://s3-media1.fl.yelpcdn.com/bphoto/yYWMGT8h6YZnQ6mdTIpQvA/o.jpg", "is_closed": false, "url": "https://www.yelp.com/biz/paramount-pizza-iii-palmer?adjust_creative=asslzE1UV0XuKI953B1vtw&utm_campaign=yelp_api_v3&utm_medium=api_v3_business_search&utm_source=asslzE1UV0XuKI953B1vtw", "review_count": 11, "categories": [{"alias": "pizza", "title": "Pizza"}, {"alias": "sandwiches", "title": "Sandwiches"}, {"alias": "salad", "title": "Salad"}], "rating": 3.0, "coordinates": {"latitude": 42.162611056323, "longitude": -72.3424604978476}, "transactions": [], "price": "$$", "location": {"address1": "1620 N Main St", "address2": "", "address3": "", "city": "Palmer", "zip_code": "01069", "country": "US", "state": "MA", "display_address": ["1620 N Main St", "Palmer, MA 01069"]}, "phone": "+14132835555", "display_phone": "(413) 283-5555", "distance": 13286.605971088993}, {"id": "j5EoVt4C0mdiSmzExqcB3g", "alias": "corinthian-pizza-southbridge", "name": "Corinthian Pizza", "image_url": "", "is_closed": false, "url": "https://www.yelp.com/biz/corinthian-pizza-southbridge?adjust_creative=asslzE1UV0XuKI953B1vtw&utm_campaign=yelp_api_v3&utm_medium=api_v3_business_search&utm_source=asslzE1UV0XuKI953B1vtw", "review_count": 1, "categories": [{"alias": "pizza", "title": "Pizza"}], "rating": 2.0, "coordinates": {"latitude": 42.08057, "longitude": -72.02854}, "transactions": [], "location": {"address1": "84 Worcester St", "address2": "", "address3": "", "city": "Southbridge", "zip_code": "01550", "country": "US", "state": "MA", "display_address": ["84 Worcester St", "Southbridge, MA 01550"]}, "phone": "+15087650999", "display_phone": "(508) 765-0999", "distance": 19029.83327391006}, {"id": "KJa-iIuKduViaLU8jAcfMg", "alias": "subway-palmer-5", "name": "Subway", "image_url": "https://s3-media2.fl.yelpcdn.com/bphoto/nSFpWOT8ZkmJFpuhQ_CdRA/o.jpg", "is_closed": false, "url": "https://www.yelp.com/biz/subway-palmer-5?adjust_creative=asslzE1UV0XuKI953B1vtw&utm_campaign=yelp_api_v3&utm_medium=api_v3_business_search&utm_source=asslzE1UV0XuKI953B1vtw", "review_count": 3, "categories": [{"alias": "sandwiches", "title": "Sandwiches"}], "rating": 1.5, "coordinates": {"latitude": 42.1588369288609, "longitude": -72.3281560129118}, "transactions": [], "price": "$", "location": {"address1": "1049 Thorndike St", "address2": "", "address3": "", "city": "Palmer", "zip_code": "01069", "country": "US", "state": "MA", "display_address": ["1049 Thorndike St", "Palmer, MA 01069"]}, "phone": "+14132834570", "display_phone": "(413) 283-4570", "distance": 12341.508293315152}, {"id": "7dP_BDffV8OkuLKEGINoGw", "alias": "subway-sturbridge-6", "name": "Subway", "image_url": "https://s3-media4.fl.yelpcdn.com/bphoto/DSvKHkMBxpDX-qxH3C59XA/o.jpg", "is_closed": false, "url": "https://www.yelp.com/biz/subway-sturbridge-6?adjust_creative=asslzE1UV0XuKI953B1vtw&utm_campaign=yelp_api_v3&utm_medium=api_v3_business_search&utm_source=asslzE1UV0XuKI953B1vtw", "review_count": 2, "categories": [{"alias": "sandwiches", "title": "Sandwiches"}], "rating": 2.0, "coordinates": {"latitude": 42.1160695389239, "longitude": -72.0676040002186}, "transactions": ["pickup", "delivery"], "price": "$", "location": {"address1": "215 Charlton Rd", "address2": null, "address3": null, "city": "Sturbridge", "zip_code": "01566", "country": "US", "state": "MA", "display_address": ["215 Charlton Rd", "Sturbridge, MA 01566"]}, "phone": "+15083475600", "display_phone": "(508) 347-5600", "distance": 13964.734403635008}, {"id": "xGN-tL0EvWuIM2pnhsNipA", "alias": "c-js-seafood-restaurant-palmer", "name": "C J's Seafood Restaurant", "image_url": "", "is_closed": false, "url": "https://www.yelp.com/biz/c-js-seafood-restaurant-palmer?adjust_creative=asslzE1UV0XuKI953B1vtw&utm_campaign=yelp_api_v3&utm_medium=api_v3_business_search&utm_source=asslzE1UV0XuKI953B1vtw", "review_count": 1, "categories": [{"alias": "seafood", "title": "Seafood"}], "rating": 1.0, "coordinates": {"latitude": 42.1538475719393, "longitude": -72.3712542973518}, "transactions": [], "location": {"address1": "371 Wilbrah St", "address2": "", "address3": "", "city": "Palmer", "zip_code": "01069", "country": "US", "state": "MA", "display_address": ["371 Wilbrah St", "Palmer, MA 01069"]}, "phone": "+14132832196", "display_phone": "(413) 283-2196", "distance": 15849.81552108219}, {"id": "ZB_vKov2iuaNZdUPSNAsrQ", "alias": "wendys-sturbridge", "name": "Wendy's", "image_url": "https://s3-media1.fl.yelpcdn.com/bphoto/ZoFAnwb0Nd9U-YY6ZiP5qQ/o.jpg", "is_closed": false, "url": "https://www.yelp.com/biz/wendys-sturbridge?adjust_creative=asslzE1UV0XuKI953B1vtw&utm_campaign=yelp_api_v3&utm_medium=api_v3_business_search&utm_source=asslzE1UV0XuKI953B1vtw", "review_count": 28, "categories": [{"alias": "hotdogs", "title": "Fast Food"}, {"alias": "burgers", "title": "Burgers"}], "rating": 1.5, "coordinates": {"latitude": 42.116437, "longitude": -72.065888}, "transactions": ["delivery"], "price": "$", "location": {"address1": "211 Charlton Road", "address2": "", "address3": "", "city": "Sturbridge", "zip_code": "01566", "country": "US", "state": "MA", "display_address": ["211 Charlton Road", "Sturbridge, MA 01566"]}, "phone": "+15083478702", "display_phone": "(508) 347-8702", "distance": 14043.604098212661}, {"id": "i36ybHMGuHOgH7BN7cFN1A", "alias": "mcdonalds-palmer-4", "name": "McDonald's", "image_url": "https://s3-media3.fl.yelpcdn.com/bphoto/OHjM5Gi4Hm6A4yeWkbCCgg/o.jpg", "is_closed": false, "url": "https://www.yelp.com/biz/mcdonalds-palmer-4?adjust_creative=asslzE1UV0XuKI953B1vtw&utm_campaign=yelp_api_v3&utm_medium=api_v3_business_search&utm_source=asslzE1UV0XuKI953B1vtw", "review_count": 6, "categories": [{"alias": "coffee", "title": "Coffee & Tea"}, {"alias": "burgers", "title": "Burgers"}, {"alias": "hotdogs", "title": "Fast Food"}], "rating": 3.0, "coordinates": {"latitude": 42.1744, "longitude": -72.32263}, "transactions": [], "price": "$", "location": {"address1": "1184 Thorndike St", "address2": null, "address3": null, "city": "Palmer", "zip_code": "01069", "country": "US", "state": "MA", "display_address": ["1184 Thorndike St", "Palmer, MA 01069"]}, "phone": "+14132839095", "display_phone": "(413) 283-9095", "distance": 11370.001495408414}, {"id": "n_s_vnPID1VDUO53PGE7qQ", "alias": "mcdonalds-ware", "name": "McDonald's", "image_url": "https://s3-media3.fl.yelpcdn.com/bphoto/A9Nkl7yHbhRSf4DzmMWoTg/o.jpg", "is_closed": false, "url": "https://www.yelp.com/biz/mcdonalds-ware?adjust_creative=asslzE1UV0XuKI953B1vtw&utm_campaign=yelp_api_v3&utm_medium=api_v3_business_search&utm_source=asslzE1UV0XuKI953B1vtw", "review_count": 8, "categories": [{"alias": "coffee", "title": "Coffee & Tea"}, {"alias": "burgers", "title": "Burgers"}, {"alias": "hotdogs", "title": "Fast Food"}], "rating": 2.0, "coordinates": {"latitude": 42.2569839, "longitude": -72.2498621}, "transactions": [], "price": "$", "location": {"address1": "117 West St", "address2": "", "address3": "", "city": "Ware", "zip_code": "01082", "country": "US", "state": "MA", "display_address": ["117 West St", "Ware, MA 01082"]}, "phone": "+14139673485", "display_phone": "(413) 967-3485", "distance": 7782.260043435554}, {"id": "5cPBwjgg7WCa0SgYuocF6Q", "alias": "subway-sturbridge-7", "name": "Subway", "image_url": "https://s3-media3.fl.yelpcdn.com/bphoto/ZDFqf1z7iIVIU9PGhF9ABw/o.jpg", "is_closed": false, "url": "https://www.yelp.com/biz/subway-sturbridge-7?adjust_creative=asslzE1UV0XuKI953B1vtw&utm_campaign=yelp_api_v3&utm_medium=api_v3_business_search&utm_source=asslzE1UV0XuKI953B1vtw", "review_count": 5, "categories": [{"alias": "sandwiches", "title": "Sandwiches"}], "rating": 2.0, "coordinates": {"latitude": 42.1281663, "longitude": -72.060058}, "transactions": [], "price": "$", "location": {"address1": "100 Charlton Rd", "address2": null, "address3": null, "city": "Sturbridge", "zip_code": "01566", "country": "US", "state": "MA", "display_address": ["100 Charlton Rd", "Sturbridge, MA 01566"]}, "phone": "+15083475855", "display_phone": "(508) 347-5855", "distance": 13561.775421912269}, {"id": "JNS8mSTW9fScMeeixiG2lw", "alias": "mcdonalds-southbridge-3", "name": "McDonald's", "image_url": "https://s3-media2.fl.yelpcdn.com/bphoto/4WBiGyCrLtatVLyyJhcgaA/o.jpg", "is_closed": false, "url": "https://www.yelp.com/biz/mcdonalds-southbridge-3?adjust_creative=asslzE1UV0XuKI953B1vtw&utm_campaign=yelp_api_v3&utm_medium=api_v3_business_search&utm_source=asslzE1UV0XuKI953B1vtw", "review_count": 11, "categories": [{"alias": "coffee", "title": "Coffee & Tea"}, {"alias": "burgers", "title": "Burgers"}, {"alias": "hotdogs", "title": "Fast Food"}], "rating": 2.5, "coordinates": {"latitude": 42.0686353173383, "longitude": -72.0091366767883}, "transactions": [], "price": "$", "location": {"address1": "515 E Main St", "address2": null, "address3": null, "city": "Southbridge", "zip_code": "01550", "country": "US", "state": "MA", "display_address": ["515 E Main St", "Southbridge, MA 01550"]}, "phone": "+15087642196", "display_phone": "(508) 764-2196", "distance": 21101.344913201174}, {"id": "FTTTC5zRb6Ze6E2ImSaCVA", "alias": "papa-ginos-pizzeria-charlton", "name": "Papa Gino's Pizzeria", "image_url": "https://s3-media2.fl.yelpcdn.com/bphoto/JEfWFgP1aeUg44dr3GvOEg/o.jpg", "is_closed": false, "url": "https://www.yelp.com/biz/papa-ginos-pizzeria-charlton?adjust_creative=asslzE1UV0XuKI953B1vtw&utm_campaign=yelp_api_v3&utm_medium=api_v3_business_search&utm_source=asslzE1UV0XuKI953B1vtw", "review_count": 6, "categories": [{"alias": "pizza", "title": "Pizza"}], "rating": 2.0, "coordinates": {"latitude": 42.138411, "longitude": -72.028237}, "transactions": ["delivery"], "location": {"address1": "166 Sturbridge Rd", "address2": null, "address3": null, "city": "Charlton", "zip_code": "01507", "country": "US", "state": "MA", "display_address": ["166 Sturbridge Rd", "Charlton, MA 01507"]}, "phone": "+15082481061", "display_phone": "(508) 248-1061", "distance": 15327.927440017213}, {"id": "yihzQwKuCg9p9JlnN47RXQ", "alias": "dominos-pizza-southbridge", "name": "Domino's Pizza", "image_url": "https://s3-media2.fl.yelpcdn.com/bphoto/mV_rJQhMhOk3xCJFAzammw/o.jpg", "is_closed": false, "url": "https://www.yelp.com/biz/dominos-pizza-southbridge?adjust_creative=asslzE1UV0XuKI953B1vtw&utm_campaign=yelp_api_v3&utm_medium=api_v3_business_search&utm_source=asslzE1UV0XuKI953B1vtw", "review_count": 10, "categories": [{"alias": "pizza", "title": "Pizza"}, {"alias": "chicken_wings", "title": "Chicken Wings"}, {"alias": "sandwiches", "title": "Sandwiches"}], "rating": 3.0, "coordinates": {"latitude": 42.08056, "longitude": -72.045192}, "transactions": [], "price": "$", "location": {"address1": "825 Main St", "address2": "", "address3": "", "city": "Southbridge", "zip_code": "01550", "country": "US", "state": "MA", "display_address": ["825 Main St", "Southbridge, MA 01550"]}, "phone": "+15087650822", "display_phone": "(508) 765-0822", "distance": 18093.707814480495}, {"id": "lvQlT4mEHYkuccxGccTEmA", "alias": "central-pizza-southbridge", "name": "Central Pizza", "image_url": "https://s3-media3.fl.yelpcdn.com/bphoto/BK0A8diN9NEsEVX9xR_dCA/o.jpg", "is_closed": false, "url": "https://www.yelp.com/biz/central-pizza-southbridge?adjust_creative=asslzE1UV0XuKI953B1vtw&utm_campaign=yelp_api_v3&utm_medium=api_v3_business_search&utm_source=asslzE1UV0XuKI953B1vtw", "review_count": 28, "categories": [{"alias": "pizza", "title": "Pizza"}, {"alias": "seafood", "title": "Seafood"}, {"alias": "desserts", "title": "Desserts"}], "rating": 3.0, "coordinates": {"latitude": 42.0763212443091, "longitude": -72.0329223163179}, "transactions": ["pickup", "delivery"], "price": "$", "location": {"address1": "55 Central St", "address2": "", "address3": "", "city": "Southbridge", "zip_code": "01550", "country": "US", "state": "MA", "display_address": ["55 Central St", "Southbridge, MA 01550"]}, "phone": "+15087642541", "display_phone": "(508) 764-2541", "distance": 19111.640577513674}, {"id": "nicPTvQYwocy0vZR1hutpg", "alias": "mcdonalds-sturbridge-2", "name": "McDonald's", "image_url": "https://s3-media2.fl.yelpcdn.com/bphoto/lihfLWzcVb-hOSYgs4xkWQ/o.jpg", "is_closed": false, "url": "https://www.yelp.com/biz/mcdonalds-sturbridge-2?adjust_creative=asslzE1UV0XuKI953B1vtw&utm_campaign=yelp_api_v3&utm_medium=api_v3_business_search&utm_source=asslzE1UV0XuKI953B1vtw", "review_count": 19, "categories": [{"alias": "hotdogs", "title": "Fast Food"}, {"alias": "burgers", "title": "Burgers"}, {"alias": "coffee", "title": "Coffee & Tea"}], "rating": 2.5, "coordinates": {"latitude": 42.1122626426317, "longitude": -72.0895305275917}, "transactions": [], "price": "$", "location": {"address1": "366 Main St", "address2": null, "address3": null, "city": "Sturbridge", "zip_code": "01566", "country": "US", "state": "MA", "display_address": ["366 Main St", "Sturbridge, MA 01566"]}, "phone": "+15083475856", "display_phone": "(508) 347-5856", "distance": 13038.197579922415}, {"id": "eRuEI6J8ueCxm2NFuGXC_w", "alias": "burger-king-sturbridge-4", "name": "Burger King", "image_url": "https://s3-media4.fl.yelpcdn.com/bphoto/gsi_IcGSCj5FnAHN_cwgGQ/o.jpg", "is_closed": false, "url": "https://www.yelp.com/biz/burger-king-sturbridge-4?adjust_creative=asslzE1UV0XuKI953B1vtw&utm_campaign=yelp_api_v3&utm_medium=api_v3_business_search&utm_source=asslzE1UV0XuKI953B1vtw", "review_count": 4, "categories": [{"alias": "burgers", "title": "Burgers"}, {"alias": "hotdogs", "title": "Fast Food"}], "rating": 3.0, "coordinates": {"latitude": 42.112093, "longitude": -72.09091}, "transactions": [], "price": "$", "location": {"address1": "374 Main Street", "address2": "", "address3": "", "city": "Sturbridge", "zip_code": "01566", "country": "US", "state": "MA", "display_address": ["374 Main Street", "Sturbridge, MA 01566"]}, "phone": "+15083479440", "display_phone": "(508) 347-9440", "distance": 12980.847234396531}, {"id": "a4BtLxq7zyevP_ceyFTTMA", "alias": "mcdonalds-spencer-2", "name": "McDonald's", "image_url": "https://s3-media1.fl.yelpcdn.com/bphoto/AkOAfQAISQcyF_nS7Rx2sw/o.jpg", "is_closed": false, "url": "https://www.yelp.com/biz/mcdonalds-spencer-2?adjust_creative=asslzE1UV0XuKI953B1vtw&utm_campaign=yelp_api_v3&utm_medium=api_v3_business_search&utm_source=asslzE1UV0XuKI953B1vtw", "review_count": 13, "categories": [{"alias": "hotdogs", "title": "Fast Food"}, {"alias": "burgers", "title": "Burgers"}, {"alias": "coffee", "title": "Coffee & Tea"}], "rating": 2.5, "coordinates": {"latitude": 42.233007, "longitude": -72.012469}, "transactions": [], "price": "$", "location": {"address1": "59 W Main St", "address2": "", "address3": "", "city": "Spencer", "zip_code": "01562", "country": "US", "state": "MA", "display_address": ["59 W Main St", "Spencer, MA 01562"]}, "phone": "+15088853355", "display_phone": "(508) 885-3355", "distance": 15045.398374730326}, {"id": "W84Be-TGzND8-MIfmwT8ow", "alias": "mcdonalds-charlton-2", "name": "McDonald's", "image_url": "https://s3-media4.fl.yelpcdn.com/bphoto/Pffw3GCKc7MDT7_30eHitA/o.jpg", "is_closed": false, "url": "https://www.yelp.com/biz/mcdonalds-charlton-2?adjust_creative=asslzE1UV0XuKI953B1vtw&utm_campaign=yelp_api_v3&utm_medium=api_v3_business_search&utm_source=asslzE1UV0XuKI953B1vtw", "review_count": 11, "categories": [{"alias": "hotdogs", "title": "Fast Food"}, {"alias": "burgers", "title": "Burgers"}, {"alias": "coffee", "title": "Coffee & Tea"}], "rating": 2.0, "coordinates": {"latitude": 42.145532, "longitude": -71.9873243}, "transactions": [], "price": "$", "location": {"address1": "38 Worcester Rd", "address2": "", "address3": "", "city": "Charlton", "zip_code": "01507", "country": "US", "state": "MA", "display_address": ["38 Worcester Rd", "Charlton, MA 01507"]}, "phone": "+15082487040", "display_phone": "(508) 248-7040", "distance": 17908.100279916453}, {"id": "usP9czUkDGcyC7CSseiMdw", "alias": "shuck-food-truck-boston-2", "name": "Shuck Food Truck", "image_url": "https://s3-media2.fl.yelpcdn.com/bphoto/vh62vEgAkPe1IC7D00fF2A/o.jpg", "is_closed": false, "url": "https://www.yelp.com/biz/shuck-food-truck-boston-2?adjust_creative=asslzE1UV0XuKI953B1vtw&utm_campaign=yelp_api_v3&utm_medium=api_v3_business_search&utm_source=asslzE1UV0XuKI953B1vtw", "review_count": 27, "categories": [{"alias": "foodtrucks", "title": "Food Trucks"}, {"alias": "seafood", "title": "Seafood"}, {"alias": "tradamerican", "title": "American (Traditional)"}], "rating": 4.5, "coordinates": {"latitude": 42.64758, "longitude": -71.32212}, "transactions": [], "location": {"address1": "", "address2": "", "address3": null, "city": "Boston", "zip_code": "01854", "country": "US", "state": "MA", "display_address": ["Boston, MA 01854"]}, "phone": "+19789446618", "display_phone": "(978) 944-6618", "distance": 83825.80287674339}, {"id": "QRYb653_lWE9Hf1KlzykNg", "alias": "mcdonalds-charlton-7", "name": "McDonald's", "image_url": "https://s3-media4.fl.yelpcdn.com/bphoto/KuCRqa0z50L4TM1QrE6L8A/o.jpg", "is_closed": false, "url": "https://www.yelp.com/biz/mcdonalds-charlton-7?adjust_creative=asslzE1UV0XuKI953B1vtw&utm_campaign=yelp_api_v3&utm_medium=api_v3_business_search&utm_source=asslzE1UV0XuKI953B1vtw", "review_count": 9, "categories": [{"alias": "hotdogs", "title": "Fast Food"}, {"alias": "burgers", "title": "Burgers"}, {"alias": "coffee", "title": "Coffee & Tea"}], "rating": 1.5, "coordinates": {"latitude": 42.15299, "longitude": -71.97941}, "transactions": [], "price": "$", "location": {"address1": "Mass Pike I-90 Service Area Eastbound", "address2": "", "address3": "", "city": "Charlton", "zip_code": "01508", "country": "US", "state": "MA", "display_address": ["Mass Pike I-90 Service Area Eastbound", "Charlton, MA 01508"]}, "phone": "+15082480517", "display_phone": "(508) 248-0517", "distance": 17912.689982790707}, {"id": "Io4C5tUwnb_YzeaMXHBqBA", "alias": "shuckin-truck-narragansett-2", "name": "Shuckin Truck", "image_url": "https://s3-media2.fl.yelpcdn.com/bphoto/r7QRORfe9UYVS7GGzUm9DQ/o.jpg", "is_closed": false, "url": "https://www.yelp.com/biz/shuckin-truck-narragansett-2?adjust_creative=asslzE1UV0XuKI953B1vtw&utm_campaign=yelp_api_v3&utm_medium=api_v3_business_search&utm_source=asslzE1UV0XuKI953B1vtw", "review_count": 24, "categories": [{"alias": "foodtrucks", "title": "Food Trucks"}, {"alias": "seafood", "title": "Seafood"}], "rating": 4.5, "coordinates": {"latitude": 41.4274482727051, "longitude": -71.4597778320313}, "transactions": [], "price": "$$", "location": {"address1": "", "address2": "", "address3": "", "city": "Narragansett", "zip_code": "02882", "country": "US", "state": "RI", "display_address": ["Narragansett, RI 02882"]}, "phone": "+14017415953", "display_phone": "(401) 741-5953", "distance": 106650.460254311}, {"id": "qqA8YX58xnmEXLyanHfdUg", "alias": "stufd-food-truck-brooklyn", "name": "Stuf'd Food Truck", "image_url": "https://s3-media2.fl.yelpcdn.com/bphoto/_Wn0i-tLIOFinw8BPAqxPA/o.jpg", "is_closed": false, "url": "https://www.yelp.com/biz/stufd-food-truck-brooklyn?adjust_creative=asslzE1UV0XuKI953B1vtw&utm_campaign=yelp_api_v3&utm_medium=api_v3_business_search&utm_source=asslzE1UV0XuKI953B1vtw", "review_count": 4, "categories": [{"alias": "sandwiches", "title": "Sandwiches"}, {"alias": "foodtrucks", "title": "Food Trucks"}], "rating": 4.0, "coordinates": {"latitude": 40.7124539, "longitude": -73.9287374}, "transactions": [], "location": {"address1": "178 Varick Ave", "address2": "", "address3": null, "city": "Brooklyn", "zip_code": "11237", "country": "US", "state": "NY", "display_address": ["178 Varick Ave", "Brooklyn, NY 11237"]}, "phone": "+18457091808", "display_phone": "(845) 709-1808", "distance": 220072.63139067864}]