[{"id": "XNhx5nEGbXKE4k0xXLijbw", "alias": "110-grill-athol", "name": "110 Grill", "image_url": "https://s3-media3.fl.yelpcdn.com/bphoto/_HxS-NfOJAqo0PFSUoOUxQ/o.jpg", "is_closed": false, "url": "https://www.yelp.com/biz/110-grill-athol?adjust_creative=h5HwbyQ0TYvQjBo6Ys5Bgw&utm_campaign=yelp_api_v3&utm_medium=api_v3_business_search&utm_source=h5HwbyQ0TYvQjBo6Ys5Bgw", "review_count": 57, "categories": [{"alias": "newamerican", "title": "American (New)"}, {"alias": "tradamerican", "title": "American (Traditional)"}, {"alias": "bars", "title": "Bars"}], "rating": 4.0, "coordinates": {"latitude": 42.580767, "longitude": -72.187031}, "transactions": [], "price": "$$", "location": {"address1": "307 Market Dr", "address2": null, "address3": "", "city": "Athol", "zip_code": "01331", "country": "US", "state": "MA", "display_address": ["307 Market Dr", "Athol, MA 01331"]}, "phone": "+19788304601", "display_phone": "(978) 830-4601", "distance": 8509.90365133271}, {"id": "HKyN2UJvkakOCblSOKQLUQ", "alias": "gardner-ale-house-gardner-2", "name": "Gardner Ale House", "image_url": "https://s3-media2.fl.yelpcdn.com/bphoto/6DhrQB5Hr_Z6hj-dZTN0hw/o.jpg", "is_closed": false, "url": "https://www.yelp.com/biz/gardner-ale-house-gardner-2?adjust_creative=h5HwbyQ0TYvQjBo6Ys5Bgw&utm_campaign=yelp_api_v3&utm_medium=api_v3_business_search&utm_source=h5HwbyQ0TYvQjBo6Ys5Bgw", "review_count": 274, "categories": [{"alias": "pubs", "title": "Pubs"}, {"alias": "tradamerican", "title": "American (Traditional)"}, {"alias": "brewpubs", "title": "Brewpubs"}], "rating": 4.0, "coordinates": {"latitude": 42.575771, "longitude": -71.997131}, "transactions": [], "price": "$$", "location": {"address1": "74 Parker St", "address2": "", "address3": "", "city": "Gardner", "zip_code": "01440", "country": "US", "state": "MA", "display_address": ["74 Parker St", "Gardner, MA 01440"]}, "phone": "+19786690122", "display_phone": "(978) 669-0122", "distance": 8044.6537937883795}, {"id": "RTLXoRUCWGbObYnKnRVZJg", "alias": "baldwinville-station-baldwinville", "name": "Baldwinville Station", "image_url": "https://s3-media1.fl.yelpcdn.com/bphoto/HXetzYz2BV8jltsAmMa1-g/o.jpg", "is_closed": false, "url": "https://www.yelp.com/biz/baldwinville-station-baldwinville?adjust_creative=h5HwbyQ0TYvQjBo6Ys5Bgw&utm_campaign=yelp_api_v3&utm_medium=api_v3_business_search&utm_source=h5HwbyQ0TYvQjBo6Ys5Bgw", "review_count": 18, "categories": [{"alias": "breakfast_brunch", "title": "Breakfast & Brunch"}, {"alias": "tradamerican", "title": "American (Traditional)"}], "rating": 3.5, "coordinates": {"latitude": 42.6078996849769, "longitude": -72.0744104798049}, "transactions": [], "price": "$", "location": {"address1": "9 Circle St", "address2": null, "address3": null, "city": "Baldwinville", "zip_code": "01436", "country": "US", "state": "MA", "display_address": ["9 Circle St", "Baldwinville, MA 01436"]}, "phone": "+19789394800", "display_phone": "(978) 939-4800", "distance": 1195.904561978428}, {"id": "3t_Qa1MxsD0KTBbvefT-hw", "alias": "great-wall-chinese-restaurant-templeton-2", "name": "Great Wall Chinese Restaurant", "image_url": "https://s3-media1.fl.yelpcdn.com/bphoto/xoVVGL1XAyzXWWCosHO5QQ/o.jpg", "is_closed": false, "url": "https://www.yelp.com/biz/great-wall-chinese-restaurant-templeton-2?adjust_creative=h5HwbyQ0TYvQjBo6Ys5Bgw&utm_campaign=yelp_api_v3&utm_medium=api_v3_business_search&utm_source=h5HwbyQ0TYvQjBo6Ys5Bgw", "review_count": 18, "categories": [{"alias": "chinese", "title": "Chinese"}], "rating": 4.0, "coordinates": {"latitude": 42.6069717, "longitude": -72.0744476}, "transactions": [], "price": "$$", "location": {"address1": "5 Central St", "address2": "", "address3": "", "city": "Templeton", "zip_code": "01436", "country": "US", "state": "MA", "display_address": ["5 Central St", "Templeton, MA 01436"]}, "phone": "+19789398600", "display_phone": "(978) 939-8600", "distance": 1154.863113147605}, {"id": "iVk5L0JWf_92isJK9JWpwA", "alias": "village-pizza-and-subs-baldwinville-2", "name": "Village Pizza & Subs", "image_url": "https://s3-media2.fl.yelpcdn.com/bphoto/MccvnRH-t1sS0jyeKzBrCQ/o.jpg", "is_closed": false, "url": "https://www.yelp.com/biz/village-pizza-and-subs-baldwinville-2?adjust_creative=h5HwbyQ0TYvQjBo6Ys5Bgw&utm_campaign=yelp_api_v3&utm_medium=api_v3_business_search&utm_source=h5HwbyQ0TYvQjBo6Ys5Bgw", "review_count": 6, "categories": [{"alias": "pizza", "title": "Pizza"}, {"alias": "seafood", "title": "Seafood"}], "rating": 4.0, "coordinates": {"latitude": 42.60683, "longitude": -72.07494}, "transactions": [], "price": "$", "location": {"address1": "5 Elm St", "address2": "", "address3": "", "city": "Baldwinville", "zip_code": "01436", "country": "US", "state": "MA", "display_address": ["5 Elm St", "Baldwinville, MA 01436"]}, "phone": "+19789394401", "display_phone": "(978) 939-4401", "distance": 1111.737977496408}, {"id": "MsAsPmMTX5uPzvmVov6B9w", "alias": "king-phillip-restaurant-phillipston", "name": "King Phillip Restaurant", "image_url": "https://s3-media2.fl.yelpcdn.com/bphoto/ojO3BoLwHN2nkE1FRdJ5Qw/o.jpg", "is_closed": false, "url": "https://www.yelp.com/biz/king-phillip-restaurant-phillipston?adjust_creative=h5HwbyQ0TYvQjBo6Ys5Bgw&utm_campaign=yelp_api_v3&utm_medium=api_v3_business_search&utm_source=h5HwbyQ0TYvQjBo6Ys5Bgw", "review_count": 48, "categories": [{"alias": "tradamerican", "title": "American (Traditional)"}], "rating": 3.0, "coordinates": {"latitude": 42.5698651, "longitude": -72.1321599}, "transactions": [], "price": "$$", "location": {"address1": "35 State Rd", "address2": "", "address3": "", "city": "Phillipston", "zip_code": "01331", "country": "US", "state": "MA", "display_address": ["35 State Rd", "Phillipston, MA 01331"]}, "phone": "+19782496300", "display_phone": "(978) 249-6300", "distance": 5235.456833793848}, {"id": "M5aNw3UEOPiibQ_zBw_Ohg", "alias": "lees-hot-dog-stand-baldwinville", "name": "Lee's Hot Dog Stand", "image_url": "https://s3-media1.fl.yelpcdn.com/bphoto/i-DbLkQboOz9my41GtJ_8g/o.jpg", "is_closed": false, "url": "https://www.yelp.com/biz/lees-hot-dog-stand-baldwinville?adjust_creative=h5HwbyQ0TYvQjBo6Ys5Bgw&utm_campaign=yelp_api_v3&utm_medium=api_v3_business_search&utm_source=h5HwbyQ0TYvQjBo6Ys5Bgw", "review_count": 5, "categories": [{"alias": "restaurants", "title": "Restaurants"}], "rating": 2.5, "coordinates": {"latitude": 42.60635, "longitude": -72.072093}, "transactions": [], "price": "$", "location": {"address1": "31 Central St", "address2": "", "address3": "", "city": "Baldwinville", "zip_code": "01436", "country": "US", "state": "MA", "display_address": ["31 Central St", "Baldwinville, MA 01436"]}, "phone": "+19789395346", "display_phone": "(978) 939-5346", "distance": 1322.3948284360165}, {"id": "jQV1x9aI6gfQLtlpUcj2FA", "alias": "duguays-chicken-and-seafood-gardner", "name": "Duguays Chicken & Seafood", "image_url": "https://s3-media2.fl.yelpcdn.com/bphoto/C1iDu-eEp0WuUJJP1eNjVA/o.jpg", "is_closed": false, "url": "https://www.yelp.com/biz/duguays-chicken-and-seafood-gardner?adjust_creative=h5HwbyQ0TYvQjBo6Ys5Bgw&utm_campaign=yelp_api_v3&utm_medium=api_v3_business_search&utm_source=h5HwbyQ0TYvQjBo6Ys5Bgw", "review_count": 47, "categories": [{"alias": "seafood", "title": "Seafood"}, {"alias": "burgers", "title": "Burgers"}, {"alias": "chickenshop", "title": "Chicken Shop"}], "rating": 4.0, "coordinates": {"latitude": 42.57311, "longitude": -72.01599}, "transactions": [], "price": "$$", "location": {"address1": "632 Parker St", "address2": "", "address3": "", "city": "Gardner", "zip_code": "01440", "country": "US", "state": "MA", "display_address": ["632 Parker St", "Gardner, MA 01440"]}, "phone": "+19786324493", "display_phone": "(978) 632-4493", "distance": 6802.567147191412}, {"id": "PkUQS1Egv8vhxxJtDVjBaA", "alias": "asia-gourmet-athol", "name": "Asia Gourmet", "image_url": "https://s3-media1.fl.yelpcdn.com/bphoto/GjsJgR7BC4fSlGm2Eopppw/o.jpg", "is_closed": false, "url": "https://www.yelp.com/biz/asia-gourmet-athol?adjust_creative=h5HwbyQ0TYvQjBo6Ys5Bgw&utm_campaign=yelp_api_v3&utm_medium=api_v3_business_search&utm_source=h5HwbyQ0TYvQjBo6Ys5Bgw", "review_count": 7, "categories": [{"alias": "chinese", "title": "Chinese"}, {"alias": "sushi", "title": "Sushi Bars"}, {"alias": "thai", "title": "Thai"}], "rating": 3.5, "coordinates": {"latitude": 42.58012, "longitude": -72.18376}, "transactions": [], "location": {"address1": "144 Market Dr", "address2": "", "address3": null, "city": "Athol", "zip_code": "01331", "country": "US", "state": "MA", "display_address": ["144 Market Dr", "Athol, MA 01331"]}, "phone": "+19782493918", "display_phone": "(978) 249-3918", "distance": 8382.486949178478}, {"id": "JsyervcPMfFnRwRbtdsIAg", "alias": "the-pizza-barn-baldwinville", "name": "The Pizza Barn", "image_url": "https://s3-media1.fl.yelpcdn.com/bphoto/Ce7-bTdAMVVbfEbue3hUog/o.jpg", "is_closed": false, "url": "https://www.yelp.com/biz/the-pizza-barn-baldwinville?adjust_creative=h5HwbyQ0TYvQjBo6Ys5Bgw&utm_campaign=yelp_api_v3&utm_medium=api_v3_business_search&utm_source=h5HwbyQ0TYvQjBo6Ys5Bgw", "review_count": 5, "categories": [{"alias": "pizza", "title": "Pizza"}, {"alias": "italian", "title": "Italian"}, {"alias": "mediterranean", "title": "Mediterranean"}], "rating": 2.0, "coordinates": {"latitude": 42.60673, "longitude": -72.07426}, "transactions": [], "price": "$$", "location": {"address1": "9 Central St", "address2": "", "address3": "", "city": "Baldwinville", "zip_code": "01436", "country": "US", "state": "MA", "display_address": ["9 Central St", "Baldwinville, MA 01436"]}, "phone": "+19789392156", "display_phone": "(978) 939-2156", "distance": 1172.4889948278117}, {"id": "6eDMigdX2fH32_2cuaHzpw", "alias": "jk-crossroads-east-templeton", "name": "JK Crossroads", "image_url": "https://s3-media3.fl.yelpcdn.com/bphoto/X9b-I_ndI2z1jI4m_Fh-4g/o.jpg", "is_closed": false, "url": "https://www.yelp.com/biz/jk-crossroads-east-templeton?adjust_creative=h5HwbyQ0TYvQjBo6Ys5Bgw&utm_campaign=yelp_api_v3&utm_medium=api_v3_business_search&utm_source=h5HwbyQ0TYvQjBo6Ys5Bgw", "review_count": 22, "categories": [{"alias": "tradamerican", "title": "American (Traditional)"}], "rating": 3.0, "coordinates": {"latitude": 42.56267, "longitude": -72.03679}, "transactions": [], "price": "$$", "location": {"address1": "119 Patriots Rd", "address2": "", "address3": "", "city": "East Templeton", "zip_code": "01438", "country": "US", "state": "MA", "display_address": ["119 Patriots Rd", "East Templeton, MA 01438"]}, "phone": "+19786327070", "display_phone": "(978) 632-7070", "distance": 6184.895698796835}, {"id": "pFjkbm5Z5lYiaWHuOLRV8A", "alias": "little-anthonys-and-little-lizzys-winchendon", "name": "Little Anthonys & Little Lizzy's", "image_url": "https://s3-media3.fl.yelpcdn.com/bphoto/AYEd3ty3ul5yf4NuEUbz-g/o.jpg", "is_closed": false, "url": "https://www.yelp.com/biz/little-anthonys-and-little-lizzys-winchendon?adjust_creative=h5HwbyQ0TYvQjBo6Ys5Bgw&utm_campaign=yelp_api_v3&utm_medium=api_v3_business_search&utm_source=h5HwbyQ0TYvQjBo6Ys5Bgw", "review_count": 9, "categories": [{"alias": "seafood", "title": "Seafood"}, {"alias": "tradamerican", "title": "American (Traditional)"}, {"alias": "cocktailbars", "title": "Cocktail Bars"}], "rating": 4.0, "coordinates": {"latitude": 42.66681, "longitude": -72.00934}, "transactions": [], "price": "$$", "location": {"address1": "678 Spring St", "address2": null, "address3": null, "city": "Winchendon", "zip_code": "01475", "country": "US", "state": "MA", "display_address": ["678 Spring St", "Winchendon, MA 01475"]}, "phone": "+19782972669", "display_phone": "(978) 297-2669", "distance": 9491.930965919428}, {"id": "OCz5muYPUncuu6_eTwY_aQ", "alias": "royalston-general-store-royalston", "name": "Royalston General Store", "image_url": "https://s3-media2.fl.yelpcdn.com/bphoto/dwJ29OIt0IIcgVpQOvnGPw/o.jpg", "is_closed": false, "url": "https://www.yelp.com/biz/royalston-general-store-royalston?adjust_creative=h5HwbyQ0TYvQjBo6Ys5Bgw&utm_campaign=yelp_api_v3&utm_medium=api_v3_business_search&utm_source=h5HwbyQ0TYvQjBo6Ys5Bgw", "review_count": 2, "categories": [{"alias": "breakfast_brunch", "title": "Breakfast & Brunch"}], "rating": 4.0, "coordinates": {"latitude": 42.63058, "longitude": -72.14802}, "transactions": [], "location": {"address1": "21 Main St", "address2": "", "address3": "", "city": "Royalston", "zip_code": "01368", "country": "US", "state": "MA", "display_address": ["21 Main St", "Royalston, MA 01368"]}, "phone": "+19782499798", "display_phone": "(978) 249-9798", "distance": 5782.879549153447}, {"id": "jTPPscieN_KRrwxq3Cvoxg", "alias": "sawa-asian-bistro-gardner", "name": "Sawa Asian Bistro", "image_url": "https://s3-media3.fl.yelpcdn.com/bphoto/6OeCkKRnF5CX73drFhHyaw/o.jpg", "is_closed": false, "url": "https://www.yelp.com/biz/sawa-asian-bistro-gardner?adjust_creative=h5HwbyQ0TYvQjBo6Ys5Bgw&utm_campaign=yelp_api_v3&utm_medium=api_v3_business_search&utm_source=h5HwbyQ0TYvQjBo6Ys5Bgw", "review_count": 76, "categories": [{"alias": "asianfusion", "title": "Asian Fusion"}], "rating": 3.5, "coordinates": {"latitude": 42.559041712705, "longitude": -71.989148206288}, "transactions": ["pickup"], "price": "$$", "location": {"address1": "360 Timpany Blvd", "address2": "", "address3": "", "city": "Gardner", "zip_code": "01440", "country": "US", "state": "MA", "display_address": ["360 Timpany Blvd", "Gardner, MA 01440"]}, "phone": "+19786323888", "display_phone": "(978) 632-3888", "distance": 9478.92571845251}, {"id": "yHRurK18GoXezP5QuyI39w", "alias": "carriage-house-restaurant-winchendon", "name": "Carriage House Restaurant", "image_url": "", "is_closed": false, "url": "https://www.yelp.com/biz/carriage-house-restaurant-winchendon?adjust_creative=h5HwbyQ0TYvQjBo6Ys5Bgw&utm_campaign=yelp_api_v3&utm_medium=api_v3_business_search&utm_source=h5HwbyQ0TYvQjBo6Ys5Bgw", "review_count": 34, "categories": [{"alias": "seafood", "title": "Seafood"}, {"alias": "hotdogs", "title": "Fast Food"}, {"alias": "tradamerican", "title": "American (Traditional)"}], "rating": 3.0, "coordinates": {"latitude": 42.668126, "longitude": -72.014773}, "transactions": [], "price": "$$", "location": {"address1": "660 Spring St", "address2": "", "address3": "", "city": "Winchendon", "zip_code": "01475", "country": "US", "state": "MA", "display_address": ["660 Spring St", "Winchendon, MA 01475"]}, "phone": "+19782971089", "display_phone": "(978) 297-1089", "distance": 9334.886074080283}, {"id": "YFUYllVibHXwawGD2WxG5g", "alias": "99-restaurants-gardner", "name": "99 Restaurants", "image_url": "https://s3-media3.fl.yelpcdn.com/bphoto/Z_yBm5P7QKjWhMHHvGTBcg/o.jpg", "is_closed": false, "url": "https://www.yelp.com/biz/99-restaurants-gardner?adjust_creative=h5HwbyQ0TYvQjBo6Ys5Bgw&utm_campaign=yelp_api_v3&utm_medium=api_v3_business_search&utm_source=h5HwbyQ0TYvQjBo6Ys5Bgw", "review_count": 10, "categories": [{"alias": "tradamerican", "title": "American (Traditional)"}, {"alias": "pubs", "title": "Pubs"}], "rating": 3.5, "coordinates": {"latitude": 42.5605143, "longitude": -71.9906149}, "transactions": [], "location": {"address1": "299 Timpany Blvd", "address2": null, "address3": "", "city": "Gardner", "zip_code": "01440", "country": "US", "state": "MA", "display_address": ["299 Timpany Blvd", "Gardner, MA 01440"]}, "phone": "+19789580399", "display_phone": "(978) 958-0399", "distance": 9304.945955563535}, {"id": "pSBQkytH3cknYyZVcREyvg", "alias": "patriots-roast-beef-and-grill-templeton", "name": "Patriots Roast Beef and Grill", "image_url": "https://s3-media1.fl.yelpcdn.com/bphoto/jQT2dQaX-oAPGqS9MG8Mvg/o.jpg", "is_closed": false, "url": "https://www.yelp.com/biz/patriots-roast-beef-and-grill-templeton?adjust_creative=h5HwbyQ0TYvQjBo6Ys5Bgw&utm_campaign=yelp_api_v3&utm_medium=api_v3_business_search&utm_source=h5HwbyQ0TYvQjBo6Ys5Bgw", "review_count": 17, "categories": [{"alias": "pizza", "title": "Pizza"}, {"alias": "tradamerican", "title": "American (Traditional)"}], "rating": 3.5, "coordinates": {"latitude": 42.5615082, "longitude": -72.038887}, "transactions": ["delivery", "pickup"], "price": "$", "location": {"address1": "146 Patriots Rd", "address2": null, "address3": null, "city": "Templeton", "zip_code": "01468", "country": "US", "state": "MA", "display_address": ["146 Patriots Rd", "Templeton, MA 01468"]}, "phone": "+19786329951", "display_phone": "(978) 632-9951", "distance": 6169.180074480937}, {"id": "v_Hpc-MgJvfyKWSspDETlw", "alias": "taco-rey-coliman-gardner-2", "name": "Taco Rey Coliman", "image_url": "https://s3-media4.fl.yelpcdn.com/bphoto/FZ0gWTPf72YnsmmM6OQNuA/o.jpg", "is_closed": false, "url": "https://www.yelp.com/biz/taco-rey-coliman-gardner-2?adjust_creative=h5HwbyQ0TYvQjBo6Ys5Bgw&utm_campaign=yelp_api_v3&utm_medium=api_v3_business_search&utm_source=h5HwbyQ0TYvQjBo6Ys5Bgw", "review_count": 35, "categories": [{"alias": "tex-mex", "title": "Tex-Mex"}, {"alias": "mexican", "title": "Mexican"}, {"alias": "spanish", "title": "Spanish"}], "rating": 4.5, "coordinates": {"latitude": 42.5757434, "longitude": -71.9951119}, "transactions": [], "price": "$", "location": {"address1": "7 Pleasant St", "address2": "", "address3": "", "city": "Gardner", "zip_code": "01440", "country": "US", "state": "MA", "display_address": ["7 Pleasant St", "Gardner, MA 01440"]}, "phone": "+19786327400", "display_phone": "(978) 632-7400", "distance": 8198.607389729978}, {"id": "KOmBaRuOp6ZrxiLC3hC-sw", "alias": "paramount-cafe-gardner", "name": "Paramount Cafe", "image_url": "https://s3-media2.fl.yelpcdn.com/bphoto/9ciEyCWZ1VdIAQoiqYjnfQ/o.jpg", "is_closed": false, "url": "https://www.yelp.com/biz/paramount-cafe-gardner?adjust_creative=h5HwbyQ0TYvQjBo6Ys5Bgw&utm_campaign=yelp_api_v3&utm_medium=api_v3_business_search&utm_source=h5HwbyQ0TYvQjBo6Ys5Bgw", "review_count": 5, "categories": [{"alias": "cafes", "title": "Cafes"}], "rating": 4.5, "coordinates": {"latitude": 42.575092, "longitude": -71.994545}, "transactions": [], "location": {"address1": "46 Main St", "address2": "", "address3": "", "city": "Gardner", "zip_code": "01440", "country": "US", "state": "MA", "display_address": ["46 Main St", "Gardner, MA 01440"]}, "phone": "+19786329869", "display_phone": "(978) 632-9869", "distance": 8269.148675625287}, {"id": "InO-YBiVrA6sBTU0nwzKlg", "alias": "zoes-restaurant-winchendon", "name": "Zoe's Restaurant", "image_url": "https://s3-media3.fl.yelpcdn.com/bphoto/w7KLHPgrEAbKwf9akJ8wtw/o.jpg", "is_closed": false, "url": "https://www.yelp.com/biz/zoes-restaurant-winchendon?adjust_creative=h5HwbyQ0TYvQjBo6Ys5Bgw&utm_campaign=yelp_api_v3&utm_medium=api_v3_business_search&utm_source=h5HwbyQ0TYvQjBo6Ys5Bgw", "review_count": 12, "categories": [{"alias": "pizza", "title": "Pizza"}], "rating": 3.0, "coordinates": {"latitude": 42.67668833, "longitude": -72.02859667}, "transactions": [], "location": {"address1": "435 Spring St", "address2": "", "address3": "", "city": "Winchendon", "zip_code": "01475", "country": "US", "state": "MA", "display_address": ["435 Spring St", "Winchendon, MA 01475"]}, "phone": "", "display_phone": "", "distance": 9459.81468758309}, {"id": "46HA2dX8l3KZWHdLmu-U8Q", "alias": "parker-house-of-pizza-gardner-2", "name": "Parker House Of Pizza", "image_url": "https://s3-media1.fl.yelpcdn.com/bphoto/MhE4Kqq3cklu9CpgnS90ng/o.jpg", "is_closed": false, "url": "https://www.yelp.com/biz/parker-house-of-pizza-gardner-2?adjust_creative=h5HwbyQ0TYvQjBo6Ys5Bgw&utm_campaign=yelp_api_v3&utm_medium=api_v3_business_search&utm_source=h5HwbyQ0TYvQjBo6Ys5Bgw", "review_count": 10, "categories": [{"alias": "pizza", "title": "Pizza"}, {"alias": "burgers", "title": "Burgers"}, {"alias": "wraps", "title": "Wraps"}], "rating": 4.5, "coordinates": {"latitude": 42.5753219691741, "longitude": -71.9953142025354}, "transactions": [], "price": "$", "location": {"address1": "17 Pleasant St", "address2": "", "address3": "", "city": "Gardner", "zip_code": "01440", "country": "US", "state": "MA", "display_address": ["17 Pleasant St", "Gardner, MA 01440"]}, "phone": "+19786329383", "display_phone": "(978) 632-9383", "distance": 8201.173863937562}, {"id": "Er46vYBcDS6EjNNSUkZymA", "alias": "southside-grille-and-margarita-factory-gardner", "name": "Southside Grille & Margarita Factory", "image_url": "https://s3-media2.fl.yelpcdn.com/bphoto/tikYPLIQMd0z1iQErdjLag/o.jpg", "is_closed": false, "url": "https://www.yelp.com/biz/southside-grille-and-margarita-factory-gardner?adjust_creative=h5HwbyQ0TYvQjBo6Ys5Bgw&utm_campaign=yelp_api_v3&utm_medium=api_v3_business_search&utm_source=h5HwbyQ0TYvQjBo6Ys5Bgw", "review_count": 49, "categories": [{"alias": "tradamerican", "title": "American (Traditional)"}, {"alias": "mexican", "title": "Mexican"}], "rating": 2.5, "coordinates": {"latitude": 42.56069, "longitude": -71.98926}, "transactions": [], "price": "$$", "location": {"address1": "242 W Broadway", "address2": "", "address3": "", "city": "Gardner", "zip_code": "01440", "country": "US", "state": "MA", "display_address": ["242 W Broadway", "Gardner, MA 01440"]}, "phone": "+19786321057", "display_phone": "(978) 632-1057", "distance": 9366.786393466335}, {"id": "Hb1WV-XO3pZYMpZ3HaMf0Q", "alias": "kennys-house-gardner", "name": "Kenny's House", "image_url": "https://s3-media3.fl.yelpcdn.com/bphoto/ulcP7iOkpNHWa9bouLZbrQ/o.jpg", "is_closed": false, "url": "https://www.yelp.com/biz/kennys-house-gardner?adjust_creative=h5HwbyQ0TYvQjBo6Ys5Bgw&utm_campaign=yelp_api_v3&utm_medium=api_v3_business_search&utm_source=h5HwbyQ0TYvQjBo6Ys5Bgw", "review_count": 18, "categories": [{"alias": "chinese", "title": "Chinese"}, {"alias": "seafood", "title": "Seafood"}, {"alias": "soup", "title": "Soup"}], "rating": 4.0, "coordinates": {"latitude": 42.5757372, "longitude": -71.9983973}, "transactions": [], "location": {"address1": "128 Parker St", "address2": "", "address3": "", "city": "Gardner", "zip_code": "01440", "country": "US", "state": "MA", "display_address": ["128 Parker St", "Gardner, MA 01440"]}, "phone": "+19786322888", "display_phone": "(978) 632-2888", "distance": 7957.551883043869}, {"id": "TrnTjJ1-_E6C73HYGLwsKw", "alias": "renos-pizza-templeton", "name": "Reno's Pizza", "image_url": "https://s3-media3.fl.yelpcdn.com/bphoto/fqIJrOaa8cfgu-xw7htIzw/o.jpg", "is_closed": false, "url": "https://www.yelp.com/biz/renos-pizza-templeton?adjust_creative=h5HwbyQ0TYvQjBo6Ys5Bgw&utm_campaign=yelp_api_v3&utm_medium=api_v3_business_search&utm_source=h5HwbyQ0TYvQjBo6Ys5Bgw", "review_count": 2, "categories": [{"alias": "pizza", "title": "Pizza"}, {"alias": "burgers", "title": "Burgers"}, {"alias": "delis", "title": "Delis"}], "rating": 5.0, "coordinates": {"latitude": 42.5620072921407, "longitude": -72.0375560224056}, "transactions": [], "location": {"address1": "132 Patriots Rd", "address2": "", "address3": null, "city": "Templeton", "zip_code": "01438", "country": "US", "state": "MA", "display_address": ["132 Patriots Rd", "Templeton, MA 01438"]}, "phone": "+19786323200", "display_phone": "(978) 632-3200", "distance": 6193.3172450511765}, {"id": "1eB2vliYFtBP8or5oG5RuA", "alias": "the-hen-house-gardner", "name": "The Hen House", "image_url": "https://s3-media3.fl.yelpcdn.com/bphoto/w2gihixfKhsOAhUzKJPtSg/o.jpg", "is_closed": false, "url": "https://www.yelp.com/biz/the-hen-house-gardner?adjust_creative=h5HwbyQ0TYvQjBo6Ys5Bgw&utm_campaign=yelp_api_v3&utm_medium=api_v3_business_search&utm_source=h5HwbyQ0TYvQjBo6Ys5Bgw", "review_count": 21, "categories": [{"alias": "coffee", "title": "Coffee & Tea"}, {"alias": "breakfast_brunch", "title": "Breakfast & Brunch"}], "rating": 4.0, "coordinates": {"latitude": 42.576934, "longitude": -72.000701}, "transactions": [], "price": "$", "location": {"address1": "95 West St", "address2": null, "address3": null, "city": "Gardner", "zip_code": "01440", "country": "US", "state": "MA", "display_address": ["95 West St", "Gardner, MA 01440"]}, "phone": "+19786326322", "display_phone": "(978) 632-6322", "distance": 7725.4756952575435}, {"id": "-PRPQJUowAthn2mmh0_mbA", "alias": "garden-pizza-and-seafood-gardner", "name": "Garden Pizza & Seafood", "image_url": "https://s3-media1.fl.yelpcdn.com/bphoto/Ma_A1uu1KF8sKgnz3eVygA/o.jpg", "is_closed": false, "url": "https://www.yelp.com/biz/garden-pizza-and-seafood-gardner?adjust_creative=h5HwbyQ0TYvQjBo6Ys5Bgw&utm_campaign=yelp_api_v3&utm_medium=api_v3_business_search&utm_source=h5HwbyQ0TYvQjBo6Ys5Bgw", "review_count": 14, "categories": [{"alias": "seafood", "title": "Seafood"}, {"alias": "pizza", "title": "Pizza"}], "rating": 3.0, "coordinates": {"latitude": 42.5759978, "longitude": -71.995618}, "transactions": [], "price": "$$", "location": {"address1": "24 Parker St", "address2": "", "address3": "", "city": "Gardner", "zip_code": "01440", "country": "US", "state": "MA", "display_address": ["24 Parker St", "Gardner, MA 01440"]}, "phone": "+19786302424", "display_phone": "(978) 630-2424", "distance": 8149.5473418684205}, {"id": "Hy1POwROoA4iTsszJUHyFg", "alias": "blue-moon-diner-gardner", "name": "Blue Moon Diner", "image_url": "https://s3-media1.fl.yelpcdn.com/bphoto/eEMNRD6Zzb0WmuUSlybVVQ/o.jpg", "is_closed": false, "url": "https://www.yelp.com/biz/blue-moon-diner-gardner?adjust_creative=h5HwbyQ0TYvQjBo6Ys5Bgw&utm_campaign=yelp_api_v3&utm_medium=api_v3_business_search&utm_source=h5HwbyQ0TYvQjBo6Ys5Bgw", "review_count": 48, "categories": [{"alias": "diners", "title": "Diners"}, {"alias": "newamerican", "title": "American (New)"}], "rating": 3.5, "coordinates": {"latitude": 42.574156, "longitude": -71.994432}, "transactions": [], "price": "$", "location": {"address1": "102 Main St", "address2": "", "address3": "", "city": "Gardner", "zip_code": "01440", "country": "US", "state": "MA", "display_address": ["102 Main St", "Gardner, MA 01440"]}, "phone": "+19786324333", "display_phone": "(978) 632-4333", "distance": 8318.198865122864}, {"id": "Kr3vRRhCDsLj6LY6OEaR5A", "alias": "king-phillip-motel-phillipston", "name": "King Phillip Motel", "image_url": "", "is_closed": false, "url": "https://www.yelp.com/biz/king-phillip-motel-phillipston?adjust_creative=h5HwbyQ0TYvQjBo6Ys5Bgw&utm_campaign=yelp_api_v3&utm_medium=api_v3_business_search&utm_source=h5HwbyQ0TYvQjBo6Ys5Bgw", "review_count": 3, "categories": [{"alias": "hotels", "title": "Hotels"}, {"alias": "restaurants", "title": "Restaurants"}], "rating": 3.0, "coordinates": {"latitude": 42.5698651, "longitude": -72.1321599}, "transactions": [], "location": {"address1": "35 State Rd", "address2": "", "address3": "", "city": "Phillipston", "zip_code": "01331", "country": "US", "state": "MA", "display_address": ["35 State Rd", "Phillipston, MA 01331"]}, "phone": "+19782495300", "display_phone": "(978) 249-5300", "distance": 5235.456833793848}, {"id": "mPe60pDS3EXv22cdKwvBWg", "alias": "the-g-vegas-cafe-gardner-3", "name": "The G-Vegas Cafe", "image_url": "https://s3-media4.fl.yelpcdn.com/bphoto/J82gmv9lL6CPrBk8WMqzSg/o.jpg", "is_closed": false, "url": "https://www.yelp.com/biz/the-g-vegas-cafe-gardner-3?adjust_creative=h5HwbyQ0TYvQjBo6Ys5Bgw&utm_campaign=yelp_api_v3&utm_medium=api_v3_business_search&utm_source=h5HwbyQ0TYvQjBo6Ys5Bgw", "review_count": 41, "categories": [{"alias": "tradamerican", "title": "American (Traditional)"}, {"alias": "diners", "title": "Diners"}], "rating": 3.0, "coordinates": {"latitude": 42.57645, "longitude": -71.99463}, "transactions": [], "price": "$", "location": {"address1": "280 Central St", "address2": null, "address3": null, "city": "Gardner", "zip_code": "01440", "country": "US", "state": "MA", "display_address": ["280 Central St", "Gardner, MA 01440"]}, "phone": "+19786324040", "display_phone": "(978) 632-4040", "distance": 8211.389164105512}, {"id": "Z6I1yY7uBkBmaLe1L_3VJQ", "alias": "taco-bell-athol-2", "name": "Taco Bell", "image_url": "https://s3-media3.fl.yelpcdn.com/bphoto/BlCGgvYn63MYBYfFFhnDrg/o.jpg", "is_closed": false, "url": "https://www.yelp.com/biz/taco-bell-athol-2?adjust_creative=h5HwbyQ0TYvQjBo6Ys5Bgw&utm_campaign=yelp_api_v3&utm_medium=api_v3_business_search&utm_source=h5HwbyQ0TYvQjBo6Ys5Bgw", "review_count": 1, "categories": [{"alias": "tacos", "title": "Tacos"}, {"alias": "breakfast_brunch", "title": "Breakfast & Brunch"}], "rating": 4.0, "coordinates": {"latitude": 42.58012, "longitude": -72.18376}, "transactions": [], "location": {"address1": "79 Market Dr", "address2": null, "address3": null, "city": "Athol", "zip_code": "01331", "country": "US", "state": "MA", "display_address": ["79 Market Dr", "Athol, MA 01331"]}, "phone": "", "display_phone": "", "distance": 8323.081707179814}, {"id": "6zgm4JX3gyWFWXFktXHMbQ", "alias": "burger-king-restaurant-gardner", "name": "Burger King Restaurant", "image_url": "", "is_closed": false, "url": "https://www.yelp.com/biz/burger-king-restaurant-gardner?adjust_creative=h5HwbyQ0TYvQjBo6Ys5Bgw&utm_campaign=yelp_api_v3&utm_medium=api_v3_business_search&utm_source=h5HwbyQ0TYvQjBo6Ys5Bgw", "review_count": 5, "categories": [{"alias": "restaurants", "title": "Restaurants"}], "rating": 1.0, "coordinates": {"latitude": 42.5658, "longitude": -71.99153}, "transactions": [], "price": "$", "location": {"address1": "9 Crawford St", "address2": "", "address3": "", "city": "Gardner", "zip_code": "01440", "country": "US", "state": "MA", "display_address": ["9 Crawford St", "Gardner, MA 01440"]}, "phone": "+19786326015", "display_phone": "(978) 632-6015", "distance": 8941.735579136628}, {"id": "hce2WyKR6p9j0zGa3cl1lg", "alias": "wendys-athol", "name": "Wendy's", "image_url": "https://s3-media1.fl.yelpcdn.com/bphoto/eVXgbWFKJOuB6TAuoTftyw/o.jpg", "is_closed": false, "url": "https://www.yelp.com/biz/wendys-athol?adjust_creative=h5HwbyQ0TYvQjBo6Ys5Bgw&utm_campaign=yelp_api_v3&utm_medium=api_v3_business_search&utm_source=h5HwbyQ0TYvQjBo6Ys5Bgw", "review_count": 1, "categories": [{"alias": "burgers", "title": "Burgers"}, {"alias": "hotdogs", "title": "Fast Food"}], "rating": 1.0, "coordinates": {"latitude": 42.58012, "longitude": -72.18376}, "transactions": [], "location": {"address1": "56 Market Dr", "address2": null, "address3": null, "city": "Athol", "zip_code": "01331", "country": "US", "state": "MA", "display_address": ["56 Market Dr", "Athol, MA 01331"]}, "phone": "", "display_phone": "", "distance": 8221.776981912268}, {"id": "o686NvNNRF8TecM4j0KxwQ", "alias": "lickity-splitz-winchendon", "name": "Lickity Splitz", "image_url": "https://s3-media3.fl.yelpcdn.com/bphoto/P12JecDQJnJB5lVQK8AepQ/o.jpg", "is_closed": false, "url": "https://www.yelp.com/biz/lickity-splitz-winchendon?adjust_creative=h5HwbyQ0TYvQjBo6Ys5Bgw&utm_campaign=yelp_api_v3&utm_medium=api_v3_business_search&utm_source=h5HwbyQ0TYvQjBo6Ys5Bgw", "review_count": 18, "categories": [{"alias": "icecream", "title": "Ice Cream & Frozen Yogurt"}, {"alias": "burgers", "title": "Burgers"}, {"alias": "hotdog", "title": "Hot Dogs"}], "rating": 4.0, "coordinates": {"latitude": 42.67049, "longitude": -72.07639}, "transactions": [], "price": "$", "location": {"address1": "231 Main St", "address2": "", "address3": "", "city": "Winchendon", "zip_code": "01475", "country": "US", "state": "MA", "display_address": ["231 Main St", "Winchendon, MA 01475"]}, "phone": "+19782971777", "display_phone": "(978) 297-1777", "distance": 7392.196726939198}, {"id": "eIRuELHslKEMAmHm0DHbxw", "alias": "pleasant-house-of-pizza-gardner", "name": "Pleasant House of Pizza", "image_url": "", "is_closed": false, "url": "https://www.yelp.com/biz/pleasant-house-of-pizza-gardner?adjust_creative=h5HwbyQ0TYvQjBo6Ys5Bgw&utm_campaign=yelp_api_v3&utm_medium=api_v3_business_search&utm_source=h5HwbyQ0TYvQjBo6Ys5Bgw", "review_count": 1, "categories": [{"alias": "pizza", "title": "Pizza"}], "rating": 3.0, "coordinates": {"latitude": 42.5748923481699, "longitude": -71.9946629036695}, "transactions": [], "location": {"address1": "68 Main St", "address2": "", "address3": "", "city": "Gardner", "zip_code": "01440", "country": "US", "state": "MA", "display_address": ["68 Main St", "Gardner, MA 01440"]}, "phone": "", "display_phone": "", "distance": 8268.801618805834}, {"id": "kqir5dO2JZ5Y0HYO33wbCQ", "alias": "dominos-pizza-gardner", "name": "Domino's Pizza", "image_url": "https://s3-media1.fl.yelpcdn.com/bphoto/xblCtNJCS2ds7BgENryLEw/o.jpg", "is_closed": false, "url": "https://www.yelp.com/biz/dominos-pizza-gardner?adjust_creative=h5HwbyQ0TYvQjBo6Ys5Bgw&utm_campaign=yelp_api_v3&utm_medium=api_v3_business_search&utm_source=h5HwbyQ0TYvQjBo6Ys5Bgw", "review_count": 6, "categories": [{"alias": "pizza", "title": "Pizza"}, {"alias": "chicken_wings", "title": "Chicken Wings"}, {"alias": "sandwiches", "title": "Sandwiches"}], "rating": 2.5, "coordinates": {"latitude": 42.5749306, "longitude": -72.006989}, "transactions": [], "price": "$", "location": {"address1": "401 Parker St", "address2": "", "address3": "", "city": "Gardner", "zip_code": "01440", "country": "US", "state": "MA", "display_address": ["401 Parker St", "Gardner, MA 01440"]}, "phone": "+19786328170", "display_phone": "(978) 632-8170", "distance": 7353.120382423191}, {"id": "Je1gbLcoqWn-R9Wsw09J2g", "alias": "burger-king-gardner-2", "name": "Burger King", "image_url": "https://s3-media4.fl.yelpcdn.com/bphoto/PtHJDw19UTmeX8yvo60qtw/o.jpg", "is_closed": false, "url": "https://www.yelp.com/biz/burger-king-gardner-2?adjust_creative=h5HwbyQ0TYvQjBo6Ys5Bgw&utm_campaign=yelp_api_v3&utm_medium=api_v3_business_search&utm_source=h5HwbyQ0TYvQjBo6Ys5Bgw", "review_count": 2, "categories": [{"alias": "burgers", "title": "Burgers"}, {"alias": "hotdogs", "title": "Fast Food"}], "rating": 1.0, "coordinates": {"latitude": 42.565589, "longitude": -71.991512}, "transactions": [], "price": "$", "location": {"address1": "9 Crawford Street", "address2": "", "address3": "", "city": "Gardner", "zip_code": "01440", "country": "US", "state": "MA", "display_address": ["9 Crawford Street", "Gardner, MA 01440"]}, "phone": "", "display_phone": "", "distance": 8941.735579136628}, {"id": "eIl4-S0XOnUZ4SLZrcaJgw", "alias": "papa-ginos-pizzeria-gardner", "name": "Papa Gino's Pizzeria", "image_url": "https://s3-media2.fl.yelpcdn.com/bphoto/k7kt3dUGqz2Ptw87y3fvtw/o.jpg", "is_closed": false, "url": "https://www.yelp.com/biz/papa-ginos-pizzeria-gardner?adjust_creative=h5HwbyQ0TYvQjBo6Ys5Bgw&utm_campaign=yelp_api_v3&utm_medium=api_v3_business_search&utm_source=h5HwbyQ0TYvQjBo6Ys5Bgw", "review_count": 14, "categories": [{"alias": "pizza", "title": "Pizza"}], "rating": 2.5, "coordinates": {"latitude": 42.55884, "longitude": -71.98973}, "transactions": [], "price": "$", "location": {"address1": "326 Timpany Blvd", "address2": "", "address3": "", "city": "Gardner", "zip_code": "01440", "country": "US", "state": "MA", "display_address": ["326 Timpany Blvd", "Gardner, MA 01440"]}, "phone": "+19786328051", "display_phone": "(978) 632-8051", "distance": 9428.657986706536}, {"id": "ZuiYzeLI0xkuaKtK344W7g", "alias": "mcdonalds-winchendon", "name": "McDonald's", "image_url": "https://s3-media3.fl.yelpcdn.com/bphoto/rvm1pTAhYvCSxMfjEkZ2Ig/o.jpg", "is_closed": false, "url": "https://www.yelp.com/biz/mcdonalds-winchendon?adjust_creative=h5HwbyQ0TYvQjBo6Ys5Bgw&utm_campaign=yelp_api_v3&utm_medium=api_v3_business_search&utm_source=h5HwbyQ0TYvQjBo6Ys5Bgw", "review_count": 10, "categories": [{"alias": "hotdogs", "title": "Fast Food"}, {"alias": "burgers", "title": "Burgers"}, {"alias": "coffee", "title": "Coffee & Tea"}], "rating": 3.0, "coordinates": {"latitude": 42.6788121982942, "longitude": -72.039158642292}, "transactions": [], "price": "$", "location": {"address1": "235 Spring St", "address2": "", "address3": "", "city": "Winchendon", "zip_code": "01475", "country": "US", "state": "MA", "display_address": ["235 Spring St", "Winchendon, MA 01475"]}, "phone": "+19782973528", "display_phone": "(978) 297-3528", "distance": 9259.123488535775}, {"id": "hDvkTp4bTKcR9AsXA-5_IQ", "alias": "subway-gardner-8", "name": "Subway", "image_url": "https://s3-media1.fl.yelpcdn.com/bphoto/WM4Y6gUg-7rY_jCSUH8bZw/o.jpg", "is_closed": false, "url": "https://www.yelp.com/biz/subway-gardner-8?adjust_creative=h5HwbyQ0TYvQjBo6Ys5Bgw&utm_campaign=yelp_api_v3&utm_medium=api_v3_business_search&utm_source=h5HwbyQ0TYvQjBo6Ys5Bgw", "review_count": 1, "categories": [{"alias": "sandwiches", "title": "Sandwiches"}], "rating": 1.0, "coordinates": {"latitude": 42.5514561, "longitude": -71.9946827}, "transactions": [], "price": "$", "location": {"address1": "677 Timpany Blvd", "address2": null, "address3": null, "city": "Gardner", "zip_code": "01440", "country": "US", "state": "MA", "display_address": ["677 Timpany Blvd", "Gardner, MA 01440"]}, "phone": "+19786301113", "display_phone": "(978) 630-1113", "distance": 9582.076791053918}, {"id": "bVbAQw_laKoEw8HUBEdj5w", "alias": "mcdonalds-gardner-2", "name": "McDonald's", "image_url": "https://s3-media3.fl.yelpcdn.com/bphoto/tkmz1oWJb4xuSYkFE_absg/o.jpg", "is_closed": false, "url": "https://www.yelp.com/biz/mcdonalds-gardner-2?adjust_creative=h5HwbyQ0TYvQjBo6Ys5Bgw&utm_campaign=yelp_api_v3&utm_medium=api_v3_business_search&utm_source=h5HwbyQ0TYvQjBo6Ys5Bgw", "review_count": 15, "categories": [{"alias": "hotdogs", "title": "Fast Food"}, {"alias": "burgers", "title": "Burgers"}, {"alias": "coffee", "title": "Coffee & Tea"}], "rating": 2.5, "coordinates": {"latitude": 42.5632433186274, "longitude": -71.99085699943}, "transactions": [], "price": "$", "location": {"address1": "223 Timpany Blvd", "address2": "", "address3": "", "city": "Gardner", "zip_code": "01440", "country": "US", "state": "MA", "display_address": ["223 Timpany Blvd", "Gardner, MA 01440"]}, "phone": "+19786329859", "display_phone": "(978) 632-9859", "distance": 9120.873560735474}]