[{"id": "LsBWcjUV9pWHx18TFHmgxw", "alias": "deweys-public-house-dalton", "name": "Dewey's Public House", "image_url": "https://s3-media1.fl.yelpcdn.com/bphoto/IexiQnkl0NHDCGObVhW8QQ/o.jpg", "is_closed": false, "url": "https://www.yelp.com/biz/deweys-public-house-dalton?adjust_creative=h5HwbyQ0TYvQjBo6Ys5Bgw&utm_campaign=yelp_api_v3&utm_medium=api_v3_business_search&utm_source=h5HwbyQ0TYvQjBo6Ys5Bgw", "review_count": 17, "categories": [{"alias": "bars", "title": "Bars"}, {"alias": "tradamerican", "title": "American (Traditional)"}], "rating": 4.0, "coordinates": {"latitude": 42.4734917, "longitude": -73.156044}, "transactions": [], "price": "$$", "location": {"address1": "16 Depot St", "address2": "", "address3": "", "city": "Dalton", "zip_code": "01226", "country": "US", "state": "MA", "display_address": ["16 Depot St", "Dalton, MA 01226"]}, "phone": "+14136840900", "display_phone": "(413) 684-0900", "distance": 1222.9543588598558}, {"id": "5fGDL6__gYOZ3aEqUrnprA", "alias": "dalton-restaurant-dalton", "name": "Dalton Restaurant", "image_url": "https://s3-media3.fl.yelpcdn.com/bphoto/s2zuMPhQulG1TNyWx1EfAg/o.jpg", "is_closed": false, "url": "https://www.yelp.com/biz/dalton-restaurant-dalton?adjust_creative=h5HwbyQ0TYvQjBo6Ys5Bgw&utm_campaign=yelp_api_v3&utm_medium=api_v3_business_search&utm_source=h5HwbyQ0TYvQjBo6Ys5Bgw", "review_count": 12, "categories": [{"alias": "diners", "title": "Diners"}], "rating": 4.0, "coordinates": {"latitude": 42.4734982, "longitude": -73.1721344}, "transactions": ["delivery"], "price": "$", "location": {"address1": "401 Main St", "address2": "", "address3": "", "city": "Dalton", "zip_code": "01226", "country": "US", "state": "MA", "display_address": ["401 Main St", "Dalton, MA 01226"]}, "phone": "+14136840414", "display_phone": "(413) 684-0414", "distance": 434.9651188695402}, {"id": "qzb2lo-LNbUz2DaN6m5Qcw", "alias": "hot-harrys-fresh-burritos-dalton", "name": "Hot Harry's Fresh Burritos", "image_url": "https://s3-media1.fl.yelpcdn.com/bphoto/_LeE478T5T33qyGGCA9fgw/o.jpg", "is_closed": false, "url": "https://www.yelp.com/biz/hot-harrys-fresh-burritos-dalton?adjust_creative=h5HwbyQ0TYvQjBo6Ys5Bgw&utm_campaign=yelp_api_v3&utm_medium=api_v3_business_search&utm_source=h5HwbyQ0TYvQjBo6Ys5Bgw", "review_count": 5, "categories": [{"alias": "mexican", "title": "Mexican"}], "rating": 4.0, "coordinates": {"latitude": 42.4734965, "longitude": -73.1720944}, "transactions": ["delivery"], "location": {"address1": "403 Main St", "address2": "", "address3": null, "city": "Dalton", "zip_code": "01226", "country": "US", "state": "MA", "display_address": ["403 Main St", "Dalton, MA 01226"]}, "phone": "+14133000028", "display_phone": "(413) 300-0028", "distance": 432.37926596025267}, {"id": "HdqIODZiSRUzJ7WHfQepjw", "alias": "teos-hot-dogs-pittsfield", "name": "Teo's Hot Dogs", "image_url": "https://s3-media3.fl.yelpcdn.com/bphoto/IO73zBPj6a3UkTo4HDDjFA/o.jpg", "is_closed": false, "url": "https://www.yelp.com/biz/teos-hot-dogs-pittsfield?adjust_creative=h5HwbyQ0TYvQjBo6Ys5Bgw&utm_campaign=yelp_api_v3&utm_medium=api_v3_business_search&utm_source=h5HwbyQ0TYvQjBo6Ys5Bgw", "review_count": 108, "categories": [{"alias": "hotdog", "title": "Hot Dogs"}, {"alias": "bars", "title": "Bars"}], "rating": 4.0, "coordinates": {"latitude": 42.4539231, "longitude": -73.2175222}, "transactions": ["delivery", "pickup"], "price": "$", "location": {"address1": "1410 East St", "address2": "", "address3": "", "city": "Pittsfield", "zip_code": "01201", "country": "US", "state": "MA", "display_address": ["1410 East St", "Pittsfield, MA 01201"]}, "phone": "+14134479592", "display_phone": "(413) 447-9592", "distance": 4287.790719768552}, {"id": "zfMgkBaSVR9KucqK1mmkOg", "alias": "jacobs-restaurant-dalton", "name": "Jacob's Restaurant", "image_url": "https://s3-media3.fl.yelpcdn.com/bphoto/70XUhQbB7N2n7moFQ37NaA/o.jpg", "is_closed": false, "url": "https://www.yelp.com/biz/jacobs-restaurant-dalton?adjust_creative=h5HwbyQ0TYvQjBo6Ys5Bgw&utm_campaign=yelp_api_v3&utm_medium=api_v3_business_search&utm_source=h5HwbyQ0TYvQjBo6Ys5Bgw", "review_count": 11, "categories": [{"alias": "restaurants", "title": "Restaurants"}], "rating": 3.0, "coordinates": {"latitude": 42.47424, "longitude": -73.16418}, "transactions": [], "price": "$", "location": {"address1": "51 Daly Ave", "address2": "", "address3": "", "city": "Dalton", "zip_code": "01226", "country": "US", "state": "MA", "display_address": ["51 Daly Ave", "Dalton, MA 01226"]}, "phone": "+14136849766", "display_phone": "(413) 684-9766", "distance": 676.4831540980327}, {"id": "oLaERtmDsjb6EUhEavOPWA", "alias": "angelinas-submarine-shops-dalton", "name": "Angelina's Submarine Shops", "image_url": "https://s3-media1.fl.yelpcdn.com/bphoto/lxov5wUSXOSsWqD-VHgOVQ/o.jpg", "is_closed": false, "url": "https://www.yelp.com/biz/angelinas-submarine-shops-dalton?adjust_creative=h5HwbyQ0TYvQjBo6Ys5Bgw&utm_campaign=yelp_api_v3&utm_medium=api_v3_business_search&utm_source=h5HwbyQ0TYvQjBo6Ys5Bgw", "review_count": 15, "categories": [{"alias": "sandwiches", "title": "Sandwiches"}], "rating": 3.5, "coordinates": {"latitude": 42.47359, "longitude": -73.16254}, "transactions": ["delivery", "pickup"], "price": "$", "location": {"address1": "657 Main St", "address2": "", "address3": "", "city": "Dalton", "zip_code": "01226", "country": "US", "state": "MA", "display_address": ["657 Main St", "Dalton, MA 01226"]}, "phone": "+14136841178", "display_phone": "(413) 684-1178", "distance": 732.1847406922628}, {"id": "dTPRhcx8OZw-LhH1wlGuoQ", "alias": "koto-hibachi-steak-house-pittsfield", "name": "Koto Hibachi Steak House", "image_url": "https://s3-media1.fl.yelpcdn.com/bphoto/PC1JPjHBxzdpIZ5uDnjRpQ/o.jpg", "is_closed": false, "url": "https://www.yelp.com/biz/koto-hibachi-steak-house-pittsfield?adjust_creative=h5HwbyQ0TYvQjBo6Ys5Bgw&utm_campaign=yelp_api_v3&utm_medium=api_v3_business_search&utm_source=h5HwbyQ0TYvQjBo6Ys5Bgw", "review_count": 50, "categories": [{"alias": "sushi", "title": "Sushi Bars"}, {"alias": "japanese", "title": "Japanese"}, {"alias": "steak", "title": "Steakhouses"}], "rating": 3.0, "coordinates": {"latitude": 42.4674977, "longitude": -73.2051329}, "transactions": ["delivery"], "price": "$$", "location": {"address1": "795 Dalton Ave", "address2": "", "address3": "", "city": "Pittsfield", "zip_code": "01201", "country": "US", "state": "MA", "display_address": ["795 Dalton Ave", "Pittsfield, MA 01201"]}, "phone": "+14137707128", "display_phone": "(413) 770-7128", "distance": 2896.4872446419627}, {"id": "IaXoc2JQs-4CYd3P2YA6FA", "alias": "o-laughlins-restaurant-pittsfield", "name": "O'laughlin's Restaurant", "image_url": "https://s3-media4.fl.yelpcdn.com/bphoto/kt_rEUI0423gfdSTtKxL_g/o.jpg", "is_closed": false, "url": "https://www.yelp.com/biz/o-laughlins-restaurant-pittsfield?adjust_creative=h5HwbyQ0TYvQjBo6Ys5Bgw&utm_campaign=yelp_api_v3&utm_medium=api_v3_business_search&utm_source=h5HwbyQ0TYvQjBo6Ys5Bgw", "review_count": 2, "categories": [{"alias": "tradamerican", "title": "American (Traditional)"}, {"alias": "irish_pubs", "title": "Irish Pub"}], "rating": 4.0, "coordinates": {"latitude": 42.4568138122559, "longitude": -73.212158203125}, "transactions": ["delivery"], "location": {"address1": "342 Merrill Rd", "address2": "", "address3": "", "city": "Pittsfield", "zip_code": "01201", "country": "US", "state": "MA", "display_address": ["342 Merrill Rd", "Pittsfield, MA 01201"]}, "phone": "+14134479507", "display_phone": "(413) 447-9507", "distance": 3755.6012425266726}, {"id": "jJi_0_zVAENFO1jNHFr2QA", "alias": "ozzies-steak-and-eggs-hinsdale", "name": "Ozzie's Steak & Eggs", "image_url": "https://s3-media2.fl.yelpcdn.com/bphoto/HmbCm2yJiHYPp3ccuEY5Tg/o.jpg", "is_closed": false, "url": "https://www.yelp.com/biz/ozzies-steak-and-eggs-hinsdale?adjust_creative=h5HwbyQ0TYvQjBo6Ys5Bgw&utm_campaign=yelp_api_v3&utm_medium=api_v3_business_search&utm_source=h5HwbyQ0TYvQjBo6Ys5Bgw", "review_count": 51, "categories": [{"alias": "newamerican", "title": "American (New)"}, {"alias": "breakfast_brunch", "title": "Breakfast & Brunch"}, {"alias": "seafood", "title": "Seafood"}], "rating": 4.5, "coordinates": {"latitude": 42.43803, "longitude": -73.125002}, "transactions": [], "price": "$$", "location": {"address1": "26 Maple St", "address2": "", "address3": "", "city": "Hinsdale", "zip_code": "01235", "country": "US", "state": "MA", "display_address": ["26 Maple St", "Hinsdale, MA 01235"]}, "phone": "+14136558309", "display_phone": "(413) 655-8309", "distance": 5111.6799429307}, {"id": "1vSpetXLeZnGEI-16WVUog", "alias": "the-brookhouse-sports-pub-and-restaurant-lanesborough", "name": "The Brookhouse Sports Pub & Restaurant", "image_url": "https://s3-media2.fl.yelpcdn.com/bphoto/U2Xz6KkR-gdwLE7XheFJAg/o.jpg", "is_closed": false, "url": "https://www.yelp.com/biz/the-brookhouse-sports-pub-and-restaurant-lanesborough?adjust_creative=h5HwbyQ0TYvQjBo6Ys5Bgw&utm_campaign=yelp_api_v3&utm_medium=api_v3_business_search&utm_source=h5HwbyQ0TYvQjBo6Ys5Bgw", "review_count": 18, "categories": [{"alias": "sportsbars", "title": "Sports Bars"}, {"alias": "tradamerican", "title": "American (Traditional)"}], "rating": 3.0, "coordinates": {"latitude": 42.492263, "longitude": -73.202163}, "transactions": ["delivery"], "price": "$$", "location": {"address1": "650 Chesire Rd", "address2": "", "address3": "", "city": "Lanesborough", "zip_code": "01237", "country": "US", "state": "MA", "display_address": ["650 Chesire Rd", "Lanesborough, MA 01237"]}, "phone": "+14134993331", "display_phone": "(413) 499-3331", "distance": 3643.4833457575132}, {"id": "1J02t_gsLt_Rq2x0xPOzzg", "alias": "vivaldis-pizzeria-pittsfield", "name": "Vivaldi's Pizzeria", "image_url": "https://s3-media1.fl.yelpcdn.com/bphoto/4qvGd-y7a3vrDYNcI4-Cmw/o.jpg", "is_closed": false, "url": "https://www.yelp.com/biz/vivaldis-pizzeria-pittsfield?adjust_creative=h5HwbyQ0TYvQjBo6Ys5Bgw&utm_campaign=yelp_api_v3&utm_medium=api_v3_business_search&utm_source=h5HwbyQ0TYvQjBo6Ys5Bgw", "review_count": 32, "categories": [{"alias": "italian", "title": "Italian"}, {"alias": "pizza", "title": "Pizza"}, {"alias": "salad", "title": "Salad"}], "rating": 4.0, "coordinates": {"latitude": 42.46832, "longitude": -73.2038}, "transactions": ["delivery"], "price": "$", "location": {"address1": "5 Cheshire Rd", "address2": "", "address3": null, "city": "Pittsfield", "zip_code": "01201", "country": "US", "state": "MA", "display_address": ["5 Cheshire Rd", "Pittsfield, MA 01201"]}, "phone": "+14132365633", "display_phone": "(413) 236-5633", "distance": 2926.605262113129}, {"id": "0VAkYUcPyFvhr62FVzbpZg", "alias": "99-restaurants-pittsfield-2", "name": "99 Restaurants", "image_url": "https://s3-media3.fl.yelpcdn.com/bphoto/mKSEJrY9DvPWBM9rtWzllQ/o.jpg", "is_closed": false, "url": "https://www.yelp.com/biz/99-restaurants-pittsfield-2?adjust_creative=h5HwbyQ0TYvQjBo6Ys5Bgw&utm_campaign=yelp_api_v3&utm_medium=api_v3_business_search&utm_source=h5HwbyQ0TYvQjBo6Ys5Bgw", "review_count": 31, "categories": [{"alias": "tradamerican", "title": "American (Traditional)"}, {"alias": "seafood", "title": "Seafood"}, {"alias": "pubs", "title": "Pubs"}], "rating": 2.5, "coordinates": {"latitude": 42.4663972, "longitude": -73.2058286}, "transactions": [], "price": "$$", "location": {"address1": "609 Merrill Rd", "address2": "", "address3": "", "city": "Pittsfield", "zip_code": "01201", "country": "US", "state": "MA", "display_address": ["609 Merrill Rd", "Pittsfield, MA 01201"]}, "phone": "+14132360980", "display_phone": "(413) 236-0980", "distance": 2967.0914865757677}, {"id": "6EQf1-9Jcha2gfDWTU2uCA", "alias": "hibachi-burffet-pittsfield", "name": "Hibachi Burffet", "image_url": "https://s3-media3.fl.yelpcdn.com/bphoto/Hw2AA6MhG3Xdq042h4nifA/o.jpg", "is_closed": false, "url": "https://www.yelp.com/biz/hibachi-burffet-pittsfield?adjust_creative=h5HwbyQ0TYvQjBo6Ys5Bgw&utm_campaign=yelp_api_v3&utm_medium=api_v3_business_search&utm_source=h5HwbyQ0TYvQjBo6Ys5Bgw", "review_count": 12, "categories": [{"alias": "chinese", "title": "Chinese"}], "rating": 3.0, "coordinates": {"latitude": 42.470356, "longitude": -73.2040024}, "transactions": [], "location": {"address1": "61 Cheshire Rd", "address2": "", "address3": "", "city": "Pittsfield", "zip_code": "01201", "country": "US", "state": "MA", "display_address": ["61 Cheshire Rd", "Pittsfield, MA 01201"]}, "phone": "", "display_phone": "", "distance": 2805.445024680821}, {"id": "wxQ4WF6IOxObxPXJM6AlYw", "alias": "misty-moonlight-diner-pittsfield", "name": "Misty Moonlight Diner", "image_url": "https://s3-media1.fl.yelpcdn.com/bphoto/HxRE5Va6F7N8hV8WYBNU2A/o.jpg", "is_closed": false, "url": "https://www.yelp.com/biz/misty-moonlight-diner-pittsfield?adjust_creative=h5HwbyQ0TYvQjBo6Ys5Bgw&utm_campaign=yelp_api_v3&utm_medium=api_v3_business_search&utm_source=h5HwbyQ0TYvQjBo6Ys5Bgw", "review_count": 49, "categories": [{"alias": "diners", "title": "Diners"}], "rating": 3.5, "coordinates": {"latitude": 42.4656219482422, "longitude": -73.2095642089844}, "transactions": ["delivery"], "price": "$$", "location": {"address1": "565 Dalton Ave", "address2": "", "address3": "", "city": "Pittsfield", "zip_code": "01201", "country": "US", "state": "MA", "display_address": ["565 Dalton Ave", "Pittsfield, MA 01201"]}, "phone": "+14134992483", "display_phone": "(413) 499-2483", "distance": 3282.4578346785643}, {"id": "WpkbEYbNkC252tMTmhFAKg", "alias": "chilis-pittsfield", "name": "Chili's", "image_url": "https://s3-media2.fl.yelpcdn.com/bphoto/Jm4gEu-XCkmcC5Fql-XDTA/o.jpg", "is_closed": false, "url": "https://www.yelp.com/biz/chilis-pittsfield?adjust_creative=h5HwbyQ0TYvQjBo6Ys5Bgw&utm_campaign=yelp_api_v3&utm_medium=api_v3_business_search&utm_source=h5HwbyQ0TYvQjBo6Ys5Bgw", "review_count": 20, "categories": [{"alias": "tex-mex", "title": "Tex-Mex"}, {"alias": "bars", "title": "Bars"}, {"alias": "tradamerican", "title": "American (Traditional)"}], "rating": 2.5, "coordinates": {"latitude": 42.46652, "longitude": -73.19619}, "transactions": [], "location": {"address1": "555 Hubbard Ave", "address2": "", "address3": null, "city": "Pittsfield", "zip_code": "01201", "country": "US", "state": "MA", "display_address": ["555 Hubbard Ave", "Pittsfield, MA 01201"]}, "phone": "", "display_phone": "", "distance": 2497.2320372418562}, {"id": "PCeGA7kPoRSvYo7VNyotPA", "alias": "mannys-pizza-dalton", "name": "Manny's Pizza", "image_url": "https://s3-media2.fl.yelpcdn.com/bphoto/nq6wW8BPgLO2u5nSum8XPw/o.jpg", "is_closed": false, "url": "https://www.yelp.com/biz/mannys-pizza-dalton?adjust_creative=h5HwbyQ0TYvQjBo6Ys5Bgw&utm_campaign=yelp_api_v3&utm_medium=api_v3_business_search&utm_source=h5HwbyQ0TYvQjBo6Ys5Bgw", "review_count": 7, "categories": [{"alias": "pizza", "title": "Pizza"}], "rating": 3.5, "coordinates": {"latitude": 42.4811831058193, "longitude": -73.1548690795898}, "transactions": ["delivery", "pickup"], "price": "$$", "location": {"address1": "302 North St", "address2": "", "address3": "", "city": "Dalton", "zip_code": "01226", "country": "US", "state": "MA", "display_address": ["302 North St", "Dalton, MA 01226"]}, "phone": "+14138425289", "display_phone": "(413) 842-5289", "distance": 1759.951390064944}, {"id": "_4k5a9V9p6oDd0h8kCJbgg", "alias": "zuccos-family-restaurant-pittsfield", "name": "Zucco's Family Restaurant", "image_url": "https://s3-media3.fl.yelpcdn.com/bphoto/8kDDvVuGiEDPXeMZBNEPXA/o.jpg", "is_closed": false, "url": "https://www.yelp.com/biz/zuccos-family-restaurant-pittsfield?adjust_creative=h5HwbyQ0TYvQjBo6Ys5Bgw&utm_campaign=yelp_api_v3&utm_medium=api_v3_business_search&utm_source=h5HwbyQ0TYvQjBo6Ys5Bgw", "review_count": 24, "categories": [{"alias": "mediterranean", "title": "Mediterranean"}, {"alias": "italian", "title": "Italian"}, {"alias": "gluten_free", "title": "Gluten-Free"}], "rating": 3.0, "coordinates": {"latitude": 42.4633698981432, "longitude": -73.2147974686028}, "transactions": ["delivery", "pickup"], "price": "$$", "location": {"address1": "451 Dalton Ave", "address2": "", "address3": "", "city": "Pittsfield", "zip_code": "01201", "country": "US", "state": "MA", "display_address": ["451 Dalton Ave", "Pittsfield, MA 01201"]}, "phone": "+14134438112", "display_phone": "(413) 443-8112", "distance": 3748.4586792688183}, {"id": "_UOV6TpTX9oGunNqFNBT0g", "alias": "kellys-diner-pittsfield", "name": "Kelly's Diner", "image_url": "https://s3-media4.fl.yelpcdn.com/bphoto/dPhDpYeK2lP-PD8Qn1iPRA/o.jpg", "is_closed": false, "url": "https://www.yelp.com/biz/kellys-diner-pittsfield?adjust_creative=h5HwbyQ0TYvQjBo6Ys5Bgw&utm_campaign=yelp_api_v3&utm_medium=api_v3_business_search&utm_source=h5HwbyQ0TYvQjBo6Ys5Bgw", "review_count": 30, "categories": [{"alias": "breakfast_brunch", "title": "Breakfast & Brunch"}], "rating": 3.5, "coordinates": {"latitude": 42.467871, "longitude": -73.202713}, "transactions": ["delivery"], "price": "$", "location": {"address1": "860 Dalton Ave", "address2": "", "address3": "", "city": "Pittsfield", "zip_code": "01201", "country": "US", "state": "MA", "display_address": ["860 Dalton Ave", "Pittsfield, MA 01201"]}, "phone": "+14134421875", "display_phone": "(413) 442-1875", "distance": 2695.0701003322797}, {"id": "JE7ddPRkUKhgWO0Jmy7xNg", "alias": "china-wok-pittsfield", "name": "China Wok", "image_url": "https://s3-media1.fl.yelpcdn.com/bphoto/jWYAgXQeOzMzTTvhnHWKXg/o.jpg", "is_closed": false, "url": "https://www.yelp.com/biz/china-wok-pittsfield?adjust_creative=h5HwbyQ0TYvQjBo6Ys5Bgw&utm_campaign=yelp_api_v3&utm_medium=api_v3_business_search&utm_source=h5HwbyQ0TYvQjBo6Ys5Bgw", "review_count": 15, "categories": [{"alias": "chinese", "title": "Chinese"}], "rating": 3.5, "coordinates": {"latitude": 42.4633937, "longitude": -73.2146138}, "transactions": ["delivery"], "price": "$", "location": {"address1": "457 Dalton Ave", "address2": "Ste 6", "address3": "", "city": "Pittsfield", "zip_code": "01201", "country": "US", "state": "MA", "display_address": ["457 Dalton Ave", "Ste 6", "Pittsfield, MA 01201"]}, "phone": "+14134488810", "display_phone": "(413) 448-8810", "distance": 3730.626008927268}, {"id": "WpF2gHsX2rjlTGj-ohGkNA", "alias": "the-garden-grill-and-tavern-lanesborough", "name": "The Garden Grill & Tavern", "image_url": "https://s3-media2.fl.yelpcdn.com/bphoto/hqhdVQJQNlR6bAOyEy9dKg/o.jpg", "is_closed": false, "url": "https://www.yelp.com/biz/the-garden-grill-and-tavern-lanesborough?adjust_creative=h5HwbyQ0TYvQjBo6Ys5Bgw&utm_campaign=yelp_api_v3&utm_medium=api_v3_business_search&utm_source=h5HwbyQ0TYvQjBo6Ys5Bgw", "review_count": 12, "categories": [{"alias": "tradamerican", "title": "American (Traditional)"}], "rating": 2.0, "coordinates": {"latitude": 42.4936729, "longitude": -73.2017712}, "transactions": [], "price": "$$", "location": {"address1": "655 Cheshire Rd", "address2": "", "address3": "Berkshire Mal", "city": "Lanesborough", "zip_code": "01237", "country": "US", "state": "MA", "display_address": ["655 Cheshire Rd", "Berkshire Mal", "Lanesborough, MA 01237"]}, "phone": "+14134455300", "display_phone": "(413) 445-5300", "distance": 3709.720709714588}, {"id": "pmy-RkBV3NjQYW2pQl9mQQ", "alias": "grand-buffet-star-chinese-restaurant-pittsfield", "name": "Grand Buffet Star Chinese Restaurant", "image_url": "https://s3-media2.fl.yelpcdn.com/bphoto/vZpisPXNq97CDzq8d_vqbA/o.jpg", "is_closed": false, "url": "https://www.yelp.com/biz/grand-buffet-star-chinese-restaurant-pittsfield?adjust_creative=h5HwbyQ0TYvQjBo6Ys5Bgw&utm_campaign=yelp_api_v3&utm_medium=api_v3_business_search&utm_source=h5HwbyQ0TYvQjBo6Ys5Bgw", "review_count": 11, "categories": [{"alias": "chinese", "title": "Chinese"}], "rating": 2.0, "coordinates": {"latitude": 42.470423, "longitude": -73.204747}, "transactions": [], "price": "$", "location": {"address1": "61 Cheshire Rd", "address2": "", "address3": "", "city": "Pittsfield", "zip_code": "01201", "country": "US", "state": "MA", "display_address": ["61 Cheshire Rd", "Pittsfield, MA 01201"]}, "phone": "+14134427000", "display_phone": "(413) 442-7000", "distance": 2852.4960693664243}, {"id": "hMY9WV4Z8BKgIWwHgnL01g", "alias": "applebees-grill-bar-pittsfield", "name": "Applebee's Grill + Bar", "image_url": "https://s3-media3.fl.yelpcdn.com/bphoto/lcgH8oFDmmaKXUDt_OBFfg/o.jpg", "is_closed": false, "url": "https://www.yelp.com/biz/applebees-grill-bar-pittsfield?adjust_creative=h5HwbyQ0TYvQjBo6Ys5Bgw&utm_campaign=yelp_api_v3&utm_medium=api_v3_business_search&utm_source=h5HwbyQ0TYvQjBo6Ys5Bgw", "review_count": 29, "categories": [{"alias": "tradamerican", "title": "American (Traditional)"}, {"alias": "sportsbars", "title": "Sports Bars"}, {"alias": "burgers", "title": "Burgers"}], "rating": 2.5, "coordinates": {"latitude": 42.468614, "longitude": -73.198755}, "transactions": [], "price": "$$", "location": {"address1": "555 Hubbard Ave", "address2": "Berkshire Crossing Shopping Center", "address3": "", "city": "Pittsfield", "zip_code": "01201", "country": "US", "state": "MA", "display_address": ["555 Hubbard Ave", "Berkshire Crossing Shopping Center", "Pittsfield, MA 01201"]}, "phone": "+14134995157", "display_phone": "(413) 499-5157", "distance": 2365.171392636341}, {"id": "b5dwwLNwKstRwY78mxS0nQ", "alias": "hinsdale-trading-company-hinsdale", "name": "Hinsdale Trading Company", "image_url": "https://s3-media1.fl.yelpcdn.com/bphoto/HpL6CkqF7IWTTOzbUp6WWA/o.jpg", "is_closed": false, "url": "https://www.yelp.com/biz/hinsdale-trading-company-hinsdale?adjust_creative=h5HwbyQ0TYvQjBo6Ys5Bgw&utm_campaign=yelp_api_v3&utm_medium=api_v3_business_search&utm_source=h5HwbyQ0TYvQjBo6Ys5Bgw", "review_count": 2, "categories": [{"alias": "pizza", "title": "Pizza"}, {"alias": "sandwiches", "title": "Sandwiches"}], "rating": 4.0, "coordinates": {"latitude": 42.4469440430403, "longitude": -73.1244655698538}, "transactions": [], "location": {"address1": "371 Old Dalton Rd", "address2": "", "address3": "", "city": "Hinsdale", "zip_code": "01235", "country": "US", "state": "MA", "display_address": ["371 Old Dalton Rd", "Hinsdale, MA 01235"]}, "phone": "+14136550161", "display_phone": "(413) 655-0161", "distance": 4151.3387124861365}, {"id": "BPyXFtPX_6PirL4p4HfIGA", "alias": "five-guys-pittsfield", "name": "Five Guys", "image_url": "https://s3-media1.fl.yelpcdn.com/bphoto/XerdEcgL30G8_SN5W5W1uA/o.jpg", "is_closed": false, "url": "https://www.yelp.com/biz/five-guys-pittsfield?adjust_creative=h5HwbyQ0TYvQjBo6Ys5Bgw&utm_campaign=yelp_api_v3&utm_medium=api_v3_business_search&utm_source=h5HwbyQ0TYvQjBo6Ys5Bgw", "review_count": 12, "categories": [{"alias": "burgers", "title": "Burgers"}, {"alias": "hotdogs", "title": "Fast Food"}], "rating": 4.0, "coordinates": {"latitude": 42.46647, "longitude": -73.2041799}, "transactions": [], "price": "$", "location": {"address1": "660 Merrill Rd", "address2": "", "address3": "", "city": "Pittsfield", "zip_code": "01201", "country": "US", "state": "MA", "display_address": ["660 Merrill Rd", "Pittsfield, MA 01201"]}, "phone": "+14134995900", "display_phone": "(413) 499-5900", "distance": 2788.3741203821323}, {"id": "j9UeZCXnFfeMlwqFnIXfCw", "alias": "wendys-pittsfield-2", "name": "Wendy's", "image_url": "https://s3-media1.fl.yelpcdn.com/bphoto/PXtaHMk789N-we_ZBFnlhQ/o.jpg", "is_closed": false, "url": "https://www.yelp.com/biz/wendys-pittsfield-2?adjust_creative=h5HwbyQ0TYvQjBo6Ys5Bgw&utm_campaign=yelp_api_v3&utm_medium=api_v3_business_search&utm_source=h5HwbyQ0TYvQjBo6Ys5Bgw", "review_count": 17, "categories": [{"alias": "hotdogs", "title": "Fast Food"}, {"alias": "burgers", "title": "Burgers"}], "rating": 2.5, "coordinates": {"latitude": 42.468646, "longitude": -73.195668}, "transactions": ["delivery"], "price": "$", "location": {"address1": "556 Hubbard Avenue", "address2": "", "address3": "", "city": "Pittsfield", "zip_code": "01201", "country": "US", "state": "MA", "display_address": ["556 Hubbard Avenue", "Pittsfield, MA 01201"]}, "phone": "+14134422053", "display_phone": "(413) 442-2053", "distance": 2112.0687199141203}, {"id": "sVoxGa8_98EdhBZObbZEBA", "alias": "zens-doghouse-lanesboro", "name": "Zen's Doghouse", "image_url": "", "is_closed": false, "url": "https://www.yelp.com/biz/zens-doghouse-lanesboro?adjust_creative=h5HwbyQ0TYvQjBo6Ys5Bgw&utm_campaign=yelp_api_v3&utm_medium=api_v3_business_search&utm_source=h5HwbyQ0TYvQjBo6Ys5Bgw", "review_count": 1, "categories": [{"alias": "newamerican", "title": "American (New)"}], "rating": 3.0, "coordinates": {"latitude": 42.492415, "longitude": -73.202326}, "transactions": [], "location": {"address1": "650 Cheshire Rd", "address2": null, "address3": null, "city": "Lanesboro", "zip_code": "01237", "country": "US", "state": "MA", "display_address": ["650 Cheshire Rd", "Lanesboro, MA 01237"]}, "phone": "+14134993331", "display_phone": "(413) 499-3331", "distance": 3644.56723031392}, {"id": "9KNacuxUSbU6_v10Jn8Npg", "alias": "friendlys-pittsfield", "name": "Friendly's", "image_url": "https://s3-media3.fl.yelpcdn.com/bphoto/DAdk5s3FnedyuVpFxs0jfw/o.jpg", "is_closed": false, "url": "https://www.yelp.com/biz/friendlys-pittsfield?adjust_creative=h5HwbyQ0TYvQjBo6Ys5Bgw&utm_campaign=yelp_api_v3&utm_medium=api_v3_business_search&utm_source=h5HwbyQ0TYvQjBo6Ys5Bgw", "review_count": 22, "categories": [{"alias": "icecream", "title": "Ice Cream & Frozen Yogurt"}, {"alias": "burgers", "title": "Burgers"}, {"alias": "tradamerican", "title": "American (Traditional)"}], "rating": 2.5, "coordinates": {"latitude": 42.4683225899935, "longitude": -73.2024212926626}, "transactions": ["delivery"], "price": "$$", "location": {"address1": "841 Dalton Ave", "address2": "", "address3": "", "city": "Pittsfield", "zip_code": "01201", "country": "US", "state": "MA", "display_address": ["841 Dalton Ave", "Pittsfield, MA 01201"]}, "phone": "+14134430282", "display_phone": "(413) 443-0282", "distance": 2790.99715818799}, {"id": "3TyINqqzEADspKjjStQOsQ", "alias": "mcdonalds-pittsfield", "name": "McDonald's", "image_url": "https://s3-media3.fl.yelpcdn.com/bphoto/JeCD1DpJ1rrasg9aYG7Eew/o.jpg", "is_closed": false, "url": "https://www.yelp.com/biz/mcdonalds-pittsfield?adjust_creative=h5HwbyQ0TYvQjBo6Ys5Bgw&utm_campaign=yelp_api_v3&utm_medium=api_v3_business_search&utm_source=h5HwbyQ0TYvQjBo6Ys5Bgw", "review_count": 5, "categories": [{"alias": "coffee", "title": "Coffee & Tea"}, {"alias": "burgers", "title": "Burgers"}, {"alias": "hotdogs", "title": "Fast Food"}], "rating": 3.0, "coordinates": {"latitude": 42.468519, "longitude": -73.2040031329598}, "transactions": [], "price": "$", "location": {"address1": "61 Cheshire Rd", "address2": "", "address3": "", "city": "Pittsfield", "zip_code": "01201", "country": "US", "state": "MA", "display_address": ["61 Cheshire Rd", "Pittsfield, MA 01201"]}, "phone": "+14134424602", "display_phone": "(413) 442-4602", "distance": 2795.5019573576747}, {"id": "PtjQ9BHdSh-InDjpYEoLAw", "alias": "pizza-hut-pittsfield-7", "name": "Pizza Hut", "image_url": "https://s3-media2.fl.yelpcdn.com/bphoto/0fWoaDnHsxJ4fqSSKwa4-w/o.jpg", "is_closed": false, "url": "https://www.yelp.com/biz/pizza-hut-pittsfield-7?adjust_creative=h5HwbyQ0TYvQjBo6Ys5Bgw&utm_campaign=yelp_api_v3&utm_medium=api_v3_business_search&utm_source=h5HwbyQ0TYvQjBo6Ys5Bgw", "review_count": 5, "categories": [{"alias": "italian", "title": "Italian"}, {"alias": "pizza", "title": "Pizza"}], "rating": 2.5, "coordinates": {"latitude": 42.465908213687, "longitude": -73.2030403283647}, "transactions": ["delivery", "pickup"], "price": "$", "location": {"address1": "660 Merrill Rd", "address2": null, "address3": null, "city": "Pittsfield", "zip_code": "01201", "country": "US", "state": "MA", "display_address": ["660 Merrill Rd", "Pittsfield, MA 01201"]}, "phone": "+14134999891", "display_phone": "(413) 499-9891", "distance": 2748.93961631246}, {"id": "xQ_jSCeekj2nmebWiUWVBQ", "alias": "subway-pittsfield-18", "name": "Subway", "image_url": "https://s3-media2.fl.yelpcdn.com/bphoto/Ns0oKq_wodrGXc3l_uQ-lQ/o.jpg", "is_closed": false, "url": "https://www.yelp.com/biz/subway-pittsfield-18?adjust_creative=h5HwbyQ0TYvQjBo6Ys5Bgw&utm_campaign=yelp_api_v3&utm_medium=api_v3_business_search&utm_source=h5HwbyQ0TYvQjBo6Ys5Bgw", "review_count": 1, "categories": [{"alias": "sandwiches", "title": "Sandwiches"}], "rating": 4.0, "coordinates": {"latitude": 42.464833, "longitude": -73.214439}, "transactions": [], "price": "$", "location": {"address1": "457 Dalton Ave", "address2": "", "address3": "", "city": "Pittsfield", "zip_code": "01201", "country": "US", "state": "MA", "display_address": ["457 Dalton Ave", "Pittsfield, MA 01201"]}, "phone": "+14134990067", "display_phone": "(413) 499-0067", "distance": 3691.0697003303067}, {"id": "KWeBXXzXh9OFbPqCm4_-nA", "alias": "panera-bread-pittsfield", "name": "Panera Bread", "image_url": "https://s3-media3.fl.yelpcdn.com/bphoto/uamCSTPMYSB1mNZV221n9g/o.jpg", "is_closed": false, "url": "https://www.yelp.com/biz/panera-bread-pittsfield?adjust_creative=h5HwbyQ0TYvQjBo6Ys5Bgw&utm_campaign=yelp_api_v3&utm_medium=api_v3_business_search&utm_source=h5HwbyQ0TYvQjBo6Ys5Bgw", "review_count": 18, "categories": [{"alias": "sandwiches", "title": "Sandwiches"}, {"alias": "salad", "title": "Salad"}, {"alias": "soup", "title": "Soup"}], "rating": 2.5, "coordinates": {"latitude": 42.465182, "longitude": -73.206932}, "transactions": [], "price": "$$", "location": {"address1": "635 Merrill Rd", "address2": null, "address3": null, "city": "Pittsfield", "zip_code": "01201", "country": "US", "state": "MA", "display_address": ["635 Merrill Rd", "Pittsfield, MA 01201"]}, "phone": "+14134433200", "display_phone": "(413) 443-3200", "distance": 3077.186422754644}, {"id": "dPrW7czCTb9yQkZsiyhKcg", "alias": "papa-ginos-pizzeria-pittsfield", "name": "Papa Gino's Pizzeria", "image_url": "https://s3-media1.fl.yelpcdn.com/bphoto/NKN58oe59RYs8nXmvCD_Qg/o.jpg", "is_closed": false, "url": "https://www.yelp.com/biz/papa-ginos-pizzeria-pittsfield?adjust_creative=h5HwbyQ0TYvQjBo6Ys5Bgw&utm_campaign=yelp_api_v3&utm_medium=api_v3_business_search&utm_source=h5HwbyQ0TYvQjBo6Ys5Bgw", "review_count": 21, "categories": [{"alias": "pizza", "title": "Pizza"}], "rating": 2.5, "coordinates": {"latitude": 42.4659526682081, "longitude": -73.2064502022769}, "transactions": ["delivery"], "price": "$$", "location": {"address1": "685 Merrill Rd", "address2": null, "address3": null, "city": "Pittsfield", "zip_code": "01201", "country": "US", "state": "MA", "display_address": ["685 Merrill Rd", "Pittsfield, MA 01201"]}, "phone": "+14134455307", "display_phone": "(413) 445-5307", "distance": 3024.4961940920048}, {"id": "JdgwEC4QOezifl1_1dtCXA", "alias": "taco-bell-pittsfield-2", "name": "Taco Bell", "image_url": "https://s3-media1.fl.yelpcdn.com/bphoto/SDdSHQO3GYmXloHlSlEiKQ/o.jpg", "is_closed": false, "url": "https://www.yelp.com/biz/taco-bell-pittsfield-2?adjust_creative=h5HwbyQ0TYvQjBo6Ys5Bgw&utm_campaign=yelp_api_v3&utm_medium=api_v3_business_search&utm_source=h5HwbyQ0TYvQjBo6Ys5Bgw", "review_count": 15, "categories": [{"alias": "hotdogs", "title": "Fast Food"}, {"alias": "tacos", "title": "Tacos"}], "rating": 2.5, "coordinates": {"latitude": 42.4690315746512, "longitude": -73.1969030708575}, "transactions": ["delivery"], "price": "$", "location": {"address1": "555 Hubbard Ave", "address2": "", "address3": "", "city": "Pittsfield", "zip_code": "01201", "country": "US", "state": "MA", "display_address": ["555 Hubbard Ave", "Pittsfield, MA 01201"]}, "phone": "+14134421007", "display_phone": "(413) 442-1007", "distance": 2210.9713163899996}, {"id": "W8wy2-f1tkjZQPFe_xT4vQ", "alias": "subway-pittsfield-13", "name": "Subway", "image_url": "https://s3-media3.fl.yelpcdn.com/bphoto/TKupqtDxQ-vh8HoIQgur5A/o.jpg", "is_closed": false, "url": "https://www.yelp.com/biz/subway-pittsfield-13?adjust_creative=h5HwbyQ0TYvQjBo6Ys5Bgw&utm_campaign=yelp_api_v3&utm_medium=api_v3_business_search&utm_source=h5HwbyQ0TYvQjBo6Ys5Bgw", "review_count": 1, "categories": [{"alias": "sandwiches", "title": "Sandwiches"}], "rating": 4.0, "coordinates": {"latitude": 42.4649194, "longitude": -73.1985031}, "transactions": [], "price": "$", "location": {"address1": "555 Hubbard Ave", "address2": "Ste 12", "address3": null, "city": "Pittsfield", "zip_code": "01201", "country": "US", "state": "MA", "display_address": ["555 Hubbard Ave", "Ste 12", "Pittsfield, MA 01201"]}, "phone": "+14134422539", "display_phone": "(413) 442-2539", "distance": 2405.679912903217}, {"id": "j3iGXa2h_E9-JDTYhcBMEg", "alias": "hold-the-anchovies-pittsfield", "name": "Hold the Anchovies", "image_url": "", "is_closed": false, "url": "https://www.yelp.com/biz/hold-the-anchovies-pittsfield?adjust_creative=h5HwbyQ0TYvQjBo6Ys5Bgw&utm_campaign=yelp_api_v3&utm_medium=api_v3_business_search&utm_source=h5HwbyQ0TYvQjBo6Ys5Bgw", "review_count": 1, "categories": [{"alias": "pizza", "title": "Pizza"}], "rating": 1.0, "coordinates": {"latitude": 42.46429, "longitude": -73.21442}, "transactions": [], "price": "$$", "location": {"address1": "455 Dalton Ave", "address2": "", "address3": "", "city": "Pittsfield", "zip_code": "01201", "country": "US", "state": "MA", "display_address": ["455 Dalton Ave", "Pittsfield, MA 01201"]}, "phone": "+14134432400", "display_phone": "(413) 443-2400", "distance": 3699.788419509248}, {"id": "qqA8YX58xnmEXLyanHfdUg", "alias": "stufd-food-truck-brooklyn", "name": "Stuf'd Food Truck", "image_url": "https://s3-media2.fl.yelpcdn.com/bphoto/_Wn0i-tLIOFinw8BPAqxPA/o.jpg", "is_closed": false, "url": "https://www.yelp.com/biz/stufd-food-truck-brooklyn?adjust_creative=h5HwbyQ0TYvQjBo6Ys5Bgw&utm_campaign=yelp_api_v3&utm_medium=api_v3_business_search&utm_source=h5HwbyQ0TYvQjBo6Ys5Bgw", "review_count": 4, "categories": [{"alias": "sandwiches", "title": "Sandwiches"}, {"alias": "foodtrucks", "title": "Food Trucks"}], "rating": 4.0, "coordinates": {"latitude": 40.7124539, "longitude": -73.9287374}, "transactions": [], "location": {"address1": "178 Varick Ave", "address2": "", "address3": null, "city": "Brooklyn", "zip_code": "11237", "country": "US", "state": "NY", "display_address": ["178 Varick Ave", "Brooklyn, NY 11237"]}, "phone": "+18457091808", "display_phone": "(845) 709-1808", "distance": 205355.67367352502}]