[{"id": "gLsN78yTskhjpdHMa6HA3A", "alias": "ice-house-pub-barre", "name": "Ice House Pub", "image_url": "https://s3-media1.fl.yelpcdn.com/bphoto/lnDcvFdVS6GZoOB7_uRaqg/o.jpg", "is_closed": false, "url": "https://www.yelp.com/biz/ice-house-pub-barre?adjust_creative=HdhkN5EEH6lAqE3kwhsHEQ&utm_campaign=yelp_api_v3&utm_medium=api_v3_business_search&utm_source=HdhkN5EEH6lAqE3kwhsHEQ", "review_count": 40, "categories": [{"alias": "gastropubs", "title": "Gastropubs"}, {"alias": "newamerican", "title": "American (New)"}], "rating": 4.0, "coordinates": {"latitude": 42.4090505140105, "longitude": -72.0973576462425}, "transactions": [], "location": {"address1": "7 Worcester Rd", "address2": "", "address3": null, "city": "Barre", "zip_code": "01005", "country": "US", "state": "MA", "display_address": ["7 Worcester Rd", "Barre, MA 01005"]}, "phone": "+19783553000", "display_phone": "(978) 355-3000", "distance": 1445.4999139928711}, {"id": "mrnvGU8_BnE6uHKHEG5XYg", "alias": "picasso-restaurant-and-bar-barre", "name": "Picasso Restaurant & Bar", "image_url": "https://s3-media1.fl.yelpcdn.com/bphoto/osSGSQKk7zlNJaKO6gbqtg/o.jpg", "is_closed": false, "url": "https://www.yelp.com/biz/picasso-restaurant-and-bar-barre?adjust_creative=HdhkN5EEH6lAqE3kwhsHEQ&utm_campaign=yelp_api_v3&utm_medium=api_v3_business_search&utm_source=HdhkN5EEH6lAqE3kwhsHEQ", "review_count": 47, "categories": [{"alias": "newamerican", "title": "American (New)"}, {"alias": "seafood", "title": "Seafood"}], "rating": 4.5, "coordinates": {"latitude": 42.42277, "longitude": -72.1061299}, "transactions": [], "price": "$$", "location": {"address1": "2 Common St", "address2": null, "address3": "", "city": "Barre", "zip_code": "01005", "country": "US", "state": "MA", "display_address": ["2 Common St", "Barre, MA 01005"]}, "phone": "+19783553099", "display_phone": "(978) 355-3099", "distance": 267.519362565238}, {"id": "bSTIM0u6sZuMmS6GX0mTqA", "alias": "stone-cow-brewery-barre", "name": "Stone Cow Brewery", "image_url": "https://s3-media2.fl.yelpcdn.com/bphoto/jMxZg8Vqw33_6aBMFZElCQ/o.jpg", "is_closed": false, "url": "https://www.yelp.com/biz/stone-cow-brewery-barre?adjust_creative=HdhkN5EEH6lAqE3kwhsHEQ&utm_campaign=yelp_api_v3&utm_medium=api_v3_business_search&utm_source=HdhkN5EEH6lAqE3kwhsHEQ", "review_count": 67, "categories": [{"alias": "breweries", "title": "Breweries"}, {"alias": "tradamerican", "title": "American (Traditional)"}], "rating": 4.5, "coordinates": {"latitude": 42.4247357, "longitude": -72.1242577}, "transactions": [], "price": "$", "location": {"address1": "500 West St", "address2": "Ste B", "address3": null, "city": "Barre", "zip_code": "01005", "country": "US", "state": "MA", "display_address": ["500 West St", "Ste B", "Barre, MA 01005"]}, "phone": "+19782578600", "display_phone": "(978) 257-8600", "distance": 1573.9252943434042}, {"id": "75a3UzxS-M6tL8W5Berg9g", "alias": "beckis-bistro-barre-2", "name": "Becki's Bistro", "image_url": "https://s3-media4.fl.yelpcdn.com/bphoto/8Ed8-teABQ7se6rO_cad3w/o.jpg", "is_closed": false, "url": "https://www.yelp.com/biz/beckis-bistro-barre-2?adjust_creative=HdhkN5EEH6lAqE3kwhsHEQ&utm_campaign=yelp_api_v3&utm_medium=api_v3_business_search&utm_source=HdhkN5EEH6lAqE3kwhsHEQ", "review_count": 27, "categories": [{"alias": "cafes", "title": "Cafes"}, {"alias": "breakfast_brunch", "title": "Breakfast & Brunch"}, {"alias": "burgers", "title": "Burgers"}], "rating": 4.5, "coordinates": {"latitude": 42.4224345, "longitude": -72.1044324}, "transactions": [], "price": "$$", "location": {"address1": "25 Exchange St", "address2": "", "address3": "", "city": "Barre", "zip_code": "01005", "country": "US", "state": "MA", "display_address": ["25 Exchange St", "Barre, MA 01005"]}, "phone": "+19783550012", "display_phone": "(978) 355-0012", "distance": 263.976755852799}, {"id": "ykJGWukwghYMNPwamxCj2A", "alias": "jenkins-inn-and-restaurant-barre", "name": "Jenkins Inn & Restaurant", "image_url": "https://s3-media2.fl.yelpcdn.com/bphoto/wkYdN4OoO_OY3LBUeV6v2Q/o.jpg", "is_closed": false, "url": "https://www.yelp.com/biz/jenkins-inn-and-restaurant-barre?adjust_creative=HdhkN5EEH6lAqE3kwhsHEQ&utm_campaign=yelp_api_v3&utm_medium=api_v3_business_search&utm_source=HdhkN5EEH6lAqE3kwhsHEQ", "review_count": 6, "categories": [{"alias": "newamerican", "title": "American (New)"}, {"alias": "bedbreakfast", "title": "Bed & Breakfast"}], "rating": 4.5, "coordinates": {"latitude": 42.423309, "longitude": -72.107398}, "transactions": [], "price": "$$", "location": {"address1": "7 West St", "address2": "", "address3": "", "city": "Barre", "zip_code": "01005", "country": "US", "state": "MA", "display_address": ["7 West St", "Barre, MA 01005"]}, "phone": "+19783556444", "display_phone": "(978) 355-6444", "distance": 355.4795226533676}, {"id": "K0o9LxfijA6wNfKOBUdgVg", "alias": "j-and-j-family-restaurant-barre", "name": "J & J Family Restaurant", "image_url": "https://s3-media3.fl.yelpcdn.com/bphoto/hP0oshzQyKCXLeWljCmuMg/o.jpg", "is_closed": false, "url": "https://www.yelp.com/biz/j-and-j-family-restaurant-barre?adjust_creative=HdhkN5EEH6lAqE3kwhsHEQ&utm_campaign=yelp_api_v3&utm_medium=api_v3_business_search&utm_source=HdhkN5EEH6lAqE3kwhsHEQ", "review_count": 10, "categories": [{"alias": "tradamerican", "title": "American (Traditional)"}], "rating": 4.0, "coordinates": {"latitude": 42.391973, "longitude": -72.0819719}, "transactions": [], "price": "$$", "location": {"address1": "815 Worcester Rd", "address2": "", "address3": "", "city": "Barre", "zip_code": "01005", "country": "US", "state": "MA", "display_address": ["815 Worcester Rd", "Barre, MA 01005"]}, "phone": "+19783552122", "display_phone": "(978) 355-2122", "distance": 3723.9311386074583}, {"id": "4Jt27guQdNKXH3pJ9u1m5A", "alias": "barre-mill-restaurant-south-barre-3", "name": "Barre Mill Restaurant", "image_url": "https://s3-media4.fl.yelpcdn.com/bphoto/VIfSRtantMJBsa2O3hE2IQ/o.jpg", "is_closed": false, "url": "https://www.yelp.com/biz/barre-mill-restaurant-south-barre-3?adjust_creative=HdhkN5EEH6lAqE3kwhsHEQ&utm_campaign=yelp_api_v3&utm_medium=api_v3_business_search&utm_source=HdhkN5EEH6lAqE3kwhsHEQ", "review_count": 12, "categories": [{"alias": "italian", "title": "Italian"}, {"alias": "pizza", "title": "Pizza"}, {"alias": "tradamerican", "title": "American (Traditional)"}], "rating": 2.5, "coordinates": {"latitude": 42.3840348, "longitude": -72.1004294}, "transactions": [], "price": "$$", "location": {"address1": "90 Main St", "address2": null, "address3": null, "city": "South Barre", "zip_code": "01074", "country": "US", "state": "MA", "display_address": ["90 Main St", "South Barre, MA 01074"]}, "phone": "+19783552987", "display_phone": "(978) 355-2987", "distance": 4066.16604368945}, {"id": "2LDyfeKYEV033znbbUjJTg", "alias": "harding-allen-estate-barre", "name": "Harding Allen Estate", "image_url": "https://s3-media3.fl.yelpcdn.com/bphoto/HOird8RBddI8wTn-8SFy2Q/o.jpg", "is_closed": false, "url": "https://www.yelp.com/biz/harding-allen-estate-barre?adjust_creative=HdhkN5EEH6lAqE3kwhsHEQ&utm_campaign=yelp_api_v3&utm_medium=api_v3_business_search&utm_source=HdhkN5EEH6lAqE3kwhsHEQ", "review_count": 14, "categories": [{"alias": "restaurants", "title": "Restaurants"}, {"alias": "venues", "title": "Venues & Event Spaces"}], "rating": 3.0, "coordinates": {"latitude": 42.42226, "longitude": -72.10778}, "transactions": [], "price": "$$", "location": {"address1": "59 Allen Dr", "address2": "", "address3": "", "city": "Barre", "zip_code": "01005", "country": "US", "state": "MA", "display_address": ["59 Allen Dr", "Barre, MA 01005"]}, "phone": "+19783554920", "display_phone": "(978) 355-4920", "distance": 210.4169729413943}, {"id": "3Y9OnIQ55G13AcdxFZkHjw", "alias": "high-tides-seafood-barre", "name": "High Tides Seafood", "image_url": "", "is_closed": false, "url": "https://www.yelp.com/biz/high-tides-seafood-barre?adjust_creative=HdhkN5EEH6lAqE3kwhsHEQ&utm_campaign=yelp_api_v3&utm_medium=api_v3_business_search&utm_source=HdhkN5EEH6lAqE3kwhsHEQ", "review_count": 7, "categories": [{"alias": "seafood", "title": "Seafood"}, {"alias": "beer_and_wine", "title": "Beer, Wine & Spirits"}, {"alias": "icecream", "title": "Ice Cream & Frozen Yogurt"}], "rating": 4.5, "coordinates": {"latitude": 42.442644144625, "longitude": -72.165020017677}, "transactions": [], "location": {"address1": "2291 West St", "address2": "", "address3": null, "city": "Barre", "zip_code": "01005", "country": "US", "state": "MA", "display_address": ["2291 West St", "Barre, MA 01005"]}, "phone": "+19783556715", "display_phone": "(978) 355-6715", "distance": 5439.052332978361}, {"id": "i8CP0pPlUwa4C_e0Zt3jSw", "alias": "center-tree-bar-and-grill-rutland", "name": "Center Tree Bar & Grill", "image_url": "https://s3-media2.fl.yelpcdn.com/bphoto/hLWERM_f_iYmU1Yv_npqYw/o.jpg", "is_closed": false, "url": "https://www.yelp.com/biz/center-tree-bar-and-grill-rutland?adjust_creative=HdhkN5EEH6lAqE3kwhsHEQ&utm_campaign=yelp_api_v3&utm_medium=api_v3_business_search&utm_source=HdhkN5EEH6lAqE3kwhsHEQ", "review_count": 14, "categories": [{"alias": "bars", "title": "Bars"}, {"alias": "tradamerican", "title": "American (Traditional)"}, {"alias": "pizza", "title": "Pizza"}], "rating": 4.0, "coordinates": {"latitude": 42.3759484186041, "longitude": -71.9545865803957}, "transactions": [], "location": {"address1": "249 Main St", "address2": "", "address3": null, "city": "Rutland", "zip_code": "01543", "country": "US", "state": "MA", "display_address": ["249 Main St", "Rutland, MA 01543"]}, "phone": "+17742340234", "display_phone": "(774) 234-0234", "distance": 13379.857064154685}, {"id": "G_PPROO9ccur-m-GWzbZmA", "alias": "quabbin-woods-restaurant-petersham", "name": "Quabbin Woods Restaurant", "image_url": "https://s3-media3.fl.yelpcdn.com/bphoto/w6hsjy3EUcuAd17n0h42Eg/o.jpg", "is_closed": false, "url": "https://www.yelp.com/biz/quabbin-woods-restaurant-petersham?adjust_creative=HdhkN5EEH6lAqE3kwhsHEQ&utm_campaign=yelp_api_v3&utm_medium=api_v3_business_search&utm_source=HdhkN5EEH6lAqE3kwhsHEQ", "review_count": 15, "categories": [{"alias": "newamerican", "title": "American (New)"}, {"alias": "comfortfood", "title": "Comfort Food"}, {"alias": "burgers", "title": "Burgers"}], "rating": 4.0, "coordinates": {"latitude": 42.481931, "longitude": -72.183534}, "transactions": [], "price": "$", "location": {"address1": "8 Barre Rd", "address2": "Ste RT", "address3": "", "city": "Petersham", "zip_code": "01366", "country": "US", "state": "MA", "display_address": ["8 Barre Rd", "Ste RT", "Petersham, MA 01366"]}, "phone": "+19787243288", "display_phone": "(978) 724-3288", "distance": 9343.785840928727}, {"id": "J5BRVzL0o2u4tCkUZUUM2Q", "alias": "kozy-kabin-restaurant-barre", "name": "Kozy Kabin Restaurant", "image_url": "https://s3-media2.fl.yelpcdn.com/bphoto/MCNZ8x6RognRL9SP6zIbPQ/o.jpg", "is_closed": false, "url": "https://www.yelp.com/biz/kozy-kabin-restaurant-barre?adjust_creative=HdhkN5EEH6lAqE3kwhsHEQ&utm_campaign=yelp_api_v3&utm_medium=api_v3_business_search&utm_source=HdhkN5EEH6lAqE3kwhsHEQ", "review_count": 3, "categories": [{"alias": "restaurants", "title": "Restaurants"}], "rating": 3.5, "coordinates": {"latitude": 42.3913459777832, "longitude": -72.0739517211914}, "transactions": [], "price": "$", "location": {"address1": "1067 Worcester Rd", "address2": "", "address3": "", "city": "Barre", "zip_code": "01005", "country": "US", "state": "MA", "display_address": ["1067 Worcester Rd", "Barre, MA 01005"]}, "phone": "+19783556264", "display_phone": "(978) 355-6264", "distance": 4165.030942011937}, {"id": "z5SDOfUA5zNhGmyXIAXe8A", "alias": "northeast-pizza-barre", "name": "Northeast Pizza", "image_url": "https://s3-media1.fl.yelpcdn.com/bphoto/tNBoaH8M7BxY1upCowwS4A/o.jpg", "is_closed": false, "url": "https://www.yelp.com/biz/northeast-pizza-barre?adjust_creative=HdhkN5EEH6lAqE3kwhsHEQ&utm_campaign=yelp_api_v3&utm_medium=api_v3_business_search&utm_source=HdhkN5EEH6lAqE3kwhsHEQ", "review_count": 11, "categories": [{"alias": "pizza", "title": "Pizza"}], "rating": 2.5, "coordinates": {"latitude": 42.4102211, "longitude": -72.0980759}, "transactions": [], "price": "$", "location": {"address1": "570 Summer St", "address2": null, "address3": null, "city": "Barre", "zip_code": "01005", "country": "US", "state": "MA", "display_address": ["570 Summer St", "Barre, MA 01005"]}, "phone": "+19783554333", "display_phone": "(978) 355-4333", "distance": 1330.9400544514388}, {"id": "NPQI9o4Gru4P1FYqfJ_NcA", "alias": "yummy-garden-barre", "name": "Yummy Garden", "image_url": "https://s3-media4.fl.yelpcdn.com/bphoto/uGJpVlkiNkjd5rYt23MpRA/o.jpg", "is_closed": false, "url": "https://www.yelp.com/biz/yummy-garden-barre?adjust_creative=HdhkN5EEH6lAqE3kwhsHEQ&utm_campaign=yelp_api_v3&utm_medium=api_v3_business_search&utm_source=HdhkN5EEH6lAqE3kwhsHEQ", "review_count": 17, "categories": [{"alias": "chinese", "title": "Chinese"}], "rating": 4.0, "coordinates": {"latitude": 42.3842252790928, "longitude": -72.098863273859}, "transactions": [], "price": "$", "location": {"address1": "57 Main St", "address2": "", "address3": "", "city": "Barre", "zip_code": "01005", "country": "US", "state": "MA", "display_address": ["57 Main St", "Barre, MA 01005"]}, "phone": "+19783552022", "display_phone": "(978) 355-2022", "distance": 4095.6260229037925}, {"id": "5ld1TVlEcddnCbeq0ulxkQ", "alias": "barre-pizza-barre", "name": "Barre Pizza", "image_url": "https://s3-media1.fl.yelpcdn.com/bphoto/Lk1bGeWFqv1WyoReOh9jyA/o.jpg", "is_closed": false, "url": "https://www.yelp.com/biz/barre-pizza-barre?adjust_creative=HdhkN5EEH6lAqE3kwhsHEQ&utm_campaign=yelp_api_v3&utm_medium=api_v3_business_search&utm_source=HdhkN5EEH6lAqE3kwhsHEQ", "review_count": 12, "categories": [{"alias": "pizza", "title": "Pizza"}, {"alias": "salad", "title": "Salad"}, {"alias": "sandwiches", "title": "Sandwiches"}], "rating": 3.0, "coordinates": {"latitude": 42.42168, "longitude": -72.10447}, "transactions": [], "price": "$$", "location": {"address1": "10 Moulton St", "address2": "", "address3": "", "city": "Barre", "zip_code": "01005", "country": "US", "state": "MA", "display_address": ["10 Moulton St", "Barre, MA 01005"]}, "phone": "+19783554595", "display_phone": "(978) 355-4595", "distance": 193.8302608388689}, {"id": "t7FbgEITiEReUrTte9mJiw", "alias": "clamber-hill-inn-and-restaurant-petersham-2", "name": "Clamber Hill Inn & Restaurant", "image_url": "https://s3-media1.fl.yelpcdn.com/bphoto/7rAzCt1SCY2BB_WPoLwT_g/o.jpg", "is_closed": false, "url": "https://www.yelp.com/biz/clamber-hill-inn-and-restaurant-petersham-2?adjust_creative=HdhkN5EEH6lAqE3kwhsHEQ&utm_campaign=yelp_api_v3&utm_medium=api_v3_business_search&utm_source=HdhkN5EEH6lAqE3kwhsHEQ", "review_count": 11, "categories": [{"alias": "tradamerican", "title": "American (Traditional)"}, {"alias": "whiskeybars", "title": "Whiskey Bars"}, {"alias": "winetasteclasses", "title": "Wine Tasting Classes"}], "rating": 4.0, "coordinates": {"latitude": 42.5031579313361, "longitude": -72.1865090608826}, "transactions": [], "price": "$$$", "location": {"address1": "111 N Main St", "address2": "", "address3": "", "city": "Petersham", "zip_code": "01366", "country": "US", "state": "MA", "display_address": ["111 N Main St", "Petersham, MA 01366"]}, "phone": "+19787248800", "display_phone": "(978) 724-8800", "distance": 11328.792106231424}, {"id": "KI0RQ0NbbiO7AM4I8fODxw", "alias": "still-four-corners-rutland", "name": "Still Four Corners", "image_url": "https://s3-media2.fl.yelpcdn.com/bphoto/sWMoxe_phH0KSQ0dBAewVg/o.jpg", "is_closed": false, "url": "https://www.yelp.com/biz/still-four-corners-rutland?adjust_creative=HdhkN5EEH6lAqE3kwhsHEQ&utm_campaign=yelp_api_v3&utm_medium=api_v3_business_search&utm_source=HdhkN5EEH6lAqE3kwhsHEQ", "review_count": 16, "categories": [{"alias": "seafood", "title": "Seafood"}, {"alias": "tradamerican", "title": "American (Traditional)"}], "rating": 4.0, "coordinates": {"latitude": 42.3497930914164, "longitude": -71.9850182533264}, "transactions": [], "price": "$", "location": {"address1": "224 Barre Paxton Rd", "address2": "", "address3": "", "city": "Rutland", "zip_code": "01543", "country": "US", "state": "MA", "display_address": ["224 Barre Paxton Rd", "Rutland, MA 01543"]}, "phone": "+15088866666", "display_phone": "(508) 886-6666", "distance": 12755.255445877256}, {"id": "xd-G4ijhAy3m3UUwecSF8w", "alias": "albatross-westminster", "name": "Albatross", "image_url": "https://s3-media2.fl.yelpcdn.com/bphoto/zOECZh7kMbmGuuFDpk4NEg/o.jpg", "is_closed": false, "url": "https://www.yelp.com/biz/albatross-westminster?adjust_creative=HdhkN5EEH6lAqE3kwhsHEQ&utm_campaign=yelp_api_v3&utm_medium=api_v3_business_search&utm_source=HdhkN5EEH6lAqE3kwhsHEQ", "review_count": 5, "categories": [{"alias": "newamerican", "title": "American (New)"}, {"alias": "breakfast_brunch", "title": "Breakfast & Brunch"}, {"alias": "bars", "title": "Bars"}], "rating": 5.0, "coordinates": {"latitude": 42.54569, "longitude": -71.93143}, "transactions": [], "location": {"address1": "51 Ellis Rd", "address2": null, "address3": "", "city": "Westminster", "zip_code": "01473", "country": "US", "state": "MA", "display_address": ["51 Ellis Rd", "Westminster, MA 01473"]}, "phone": "+19788745900", "display_phone": "(978) 874-5900", "distance": 19812.160297766713}, {"id": "Sp04BT3fIADzvBUnSHpMHg", "alias": "ladds-restaurant-rutland", "name": "Ladd's Restaurant", "image_url": "https://s3-media1.fl.yelpcdn.com/bphoto/NBRUhI-Xbl2Up5jzO5Gj1g/o.jpg", "is_closed": false, "url": "https://www.yelp.com/biz/ladds-restaurant-rutland?adjust_creative=HdhkN5EEH6lAqE3kwhsHEQ&utm_campaign=yelp_api_v3&utm_medium=api_v3_business_search&utm_source=HdhkN5EEH6lAqE3kwhsHEQ", "review_count": 42, "categories": [{"alias": "seafood", "title": "Seafood"}], "rating": 3.5, "coordinates": {"latitude": 42.33576, "longitude": -71.96584}, "transactions": [], "price": "$$", "location": {"address1": "64 Barre Paxton Rd", "address2": "", "address3": "", "city": "Rutland", "zip_code": "01543", "country": "US", "state": "MA", "display_address": ["64 Barre Paxton Rd", "Rutland, MA 01543"]}, "phone": "+15088864771", "display_phone": "(508) 886-4771", "distance": 14950.917987913526}, {"id": "lUxVsuNo5syFd_cxEplvaA", "alias": "herricks-tavern-orange", "name": "Herrick's Tavern", "image_url": "https://s3-media1.fl.yelpcdn.com/bphoto/mAHqpOXGI32xph2DHpHtHg/o.jpg", "is_closed": false, "url": "https://www.yelp.com/biz/herricks-tavern-orange?adjust_creative=HdhkN5EEH6lAqE3kwhsHEQ&utm_campaign=yelp_api_v3&utm_medium=api_v3_business_search&utm_source=HdhkN5EEH6lAqE3kwhsHEQ", "review_count": 49, "categories": [{"alias": "tradamerican", "title": "American (Traditional)"}, {"alias": "sportsbars", "title": "Sports Bars"}], "rating": 4.0, "coordinates": {"latitude": 42.5542299, "longitude": -72.28915}, "transactions": [], "price": "$$", "location": {"address1": "207 Daniel Shays Hwy", "address2": null, "address3": null, "city": "Orange", "zip_code": "01364", "country": "US", "state": "MA", "display_address": ["207 Daniel Shays Hwy", "Orange, MA 01364"]}, "phone": "+19785443902", "display_phone": "(978) 544-3902", "distance": 21156.41103495668}, {"id": "W-if4K_9EljWBdVzXlb4SA", "alias": "black-and-white-grille-spencer", "name": "Black & White Grille", "image_url": "https://s3-media2.fl.yelpcdn.com/bphoto/UWWwnpVVKt-ypz8S9tD79A/o.jpg", "is_closed": false, "url": "https://www.yelp.com/biz/black-and-white-grille-spencer?adjust_creative=HdhkN5EEH6lAqE3kwhsHEQ&utm_campaign=yelp_api_v3&utm_medium=api_v3_business_search&utm_source=HdhkN5EEH6lAqE3kwhsHEQ", "review_count": 78, "categories": [{"alias": "tradamerican", "title": "American (Traditional)"}, {"alias": "italian", "title": "Italian"}, {"alias": "seafood", "title": "Seafood"}], "rating": 3.5, "coordinates": {"latitude": 42.302455, "longitude": -71.989682}, "transactions": [], "price": "$$", "location": {"address1": "206 N Spencer Rd", "address2": "", "address3": "", "city": "Spencer", "zip_code": "01562", "country": "US", "state": "MA", "display_address": ["206 N Spencer Rd", "Spencer, MA 01562"]}, "phone": "+15088855018", "display_phone": "(508) 885-5018", "distance": 16214.873316489273}, {"id": "ldY_Cv8HJO2JO0XilE6SEQ", "alias": "schultz-country-store-and-barnside-cafe-rutland", "name": "Schultz Country Store and Barnside Cafe", "image_url": "https://s3-media2.fl.yelpcdn.com/bphoto/IuoYCq8rvfj4em-YsDN3AA/o.jpg", "is_closed": false, "url": "https://www.yelp.com/biz/schultz-country-store-and-barnside-cafe-rutland?adjust_creative=HdhkN5EEH6lAqE3kwhsHEQ&utm_campaign=yelp_api_v3&utm_medium=api_v3_business_search&utm_source=HdhkN5EEH6lAqE3kwhsHEQ", "review_count": 28, "categories": [{"alias": "attractionfarms", "title": "Attraction Farms"}, {"alias": "newamerican", "title": "American (New)"}], "rating": 4.5, "coordinates": {"latitude": 42.36017, "longitude": -71.9415}, "transactions": [], "price": "$", "location": {"address1": "163 Maple Ave", "address2": "", "address3": "", "city": "Rutland", "zip_code": "01543", "country": "US", "state": "MA", "display_address": ["163 Maple Ave", "Rutland, MA 01543"]}, "phone": "+17742340405", "display_phone": "(774) 234-0405", "distance": 15256.903289755795}, {"id": "wzs8aDcYZyAWOWghMoaGzw", "alias": "angler-fish-market-and-chowder-westminster-2", "name": "Angler Fish Market & Chowder", "image_url": "https://s3-media1.fl.yelpcdn.com/bphoto/rhCv_g0tD3O4VI19oGcsKA/o.jpg", "is_closed": false, "url": "https://www.yelp.com/biz/angler-fish-market-and-chowder-westminster-2?adjust_creative=HdhkN5EEH6lAqE3kwhsHEQ&utm_campaign=yelp_api_v3&utm_medium=api_v3_business_search&utm_source=HdhkN5EEH6lAqE3kwhsHEQ", "review_count": 105, "categories": [{"alias": "seafoodmarkets", "title": "Seafood Markets"}, {"alias": "seafood", "title": "Seafood"}], "rating": 4.0, "coordinates": {"latitude": 42.545545, "longitude": -71.914566}, "transactions": ["pickup", "delivery"], "price": "$$", "location": {"address1": "1 Village Sq", "address2": null, "address3": null, "city": "Westminster", "zip_code": "01473", "country": "US", "state": "MA", "display_address": ["1 Village Sq", "Westminster, MA 01473"]}, "phone": "+19788742202", "display_phone": "(978) 874-2202", "distance": 20981.391721033484}, {"id": "1rd3Z8l2Ldh5GS2nhNintA", "alias": "rose32-bread-gilbertville", "name": "Rose32 Bread", "image_url": "https://s3-media1.fl.yelpcdn.com/bphoto/CYAKfGeh5XCrTses4exOhw/o.jpg", "is_closed": false, "url": "https://www.yelp.com/biz/rose32-bread-gilbertville?adjust_creative=HdhkN5EEH6lAqE3kwhsHEQ&utm_campaign=yelp_api_v3&utm_medium=api_v3_business_search&utm_source=HdhkN5EEH6lAqE3kwhsHEQ", "review_count": 85, "categories": [{"alias": "bakeries", "title": "Bakeries"}, {"alias": "breakfast_brunch", "title": "Breakfast & Brunch"}, {"alias": "tradamerican", "title": "American (Traditional)"}], "rating": 4.5, "coordinates": {"latitude": 42.304067, "longitude": -72.211452}, "transactions": [], "price": "$$", "location": {"address1": "412 Main St", "address2": "", "address3": "", "city": "Gilbertville", "zip_code": "01031", "country": "US", "state": "MA", "display_address": ["412 Main St", "Gilbertville, MA 01031"]}, "phone": "+14134779930", "display_phone": "(413) 477-9930", "distance": 15565.440252367804}, {"id": "NSR3gnnaeCJfL99xif_PNQ", "alias": "petersham-country-store-petersham", "name": "Petersham Country Store", "image_url": "https://s3-media2.fl.yelpcdn.com/bphoto/MGNdpq_qs24ltsY9fBcmWQ/o.jpg", "is_closed": false, "url": "https://www.yelp.com/biz/petersham-country-store-petersham?adjust_creative=HdhkN5EEH6lAqE3kwhsHEQ&utm_campaign=yelp_api_v3&utm_medium=api_v3_business_search&utm_source=HdhkN5EEH6lAqE3kwhsHEQ", "review_count": 29, "categories": [{"alias": "grocery", "title": "Grocery"}, {"alias": "cafes", "title": "Cafes"}, {"alias": "artsandcrafts", "title": "Arts & Crafts"}], "rating": 4.5, "coordinates": {"latitude": 42.48871, "longitude": -72.18573}, "transactions": [], "price": "$$", "location": {"address1": "2 N Main St", "address2": "", "address3": "", "city": "Petersham", "zip_code": "01366", "country": "US", "state": "MA", "display_address": ["2 N Main St", "Petersham, MA 01366"]}, "phone": "+19787240000", "display_phone": "(978) 724-0000", "distance": 10041.611001205307}, {"id": "yXkjcWlkcOCYP3CsfT-mEA", "alias": "red-tomato-barre", "name": "Red Tomato", "image_url": "", "is_closed": false, "url": "https://www.yelp.com/biz/red-tomato-barre?adjust_creative=HdhkN5EEH6lAqE3kwhsHEQ&utm_campaign=yelp_api_v3&utm_medium=api_v3_business_search&utm_source=HdhkN5EEH6lAqE3kwhsHEQ", "review_count": 1, "categories": [{"alias": "pizza", "title": "Pizza"}], "rating": 5.0, "coordinates": {"latitude": 42.42252, "longitude": -72.10426}, "transactions": [], "location": {"address1": "11 Exchange St", "address2": "", "address3": null, "city": "Barre", "zip_code": "01005", "country": "US", "state": "MA", "display_address": ["11 Exchange St", "Barre, MA 01005"]}, "phone": "+19783553536", "display_phone": "(978) 355-3536", "distance": 268.26643800386097}, {"id": "Oa9YXvAs50RB-Xhc2BwXlg", "alias": "mimis-coffeehouse-of-hardwick-hardwick", "name": "Mimi's CoffeeHouse Of Hardwick", "image_url": "https://s3-media4.fl.yelpcdn.com/bphoto/NMlDkOX7whn4nYEiejmeSg/o.jpg", "is_closed": false, "url": "https://www.yelp.com/biz/mimis-coffeehouse-of-hardwick-hardwick?adjust_creative=HdhkN5EEH6lAqE3kwhsHEQ&utm_campaign=yelp_api_v3&utm_medium=api_v3_business_search&utm_source=HdhkN5EEH6lAqE3kwhsHEQ", "review_count": 3, "categories": [{"alias": "coffee", "title": "Coffee & Tea"}, {"alias": "breakfast_brunch", "title": "Breakfast & Brunch"}, {"alias": "sandwiches", "title": "Sandwiches"}], "rating": 4.5, "coordinates": {"latitude": 42.3486171468542, "longitude": -72.1993167786787}, "transactions": [], "price": "$$", "location": {"address1": "14 Barre Rd", "address2": "", "address3": null, "city": "Hardwick", "zip_code": "01037", "country": "US", "state": "MA", "display_address": ["14 Barre Rd", "Hardwick, MA 01037"]}, "phone": "+14134771144", "display_phone": "(413) 477-1144", "distance": 11062.334585376217}, {"id": "pV8zeBYV-_DeOM-YoS6DGg", "alias": "kps-breakfast-and-lunch-rutland", "name": "Kp's Breakfast and Lunch", "image_url": "https://s3-media2.fl.yelpcdn.com/bphoto/Ir308fRcoOu7-mYiX8Qyqw/o.jpg", "is_closed": false, "url": "https://www.yelp.com/biz/kps-breakfast-and-lunch-rutland?adjust_creative=HdhkN5EEH6lAqE3kwhsHEQ&utm_campaign=yelp_api_v3&utm_medium=api_v3_business_search&utm_source=HdhkN5EEH6lAqE3kwhsHEQ", "review_count": 25, "categories": [{"alias": "breakfast_brunch", "title": "Breakfast & Brunch"}], "rating": 4.5, "coordinates": {"latitude": 42.379295, "longitude": -71.955873}, "transactions": [], "price": "$", "location": {"address1": "24 Pommogussett Rd", "address2": "", "address3": "", "city": "Rutland", "zip_code": "01543", "country": "US", "state": "MA", "display_address": ["24 Pommogussett Rd", "Rutland, MA 01543"]}, "phone": "+15088866408", "display_phone": "(508) 886-6408", "distance": 13140.96142895953}, {"id": "yiV75hVHG23qJ3ESA1MzRg", "alias": "202-grill-nos-age-orange", "name": "202 Grill Nos/Age", "image_url": "https://s3-media3.fl.yelpcdn.com/bphoto/opbKFoo58C8lRuy_kJ53VQ/o.jpg", "is_closed": false, "url": "https://www.yelp.com/biz/202-grill-nos-age-orange?adjust_creative=HdhkN5EEH6lAqE3kwhsHEQ&utm_campaign=yelp_api_v3&utm_medium=api_v3_business_search&utm_source=HdhkN5EEH6lAqE3kwhsHEQ", "review_count": 8, "categories": [{"alias": "tradamerican", "title": "American (Traditional)"}], "rating": 3.5, "coordinates": {"latitude": 42.55423, "longitude": -72.28915}, "transactions": [], "price": "$$$", "location": {"address1": "207 Daniel Shay Hwy", "address2": "Route 202", "address3": "", "city": "Orange", "zip_code": "01364", "country": "US", "state": "MA", "display_address": ["207 Daniel Shay Hwy", "Route 202", "Orange, MA 01364"]}, "phone": "+19785443902", "display_phone": "(978) 544-3902", "distance": 21156.41103495668}, {"id": "ulTdoEH6AfozwdGeAfHL0A", "alias": "pine-ridge-snack-bar-barre", "name": "Pine Ridge Snack Bar", "image_url": "", "is_closed": false, "url": "https://www.yelp.com/biz/pine-ridge-snack-bar-barre?adjust_creative=HdhkN5EEH6lAqE3kwhsHEQ&utm_campaign=yelp_api_v3&utm_medium=api_v3_business_search&utm_source=HdhkN5EEH6lAqE3kwhsHEQ", "review_count": 2, "categories": [{"alias": "breakfast_brunch", "title": "Breakfast & Brunch"}], "rating": 3.0, "coordinates": {"latitude": 42.4226265, "longitude": -72.1043243}, "transactions": [], "location": {"address1": "25 Exchange St", "address2": null, "address3": null, "city": "Barre", "zip_code": "01005", "country": "US", "state": "MA", "display_address": ["25 Exchange St", "Barre, MA 01005"]}, "phone": "+19783550012", "display_phone": "(978) 355-0012", "distance": 281.5414827896909}, {"id": "yIhVtwTmftVIpNYcxf9yMA", "alias": "statz-sports-pub-and-grill-north-brookfield", "name": "Statz Sports Pub & Grill", "image_url": "https://s3-media3.fl.yelpcdn.com/bphoto/iOISgzMcfKXM9LCMMpr-xw/o.jpg", "is_closed": false, "url": "https://www.yelp.com/biz/statz-sports-pub-and-grill-north-brookfield?adjust_creative=HdhkN5EEH6lAqE3kwhsHEQ&utm_campaign=yelp_api_v3&utm_medium=api_v3_business_search&utm_source=HdhkN5EEH6lAqE3kwhsHEQ", "review_count": 5, "categories": [{"alias": "breakfast_brunch", "title": "Breakfast & Brunch"}, {"alias": "pubs", "title": "Pubs"}], "rating": 5.0, "coordinates": {"latitude": 42.275866, "longitude": -72.083283}, "transactions": [], "price": "$", "location": {"address1": "341 N Main St", "address2": "", "address3": null, "city": "North Brookfield", "zip_code": "01535", "country": "US", "state": "MA", "display_address": ["341 N Main St", "North Brookfield, MA 01535"]}, "phone": "+15088677204", "display_phone": "(508) 867-7204", "distance": 16187.002734877346}, {"id": "6eDMigdX2fH32_2cuaHzpw", "alias": "jk-crossroads-east-templeton", "name": "JK Crossroads", "image_url": "https://s3-media3.fl.yelpcdn.com/bphoto/X9b-I_ndI2z1jI4m_Fh-4g/o.jpg", "is_closed": false, "url": "https://www.yelp.com/biz/jk-crossroads-east-templeton?adjust_creative=HdhkN5EEH6lAqE3kwhsHEQ&utm_campaign=yelp_api_v3&utm_medium=api_v3_business_search&utm_source=HdhkN5EEH6lAqE3kwhsHEQ", "review_count": 22, "categories": [{"alias": "tradamerican", "title": "American (Traditional)"}], "rating": 3.0, "coordinates": {"latitude": 42.56267, "longitude": -72.03679}, "transactions": [], "price": "$$", "location": {"address1": "119 Patriots Rd", "address2": "", "address3": "", "city": "East Templeton", "zip_code": "01438", "country": "US", "state": "MA", "display_address": ["119 Patriots Rd", "East Templeton, MA 01438"]}, "phone": "+19786327070", "display_phone": "(978) 632-7070", "distance": 16806.608863031484}, {"id": "DOw6h_K6tTafiWgR2bSufg", "alias": "hubb-town-diner-hubbardston", "name": "Hubb Town Diner", "image_url": "https://s3-media3.fl.yelpcdn.com/bphoto/Oaec6pAdS2SoUdRTyIIzAA/o.jpg", "is_closed": false, "url": "https://www.yelp.com/biz/hubb-town-diner-hubbardston?adjust_creative=HdhkN5EEH6lAqE3kwhsHEQ&utm_campaign=yelp_api_v3&utm_medium=api_v3_business_search&utm_source=HdhkN5EEH6lAqE3kwhsHEQ", "review_count": 10, "categories": [{"alias": "breakfast_brunch", "title": "Breakfast & Brunch"}, {"alias": "diners", "title": "Diners"}, {"alias": "sandwiches", "title": "Sandwiches"}], "rating": 3.5, "coordinates": {"latitude": 42.4781684875488, "longitude": -72.0094299316406}, "transactions": [], "price": "$$", "location": {"address1": "32 Main St", "address2": null, "address3": "", "city": "Hubbardston", "zip_code": "01452", "country": "US", "state": "MA", "display_address": ["32 Main St", "Hubbardston, MA 01452"]}, "phone": "+19788201600", "display_phone": "(978) 820-1600", "distance": 10170.333173562096}, {"id": "P54MnoErmGdonro_OcbxCg", "alias": "gabbys-place-gardner", "name": "Gabbys Place", "image_url": "https://s3-media2.fl.yelpcdn.com/bphoto/UdASXZiw2uD8HiuyRbfmew/o.jpg", "is_closed": false, "url": "https://www.yelp.com/biz/gabbys-place-gardner?adjust_creative=HdhkN5EEH6lAqE3kwhsHEQ&utm_campaign=yelp_api_v3&utm_medium=api_v3_business_search&utm_source=HdhkN5EEH6lAqE3kwhsHEQ", "review_count": 34, "categories": [{"alias": "breakfast_brunch", "title": "Breakfast & Brunch"}], "rating": 4.5, "coordinates": {"latitude": 42.5602303, "longitude": -71.9806137}, "transactions": [], "price": "$", "location": {"address1": "173 Pearson Blvd", "address2": null, "address3": null, "city": "Gardner", "zip_code": "01440", "country": "US", "state": "MA", "display_address": ["173 Pearson Blvd", "Gardner, MA 01440"]}, "phone": "+19786322282", "display_phone": "(978) 632-2282", "distance": 18611.0401211409}, {"id": "7x3ahfSXy7WIbiyTWXP9Ow", "alias": "blueprint-american-bar-and-grille-westminster", "name": "Blueprint American Bar And Grille", "image_url": "https://s3-media1.fl.yelpcdn.com/bphoto/RZ-2SoH1vHklaszInf0x_w/o.jpg", "is_closed": false, "url": "https://www.yelp.com/biz/blueprint-american-bar-and-grille-westminster?adjust_creative=HdhkN5EEH6lAqE3kwhsHEQ&utm_campaign=yelp_api_v3&utm_medium=api_v3_business_search&utm_source=HdhkN5EEH6lAqE3kwhsHEQ", "review_count": 84, "categories": [{"alias": "newamerican", "title": "American (New)"}, {"alias": "bars", "title": "Bars"}], "rating": 3.5, "coordinates": {"latitude": 42.5457633862712, "longitude": -71.9147932863456}, "transactions": [], "price": "$$", "location": {"address1": "10 Village Square", "address2": "", "address3": null, "city": "Westminster", "zip_code": "01473", "country": "US", "state": "MA", "display_address": ["10 Village Square", "Westminster, MA 01473"]}, "phone": "+19786685580", "display_phone": "(978) 668-5580", "distance": 20983.556392695184}, {"id": "jTPPscieN_KRrwxq3Cvoxg", "alias": "sawa-asian-bistro-gardner", "name": "Sawa Asian Bistro", "image_url": "https://s3-media3.fl.yelpcdn.com/bphoto/6OeCkKRnF5CX73drFhHyaw/o.jpg", "is_closed": false, "url": "https://www.yelp.com/biz/sawa-asian-bistro-gardner?adjust_creative=HdhkN5EEH6lAqE3kwhsHEQ&utm_campaign=yelp_api_v3&utm_medium=api_v3_business_search&utm_source=HdhkN5EEH6lAqE3kwhsHEQ", "review_count": 76, "categories": [{"alias": "asianfusion", "title": "Asian Fusion"}], "rating": 3.5, "coordinates": {"latitude": 42.559041712705, "longitude": -71.989148206288}, "transactions": ["pickup"], "price": "$$", "location": {"address1": "360 Timpany Blvd", "address2": "", "address3": "", "city": "Gardner", "zip_code": "01440", "country": "US", "state": "MA", "display_address": ["360 Timpany Blvd", "Gardner, MA 01440"]}, "phone": "+19786323888", "display_phone": "(978) 632-3888", "distance": 18154.746161291307}, {"id": "caZ_VkDE5opTNQ_uHR-p9w", "alias": "yangs-kitchen-rutland", "name": "Yang's Kitchen", "image_url": "https://s3-media1.fl.yelpcdn.com/bphoto/wifuGXezzzusv_xwPvxsWQ/o.jpg", "is_closed": false, "url": "https://www.yelp.com/biz/yangs-kitchen-rutland?adjust_creative=HdhkN5EEH6lAqE3kwhsHEQ&utm_campaign=yelp_api_v3&utm_medium=api_v3_business_search&utm_source=HdhkN5EEH6lAqE3kwhsHEQ", "review_count": 16, "categories": [{"alias": "chinese", "title": "Chinese"}], "rating": 3.5, "coordinates": {"latitude": 42.3760185, "longitude": -71.954483}, "transactions": [], "price": "$", "location": {"address1": "249 Main St", "address2": "Ste 2", "address3": null, "city": "Rutland", "zip_code": "01543", "country": "US", "state": "MA", "display_address": ["249 Main St", "Ste 2", "Rutland, MA 01543"]}, "phone": "+15088862228", "display_phone": "(508) 886-2228", "distance": 13375.9141613757}, {"id": "YFUYllVibHXwawGD2WxG5g", "alias": "99-restaurants-gardner", "name": "99 Restaurants", "image_url": "https://s3-media3.fl.yelpcdn.com/bphoto/Z_yBm5P7QKjWhMHHvGTBcg/o.jpg", "is_closed": false, "url": "https://www.yelp.com/biz/99-restaurants-gardner?adjust_creative=HdhkN5EEH6lAqE3kwhsHEQ&utm_campaign=yelp_api_v3&utm_medium=api_v3_business_search&utm_source=HdhkN5EEH6lAqE3kwhsHEQ", "review_count": 10, "categories": [{"alias": "tradamerican", "title": "American (Traditional)"}, {"alias": "pubs", "title": "Pubs"}], "rating": 3.5, "coordinates": {"latitude": 42.5605143, "longitude": -71.9906149}, "transactions": [], "location": {"address1": "299 Timpany Blvd", "address2": null, "address3": "", "city": "Gardner", "zip_code": "01440", "country": "US", "state": "MA", "display_address": ["299 Timpany Blvd", "Gardner, MA 01440"]}, "phone": "+19789580399", "display_phone": "(978) 958-0399", "distance": 18134.084211637954}, {"id": "MsAsPmMTX5uPzvmVov6B9w", "alias": "king-phillip-restaurant-phillipston", "name": "King Phillip Restaurant", "image_url": "https://s3-media1.fl.yelpcdn.com/bphoto/Pl_gxkYhcpKQ_chGNyuoqw/o.jpg", "is_closed": false, "url": "https://www.yelp.com/biz/king-phillip-restaurant-phillipston?adjust_creative=HdhkN5EEH6lAqE3kwhsHEQ&utm_campaign=yelp_api_v3&utm_medium=api_v3_business_search&utm_source=HdhkN5EEH6lAqE3kwhsHEQ", "review_count": 46, "categories": [{"alias": "tradamerican", "title": "American (Traditional)"}], "rating": 3.0, "coordinates": {"latitude": 42.5698651, "longitude": -72.1321599}, "transactions": [], "price": "$$", "location": {"address1": "35 State Rd", "address2": "", "address3": "", "city": "Phillipston", "zip_code": "01331", "country": "US", "state": "MA", "display_address": ["35 State Rd", "Phillipston, MA 01331"]}, "phone": "+19782496300", "display_phone": "(978) 249-6300", "distance": 16739.40355791841}, {"id": "lfQN5QSEPMr4ng0eW3lvEA", "alias": "williams-restaurant-gardner", "name": "Williams Restaurant", "image_url": "https://s3-media2.fl.yelpcdn.com/bphoto/YEek_aEDa2SU79a1-TPvZA/o.jpg", "is_closed": false, "url": "https://www.yelp.com/biz/williams-restaurant-gardner?adjust_creative=HdhkN5EEH6lAqE3kwhsHEQ&utm_campaign=yelp_api_v3&utm_medium=api_v3_business_search&utm_source=HdhkN5EEH6lAqE3kwhsHEQ", "review_count": 37, "categories": [{"alias": "newamerican", "title": "American (New)"}, {"alias": "seafood", "title": "Seafood"}, {"alias": "sandwiches", "title": "Sandwiches"}], "rating": 3.5, "coordinates": {"latitude": 42.55953, "longitude": -71.98036}, "transactions": [], "price": "$$", "location": {"address1": "184 Pearson Blvd", "address2": "", "address3": "", "city": "Gardner", "zip_code": "01440", "country": "US", "state": "MA", "display_address": ["184 Pearson Blvd", "Gardner, MA 01440"]}, "phone": "+19786327794", "display_phone": "(978) 632-7794", "distance": 18575.807775201974}, {"id": "6X755NM6my9JyexFB_XX_A", "alias": "kays-dairy-bar-westminster-2", "name": "Kay's Dairy Bar", "image_url": "https://s3-media1.fl.yelpcdn.com/bphoto/ancJPX2z7M0R9o0hEeMVVw/o.jpg", "is_closed": false, "url": "https://www.yelp.com/biz/kays-dairy-bar-westminster-2?adjust_creative=HdhkN5EEH6lAqE3kwhsHEQ&utm_campaign=yelp_api_v3&utm_medium=api_v3_business_search&utm_source=HdhkN5EEH6lAqE3kwhsHEQ", "review_count": 29, "categories": [{"alias": "icecream", "title": "Ice Cream & Frozen Yogurt"}, {"alias": "seafood", "title": "Seafood"}], "rating": 4.0, "coordinates": {"latitude": 42.5517, "longitude": -71.9587}, "transactions": [], "price": "$$", "location": {"address1": "196 State Rd W", "address2": "", "address3": null, "city": "Westminster", "zip_code": "01473", "country": "US", "state": "MA", "display_address": ["196 State Rd W", "Westminster, MA 01473"]}, "phone": "+19786327191", "display_phone": "(978) 632-7191", "distance": 18961.95610670163}, {"id": "i6J8CBgNw1t6rF2RR1B2uw", "alias": "pizza-palace-hubbardston", "name": "Pizza Palace", "image_url": "https://s3-media1.fl.yelpcdn.com/bphoto/_CaIaZwv04TL49J59zMi6A/o.jpg", "is_closed": false, "url": "https://www.yelp.com/biz/pizza-palace-hubbardston?adjust_creative=HdhkN5EEH6lAqE3kwhsHEQ&utm_campaign=yelp_api_v3&utm_medium=api_v3_business_search&utm_source=HdhkN5EEH6lAqE3kwhsHEQ", "review_count": 19, "categories": [{"alias": "pizza", "title": "Pizza"}], "rating": 4.5, "coordinates": {"latitude": 42.490675, "longitude": -72.013496}, "transactions": [], "price": "$$", "location": {"address1": "53 Gardner Rd", "address2": null, "address3": null, "city": "Hubbardston", "zip_code": "01452", "country": "US", "state": "MA", "display_address": ["53 Gardner Rd", "Hubbardston, MA 01452"]}, "phone": "+19789285454", "display_phone": "(978) 928-5454", "distance": 10896.375036469562}, {"id": "zO6XVdcnBaFIiG9rxdKVrw", "alias": "heavy-evies-diner-rutland", "name": "Heavy Evie's Diner", "image_url": "https://s3-media4.fl.yelpcdn.com/bphoto/5l2DxKoKM-oothvoLdGDag/o.jpg", "is_closed": false, "url": "https://www.yelp.com/biz/heavy-evies-diner-rutland?adjust_creative=HdhkN5EEH6lAqE3kwhsHEQ&utm_campaign=yelp_api_v3&utm_medium=api_v3_business_search&utm_source=HdhkN5EEH6lAqE3kwhsHEQ", "review_count": 18, "categories": [{"alias": "diners", "title": "Diners"}], "rating": 4.0, "coordinates": {"latitude": 42.3768478631973, "longitude": -71.9532662630081}, "transactions": [], "price": "$", "location": {"address1": "2 Maple Ave", "address2": "", "address3": "", "city": "Rutland", "zip_code": "01543", "country": "US", "state": "MA", "display_address": ["2 Maple Ave", "Rutland, MA 01543"]}, "phone": "+17742340600", "display_phone": "(774) 234-0600", "distance": 13435.289563442288}, {"id": "Er46vYBcDS6EjNNSUkZymA", "alias": "southside-grille-and-margarita-factory-gardner", "name": "Southside Grille & Margarita Factory", "image_url": "https://s3-media2.fl.yelpcdn.com/bphoto/tikYPLIQMd0z1iQErdjLag/o.jpg", "is_closed": false, "url": "https://www.yelp.com/biz/southside-grille-and-margarita-factory-gardner?adjust_creative=HdhkN5EEH6lAqE3kwhsHEQ&utm_campaign=yelp_api_v3&utm_medium=api_v3_business_search&utm_source=HdhkN5EEH6lAqE3kwhsHEQ", "review_count": 49, "categories": [{"alias": "tradamerican", "title": "American (Traditional)"}, {"alias": "mexican", "title": "Mexican"}], "rating": 2.5, "coordinates": {"latitude": 42.56069, "longitude": -71.98926}, "transactions": [], "price": "$$", "location": {"address1": "242 W Broadway", "address2": "", "address3": "", "city": "Gardner", "zip_code": "01440", "country": "US", "state": "MA", "display_address": ["242 W Broadway", "Gardner, MA 01440"]}, "phone": "+19786321057", "display_phone": "(978) 632-1057", "distance": 18303.80559820192}, {"id": "EZhQ41NJaq4no3RTzs7cmw", "alias": "colonial-grille-gardner", "name": "Colonial Grille", "image_url": "https://s3-media1.fl.yelpcdn.com/bphoto/voCLPpE2SaAJdfbfn5BHRg/o.jpg", "is_closed": false, "url": "https://www.yelp.com/biz/colonial-grille-gardner?adjust_creative=HdhkN5EEH6lAqE3kwhsHEQ&utm_campaign=yelp_api_v3&utm_medium=api_v3_business_search&utm_source=HdhkN5EEH6lAqE3kwhsHEQ", "review_count": 22, "categories": [{"alias": "tradamerican", "title": "American (Traditional)"}, {"alias": "seafood", "title": "Seafood"}, {"alias": "pizza", "title": "Pizza"}], "rating": 3.5, "coordinates": {"latitude": 42.562668, "longitude": -71.949158}, "transactions": [], "price": "$$", "location": {"address1": "625 Betty Spring Rd", "address2": "", "address3": "", "city": "Gardner", "zip_code": "01440", "country": "US", "state": "MA", "display_address": ["625 Betty Spring Rd", "Gardner, MA 01440"]}, "phone": "+19786302500", "display_phone": "(978) 630-2500", "distance": 20390.635906475814}, {"id": "a8wLG4HuNxWHoEYtNrYogw", "alias": "south-gardner-hotel-gardner", "name": "South Gardner Hotel", "image_url": "https://s3-media1.fl.yelpcdn.com/bphoto/iWdIsIGbCqXHbAVbQ7zyXw/o.jpg", "is_closed": false, "url": "https://www.yelp.com/biz/south-gardner-hotel-gardner?adjust_creative=HdhkN5EEH6lAqE3kwhsHEQ&utm_campaign=yelp_api_v3&utm_medium=api_v3_business_search&utm_source=HdhkN5EEH6lAqE3kwhsHEQ", "review_count": 5, "categories": [{"alias": "bars", "title": "Bars"}, {"alias": "tradamerican", "title": "American (Traditional)"}], "rating": 4.0, "coordinates": {"latitude": 42.557515, "longitude": -71.9801713}, "transactions": [], "price": "$", "location": {"address1": "8 E Broadway", "address2": "", "address3": "", "city": "Gardner", "zip_code": "01440", "country": "US", "state": "MA", "display_address": ["8 E Broadway", "Gardner, MA 01440"]}, "phone": "+19786301322", "display_phone": "(978) 630-1322", "distance": 18413.027059835465}, {"id": "mRj1oNilgeEiMyTDE-XRFA", "alias": "sorrentos-brick-oven-pizza-gardner", "name": "Sorrento's Brick Oven Pizza", "image_url": "https://s3-media2.fl.yelpcdn.com/bphoto/r5nIeUKuciMl8LP5jSvaWw/o.jpg", "is_closed": false, "url": "https://www.yelp.com/biz/sorrentos-brick-oven-pizza-gardner?adjust_creative=HdhkN5EEH6lAqE3kwhsHEQ&utm_campaign=yelp_api_v3&utm_medium=api_v3_business_search&utm_source=HdhkN5EEH6lAqE3kwhsHEQ", "review_count": 32, "categories": [{"alias": "pizza", "title": "Pizza"}], "rating": 3.5, "coordinates": {"latitude": 42.56806, "longitude": -71.98405}, "transactions": [], "price": "$$", "location": {"address1": "487 Chestnut St", "address2": "", "address3": "", "city": "Gardner", "zip_code": "01440", "country": "US", "state": "MA", "display_address": ["487 Chestnut St", "Gardner, MA 01440"]}, "phone": "+19786300045", "display_phone": "(978) 630-0045", "distance": 19222.58682833801}, {"id": "LD-RgCjEvITIBLap0VuSeA", "alias": "cafe-edesia-gardner-2", "name": "Cafe Edesia", "image_url": "https://s3-media3.fl.yelpcdn.com/bphoto/gAjSkL4-WZC7unuxStflaQ/o.jpg", "is_closed": false, "url": "https://www.yelp.com/biz/cafe-edesia-gardner-2?adjust_creative=HdhkN5EEH6lAqE3kwhsHEQ&utm_campaign=yelp_api_v3&utm_medium=api_v3_business_search&utm_source=HdhkN5EEH6lAqE3kwhsHEQ", "review_count": 41, "categories": [{"alias": "cafes", "title": "Cafes"}], "rating": 3.5, "coordinates": {"latitude": 42.5682063218004, "longitude": -71.9837307929993}, "transactions": [], "price": "$", "location": {"address1": "486 Chestnut St", "address2": "Ste 2", "address3": "", "city": "Gardner", "zip_code": "01440", "country": "US", "state": "MA", "display_address": ["486 Chestnut St", "Ste 2", "Gardner, MA 01440"]}, "phone": "+19786301555", "display_phone": "(978) 630-1555", "distance": 19255.02982964946}, {"id": "pSBQkytH3cknYyZVcREyvg", "alias": "patriots-roast-beef-and-grill-templeton", "name": "Patriots Roast Beef and Grill", "image_url": "https://s3-media1.fl.yelpcdn.com/bphoto/jQT2dQaX-oAPGqS9MG8Mvg/o.jpg", "is_closed": false, "url": "https://www.yelp.com/biz/patriots-roast-beef-and-grill-templeton?adjust_creative=HdhkN5EEH6lAqE3kwhsHEQ&utm_campaign=yelp_api_v3&utm_medium=api_v3_business_search&utm_source=HdhkN5EEH6lAqE3kwhsHEQ", "review_count": 16, "categories": [{"alias": "pizza", "title": "Pizza"}, {"alias": "tradamerican", "title": "American (Traditional)"}], "rating": 3.5, "coordinates": {"latitude": 42.5615082, "longitude": -72.038887}, "transactions": ["pickup", "delivery"], "price": "$", "location": {"address1": "146 Patriots Rd", "address2": null, "address3": null, "city": "Templeton", "zip_code": "01468", "country": "US", "state": "MA", "display_address": ["146 Patriots Rd", "Templeton, MA 01468"]}, "phone": "+19786329951", "display_phone": "(978) 632-9951", "distance": 16624.05792088284}, {"id": "6G7I24vIiyLp4_7nSNICew", "alias": "whistle-stop-restaurant-hardwick", "name": "Whistle Stop Restaurant", "image_url": "https://s3-media4.fl.yelpcdn.com/bphoto/co5S3IgUc4H4d2Nf597Nlw/o.jpg", "is_closed": false, "url": "https://www.yelp.com/biz/whistle-stop-restaurant-hardwick?adjust_creative=HdhkN5EEH6lAqE3kwhsHEQ&utm_campaign=yelp_api_v3&utm_medium=api_v3_business_search&utm_source=HdhkN5EEH6lAqE3kwhsHEQ", "review_count": 3, "categories": [{"alias": "tradamerican", "title": "American (Traditional)"}, {"alias": "breakfast_brunch", "title": "Breakfast & Brunch"}, {"alias": "sandwiches", "title": "Sandwiches"}], "rating": 2.0, "coordinates": {"latitude": 42.30823, "longitude": -72.21081}, "transactions": [], "price": "$", "location": {"address1": "248 Main", "address2": "", "address3": "", "city": "Hardwick", "zip_code": "01037", "country": "US", "state": "MA", "display_address": ["248 Main", "Hardwick, MA 01037"]}, "phone": "+14134778888", "display_phone": "(413) 477-8888", "distance": 15152.175880521669}, {"id": "5um6bgKp_RBrNh3pyS5Gig", "alias": "family-kitchen-hubbardston", "name": "Family Kitchen", "image_url": "", "is_closed": false, "url": "https://www.yelp.com/biz/family-kitchen-hubbardston?adjust_creative=HdhkN5EEH6lAqE3kwhsHEQ&utm_campaign=yelp_api_v3&utm_medium=api_v3_business_search&utm_source=HdhkN5EEH6lAqE3kwhsHEQ", "review_count": 1, "categories": [{"alias": "pizza", "title": "Pizza"}], "rating": 1.0, "coordinates": {"latitude": 42.4784779082112, "longitude": -72.0091371899555}, "transactions": [], "location": {"address1": "32 Main Street", "address2": "", "address3": null, "city": "Hubbardston", "zip_code": "01452", "country": "US", "state": "MA", "display_address": ["32 Main Street", "Hubbardston, MA 01452"]}, "phone": "+19788201440", "display_phone": "(978) 820-1440", "distance": 10243.72116250267}, {"id": "-6SXunk8sa57KHosd5CSYQ", "alias": "yen-yen-chinese-restaurant-gardner", "name": "Yen Yen Chinese Restaurant", "image_url": "https://s3-media1.fl.yelpcdn.com/bphoto/jIy4g7yVDJkBtuFpok2hVQ/o.jpg", "is_closed": false, "url": "https://www.yelp.com/biz/yen-yen-chinese-restaurant-gardner?adjust_creative=HdhkN5EEH6lAqE3kwhsHEQ&utm_campaign=yelp_api_v3&utm_medium=api_v3_business_search&utm_source=HdhkN5EEH6lAqE3kwhsHEQ", "review_count": 27, "categories": [{"alias": "chinese", "title": "Chinese"}], "rating": 2.5, "coordinates": {"latitude": 42.5662039, "longitude": -71.9769619}, "transactions": [], "price": "$$", "location": {"address1": "42 Pearson Blvd", "address2": "", "address3": "", "city": "Gardner", "zip_code": "01440", "country": "US", "state": "MA", "display_address": ["42 Pearson Blvd", "Gardner, MA 01440"]}, "phone": "+19786301535", "display_phone": "(978) 630-1535", "distance": 19362.990844175296}, {"id": "TVd2898Jy_u8ro-GLrZEIQ", "alias": "green-tea-westminster", "name": "Green Tea", "image_url": "https://s3-media4.fl.yelpcdn.com/bphoto/mT4nA7r9_QfD0Nk7CiRqjg/o.jpg", "is_closed": false, "url": "https://www.yelp.com/biz/green-tea-westminster?adjust_creative=HdhkN5EEH6lAqE3kwhsHEQ&utm_campaign=yelp_api_v3&utm_medium=api_v3_business_search&utm_source=HdhkN5EEH6lAqE3kwhsHEQ", "review_count": 16, "categories": [{"alias": "chinese", "title": "Chinese"}], "rating": 4.5, "coordinates": {"latitude": 42.5467888580999, "longitude": -71.9142293930054}, "transactions": [], "price": "$$", "location": {"address1": "7 Village Sq", "address2": null, "address3": null, "city": "Westminster", "zip_code": "01473", "country": "US", "state": "MA", "display_address": ["7 Village Sq", "Westminster, MA 01473"]}, "phone": "+19788742288", "display_phone": "(978) 874-2288", "distance": 21093.85575123403}, {"id": "vlFtM9aSiPijxP6nYuRHvA", "alias": "reeds-country-store-new-braintree", "name": "Reed's Country Store", "image_url": "", "is_closed": false, "url": "https://www.yelp.com/biz/reeds-country-store-new-braintree?adjust_creative=HdhkN5EEH6lAqE3kwhsHEQ&utm_campaign=yelp_api_v3&utm_medium=api_v3_business_search&utm_source=HdhkN5EEH6lAqE3kwhsHEQ", "review_count": 3, "categories": [{"alias": "tradamerican", "title": "American (Traditional)"}], "rating": 3.0, "coordinates": {"latitude": 42.3236541748047, "longitude": -72.1021881103516}, "transactions": [], "price": "$", "location": {"address1": "753 Barre Rd", "address2": "", "address3": "", "city": "New Braintree", "zip_code": "01531", "country": "US", "state": "MA", "display_address": ["753 Barre Rd", "New Braintree, MA 01531"]}, "phone": "+15088679512", "display_phone": "(508) 867-9512", "distance": 10758.738522100519}, {"id": "weSMNlLoYuqL2wXmNHOsKQ", "alias": "paxton-house-of-pizza-paxton", "name": "Paxton House of Pizza", "image_url": "https://s3-media4.fl.yelpcdn.com/bphoto/uHq7WmKvRiie7mODU1pQ7Q/o.jpg", "is_closed": false, "url": "https://www.yelp.com/biz/paxton-house-of-pizza-paxton?adjust_creative=HdhkN5EEH6lAqE3kwhsHEQ&utm_campaign=yelp_api_v3&utm_medium=api_v3_business_search&utm_source=HdhkN5EEH6lAqE3kwhsHEQ", "review_count": 10, "categories": [{"alias": "pizza", "title": "Pizza"}], "rating": 4.5, "coordinates": {"latitude": 42.31029, "longitude": -71.92717}, "transactions": ["delivery"], "location": {"address1": "677 Pleasant St", "address2": "", "address3": "", "city": "Paxton", "zip_code": "01612", "country": "US", "state": "MA", "display_address": ["677 Pleasant St", "Paxton, MA 01612"]}, "phone": "+15087556680", "display_phone": "(508) 755-6680", "distance": 19101.820318117923}, {"id": "0uZi3bproBbPbYdli72dSg", "alias": "north-brookfield-pizza-palace-north-brookfield-2", "name": "North Brookfield Pizza Palace", "image_url": "", "is_closed": false, "url": "https://www.yelp.com/biz/north-brookfield-pizza-palace-north-brookfield-2?adjust_creative=HdhkN5EEH6lAqE3kwhsHEQ&utm_campaign=yelp_api_v3&utm_medium=api_v3_business_search&utm_source=HdhkN5EEH6lAqE3kwhsHEQ", "review_count": 10, "categories": [{"alias": "pizza", "title": "Pizza"}], "rating": 3.5, "coordinates": {"latitude": 42.2685891, "longitude": -72.0822442}, "transactions": [], "price": "$", "location": {"address1": "60 School St", "address2": "", "address3": "", "city": "North Brookfield", "zip_code": "01535", "country": "US", "state": "MA", "display_address": ["60 School St", "North Brookfield, MA 01535"]}, "phone": "+15088670060", "display_phone": "(508) 867-0060", "distance": 16989.873182693937}, {"id": "CHSG_1GTPDJtbP7CMjNVVw", "alias": "toulas-house-of-pizza-rutland", "name": "Toula's House of Pizza", "image_url": "https://s3-media1.fl.yelpcdn.com/bphoto/z_FS6M7qGmcNoXKJ8okU0Q/o.jpg", "is_closed": false, "url": "https://www.yelp.com/biz/toulas-house-of-pizza-rutland?adjust_creative=HdhkN5EEH6lAqE3kwhsHEQ&utm_campaign=yelp_api_v3&utm_medium=api_v3_business_search&utm_source=HdhkN5EEH6lAqE3kwhsHEQ", "review_count": 17, "categories": [{"alias": "pizza", "title": "Pizza"}, {"alias": "seafood", "title": "Seafood"}], "rating": 3.5, "coordinates": {"latitude": 42.37652, "longitude": -71.93563}, "transactions": [], "price": "$", "location": {"address1": "87 Main St", "address2": "", "address3": "", "city": "Rutland", "zip_code": "01543", "country": "US", "state": "MA", "display_address": ["87 Main St", "Rutland, MA 01543"]}, "phone": "+15088868888", "display_phone": "(508) 886-8888", "distance": 14833.740198724374}, {"id": "bxPkkUUZSgpcIECmiOVHBA", "alias": "westminster-cafe-westminster", "name": "Westminster Cafe", "image_url": "https://s3-media2.fl.yelpcdn.com/bphoto/oDlOcq4-1Lwei9pIqBrCIw/o.jpg", "is_closed": false, "url": "https://www.yelp.com/biz/westminster-cafe-westminster?adjust_creative=HdhkN5EEH6lAqE3kwhsHEQ&utm_campaign=yelp_api_v3&utm_medium=api_v3_business_search&utm_source=HdhkN5EEH6lAqE3kwhsHEQ", "review_count": 29, "categories": [{"alias": "breakfast_brunch", "title": "Breakfast & Brunch"}, {"alias": "seafood", "title": "Seafood"}, {"alias": "icecream", "title": "Ice Cream & Frozen Yogurt"}], "rating": 4.0, "coordinates": {"latitude": 42.548792, "longitude": -71.917325}, "transactions": [], "price": "$", "location": {"address1": "51 Main St", "address2": null, "address3": null, "city": "Westminster", "zip_code": "01473", "country": "US", "state": "MA", "display_address": ["51 Main St", "Westminster, MA 01473"]}, "phone": "+19788741833", "display_phone": "(978) 874-1833", "distance": 21055.5133414532}, {"id": "Nwd8vF2dgSY5JP2zc0qMAQ", "alias": "rutland-house-of-pizza-rutland-2", "name": "Rutland House of Pizza", "image_url": "https://s3-media4.fl.yelpcdn.com/bphoto/Ep1VmDN4csC4mnfHFiDTGw/o.jpg", "is_closed": false, "url": "https://www.yelp.com/biz/rutland-house-of-pizza-rutland-2?adjust_creative=HdhkN5EEH6lAqE3kwhsHEQ&utm_campaign=yelp_api_v3&utm_medium=api_v3_business_search&utm_source=HdhkN5EEH6lAqE3kwhsHEQ", "review_count": 13, "categories": [{"alias": "pizza", "title": "Pizza"}], "rating": 3.0, "coordinates": {"latitude": 42.3766975, "longitude": -71.9528885}, "transactions": [], "price": "$$", "location": {"address1": "5 Maple Ave", "address2": null, "address3": null, "city": "Rutland", "zip_code": "01543", "country": "US", "state": "MA", "display_address": ["5 Maple Ave", "Rutland, MA 01543"]}, "phone": "+15088862500", "display_phone": "(508) 886-2500", "distance": 13493.422188000683}, {"id": "MMDcTPhGXYDu0-HhBHqMrw", "alias": "shanes-hot-dogs-gardner", "name": "Shane's Hot Dogs", "image_url": "", "is_closed": false, "url": "https://www.yelp.com/biz/shanes-hot-dogs-gardner?adjust_creative=HdhkN5EEH6lAqE3kwhsHEQ&utm_campaign=yelp_api_v3&utm_medium=api_v3_business_search&utm_source=HdhkN5EEH6lAqE3kwhsHEQ", "review_count": 1, "categories": [{"alias": "hotdog", "title": "Hot Dogs"}, {"alias": "foodstands", "title": "Food Stands"}], "rating": 2.0, "coordinates": {"latitude": 42.5677898, "longitude": -71.9836277}, "transactions": [], "price": "$", "location": {"address1": "500 Chestnut St", "address2": "", "address3": null, "city": "Gardner", "zip_code": "01440", "country": "US", "state": "MA", "display_address": ["500 Chestnut St", "Gardner, MA 01440"]}, "phone": "+19782735068", "display_phone": "(978) 273-5068", "distance": 19216.3918829842}, {"id": "aWYujjBXWiC-8oY7MrZG3w", "alias": "wild-child-express-princeton", "name": "Wild Child Express", "image_url": "", "is_closed": false, "url": "https://www.yelp.com/biz/wild-child-express-princeton?adjust_creative=HdhkN5EEH6lAqE3kwhsHEQ&utm_campaign=yelp_api_v3&utm_medium=api_v3_business_search&utm_source=HdhkN5EEH6lAqE3kwhsHEQ", "review_count": 2, "categories": [{"alias": "icecream", "title": "Ice Cream & Frozen Yogurt"}, {"alias": "foodstands", "title": "Food Stands"}], "rating": 5.0, "coordinates": {"latitude": 42.4229399, "longitude": -71.92728}, "transactions": [], "location": {"address1": "29 Dowds Ln", "address2": null, "address3": "", "city": "Princeton", "zip_code": "01541", "country": "US", "state": "MA", "display_address": ["29 Dowds Ln", "Princeton, MA 01541"]}, "phone": "+19784644570", "display_phone": "(978) 464-4570", "distance": 14674.434158309568}, {"id": "JNRdBxmhf3BaiWwQX8VJmw", "alias": "jims-pizza-north-brookfield", "name": "Jim's Pizza", "image_url": "", "is_closed": false, "url": "https://www.yelp.com/biz/jims-pizza-north-brookfield?adjust_creative=HdhkN5EEH6lAqE3kwhsHEQ&utm_campaign=yelp_api_v3&utm_medium=api_v3_business_search&utm_source=HdhkN5EEH6lAqE3kwhsHEQ", "review_count": 14, "categories": [{"alias": "pizza", "title": "Pizza"}], "rating": 3.0, "coordinates": {"latitude": 42.269747, "longitude": -72.085661}, "transactions": [], "price": "$", "location": {"address1": "219 N Main St", "address2": "", "address3": "", "city": "North Brookfield", "zip_code": "01535", "country": "US", "state": "MA", "display_address": ["219 N Main St", "North Brookfield, MA 01535"]}, "phone": "+15088678373", "display_phone": "(508) 867-8373", "distance": 16831.752720227512}, {"id": "PhQ3uxMgUl-T6aAKhoQZ9A", "alias": "west-broadway-pizza-gardner", "name": "West Broadway Pizza", "image_url": "https://s3-media2.fl.yelpcdn.com/bphoto/ypGtnWkRqQLnXkiHN6nWHg/o.jpg", "is_closed": false, "url": "https://www.yelp.com/biz/west-broadway-pizza-gardner?adjust_creative=HdhkN5EEH6lAqE3kwhsHEQ&utm_campaign=yelp_api_v3&utm_medium=api_v3_business_search&utm_source=HdhkN5EEH6lAqE3kwhsHEQ", "review_count": 11, "categories": [{"alias": "pizza", "title": "Pizza"}], "rating": 3.5, "coordinates": {"latitude": 42.5579833984375, "longitude": -71.9809036254883}, "transactions": [], "price": "$$", "location": {"address1": "15 W Broadway", "address2": "", "address3": "", "city": "Gardner", "zip_code": "01440", "country": "US", "state": "MA", "display_address": ["15 W Broadway", "Gardner, MA 01440"]}, "phone": "+19786303111", "display_phone": "(978) 630-3111", "distance": 18422.659383602127}, {"id": "3ejotiHbd3qB8M1ZSr6iuw", "alias": "friendlys-gardner", "name": "Friendly's", "image_url": "https://s3-media2.fl.yelpcdn.com/bphoto/wcoUh5wyZ3aTbl6usrO4Ww/o.jpg", "is_closed": false, "url": "https://www.yelp.com/biz/friendlys-gardner?adjust_creative=HdhkN5EEH6lAqE3kwhsHEQ&utm_campaign=yelp_api_v3&utm_medium=api_v3_business_search&utm_source=HdhkN5EEH6lAqE3kwhsHEQ", "review_count": 24, "categories": [{"alias": "icecream", "title": "Ice Cream & Frozen Yogurt"}, {"alias": "burgers", "title": "Burgers"}, {"alias": "tradamerican", "title": "American (Traditional)"}], "rating": 2.0, "coordinates": {"latitude": 42.566247470663, "longitude": -71.979320066874}, "transactions": [], "price": "$", "location": {"address1": "18 Pearson Blvd", "address2": "", "address3": "", "city": "Gardner", "zip_code": "01440", "country": "US", "state": "MA", "display_address": ["18 Pearson Blvd", "Gardner, MA 01440"]}, "phone": "+19786301821", "display_phone": "(978) 630-1821", "distance": 19262.091006595638}, {"id": "e331pQV1I-SSnWw_w0PfMA", "alias": "wendys-gardner", "name": "Wendy's", "image_url": "https://s3-media1.fl.yelpcdn.com/bphoto/yGojYMgHFk_orMJG7_CAdQ/o.jpg", "is_closed": false, "url": "https://www.yelp.com/biz/wendys-gardner?adjust_creative=HdhkN5EEH6lAqE3kwhsHEQ&utm_campaign=yelp_api_v3&utm_medium=api_v3_business_search&utm_source=HdhkN5EEH6lAqE3kwhsHEQ", "review_count": 5, "categories": [{"alias": "hotdogs", "title": "Fast Food"}, {"alias": "burgers", "title": "Burgers"}], "rating": 3.5, "coordinates": {"latitude": 42.56622, "longitude": -71.97991}, "transactions": [], "price": "$", "location": {"address1": "28 Pearson Blvd", "address2": "", "address3": "", "city": "Gardner", "zip_code": "01440", "country": "US", "state": "MA", "display_address": ["28 Pearson Blvd", "Gardner, MA 01440"]}, "phone": "+19786303490", "display_phone": "(978) 630-3490", "distance": 19300.467131910897}, {"id": "Kr3vRRhCDsLj6LY6OEaR5A", "alias": "king-phillip-motel-phillipston", "name": "King Phillip Motel", "image_url": "", "is_closed": false, "url": "https://www.yelp.com/biz/king-phillip-motel-phillipston?adjust_creative=HdhkN5EEH6lAqE3kwhsHEQ&utm_campaign=yelp_api_v3&utm_medium=api_v3_business_search&utm_source=HdhkN5EEH6lAqE3kwhsHEQ", "review_count": 3, "categories": [{"alias": "hotels", "title": "Hotels"}, {"alias": "restaurants", "title": "Restaurants"}], "rating": 3.0, "coordinates": {"latitude": 42.5698651, "longitude": -72.1321599}, "transactions": [], "location": {"address1": "35 State Rd", "address2": "", "address3": "", "city": "Phillipston", "zip_code": "01331", "country": "US", "state": "MA", "display_address": ["35 State Rd", "Phillipston, MA 01331"]}, "phone": "+19782495300", "display_phone": "(978) 249-5300", "distance": 16739.40355791841}, {"id": "r9-dhj_D6aMgxqIEIIzxLQ", "alias": "hardwick-house-of-pizza-gilbertville", "name": "Hardwick House of Pizza", "image_url": "https://s3-media3.fl.yelpcdn.com/bphoto/U1v5kFxk8Fot1l3t8QEiWQ/o.jpg", "is_closed": false, "url": "https://www.yelp.com/biz/hardwick-house-of-pizza-gilbertville?adjust_creative=HdhkN5EEH6lAqE3kwhsHEQ&utm_campaign=yelp_api_v3&utm_medium=api_v3_business_search&utm_source=HdhkN5EEH6lAqE3kwhsHEQ", "review_count": 6, "categories": [{"alias": "pizza", "title": "Pizza"}], "rating": 2.0, "coordinates": {"latitude": 42.3129577, "longitude": -72.2049821}, "transactions": [], "price": "$", "location": {"address1": "2 Main", "address2": "", "address3": null, "city": "Gilbertville", "zip_code": "01031", "country": "US", "state": "MA", "display_address": ["2 Main", "Gilbertville, MA 01031"]}, "phone": "+14134776001", "display_phone": "(413) 477-6001", "distance": 14460.581367452898}, {"id": "Je1gbLcoqWn-R9Wsw09J2g", "alias": "burger-king-gardner-2", "name": "Burger King", "image_url": "https://s3-media4.fl.yelpcdn.com/bphoto/PtHJDw19UTmeX8yvo60qtw/o.jpg", "is_closed": false, "url": "https://www.yelp.com/biz/burger-king-gardner-2?adjust_creative=HdhkN5EEH6lAqE3kwhsHEQ&utm_campaign=yelp_api_v3&utm_medium=api_v3_business_search&utm_source=HdhkN5EEH6lAqE3kwhsHEQ", "review_count": 2, "categories": [{"alias": "burgers", "title": "Burgers"}, {"alias": "hotdogs", "title": "Fast Food"}], "rating": 1.0, "coordinates": {"latitude": 42.565589, "longitude": -71.991512}, "transactions": [], "price": "$", "location": {"address1": "9 Crawford Street", "address2": "", "address3": "", "city": "Gardner", "zip_code": "01440", "country": "US", "state": "MA", "display_address": ["9 Crawford Street", "Gardner, MA 01440"]}, "phone": "", "display_phone": "", "distance": 18679.579754082475}, {"id": "3PdRmNoO-NYX1eU3Zu3A1w", "alias": "jade-ii-gardner", "name": "Jade II", "image_url": "", "is_closed": false, "url": "https://www.yelp.com/biz/jade-ii-gardner?adjust_creative=HdhkN5EEH6lAqE3kwhsHEQ&utm_campaign=yelp_api_v3&utm_medium=api_v3_business_search&utm_source=HdhkN5EEH6lAqE3kwhsHEQ", "review_count": 4, "categories": [{"alias": "restaurants", "title": "Restaurants"}], "rating": 3.0, "coordinates": {"latitude": 42.567081451416, "longitude": -71.9835357666016}, "transactions": [], "location": {"address1": "19 Union Sq", "address2": null, "address3": null, "city": "Gardner", "zip_code": "01440", "country": "US", "state": "MA", "display_address": ["19 Union Sq", "Gardner, MA 01440"]}, "phone": "+19786308868", "display_phone": "(978) 630-8868", "distance": 19158.27349021593}, {"id": "TrnTjJ1-_E6C73HYGLwsKw", "alias": "renos-pizza-templeton", "name": "Reno's Pizza", "image_url": "https://s3-media3.fl.yelpcdn.com/bphoto/fqIJrOaa8cfgu-xw7htIzw/o.jpg", "is_closed": false, "url": "https://www.yelp.com/biz/renos-pizza-templeton?adjust_creative=HdhkN5EEH6lAqE3kwhsHEQ&utm_campaign=yelp_api_v3&utm_medium=api_v3_business_search&utm_source=HdhkN5EEH6lAqE3kwhsHEQ", "review_count": 2, "categories": [{"alias": "pizza", "title": "Pizza"}, {"alias": "burgers", "title": "Burgers"}, {"alias": "delis", "title": "Delis"}], "rating": 5.0, "coordinates": {"latitude": 42.5620072921407, "longitude": -72.0375560224056}, "transactions": [], "location": {"address1": "132 Patriots Rd", "address2": "", "address3": null, "city": "Templeton", "zip_code": "01438", "country": "US", "state": "MA", "display_address": ["132 Patriots Rd", "Templeton, MA 01438"]}, "phone": "+19786323200", "display_phone": "(978) 632-3200", "distance": 16719.889400518343}, {"id": "kKKJ4J05Jii-oAc6oEJifg", "alias": "town-house-of-pizza-westminster", "name": "Town House of Pizza", "image_url": "https://s3-media3.fl.yelpcdn.com/bphoto/mJvtfHsssMJqGTvEAJ-uyw/o.jpg", "is_closed": false, "url": "https://www.yelp.com/biz/town-house-of-pizza-westminster?adjust_creative=HdhkN5EEH6lAqE3kwhsHEQ&utm_campaign=yelp_api_v3&utm_medium=api_v3_business_search&utm_source=HdhkN5EEH6lAqE3kwhsHEQ", "review_count": 23, "categories": [{"alias": "pizza", "title": "Pizza"}, {"alias": "italian", "title": "Italian"}, {"alias": "breakfast_brunch", "title": "Breakfast & Brunch"}], "rating": 3.5, "coordinates": {"latitude": 42.5484099, "longitude": -71.91575}, "transactions": [], "price": "$", "location": {"address1": "68 Main St", "address2": "", "address3": "", "city": "Westminster", "zip_code": "01473", "country": "US", "state": "MA", "display_address": ["68 Main St", "Westminster, MA 01473"]}, "phone": "+19788740326", "display_phone": "(978) 874-0326", "distance": 21130.13202070347}, {"id": "boiEL8LxY8US_zN67Hd8gQ", "alias": "patriot-pizza-and-subs-gardner", "name": "Patriot Pizza & Subs", "image_url": "https://s3-media2.fl.yelpcdn.com/bphoto/9HO7wpIHyROEIqk9G2C_lw/o.jpg", "is_closed": false, "url": "https://www.yelp.com/biz/patriot-pizza-and-subs-gardner?adjust_creative=HdhkN5EEH6lAqE3kwhsHEQ&utm_campaign=yelp_api_v3&utm_medium=api_v3_business_search&utm_source=HdhkN5EEH6lAqE3kwhsHEQ", "review_count": 18, "categories": [{"alias": "pizza", "title": "Pizza"}], "rating": 3.5, "coordinates": {"latitude": 42.5662419, "longitude": -71.9800468}, "transactions": [], "price": "$$", "location": {"address1": "52 Pearson Blvd", "address2": "Ste 1", "address3": null, "city": "Gardner", "zip_code": "01440", "country": "US", "state": "MA", "display_address": ["52 Pearson Blvd", "Ste 1", "Gardner, MA 01440"]}, "phone": "+19786324500", "display_phone": "(978) 632-4500", "distance": 19301.7522473137}, {"id": "dS4Lx9m7zrHypNavr7UqGQ", "alias": "theos-breakfast-and-lunch-paxton", "name": "Theo's Breakfast & Lunch", "image_url": "https://s3-media3.fl.yelpcdn.com/bphoto/zK_hngL0DaX4UP3OiWFkTw/o.jpg", "is_closed": false, "url": "https://www.yelp.com/biz/theos-breakfast-and-lunch-paxton?adjust_creative=HdhkN5EEH6lAqE3kwhsHEQ&utm_campaign=yelp_api_v3&utm_medium=api_v3_business_search&utm_source=HdhkN5EEH6lAqE3kwhsHEQ", "review_count": 27, "categories": [{"alias": "breakfast_brunch", "title": "Breakfast & Brunch"}], "rating": 4.5, "coordinates": {"latitude": 42.310719, "longitude": -71.927681}, "transactions": ["delivery"], "price": "$", "location": {"address1": "681 Pleasant St", "address2": "", "address3": "", "city": "Paxton", "zip_code": "01612", "country": "US", "state": "MA", "display_address": ["681 Pleasant St", "Paxton, MA 01612"]}, "phone": "+15084591330", "display_phone": "(508) 459-1330", "distance": 19060.965571732908}, {"id": "6zgm4JX3gyWFWXFktXHMbQ", "alias": "burger-king-restaurant-gardner", "name": "Burger King Restaurant", "image_url": "", "is_closed": false, "url": "https://www.yelp.com/biz/burger-king-restaurant-gardner?adjust_creative=HdhkN5EEH6lAqE3kwhsHEQ&utm_campaign=yelp_api_v3&utm_medium=api_v3_business_search&utm_source=HdhkN5EEH6lAqE3kwhsHEQ", "review_count": 5, "categories": [{"alias": "restaurants", "title": "Restaurants"}], "rating": 1.0, "coordinates": {"latitude": 42.5658, "longitude": -71.99153}, "transactions": [], "price": "$", "location": {"address1": "9 Crawford St", "address2": "", "address3": "", "city": "Gardner", "zip_code": "01440", "country": "US", "state": "MA", "display_address": ["9 Crawford St", "Gardner, MA 01440"]}, "phone": "+19786326015", "display_phone": "(978) 632-6015", "distance": 18679.579754082475}, {"id": "eIl4-S0XOnUZ4SLZrcaJgw", "alias": "papa-ginos-pizzeria-gardner", "name": "Papa Gino's Pizzeria", "image_url": "https://s3-media2.fl.yelpcdn.com/bphoto/k7kt3dUGqz2Ptw87y3fvtw/o.jpg", "is_closed": false, "url": "https://www.yelp.com/biz/papa-ginos-pizzeria-gardner?adjust_creative=HdhkN5EEH6lAqE3kwhsHEQ&utm_campaign=yelp_api_v3&utm_medium=api_v3_business_search&utm_source=HdhkN5EEH6lAqE3kwhsHEQ", "review_count": 14, "categories": [{"alias": "pizza", "title": "Pizza"}], "rating": 2.5, "coordinates": {"latitude": 42.55884, "longitude": -71.98973}, "transactions": [], "price": "$", "location": {"address1": "326 Timpany Blvd", "address2": "", "address3": "", "city": "Gardner", "zip_code": "01440", "country": "US", "state": "MA", "display_address": ["326 Timpany Blvd", "Gardner, MA 01440"]}, "phone": "+19786328051", "display_phone": "(978) 632-8051", "distance": 18261.486039124113}, {"id": "37gP7ifq1CpZz9L9Pz80YQ", "alias": "stefanos-house-of-pizza-westminster", "name": "Stefanos' House of Pizza", "image_url": "https://s3-media1.fl.yelpcdn.com/bphoto/tE-DWbxiKdwXZItchnG96w/o.jpg", "is_closed": false, "url": "https://www.yelp.com/biz/stefanos-house-of-pizza-westminster?adjust_creative=HdhkN5EEH6lAqE3kwhsHEQ&utm_campaign=yelp_api_v3&utm_medium=api_v3_business_search&utm_source=HdhkN5EEH6lAqE3kwhsHEQ", "review_count": 15, "categories": [{"alias": "pizza", "title": "Pizza"}, {"alias": "salad", "title": "Salad"}, {"alias": "sandwiches", "title": "Sandwiches"}], "rating": 3.0, "coordinates": {"latitude": 42.546079, "longitude": -71.91376}, "transactions": [], "price": "$", "location": {"address1": "105 Main St", "address2": "", "address3": "", "city": "Westminster", "zip_code": "01473", "country": "US", "state": "MA", "display_address": ["105 Main St", "Westminster, MA 01473"]}, "phone": "+19788741922", "display_phone": "(978) 874-1922", "distance": 21070.189213420468}, {"id": "ybkcxwJrjVxwHu5LCWT71Q", "alias": "d-angelo-gardner", "name": "D'Angelo", "image_url": "", "is_closed": false, "url": "https://www.yelp.com/biz/d-angelo-gardner?adjust_creative=HdhkN5EEH6lAqE3kwhsHEQ&utm_campaign=yelp_api_v3&utm_medium=api_v3_business_search&utm_source=HdhkN5EEH6lAqE3kwhsHEQ", "review_count": 5, "categories": [{"alias": "sandwiches", "title": "Sandwiches"}], "rating": 2.5, "coordinates": {"latitude": 42.5666254, "longitude": -71.9823995}, "transactions": [], "location": {"address1": "43 Union Sq", "address2": "", "address3": "", "city": "Gardner", "zip_code": "01440", "country": "US", "state": "MA", "display_address": ["43 Union Sq", "Gardner, MA 01440"]}, "phone": "+19786327533", "display_phone": "(978) 632-7533", "distance": 19156.837453272638}, {"id": "ca-cNiTee3s_oxTewG1CDg", "alias": "subway-gardner-7", "name": "Subway", "image_url": "https://s3-media3.fl.yelpcdn.com/bphoto/-GDNHfONoo-cnd-5mtzipg/o.jpg", "is_closed": false, "url": "https://www.yelp.com/biz/subway-gardner-7?adjust_creative=HdhkN5EEH6lAqE3kwhsHEQ&utm_campaign=yelp_api_v3&utm_medium=api_v3_business_search&utm_source=HdhkN5EEH6lAqE3kwhsHEQ", "review_count": 3, "categories": [{"alias": "sandwiches", "title": "Sandwiches"}], "rating": 3.5, "coordinates": {"latitude": 42.566047, "longitude": -71.977501}, "transactions": [], "price": "$", "location": {"address1": "30 Pearson Blvd", "address2": "", "address3": "", "city": "Gardner", "zip_code": "01440", "country": "US", "state": "MA", "display_address": ["30 Pearson Blvd", "Gardner, MA 01440"]}, "phone": "+19786325213", "display_phone": "(978) 632-5213", "distance": 19324.252052724358}, {"id": "iFhZ31feMlCA1F6H-rLVUA", "alias": "subway-westminster-42", "name": "Subway", "image_url": "https://s3-media3.fl.yelpcdn.com/bphoto/Q4DHyx93UuD2MKm09Qp6ZA/o.jpg", "is_closed": false, "url": "https://www.yelp.com/biz/subway-westminster-42?adjust_creative=HdhkN5EEH6lAqE3kwhsHEQ&utm_campaign=yelp_api_v3&utm_medium=api_v3_business_search&utm_source=HdhkN5EEH6lAqE3kwhsHEQ", "review_count": 4, "categories": [{"alias": "sandwiches", "title": "Sandwiches"}], "rating": 3.5, "coordinates": {"latitude": 42.5464934656065, "longitude": -71.9140293000952}, "transactions": [], "price": "$", "location": {"address1": "97 Main St", "address2": "", "address3": null, "city": "Westminster", "zip_code": "01473", "country": "US", "state": "MA", "display_address": ["97 Main St", "Westminster, MA 01473"]}, "phone": "+19788742185", "display_phone": "(978) 874-2185", "distance": 21084.25789497392}, {"id": "Y-INEv-QS9f7qJVDe5HjTA", "alias": "kfc-gardner-4", "name": "KFC", "image_url": "https://s3-media4.fl.yelpcdn.com/bphoto/2HZTnIQGFJESr8RHqJ_YIg/o.jpg", "is_closed": false, "url": "https://www.yelp.com/biz/kfc-gardner-4?adjust_creative=HdhkN5EEH6lAqE3kwhsHEQ&utm_campaign=yelp_api_v3&utm_medium=api_v3_business_search&utm_source=HdhkN5EEH6lAqE3kwhsHEQ", "review_count": 5, "categories": [{"alias": "hotdogs", "title": "Fast Food"}, {"alias": "chicken_wings", "title": "Chicken Wings"}, {"alias": "chickenshop", "title": "Chicken Shop"}], "rating": 2.0, "coordinates": {"latitude": 42.566685997889, "longitude": -71.980529}, "transactions": ["pickup"], "price": "$", "location": {"address1": "8 Pearson Blvd", "address2": "", "address3": "", "city": "Gardner", "zip_code": "01440", "country": "US", "state": "MA", "display_address": ["8 Pearson Blvd", "Gardner, MA 01440"]}, "phone": "+19786302011", "display_phone": "(978) 630-2011", "distance": 19249.992503223737}, {"id": "bVbAQw_laKoEw8HUBEdj5w", "alias": "mcdonalds-gardner-2", "name": "McDonald's", "image_url": "https://s3-media3.fl.yelpcdn.com/bphoto/tkmz1oWJb4xuSYkFE_absg/o.jpg", "is_closed": false, "url": "https://www.yelp.com/biz/mcdonalds-gardner-2?adjust_creative=HdhkN5EEH6lAqE3kwhsHEQ&utm_campaign=yelp_api_v3&utm_medium=api_v3_business_search&utm_source=HdhkN5EEH6lAqE3kwhsHEQ", "review_count": 15, "categories": [{"alias": "hotdogs", "title": "Fast Food"}, {"alias": "burgers", "title": "Burgers"}, {"alias": "coffee", "title": "Coffee & Tea"}], "rating": 2.5, "coordinates": {"latitude": 42.5632433186274, "longitude": -71.99085699943}, "transactions": [], "price": "$", "location": {"address1": "223 Timpany Blvd", "address2": "", "address3": "", "city": "Gardner", "zip_code": "01440", "country": "US", "state": "MA", "display_address": ["223 Timpany Blvd", "Gardner, MA 01440"]}, "phone": "+19786329859", "display_phone": "(978) 632-9859", "distance": 18481.056241697588}, {"id": "Om8GYpWVr0YoGGCGXsgYCw", "alias": "taco-bell-gardner-3", "name": "Taco Bell", "image_url": "https://s3-media4.fl.yelpcdn.com/bphoto/w6z4YtPLkgbXbxvfC01nIw/o.jpg", "is_closed": false, "url": "https://www.yelp.com/biz/taco-bell-gardner-3?adjust_creative=HdhkN5EEH6lAqE3kwhsHEQ&utm_campaign=yelp_api_v3&utm_medium=api_v3_business_search&utm_source=HdhkN5EEH6lAqE3kwhsHEQ", "review_count": 2, "categories": [{"alias": "hotdogs", "title": "Fast Food"}, {"alias": "tacos", "title": "Tacos"}], "rating": 1.0, "coordinates": {"latitude": 42.566521, "longitude": -71.981384}, "transactions": [], "price": "$", "location": {"address1": "8 Pearson Blvd", "address2": null, "address3": null, "city": "Gardner", "zip_code": "01440", "country": "US", "state": "MA", "display_address": ["8 Pearson Blvd", "Gardner, MA 01440"]}, "phone": "+19786302011", "display_phone": "(978) 630-2011", "distance": 19197.088901276442}, {"id": "hDvkTp4bTKcR9AsXA-5_IQ", "alias": "subway-gardner-8", "name": "Subway", "image_url": "https://s3-media1.fl.yelpcdn.com/bphoto/WM4Y6gUg-7rY_jCSUH8bZw/o.jpg", "is_closed": false, "url": "https://www.yelp.com/biz/subway-gardner-8?adjust_creative=HdhkN5EEH6lAqE3kwhsHEQ&utm_campaign=yelp_api_v3&utm_medium=api_v3_business_search&utm_source=HdhkN5EEH6lAqE3kwhsHEQ", "review_count": 1, "categories": [{"alias": "sandwiches", "title": "Sandwiches"}], "rating": 1.0, "coordinates": {"latitude": 42.5514561, "longitude": -71.9946827}, "transactions": [], "price": "$", "location": {"address1": "677 Timpany Blvd", "address2": null, "address3": null, "city": "Gardner", "zip_code": "01440", "country": "US", "state": "MA", "display_address": ["677 Timpany Blvd", "Gardner, MA 01440"]}, "phone": "+19786301113", "display_phone": "(978) 630-1113", "distance": 17199.205210275428}, {"id": "Io4C5tUwnb_YzeaMXHBqBA", "alias": "shuckin-truck-narragansett-2", "name": "Shuckin Truck", "image_url": "https://s3-media2.fl.yelpcdn.com/bphoto/r7QRORfe9UYVS7GGzUm9DQ/o.jpg", "is_closed": false, "url": "https://www.yelp.com/biz/shuckin-truck-narragansett-2?adjust_creative=HdhkN5EEH6lAqE3kwhsHEQ&utm_campaign=yelp_api_v3&utm_medium=api_v3_business_search&utm_source=HdhkN5EEH6lAqE3kwhsHEQ", "review_count": 24, "categories": [{"alias": "foodtrucks", "title": "Food Trucks"}, {"alias": "seafood", "title": "Seafood"}], "rating": 4.5, "coordinates": {"latitude": 41.4274482727051, "longitude": -71.4597778320313}, "transactions": [], "price": "$$", "location": {"address1": "", "address2": "", "address3": "", "city": "Narragansett", "zip_code": "02882", "country": "US", "state": "RI", "display_address": ["Narragansett, RI 02882"]}, "phone": "+14017415953", "display_phone": "(401) 741-5953", "distance": 124576.35835625618}]