[{"id": "jwLPIWGACP3mDVqh-mflQw", "alias": "the-blue-rock-shelburne-falls-3", "name": "The Blue Rock", "image_url": "https://s3-media4.fl.yelpcdn.com/bphoto/-WTcjD8LT2yr9p1hu191fw/o.jpg", "is_closed": false, "url": "https://www.yelp.com/biz/the-blue-rock-shelburne-falls-3?adjust_creative=ywY5UnLZrNrRl2b93Ruy_g&utm_campaign=yelp_api_v3&utm_medium=api_v3_business_search&utm_source=ywY5UnLZrNrRl2b93Ruy_g", "review_count": 45, "categories": [{"alias": "newamerican", "title": "American (New)"}, {"alias": "cocktailbars", "title": "Cocktail Bars"}, {"alias": "beerbar", "title": "Beer Bar"}], "rating": 4.5, "coordinates": {"latitude": 42.6031535, "longitude": -72.7412502}, "transactions": [], "price": "$$", "location": {"address1": "1 Ashfield St", "address2": null, "address3": "", "city": "Shelburne Falls", "zip_code": "01370", "country": "US", "state": "MA", "display_address": ["1 Ashfield St", "Shelburne Falls, MA 01370"]}, "phone": "+14136258133", "display_phone": "(413) 625-8133", "distance": 10449.467078594862}, {"id": "WchQRtW_lbGEI8DLvLeUVw", "alias": "the-farm-table-bernardston", "name": "The Farm Table", "image_url": "https://s3-media4.fl.yelpcdn.com/bphoto/DGU-IEeKKTh1ByhQStXZuw/o.jpg", "is_closed": false, "url": "https://www.yelp.com/biz/the-farm-table-bernardston?adjust_creative=ywY5UnLZrNrRl2b93Ruy_g&utm_campaign=yelp_api_v3&utm_medium=api_v3_business_search&utm_source=ywY5UnLZrNrRl2b93Ruy_g", "review_count": 309, "categories": [{"alias": "newamerican", "title": "American (New)"}], "rating": 4.0, "coordinates": {"latitude": 42.658211, "longitude": -72.5619356}, "transactions": ["delivery", "restaurant_reservation"], "price": "$$", "location": {"address1": "219 South St", "address2": "", "address3": "", "city": "Bernardston", "zip_code": "01337", "country": "US", "state": "MA", "display_address": ["219 South St", "Bernardston, MA 01337"]}, "phone": "+14136485200", "display_phone": "(413) 648-5200", "distance": 20199.86543668062}, {"id": "O-cuf9gqctm096VCcM79Lg", "alias": "conway-inn-conway", "name": "Conway Inn", "image_url": "https://s3-media2.fl.yelpcdn.com/bphoto/PkYRlRCqQCTdb2bqT10Y3A/o.jpg", "is_closed": false, "url": "https://www.yelp.com/biz/conway-inn-conway?adjust_creative=ywY5UnLZrNrRl2b93Ruy_g&utm_campaign=yelp_api_v3&utm_medium=api_v3_business_search&utm_source=ywY5UnLZrNrRl2b93Ruy_g", "review_count": 6, "categories": [{"alias": "bars", "title": "Bars"}, {"alias": "pizza", "title": "Pizza"}], "rating": 4.5, "coordinates": {"latitude": 42.5087199, "longitude": -72.69772}, "transactions": [], "price": "$", "location": {"address1": "43 Main", "address2": "", "address3": "", "city": "Conway", "zip_code": "01341", "country": "US", "state": "MA", "display_address": ["43 Main", "Conway, MA 01341"]}, "phone": "+14133694428", "display_phone": "(413) 369-4428", "distance": 862.3891953976762}, {"id": "jRkRfmnAWeioG1YSB0-V6A", "alias": "the-alvah-stone-montague", "name": "The Alvah Stone", "image_url": "https://s3-media2.fl.yelpcdn.com/bphoto/WZarGmnHvPAsgoIF5mKRqw/o.jpg", "is_closed": false, "url": "https://www.yelp.com/biz/the-alvah-stone-montague?adjust_creative=ywY5UnLZrNrRl2b93Ruy_g&utm_campaign=yelp_api_v3&utm_medium=api_v3_business_search&utm_source=ywY5UnLZrNrRl2b93Ruy_g", "review_count": 195, "categories": [{"alias": "bars", "title": "Bars"}, {"alias": "tradamerican", "title": "American (Traditional)"}, {"alias": "newamerican", "title": "American (New)"}], "rating": 4.0, "coordinates": {"latitude": 42.537929, "longitude": -72.5372039}, "transactions": ["delivery", "restaurant_reservation"], "price": "$$", "location": {"address1": "440 Greenfield Rd", "address2": null, "address3": "", "city": "Montague", "zip_code": "01351", "country": "US", "state": "MA", "display_address": ["440 Greenfield Rd", "Montague, MA 01351"]}, "phone": "+14133675345", "display_phone": "(413) 367-5345", "distance": 14262.228465791502}, {"id": "6E4Wd60NQcqPCGYtiKvbWg", "alias": "gypsy-apple-bistro-shelburne-falls", "name": "Gypsy Apple Bistro", "image_url": "https://s3-media4.fl.yelpcdn.com/bphoto/KyaQbCFI5yX1AnN-9q-bIg/o.jpg", "is_closed": false, "url": "https://www.yelp.com/biz/gypsy-apple-bistro-shelburne-falls?adjust_creative=ywY5UnLZrNrRl2b93Ruy_g&utm_campaign=yelp_api_v3&utm_medium=api_v3_business_search&utm_source=ywY5UnLZrNrRl2b93Ruy_g", "review_count": 37, "categories": [{"alias": "french", "title": "French"}, {"alias": "bars", "title": "Bars"}], "rating": 4.5, "coordinates": {"latitude": 42.6034651, "longitude": -72.7377135}, "transactions": [], "price": "$$$", "location": {"address1": "65 Bridge St", "address2": "", "address3": "", "city": "Shelburne Falls", "zip_code": "01370", "country": "US", "state": "MA", "display_address": ["65 Bridge St", "Shelburne Falls, MA 01370"]}, "phone": "+14136256345", "display_phone": "(413) 625-6345", "distance": 10524.514075506011}, {"id": "JIUMuy58yl_k85Y_Fig7LQ", "alias": "el-sotano-shelburne", "name": "El Sotano", "image_url": "https://s3-media2.fl.yelpcdn.com/bphoto/CRDJumiKXIQXUhF2PlMGlA/o.jpg", "is_closed": false, "url": "https://www.yelp.com/biz/el-sotano-shelburne?adjust_creative=ywY5UnLZrNrRl2b93Ruy_g&utm_campaign=yelp_api_v3&utm_medium=api_v3_business_search&utm_source=ywY5UnLZrNrRl2b93Ruy_g", "review_count": 25, "categories": [{"alias": "mexican", "title": "Mexican"}], "rating": 4.5, "coordinates": {"latitude": 42.603818, "longitude": -72.739733}, "transactions": [], "location": {"address1": "10 Bridge St", "address2": null, "address3": "", "city": "Shelburne", "zip_code": "01370", "country": "US", "state": "MA", "display_address": ["10 Bridge St", "Shelburne, MA 01370"]}, "phone": "+14134893754", "display_phone": "(413) 489-3754", "distance": 10595.962335423814}, {"id": "cjeDbBpMLrjHMIeqHwU_jg", "alias": "west-end-pub-shelburne-falls", "name": "West End Pub", "image_url": "https://s3-media4.fl.yelpcdn.com/bphoto/AAWFoSbAVa7VtXW6U7uLVQ/o.jpg", "is_closed": false, "url": "https://www.yelp.com/biz/west-end-pub-shelburne-falls?adjust_creative=ywY5UnLZrNrRl2b93Ruy_g&utm_campaign=yelp_api_v3&utm_medium=api_v3_business_search&utm_source=ywY5UnLZrNrRl2b93Ruy_g", "review_count": 101, "categories": [{"alias": "tradamerican", "title": "American (Traditional)"}, {"alias": "pubs", "title": "Pubs"}, {"alias": "burgers", "title": "Burgers"}], "rating": 4.0, "coordinates": {"latitude": 42.603919, "longitude": -72.7413603}, "transactions": [], "price": "$$", "location": {"address1": "16 State St", "address2": "", "address3": "", "city": "Shelburne Falls", "zip_code": "01370", "country": "US", "state": "MA", "display_address": ["16 State St", "Shelburne Falls, MA 01370"]}, "phone": "+14136256216", "display_phone": "(413) 625-6216", "distance": 10639.096204376061}, {"id": "oLM42PUJliWpu1_UN-G1fQ", "alias": "hearty-eats-shelburne-falls", "name": "Hearty Eats", "image_url": "https://s3-media4.fl.yelpcdn.com/bphoto/wjyt8KlfCKutpxkYg6F70Q/o.jpg", "is_closed": false, "url": "https://www.yelp.com/biz/hearty-eats-shelburne-falls?adjust_creative=ywY5UnLZrNrRl2b93Ruy_g&utm_campaign=yelp_api_v3&utm_medium=api_v3_business_search&utm_source=ywY5UnLZrNrRl2b93Ruy_g", "review_count": 79, "categories": [{"alias": "fishnchips", "title": "Fish & Chips"}, {"alias": "noodles", "title": "Noodles"}, {"alias": "indpak", "title": "Indian"}], "rating": 4.5, "coordinates": {"latitude": 42.6036331, "longitude": -72.7393198}, "transactions": [], "price": "$$", "location": {"address1": "24 Bridge St", "address2": null, "address3": "", "city": "Shelburne Falls", "zip_code": "01370", "country": "US", "state": "MA", "display_address": ["24 Bridge St", "Shelburne Falls, MA 01370"]}, "phone": "+14136256460", "display_phone": "(413) 625-6460", "distance": 10565.972667043447}, {"id": "RjcmsCplUC_ZFvaJb2nfMA", "alias": "gianni-figs-ristorante-deerfield", "name": "Gianni Fig's Ristorante", "image_url": "https://s3-media1.fl.yelpcdn.com/bphoto/SWZ-jpqvOAfR3OM4KI_rLg/o.jpg", "is_closed": false, "url": "https://www.yelp.com/biz/gianni-figs-ristorante-deerfield?adjust_creative=ywY5UnLZrNrRl2b93Ruy_g&utm_campaign=yelp_api_v3&utm_medium=api_v3_business_search&utm_source=ywY5UnLZrNrRl2b93Ruy_g", "review_count": 30, "categories": [{"alias": "italian", "title": "Italian"}], "rating": 4.0, "coordinates": {"latitude": 42.4775047039286, "longitude": -72.609119691213}, "transactions": ["delivery"], "location": {"address1": "6 Elm St", "address2": "", "address3": null, "city": "Deerfield", "zip_code": "01373", "country": "US", "state": "MA", "display_address": ["6 Elm St", "Deerfield, MA 01373"]}, "phone": "+14133505940", "display_phone": "(413) 350-5940", "distance": 8911.384322472875}, {"id": "1FDg-B7ddSPoZirUJXsdtQ", "alias": "the-ashfield-lake-house-ashfield", "name": "The Ashfield Lake House", "image_url": "https://s3-media4.fl.yelpcdn.com/bphoto/YK6BItbmmR7rbQZzniZojQ/o.jpg", "is_closed": false, "url": "https://www.yelp.com/biz/the-ashfield-lake-house-ashfield?adjust_creative=ywY5UnLZrNrRl2b93Ruy_g&utm_campaign=yelp_api_v3&utm_medium=api_v3_business_search&utm_source=ywY5UnLZrNrRl2b93Ruy_g", "review_count": 38, "categories": [{"alias": "bars", "title": "Bars"}, {"alias": "tradamerican", "title": "American (Traditional)"}, {"alias": "comfortfood", "title": "Comfort Food"}], "rating": 3.0, "coordinates": {"latitude": 42.53083, "longitude": -72.8026299}, "transactions": [], "price": "$$", "location": {"address1": "141 Buckland Rd", "address2": "", "address3": "", "city": "Ashfield", "zip_code": "01330", "country": "US", "state": "MA", "display_address": ["141 Buckland Rd", "Ashfield, MA 01330"]}, "phone": "+14136280158", "display_phone": "(413) 628-0158", "distance": 7745.444851703753}, {"id": "ExPrawZiMKFCtz9HV-Hw3Q", "alias": "the-peoples-pint-greenfield", "name": "The People's Pint", "image_url": "https://s3-media4.fl.yelpcdn.com/bphoto/tXW4H4plAEoPzXDNviVIGg/o.jpg", "is_closed": false, "url": "https://www.yelp.com/biz/the-peoples-pint-greenfield?adjust_creative=ywY5UnLZrNrRl2b93Ruy_g&utm_campaign=yelp_api_v3&utm_medium=api_v3_business_search&utm_source=ywY5UnLZrNrRl2b93Ruy_g", "review_count": 290, "categories": [{"alias": "tradamerican", "title": "American (Traditional)"}, {"alias": "breweries", "title": "Breweries"}], "rating": 4.0, "coordinates": {"latitude": 42.58858, "longitude": -72.60011}, "transactions": ["delivery"], "price": "$$", "location": {"address1": "24 Federal St", "address2": "", "address3": "", "city": "Greenfield", "zip_code": "01301", "country": "US", "state": "MA", "display_address": ["24 Federal St", "Greenfield, MA 01301"]}, "phone": "+14137730333", "display_phone": "(413) 773-0333", "distance": 12275.049519739467}, {"id": "vuakpKxCBDz6kezGY2Os8Q", "alias": "hope-and-olive-greenfield", "name": "Hope & Olive", "image_url": "https://s3-media1.fl.yelpcdn.com/bphoto/JXgp6DSGLyNQUmPdvjgbDA/o.jpg", "is_closed": false, "url": "https://www.yelp.com/biz/hope-and-olive-greenfield?adjust_creative=ywY5UnLZrNrRl2b93Ruy_g&utm_campaign=yelp_api_v3&utm_medium=api_v3_business_search&utm_source=ywY5UnLZrNrRl2b93Ruy_g", "review_count": 261, "categories": [{"alias": "tradamerican", "title": "American (Traditional)"}, {"alias": "bars", "title": "Bars"}], "rating": 4.0, "coordinates": {"latitude": 42.5862655639648, "longitude": -72.5992050170898}, "transactions": ["delivery"], "price": "$$", "location": {"address1": "44 Hope St", "address2": "", "address3": "", "city": "Greenfield", "zip_code": "01301", "country": "US", "state": "MA", "display_address": ["44 Hope St", "Greenfield, MA 01301"]}, "phone": "+14137743150", "display_phone": "(413) 774-3150", "distance": 12160.189194175418}, {"id": "QG0drESFSFC-fICafjJbeA", "alias": "williams-sugar-house-deerfield", "name": "Williams Sugar House", "image_url": "https://s3-media1.fl.yelpcdn.com/bphoto/j_AOHIXm4lellRljT1Dmfg/o.jpg", "is_closed": false, "url": "https://www.yelp.com/biz/williams-sugar-house-deerfield?adjust_creative=ywY5UnLZrNrRl2b93Ruy_g&utm_campaign=yelp_api_v3&utm_medium=api_v3_business_search&utm_source=ywY5UnLZrNrRl2b93Ruy_g", "review_count": 7, "categories": [{"alias": "newamerican", "title": "American (New)"}], "rating": 4.0, "coordinates": {"latitude": 42.5378105789423, "longitude": -72.6030052453279}, "transactions": [], "price": "$$", "location": {"address1": "491 Greenfield Rd", "address2": "", "address3": "", "city": "Deerfield", "zip_code": "01342", "country": "US", "state": "MA", "display_address": ["491 Greenfield Rd", "Deerfield, MA 01342"]}, "phone": "+14137735186", "display_phone": "(413) 773-5186", "distance": 9128.385076399276}, {"id": "QBdFoCiVYe2ZTwmTH8nIdQ", "alias": "damn-yankees-bbq-south-deerfield", "name": "Damn Yankees BBQ", "image_url": "https://s3-media1.fl.yelpcdn.com/bphoto/E-hdAq7izmIS7zdo860Org/o.jpg", "is_closed": false, "url": "https://www.yelp.com/biz/damn-yankees-bbq-south-deerfield?adjust_creative=ywY5UnLZrNrRl2b93Ruy_g&utm_campaign=yelp_api_v3&utm_medium=api_v3_business_search&utm_source=ywY5UnLZrNrRl2b93Ruy_g", "review_count": 25, "categories": [{"alias": "bbq", "title": "Barbeque"}], "rating": 3.5, "coordinates": {"latitude": 42.477924, "longitude": -72.61121}, "transactions": [], "price": "$$", "location": {"address1": "20 Elm St", "address2": "", "address3": "", "city": "South Deerfield", "zip_code": "01373", "country": "US", "state": "MA", "display_address": ["20 Elm St", "South Deerfield, MA 01373"]}, "phone": "+14132729347", "display_phone": "(413) 272-9347", "distance": 8736.456401255338}, {"id": "bfNy4CK-UWtNIIfzVXeZ-A", "alias": "wolfies-restaurant-south-deerfield", "name": "Wolfie's Restaurant", "image_url": "https://s3-media2.fl.yelpcdn.com/bphoto/6mdshhOQiXEPBs8xUe9O7A/o.jpg", "is_closed": false, "url": "https://www.yelp.com/biz/wolfies-restaurant-south-deerfield?adjust_creative=ywY5UnLZrNrRl2b93Ruy_g&utm_campaign=yelp_api_v3&utm_medium=api_v3_business_search&utm_source=ywY5UnLZrNrRl2b93Ruy_g", "review_count": 92, "categories": [{"alias": "tradamerican", "title": "American (Traditional)"}, {"alias": "bars", "title": "Bars"}, {"alias": "chicken_wings", "title": "Chicken Wings"}], "rating": 3.5, "coordinates": {"latitude": 42.4768333435059, "longitude": -72.6083679199219}, "transactions": ["delivery"], "price": "$$", "location": {"address1": "52 S Main St", "address2": "", "address3": "", "city": "South Deerfield", "zip_code": "01373", "country": "US", "state": "MA", "display_address": ["52 S Main St", "South Deerfield, MA 01373"]}, "phone": "+14136657068", "display_phone": "(413) 665-7068", "distance": 8994.217868761287}, {"id": "ZrnKQkZYNw_otzzh6EIiHQ", "alias": "blue-heron-restaurant-sunderland", "name": "Blue Heron Restaurant", "image_url": "https://s3-media3.fl.yelpcdn.com/bphoto/IdK76wlrON2OqFado0LeKQ/o.jpg", "is_closed": false, "url": "https://www.yelp.com/biz/blue-heron-restaurant-sunderland?adjust_creative=ywY5UnLZrNrRl2b93Ruy_g&utm_campaign=yelp_api_v3&utm_medium=api_v3_business_search&utm_source=ywY5UnLZrNrRl2b93Ruy_g", "review_count": 116, "categories": [{"alias": "newamerican", "title": "American (New)"}], "rating": 4.0, "coordinates": {"latitude": 42.46719, "longitude": -72.57818}, "transactions": ["delivery"], "price": "$$$", "location": {"address1": "112 N Main St", "address2": "", "address3": "", "city": "Sunderland", "zip_code": "01375", "country": "US", "state": "MA", "display_address": ["112 N Main St", "Sunderland, MA 01375"]}, "phone": "+14136652102", "display_phone": "(413) 665-2102", "distance": 11672.364976023258}, {"id": "2QTT7kY9qMp88GbkAi2kRQ", "alias": "terrazza-greenfield-2", "name": "Terrazza", "image_url": "https://s3-media4.fl.yelpcdn.com/bphoto/GJYRmIwN23NA33b_qnYcoQ/o.jpg", "is_closed": false, "url": "https://www.yelp.com/biz/terrazza-greenfield-2?adjust_creative=ywY5UnLZrNrRl2b93Ruy_g&utm_campaign=yelp_api_v3&utm_medium=api_v3_business_search&utm_source=ywY5UnLZrNrRl2b93Ruy_g", "review_count": 29, "categories": [{"alias": "italian", "title": "Italian"}, {"alias": "lounges", "title": "Lounges"}, {"alias": "eventplanning", "title": "Party & Event Planning"}], "rating": 4.5, "coordinates": {"latitude": 42.618689, "longitude": -72.595328}, "transactions": ["delivery", "pickup"], "price": "$$", "location": {"address1": "244 Country Club Rd", "address2": null, "address3": null, "city": "Greenfield", "zip_code": "01301", "country": "US", "state": "MA", "display_address": ["244 Country Club Rd", "Greenfield, MA 01301"]}, "phone": "+14137720970", "display_phone": "(413) 772-0970", "distance": 15046.858053957898}, {"id": "_9sO066L6e1kjQRf2jzd7g", "alias": "countrypie-pizza-company-ashfield", "name": "Countrypie Pizza Company", "image_url": "https://s3-media2.fl.yelpcdn.com/bphoto/YIZ24sof1VTPO1xtqCK6cg/o.jpg", "is_closed": false, "url": "https://www.yelp.com/biz/countrypie-pizza-company-ashfield?adjust_creative=ywY5UnLZrNrRl2b93Ruy_g&utm_campaign=yelp_api_v3&utm_medium=api_v3_business_search&utm_source=ywY5UnLZrNrRl2b93Ruy_g", "review_count": 30, "categories": [{"alias": "pizza", "title": "Pizza"}], "rating": 4.5, "coordinates": {"latitude": 42.526902, "longitude": -72.794253}, "transactions": [], "price": "$", "location": {"address1": "343 Main St", "address2": "", "address3": "", "city": "Ashfield", "zip_code": "01330", "country": "US", "state": "MA", "display_address": ["343 Main St", "Ashfield, MA 01330"]}, "phone": "+14136284488", "display_phone": "(413) 628-4488", "distance": 7313.101800601573}, {"id": "wkIOjcec-3uGidfIXcOpJA", "alias": "elmers-store-restaurant-ashfield", "name": "Elmer's Store Restaurant", "image_url": "https://s3-media3.fl.yelpcdn.com/bphoto/2AgISV-Z2E7y_ISdmkzroA/o.jpg", "is_closed": false, "url": "https://www.yelp.com/biz/elmers-store-restaurant-ashfield?adjust_creative=ywY5UnLZrNrRl2b93Ruy_g&utm_campaign=yelp_api_v3&utm_medium=api_v3_business_search&utm_source=ywY5UnLZrNrRl2b93Ruy_g", "review_count": 45, "categories": [{"alias": "breakfast_brunch", "title": "Breakfast & Brunch"}, {"alias": "bars", "title": "Bars"}], "rating": 4.0, "coordinates": {"latitude": 42.5261756, "longitude": -72.7924932}, "transactions": [], "price": "$$", "location": {"address1": "396 Main St", "address2": null, "address3": "", "city": "Ashfield", "zip_code": "01330", "country": "US", "state": "MA", "display_address": ["396 Main St", "Ashfield, MA 01330"]}, "phone": "+14136284003", "display_phone": "(413) 628-4003", "distance": 7151.696103409306}, {"id": "ESGUgUn3t-v1O4K5crrl6w", "alias": "black-cow-burger-bar-turners-falls", "name": "Black Cow Burger Bar", "image_url": "https://s3-media3.fl.yelpcdn.com/bphoto/NrX9m8XL7VxDQ4UvZvAccw/o.jpg", "is_closed": false, "url": "https://www.yelp.com/biz/black-cow-burger-bar-turners-falls?adjust_creative=ywY5UnLZrNrRl2b93Ruy_g&utm_campaign=yelp_api_v3&utm_medium=api_v3_business_search&utm_source=ywY5UnLZrNrRl2b93Ruy_g", "review_count": 97, "categories": [{"alias": "newamerican", "title": "American (New)"}, {"alias": "burgers", "title": "Burgers"}, {"alias": "hotdog", "title": "Hot Dogs"}], "rating": 4.0, "coordinates": {"latitude": 42.60748, "longitude": -72.55704}, "transactions": ["delivery", "pickup"], "price": "$$", "location": {"address1": "125 Ave A", "address2": "", "address3": "", "city": "Turners Falls", "zip_code": "01376", "country": "US", "state": "MA", "display_address": ["125 Ave A", "Turners Falls, MA 01376"]}, "phone": "+14138635183", "display_phone": "(413) 863-5183", "distance": 16239.310986751096}, {"id": "Ie-qeBdtdOavjzdQPH1IGw", "alias": "osteria-vespa-amherst", "name": "Osteria Vespa", "image_url": "https://s3-media2.fl.yelpcdn.com/bphoto/oKJx3-9rIr-8_CJ10HkaSQ/o.jpg", "is_closed": false, "url": "https://www.yelp.com/biz/osteria-vespa-amherst?adjust_creative=ywY5UnLZrNrRl2b93Ruy_g&utm_campaign=yelp_api_v3&utm_medium=api_v3_business_search&utm_source=ywY5UnLZrNrRl2b93Ruy_g", "review_count": 90, "categories": [{"alias": "italian", "title": "Italian"}, {"alias": "mediterranean", "title": "Mediterranean"}], "rating": 4.0, "coordinates": {"latitude": 42.375387, "longitude": -72.52048}, "transactions": ["delivery", "restaurant_reservation"], "price": "$$$", "location": {"address1": "28 Amity St", "address2": "", "address3": "", "city": "Amherst", "zip_code": "01002", "country": "US", "state": "MA", "display_address": ["28 Amity St", "Amherst, MA 01002"]}, "phone": "+14132303194", "display_phone": "(413) 230-3194", "distance": 21560.02150959353}, {"id": "5kNSVF1ZIFz1yu9U4r2bzw", "alias": "bakers-country-store-conway", "name": "Bakers Country Store", "image_url": "", "is_closed": false, "url": "https://www.yelp.com/biz/bakers-country-store-conway?adjust_creative=ywY5UnLZrNrRl2b93Ruy_g&utm_campaign=yelp_api_v3&utm_medium=api_v3_business_search&utm_source=ywY5UnLZrNrRl2b93Ruy_g", "review_count": 1, "categories": [{"alias": "breakfast_brunch", "title": "Breakfast & Brunch"}], "rating": 1.0, "coordinates": {"latitude": 42.50851, "longitude": -72.701994}, "transactions": [], "location": {"address1": "101 River St", "address2": "", "address3": "", "city": "Conway", "zip_code": "01341", "country": "US", "state": "MA", "display_address": ["101 River St", "Conway, MA 01341"]}, "phone": "+14133694936", "display_phone": "(413) 369-4936", "distance": 564.7102802624495}, {"id": "SvMeNEEWcJw0w6lmjgxdew", "alias": "titos-taqueria-greenfield", "name": "Tito's Taqueria", "image_url": "https://s3-media3.fl.yelpcdn.com/bphoto/wZBeQpxZsgDEmwK5EswnXQ/o.jpg", "is_closed": false, "url": "https://www.yelp.com/biz/titos-taqueria-greenfield?adjust_creative=ywY5UnLZrNrRl2b93Ruy_g&utm_campaign=yelp_api_v3&utm_medium=api_v3_business_search&utm_source=ywY5UnLZrNrRl2b93Ruy_g", "review_count": 3, "categories": [{"alias": "foodstands", "title": "Food Stands"}, {"alias": "mexican", "title": "Mexican"}], "rating": 4.5, "coordinates": {"latitude": 42.5927892, "longitude": -72.5978838}, "transactions": ["delivery", "pickup"], "location": {"address1": "145 Federal St", "address2": null, "address3": "", "city": "Greenfield", "zip_code": "01301", "country": "US", "state": "MA", "display_address": ["145 Federal St", "Greenfield, MA 01301"]}, "phone": "", "display_phone": "", "distance": 12738.378134071409}, {"id": "1SuRjphJzX8b9mhicrjGSA", "alias": "the-waxwing-hatfield", "name": "The Waxwing", "image_url": "https://s3-media2.fl.yelpcdn.com/bphoto/QWAmNTvZfp7mBBSPK0Camw/o.jpg", "is_closed": false, "url": "https://www.yelp.com/biz/the-waxwing-hatfield?adjust_creative=ywY5UnLZrNrRl2b93Ruy_g&utm_campaign=yelp_api_v3&utm_medium=api_v3_business_search&utm_source=ywY5UnLZrNrRl2b93Ruy_g", "review_count": 1, "categories": [{"alias": "seafood", "title": "Seafood"}, {"alias": "mediterranean", "title": "Mediterranean"}, {"alias": "cocktailbars", "title": "Cocktail Bars"}], "rating": 5.0, "coordinates": {"latitude": 42.37246, "longitude": -72.63478}, "transactions": [], "location": {"address1": "34 West St", "address2": "", "address3": null, "city": "Hatfield", "zip_code": "01088", "country": "US", "state": "MA", "display_address": ["34 West St", "Hatfield, MA 01088"]}, "phone": "+14132476113", "display_phone": "(413) 247-6113", "distance": 16577.91419617798}, {"id": "f7RXJjnUe_mTm-B0wEOshw", "alias": "petes-seafood-restaurant-greenfield", "name": "Pete's Seafood Restaurant", "image_url": "https://s3-media4.fl.yelpcdn.com/bphoto/jxzmJc-NN4wG9QarQEQvHg/o.jpg", "is_closed": false, "url": "https://www.yelp.com/biz/petes-seafood-restaurant-greenfield?adjust_creative=ywY5UnLZrNrRl2b93Ruy_g&utm_campaign=yelp_api_v3&utm_medium=api_v3_business_search&utm_source=ywY5UnLZrNrRl2b93Ruy_g", "review_count": 35, "categories": [{"alias": "seafood", "title": "Seafood"}], "rating": 4.5, "coordinates": {"latitude": 42.5895936, "longitude": -72.600997}, "transactions": ["delivery"], "price": "$$", "location": {"address1": "54 School St", "address2": "", "address3": "", "city": "Greenfield", "zip_code": "01301", "country": "US", "state": "MA", "display_address": ["54 School St", "Greenfield, MA 01301"]}, "phone": "+14137722153", "display_phone": "(413) 772-2153", "distance": 12306.945449192302}, {"id": "Pi1vuMna90sAsd9KUnI-kQ", "alias": "riffs-north-turners-falls", "name": "Riff's North", "image_url": "https://s3-media3.fl.yelpcdn.com/bphoto/-P1r6baoRAmWRz18K-pwvA/o.jpg", "is_closed": false, "url": "https://www.yelp.com/biz/riffs-north-turners-falls?adjust_creative=ywY5UnLZrNrRl2b93Ruy_g&utm_campaign=yelp_api_v3&utm_medium=api_v3_business_search&utm_source=ywY5UnLZrNrRl2b93Ruy_g", "review_count": 71, "categories": [{"alias": "burgers", "title": "Burgers"}, {"alias": "tradamerican", "title": "American (Traditional)"}, {"alias": "sandwiches", "title": "Sandwiches"}], "rating": 4.5, "coordinates": {"latitude": 42.6060869184616, "longitude": -72.5584889575839}, "transactions": ["delivery"], "price": "$$", "location": {"address1": "166 Ave A", "address2": "", "address3": "", "city": "Turners Falls", "zip_code": "01376", "country": "US", "state": "MA", "display_address": ["166 Ave A", "Turners Falls, MA 01376"]}, "phone": "+14138633700", "display_phone": "(413) 863-3700", "distance": 16109.319503458179}, {"id": "cSqUvTVIVcf0SxF2OnzQ4A", "alias": "delicatesse-shelburne-falls", "name": "Delicatesse", "image_url": "https://s3-media3.fl.yelpcdn.com/bphoto/QwYRU6Kwi9XUtW7cU1TMyw/o.jpg", "is_closed": false, "url": "https://www.yelp.com/biz/delicatesse-shelburne-falls?adjust_creative=ywY5UnLZrNrRl2b93Ruy_g&utm_campaign=yelp_api_v3&utm_medium=api_v3_business_search&utm_source=ywY5UnLZrNrRl2b93Ruy_g", "review_count": 15, "categories": [{"alias": "delis", "title": "Delis"}, {"alias": "cafes", "title": "Cafes"}, {"alias": "bagels", "title": "Bagels"}], "rating": 5.0, "coordinates": {"latitude": 42.6037749, "longitude": -72.7402612}, "transactions": [], "location": {"address1": "8 Bridge St", "address2": "", "address3": null, "city": "Shelburne Falls", "zip_code": "01370", "country": "US", "state": "MA", "display_address": ["8 Bridge St", "Shelburne Falls, MA 01370"]}, "phone": "+14134893257", "display_phone": "(413) 489-3257", "distance": 10593.858876796474}, {"id": "gntEo3k4A_B1BkdGnJI3Pw", "alias": "namaste-indian-nepalese-restaurant-greenfield", "name": "Namaste Indian/Nepalese Restaurant", "image_url": "https://s3-media4.fl.yelpcdn.com/bphoto/s1NNDn1n3dA345Qf_IDT9A/o.jpg", "is_closed": false, "url": "https://www.yelp.com/biz/namaste-indian-nepalese-restaurant-greenfield?adjust_creative=ywY5UnLZrNrRl2b93Ruy_g&utm_campaign=yelp_api_v3&utm_medium=api_v3_business_search&utm_source=ywY5UnLZrNrRl2b93Ruy_g", "review_count": 36, "categories": [{"alias": "indpak", "title": "Indian"}, {"alias": "himalayan", "title": "Himalayan/Nepalese"}], "rating": 4.0, "coordinates": {"latitude": 42.58832, "longitude": -72.60112}, "transactions": ["delivery", "pickup"], "price": "$$", "location": {"address1": "286 Main St", "address2": null, "address3": "", "city": "Greenfield", "zip_code": "01301", "country": "US", "state": "MA", "display_address": ["286 Main St", "Greenfield, MA 01301"]}, "phone": "+14133258232", "display_phone": "(413) 325-8232", "distance": 12189.41890981374}, {"id": "uzplqOLK7sx5gV3DYURn1Q", "alias": "goten-of-japan-sunderland", "name": "Goten of Japan", "image_url": "https://s3-media1.fl.yelpcdn.com/bphoto/cGjbWaxmcdOjijjzYz5Rsw/o.jpg", "is_closed": false, "url": "https://www.yelp.com/biz/goten-of-japan-sunderland?adjust_creative=ywY5UnLZrNrRl2b93Ruy_g&utm_campaign=yelp_api_v3&utm_medium=api_v3_business_search&utm_source=ywY5UnLZrNrRl2b93Ruy_g", "review_count": 105, "categories": [{"alias": "sushi", "title": "Sushi Bars"}, {"alias": "teppanyaki", "title": "Teppanyaki"}], "rating": 4.0, "coordinates": {"latitude": 42.45876, "longitude": -72.5722}, "transactions": ["delivery"], "price": "$$", "location": {"address1": "104 Old Amherst Rd", "address2": "", "address3": "", "city": "Sunderland", "zip_code": "01375", "country": "US", "state": "MA", "display_address": ["104 Old Amherst Rd", "Sunderland, MA 01375"]}, "phone": "+14136653628", "display_phone": "(413) 665-3628", "distance": 12552.56450884787}, {"id": "OQvVnrwhOvA69-X7jIAnPg", "alias": "manna-house-greenfield", "name": "Manna House", "image_url": "https://s3-media2.fl.yelpcdn.com/bphoto/micyK8VUFzhW9_BmqmVSSA/o.jpg", "is_closed": false, "url": "https://www.yelp.com/biz/manna-house-greenfield?adjust_creative=ywY5UnLZrNrRl2b93Ruy_g&utm_campaign=yelp_api_v3&utm_medium=api_v3_business_search&utm_source=ywY5UnLZrNrRl2b93Ruy_g", "review_count": 45, "categories": [{"alias": "korean", "title": "Korean"}], "rating": 4.0, "coordinates": {"latitude": 42.5870285, "longitude": -72.6003113}, "transactions": ["delivery"], "price": "$$", "location": {"address1": "27 Bank Row", "address2": null, "address3": null, "city": "Greenfield", "zip_code": "01301", "country": "US", "state": "MA", "display_address": ["27 Bank Row", "Greenfield, MA 01301"]}, "phone": "+14137745955", "display_phone": "(413) 774-5955", "distance": 12148.358219474056}, {"id": "o9QX_uCqOVdwk3Gvy34Bng", "alias": "great-falls-harvest-turners-falls", "name": "Great Falls Harvest", "image_url": "https://s3-media4.fl.yelpcdn.com/bphoto/OkD_KkZ6Kve21zBRzA_kKg/o.jpg", "is_closed": false, "url": "https://www.yelp.com/biz/great-falls-harvest-turners-falls?adjust_creative=ywY5UnLZrNrRl2b93Ruy_g&utm_campaign=yelp_api_v3&utm_medium=api_v3_business_search&utm_source=ywY5UnLZrNrRl2b93Ruy_g", "review_count": 46, "categories": [{"alias": "diners", "title": "Diners"}, {"alias": "salad", "title": "Salad"}], "rating": 4.5, "coordinates": {"latitude": 42.6080433, "longitude": -72.5566357}, "transactions": [], "price": "$$", "location": {"address1": "50 3rd St", "address2": "", "address3": "", "city": "Turners Falls", "zip_code": "01376", "country": "US", "state": "MA", "display_address": ["50 3rd St", "Turners Falls, MA 01376"]}, "phone": "+14138630023", "display_phone": "(413) 863-0023", "distance": 16366.28184673685}, {"id": "T-Ouo3opXRiUEyGoBT0aoA", "alias": "the-harp-irish-pub-amherst-2", "name": "The Harp Irish Pub", "image_url": "https://s3-media4.fl.yelpcdn.com/bphoto/C6s2T_vWP916-VZoHhMzjQ/o.jpg", "is_closed": false, "url": "https://www.yelp.com/biz/the-harp-irish-pub-amherst-2?adjust_creative=ywY5UnLZrNrRl2b93Ruy_g&utm_campaign=yelp_api_v3&utm_medium=api_v3_business_search&utm_source=ywY5UnLZrNrRl2b93Ruy_g", "review_count": 32, "categories": [{"alias": "irish_pubs", "title": "Irish Pub"}, {"alias": "seafood", "title": "Seafood"}], "rating": 4.0, "coordinates": {"latitude": 42.4156, "longitude": -72.5328399}, "transactions": ["delivery"], "price": "$$", "location": {"address1": "163 Sunderland Rd", "address2": "", "address3": "", "city": "Amherst", "zip_code": "01002", "country": "US", "state": "MA", "display_address": ["163 Sunderland Rd", "Amherst, MA 01002"]}, "phone": "+14138350050", "display_phone": "(413) 835-0050", "distance": 17864.20424522102}, {"id": "EWCyLEMETdIUFOmwMSRxTQ", "alias": "mesa-verde-greenfield", "name": "Mesa Verde", "image_url": "https://s3-media4.fl.yelpcdn.com/bphoto/ok7I_ZBW8l4NdmeyyBtLBw/o.jpg", "is_closed": false, "url": "https://www.yelp.com/biz/mesa-verde-greenfield?adjust_creative=ywY5UnLZrNrRl2b93Ruy_g&utm_campaign=yelp_api_v3&utm_medium=api_v3_business_search&utm_source=ywY5UnLZrNrRl2b93Ruy_g", "review_count": 141, "categories": [{"alias": "mexican", "title": "Mexican"}], "rating": 4.0, "coordinates": {"latitude": 42.587334, "longitude": -72.602582}, "transactions": ["delivery"], "price": "$", "location": {"address1": "10 Fiske Ave", "address2": "", "address3": "", "city": "Greenfield", "zip_code": "01301", "country": "US", "state": "MA", "display_address": ["10 Fiske Ave", "Greenfield, MA 01301"]}, "phone": "+14137722531", "display_phone": "(413) 772-2531", "distance": 12039.039099059688}, {"id": "Hz8ENDohZ-ZY2MooPz8-Eg", "alias": "spruce-corner-restaurant-goshen", "name": "Spruce Corner Restaurant", "image_url": "https://s3-media3.fl.yelpcdn.com/bphoto/Vf9B0rulKSpqtTS-E_lQrA/o.jpg", "is_closed": false, "url": "https://www.yelp.com/biz/spruce-corner-restaurant-goshen?adjust_creative=ywY5UnLZrNrRl2b93Ruy_g&utm_campaign=yelp_api_v3&utm_medium=api_v3_business_search&utm_source=ywY5UnLZrNrRl2b93Ruy_g", "review_count": 11, "categories": [{"alias": "tradamerican", "title": "American (Traditional)"}], "rating": 4.0, "coordinates": {"latitude": 42.45618, "longitude": -72.832747}, "transactions": [], "price": "$$", "location": {"address1": "188 Berkshire Trl W", "address2": "", "address3": "", "city": "Goshen", "zip_code": "01032", "country": "US", "state": "MA", "display_address": ["188 Berkshire Trl W", "Goshen, MA 01032"]}, "phone": "+14132683188", "display_phone": "(413) 268-3188", "distance": 11972.864302384023}, {"id": "75CHObb-0bxspwAaWcHsyw", "alias": "the-whately-inn-whately", "name": "The Whately Inn", "image_url": "https://s3-media3.fl.yelpcdn.com/bphoto/TkyLjBwFpK2kdenqUkKi0g/o.jpg", "is_closed": false, "url": "https://www.yelp.com/biz/the-whately-inn-whately?adjust_creative=ywY5UnLZrNrRl2b93Ruy_g&utm_campaign=yelp_api_v3&utm_medium=api_v3_business_search&utm_source=ywY5UnLZrNrRl2b93Ruy_g", "review_count": 60, "categories": [{"alias": "french", "title": "French"}, {"alias": "tradamerican", "title": "American (Traditional)"}], "rating": 3.5, "coordinates": {"latitude": 42.4398746, "longitude": -72.6349179}, "transactions": [], "price": "$$$", "location": {"address1": "193 Chestnut Plain Rd", "address2": "", "address3": "", "city": "Whately", "zip_code": "01093", "country": "US", "state": "MA", "display_address": ["193 Chestnut Plain Rd", "Whately, MA 01093"]}, "phone": "+14136653044", "display_phone": "(413) 665-3044", "distance": 9947.942721214316}, {"id": "M-DCwXS6_O-rOVJAxr3ofw", "alias": "kobe-hibachi-sushi-and-bar-greenfield-2", "name": "Kobe Hibachi Sushi and Bar", "image_url": "https://s3-media1.fl.yelpcdn.com/bphoto/zBcLhfB-95e9l01Zykb7Cg/o.jpg", "is_closed": false, "url": "https://www.yelp.com/biz/kobe-hibachi-sushi-and-bar-greenfield-2?adjust_creative=ywY5UnLZrNrRl2b93Ruy_g&utm_campaign=yelp_api_v3&utm_medium=api_v3_business_search&utm_source=ywY5UnLZrNrRl2b93Ruy_g", "review_count": 54, "categories": [{"alias": "japanese", "title": "Japanese"}, {"alias": "sushi", "title": "Sushi Bars"}, {"alias": "cocktailbars", "title": "Cocktail Bars"}], "rating": 3.5, "coordinates": {"latitude": 42.5863135, "longitude": -72.6271816}, "transactions": ["pickup"], "price": "$$", "location": {"address1": "254 Mohawk Trl", "address2": null, "address3": "", "city": "Greenfield", "zip_code": "01301", "country": "US", "state": "MA", "display_address": ["254 Mohawk Trl", "Greenfield, MA 01301"]}, "phone": "+14137728888", "display_phone": "(413) 772-8888", "distance": 10553.657406911387}, {"id": "B9mlcSelTLSmYp3UQlMCxw", "alias": "holiday-pizza-south-deerfield", "name": "Holiday Pizza", "image_url": "https://s3-media2.fl.yelpcdn.com/bphoto/5UGIRfPb-Pw3YWCxfalkfw/o.jpg", "is_closed": false, "url": "https://www.yelp.com/biz/holiday-pizza-south-deerfield?adjust_creative=ywY5UnLZrNrRl2b93Ruy_g&utm_campaign=yelp_api_v3&utm_medium=api_v3_business_search&utm_source=ywY5UnLZrNrRl2b93Ruy_g", "review_count": 33, "categories": [{"alias": "pizza", "title": "Pizza"}, {"alias": "mediterranean", "title": "Mediterranean"}, {"alias": "italian", "title": "Italian"}], "rating": 4.5, "coordinates": {"latitude": 42.4771728515625, "longitude": -72.609130859375}, "transactions": ["delivery"], "price": "$", "location": {"address1": "3 Elm St", "address2": "Ste A", "address3": "", "city": "South Deerfield", "zip_code": "01373", "country": "US", "state": "MA", "display_address": ["3 Elm St", "Ste A", "South Deerfield, MA 01373"]}, "phone": "+14136658195", "display_phone": "(413) 665-8195", "distance": 8926.31498830093}, {"id": "VvAcjLH87MhtrZC67tPpww", "alias": "cold-river-cafe-and-restaurant-charlemont", "name": "Cold River Cafe & Restaurant", "image_url": "https://s3-media2.fl.yelpcdn.com/bphoto/PV_66NvbKtHue0PFwzD6Eg/o.jpg", "is_closed": false, "url": "https://www.yelp.com/biz/cold-river-cafe-and-restaurant-charlemont?adjust_creative=ywY5UnLZrNrRl2b93Ruy_g&utm_campaign=yelp_api_v3&utm_medium=api_v3_business_search&utm_source=ywY5UnLZrNrRl2b93Ruy_g", "review_count": 48, "categories": [{"alias": "breakfast_brunch", "title": "Breakfast & Brunch"}, {"alias": "cafes", "title": "Cafes"}, {"alias": "pizza", "title": "Pizza"}], "rating": 3.5, "coordinates": {"latitude": 42.62666, "longitude": -72.88171}, "transactions": [], "price": "$$", "location": {"address1": "31A Main St", "address2": "", "address3": "", "city": "Charlemont", "zip_code": "01339", "country": "US", "state": "MA", "display_address": ["31A Main St", "Charlemont, MA 01339"]}, "phone": "+14133390000", "display_phone": "(413) 339-0000", "distance": 19164.30389504411}, {"id": "2jbnnI5522q_T0pl-MuJXA", "alias": "bueno-y-sano-south-deerfield", "name": "Bueno Y Sano", "image_url": "https://s3-media1.fl.yelpcdn.com/bphoto/LGK_mCBWcVAPyyIenMDuBw/o.jpg", "is_closed": false, "url": "https://www.yelp.com/biz/bueno-y-sano-south-deerfield?adjust_creative=ywY5UnLZrNrRl2b93Ruy_g&utm_campaign=yelp_api_v3&utm_medium=api_v3_business_search&utm_source=ywY5UnLZrNrRl2b93Ruy_g", "review_count": 2, "categories": [{"alias": "mexican", "title": "Mexican"}], "rating": 5.0, "coordinates": {"latitude": 42.477567, "longitude": -72.608631}, "transactions": [], "location": {"address1": "3 Elm Streeet", "address2": null, "address3": "", "city": "South Deerfield", "zip_code": "01373", "country": "US", "state": "MA", "display_address": ["3 Elm Streeet", "South Deerfield, MA 01373"]}, "phone": "+14136654241", "display_phone": "(413) 665-4241", "distance": 8944.742469942008}, {"id": "_19rex6zqPyQgsSAgqsFYg", "alias": "williamsburg-snack-bar-haydenville", "name": "Williamsburg Snack Bar", "image_url": "https://s3-media2.fl.yelpcdn.com/bphoto/2sme__nhtRSb_ViggNHK9g/o.jpg", "is_closed": false, "url": "https://www.yelp.com/biz/williamsburg-snack-bar-haydenville?adjust_creative=ywY5UnLZrNrRl2b93Ruy_g&utm_campaign=yelp_api_v3&utm_medium=api_v3_business_search&utm_source=ywY5UnLZrNrRl2b93Ruy_g", "review_count": 59, "categories": [{"alias": "sandwiches", "title": "Sandwiches"}], "rating": 4.5, "coordinates": {"latitude": 42.380499, "longitude": -72.707228}, "transactions": [], "price": "$", "location": {"address1": "109 Main St", "address2": "", "address3": "", "city": "Haydenville", "zip_code": "01039", "country": "US", "state": "MA", "display_address": ["109 Main St", "Haydenville, MA 01039"]}, "phone": "+14132687556", "display_phone": "(413) 268-7556", "distance": 14571.465040581257}, {"id": "aqxqBtpWLmyEwWvgfLTxZA", "alias": "magpie-greenfield", "name": "Magpie", "image_url": "https://s3-media1.fl.yelpcdn.com/bphoto/L2HxqLlx7n0XbbsWFddCaQ/o.jpg", "is_closed": false, "url": "https://www.yelp.com/biz/magpie-greenfield?adjust_creative=ywY5UnLZrNrRl2b93Ruy_g&utm_campaign=yelp_api_v3&utm_medium=api_v3_business_search&utm_source=ywY5UnLZrNrRl2b93Ruy_g", "review_count": 99, "categories": [{"alias": "pizza", "title": "Pizza"}], "rating": 4.0, "coordinates": {"latitude": 42.5869828462601, "longitude": -72.6005423069}, "transactions": ["delivery"], "price": "$$", "location": {"address1": "21 Bank Row", "address2": "", "address3": "", "city": "Greenfield", "zip_code": "01301", "country": "US", "state": "MA", "display_address": ["21 Bank Row", "Greenfield, MA 01301"]}, "phone": "+14134753570", "display_phone": "(413) 475-3570", "distance": 12154.19916204933}, {"id": "rHXDd-R9ztUJxKRMj2Ziqw", "alias": "goshen-snack-bar-williamsburg", "name": "Goshen Snack Bar", "image_url": "", "is_closed": false, "url": "https://www.yelp.com/biz/goshen-snack-bar-williamsburg?adjust_creative=ywY5UnLZrNrRl2b93Ruy_g&utm_campaign=yelp_api_v3&utm_medium=api_v3_business_search&utm_source=ywY5UnLZrNrRl2b93Ruy_g", "review_count": 1, "categories": [{"alias": "hotdogs", "title": "Fast Food"}], "rating": 5.0, "coordinates": {"latitude": 42.443226, "longitude": -72.815647}, "transactions": [], "location": {"address1": "47 Ball Rd", "address2": null, "address3": null, "city": "Williamsburg", "zip_code": "01096", "country": "US", "state": "MA", "display_address": ["47 Ball Rd", "Williamsburg, MA 01096"]}, "phone": "+14132689240", "display_phone": "(413) 268-9240", "distance": 11676.574150728546}, {"id": "k8vXS4BM-dzeV3xRu2w15Q", "alias": "champneys-restaurant-and-tavern-deerfield", "name": "Champney's Restaurant & Tavern", "image_url": "https://s3-media3.fl.yelpcdn.com/bphoto/5PJAiYN018fAejDnsPipVw/o.jpg", "is_closed": false, "url": "https://www.yelp.com/biz/champneys-restaurant-and-tavern-deerfield?adjust_creative=ywY5UnLZrNrRl2b93Ruy_g&utm_campaign=yelp_api_v3&utm_medium=api_v3_business_search&utm_source=ywY5UnLZrNrRl2b93Ruy_g", "review_count": 58, "categories": [{"alias": "beer_and_wine", "title": "Beer, Wine & Spirits"}, {"alias": "tradamerican", "title": "American (Traditional)"}, {"alias": "breakfast_brunch", "title": "Breakfast & Brunch"}], "rating": 3.5, "coordinates": {"latitude": 42.547022, "longitude": -72.604508}, "transactions": ["delivery"], "price": "$$", "location": {"address1": "81 Old Main St", "address2": "", "address3": "", "city": "Deerfield", "zip_code": "01342", "country": "US", "state": "MA", "display_address": ["81 Old Main St", "Deerfield, MA 01342"]}, "phone": "+14137723087", "display_phone": "(413) 772-3087", "distance": 9317.462855539925}, {"id": "1xHC1WbRBSv_DRRh8dP5IA", "alias": "honeycrisp-chicken-amherst", "name": "Honeycrisp Chicken", "image_url": "https://s3-media2.fl.yelpcdn.com/bphoto/XLGMTWn3UhX0aia6AjXtmw/o.jpg", "is_closed": false, "url": "https://www.yelp.com/biz/honeycrisp-chicken-amherst?adjust_creative=ywY5UnLZrNrRl2b93Ruy_g&utm_campaign=yelp_api_v3&utm_medium=api_v3_business_search&utm_source=ywY5UnLZrNrRl2b93Ruy_g", "review_count": 39, "categories": [{"alias": "chicken_wings", "title": "Chicken Wings"}, {"alias": "korean", "title": "Korean"}, {"alias": "taiwanese", "title": "Taiwanese"}], "rating": 4.5, "coordinates": {"latitude": 42.3759103, "longitude": -72.5184821}, "transactions": ["delivery"], "location": {"address1": "1 Boltwood Walk", "address2": null, "address3": "", "city": "Amherst", "zip_code": "01002", "country": "US", "state": "MA", "display_address": ["1 Boltwood Walk", "Amherst, MA 01002"]}, "phone": "+14132004490", "display_phone": "(413) 200-4490", "distance": 21620.59579123307}, {"id": "35kzCz1iaCkTaJU63sDVaw", "alias": "smithsonian-cafe-and-chowder-house-west-hatfield", "name": "Smithsonian Cafe and Chowder House", "image_url": "https://s3-media4.fl.yelpcdn.com/bphoto/C4k2O-DbgIRb9ljmxwlHbg/o.jpg", "is_closed": false, "url": "https://www.yelp.com/biz/smithsonian-cafe-and-chowder-house-west-hatfield?adjust_creative=ywY5UnLZrNrRl2b93Ruy_g&utm_campaign=yelp_api_v3&utm_medium=api_v3_business_search&utm_source=ywY5UnLZrNrRl2b93Ruy_g", "review_count": 75, "categories": [{"alias": "tradamerican", "title": "American (Traditional)"}], "rating": 4.5, "coordinates": {"latitude": 42.3671380235461, "longitude": -72.6379209011793}, "transactions": ["delivery"], "price": "$", "location": {"address1": "1 W St", "address2": "", "address3": "", "city": "West Hatfield", "zip_code": "01088", "country": "US", "state": "MA", "display_address": ["1 W St", "West Hatfield, MA 01088"]}, "phone": "+14132475157", "display_phone": "(413) 247-5157", "distance": 17042.59876445974}, {"id": "tHR3HsAmGfDOcjWe2n6Ftw", "alias": "shanghai-gourmet-amherst", "name": "Shanghai Gourmet", "image_url": "https://s3-media3.fl.yelpcdn.com/bphoto/iY1_iOMI0o_evS5fB__uOg/o.jpg", "is_closed": false, "url": "https://www.yelp.com/biz/shanghai-gourmet-amherst?adjust_creative=ywY5UnLZrNrRl2b93Ruy_g&utm_campaign=yelp_api_v3&utm_medium=api_v3_business_search&utm_source=ywY5UnLZrNrRl2b93Ruy_g", "review_count": 21, "categories": [{"alias": "shanghainese", "title": "Shanghainese"}], "rating": 4.5, "coordinates": {"latitude": 42.37729067, "longitude": -72.52038267}, "transactions": [], "price": "$$", "location": {"address1": "104 N Pleasant St", "address2": null, "address3": "", "city": "Amherst", "zip_code": "01002", "country": "US", "state": "MA", "display_address": ["104 N Pleasant St", "Amherst, MA 01002"]}, "phone": "+14138350913", "display_phone": "(413) 835-0913", "distance": 21418.026861178114}, {"id": "efnGUoB4SVkhsF9a2wjebg", "alias": "the-wagon-wheel-restaurant-gill", "name": "The Wagon Wheel Restaurant", "image_url": "https://s3-media1.fl.yelpcdn.com/bphoto/_ifEFpgX3i8RfdhHYMX1uQ/o.jpg", "is_closed": false, "url": "https://www.yelp.com/biz/the-wagon-wheel-restaurant-gill?adjust_creative=ywY5UnLZrNrRl2b93Ruy_g&utm_campaign=yelp_api_v3&utm_medium=api_v3_business_search&utm_source=ywY5UnLZrNrRl2b93Ruy_g", "review_count": 136, "categories": [{"alias": "burgers", "title": "Burgers"}, {"alias": "tradamerican", "title": "American (Traditional)"}], "rating": 4.0, "coordinates": {"latitude": 42.61201, "longitude": -72.54543}, "transactions": ["delivery"], "price": "$", "location": {"address1": "39 French King Hwy", "address2": "", "address3": "", "city": "Gill", "zip_code": "01354", "country": "US", "state": "MA", "display_address": ["39 French King Hwy", "Gill, MA 01354"]}, "phone": "+14138638210", "display_phone": "(413) 863-8210", "distance": 17336.567689182044}, {"id": "SAvy9WokbPywn-Q6bO9xaw", "alias": "thai-blue-ginger-greenfield", "name": "Thai Blue Ginger", "image_url": "https://s3-media2.fl.yelpcdn.com/bphoto/8OSPpAICVUhAW-ZcYhCo_w/o.jpg", "is_closed": false, "url": "https://www.yelp.com/biz/thai-blue-ginger-greenfield?adjust_creative=ywY5UnLZrNrRl2b93Ruy_g&utm_campaign=yelp_api_v3&utm_medium=api_v3_business_search&utm_source=ywY5UnLZrNrRl2b93Ruy_g", "review_count": 69, "categories": [{"alias": "thai", "title": "Thai"}], "rating": 4.0, "coordinates": {"latitude": 42.5881226929282, "longitude": -72.6008848324572}, "transactions": ["delivery", "pickup"], "price": "$$", "location": {"address1": "298 Main St", "address2": "", "address3": "", "city": "Greenfield", "zip_code": "01301", "country": "US", "state": "MA", "display_address": ["298 Main St", "Greenfield, MA 01301"]}, "phone": "+14137720921", "display_phone": "(413) 772-0921", "distance": 12198.808689871268}, {"id": "GrjITzOl6sPP8DSv1RWxnw", "alias": "baked-shelburne-falls", "name": "Baked", "image_url": "https://s3-media4.fl.yelpcdn.com/bphoto/d3lzR8hA5CWajBKGBPND2A/o.jpg", "is_closed": false, "url": "https://www.yelp.com/biz/baked-shelburne-falls?adjust_creative=ywY5UnLZrNrRl2b93Ruy_g&utm_campaign=yelp_api_v3&utm_medium=api_v3_business_search&utm_source=ywY5UnLZrNrRl2b93Ruy_g", "review_count": 42, "categories": [{"alias": "cafes", "title": "Cafes"}, {"alias": "breakfast_brunch", "title": "Breakfast & Brunch"}, {"alias": "bakeries", "title": "Bakeries"}], "rating": 4.0, "coordinates": {"latitude": 42.6032697149586, "longitude": -72.7398762962963}, "transactions": [], "price": "$", "location": {"address1": "4 Deerfield Ave", "address2": "", "address3": null, "city": "Shelburne Falls", "zip_code": "01370", "country": "US", "state": "MA", "display_address": ["4 Deerfield Ave", "Shelburne Falls, MA 01370"]}, "phone": "+14134893139", "display_phone": "(413) 489-3139", "distance": 10538.190108493814}, {"id": "l0NWu0BZldXF3jHhk9SDgQ", "alias": "el-greco-cafe-greenfield", "name": "El Greco Cafe", "image_url": "https://s3-media2.fl.yelpcdn.com/bphoto/FPblzw5Gsz41dTeeA7r32A/o.jpg", "is_closed": false, "url": "https://www.yelp.com/biz/el-greco-cafe-greenfield?adjust_creative=ywY5UnLZrNrRl2b93Ruy_g&utm_campaign=yelp_api_v3&utm_medium=api_v3_business_search&utm_source=ywY5UnLZrNrRl2b93Ruy_g", "review_count": 50, "categories": [{"alias": "greek", "title": "Greek"}, {"alias": "mediterranean", "title": "Mediterranean"}], "rating": 4.0, "coordinates": {"latitude": 42.587867, "longitude": -72.602179}, "transactions": ["delivery"], "price": "$", "location": {"address1": "233 Main St", "address2": "", "address3": "", "city": "Greenfield", "zip_code": "01301", "country": "US", "state": "MA", "display_address": ["233 Main St", "Greenfield, MA 01301"]}, "phone": "+14137742844", "display_phone": "(413) 774-2844", "distance": 12103.181973364002}, {"id": "W4sLmaC91ain7-EIW6rJhg", "alias": "99-restaurants-greenfield", "name": "99 Restaurants", "image_url": "https://s3-media1.fl.yelpcdn.com/bphoto/O1tqImdbBB0XmapA_c5vUQ/o.jpg", "is_closed": false, "url": "https://www.yelp.com/biz/99-restaurants-greenfield?adjust_creative=ywY5UnLZrNrRl2b93Ruy_g&utm_campaign=yelp_api_v3&utm_medium=api_v3_business_search&utm_source=ywY5UnLZrNrRl2b93Ruy_g", "review_count": 38, "categories": [{"alias": "pubs", "title": "Pubs"}, {"alias": "tradamerican", "title": "American (Traditional)"}], "rating": 4.0, "coordinates": {"latitude": 42.586313, "longitude": -72.623546}, "transactions": [], "price": "$$", "location": {"address1": "17 Colrain Rd", "address2": null, "address3": null, "city": "Greenfield", "zip_code": "01301", "country": "US", "state": "MA", "display_address": ["17 Colrain Rd", "Greenfield, MA 01301"]}, "phone": "+14137759997", "display_phone": "(413) 775-9997", "distance": 10790.809677744062}, {"id": "3p3pMwBPluQSEscxeqFa5g", "alias": "bittersweet-bakery-and-cafe-deerfield", "name": "Bittersweet Bakery & Cafe", "image_url": "https://s3-media2.fl.yelpcdn.com/bphoto/_2c3G5F_Kt0IvHqtfncUSg/o.jpg", "is_closed": false, "url": "https://www.yelp.com/biz/bittersweet-bakery-and-cafe-deerfield?adjust_creative=ywY5UnLZrNrRl2b93Ruy_g&utm_campaign=yelp_api_v3&utm_medium=api_v3_business_search&utm_source=ywY5UnLZrNrRl2b93Ruy_g", "review_count": 17, "categories": [{"alias": "cafes", "title": "Cafes"}, {"alias": "bakeries", "title": "Bakeries"}, {"alias": "coffee", "title": "Coffee & Tea"}], "rating": 4.0, "coordinates": {"latitude": 42.53364, "longitude": -72.60323}, "transactions": [], "location": {"address1": "470 Greenfield Rd", "address2": "", "address3": null, "city": "Deerfield", "zip_code": "01342", "country": "US", "state": "MA", "display_address": ["470 Greenfield Rd", "Deerfield, MA 01342"]}, "phone": "+14132235496", "display_phone": "(413) 223-5496", "distance": 8900.363903970232}, {"id": "pSPnC1hcf-CO-uMQJF0NQQ", "alias": "bba-deli-market-south-deerfield", "name": "BBA Deli Market", "image_url": "https://s3-media3.fl.yelpcdn.com/bphoto/G0HZIKIZczmS5vnYNRPpdw/o.jpg", "is_closed": false, "url": "https://www.yelp.com/biz/bba-deli-market-south-deerfield?adjust_creative=ywY5UnLZrNrRl2b93Ruy_g&utm_campaign=yelp_api_v3&utm_medium=api_v3_business_search&utm_source=ywY5UnLZrNrRl2b93Ruy_g", "review_count": 21, "categories": [{"alias": "delis", "title": "Delis"}, {"alias": "polish", "title": "Polish"}, {"alias": "gourmet", "title": "Specialty Food"}], "rating": 4.5, "coordinates": {"latitude": 42.472156, "longitude": -72.608634}, "transactions": ["delivery"], "price": "$", "location": {"address1": "39 Thayer St", "address2": "", "address3": "", "city": "South Deerfield", "zip_code": "01373", "country": "US", "state": "MA", "display_address": ["39 Thayer St", "South Deerfield, MA 01373"]}, "phone": "+14136659171", "display_phone": "(413) 665-9171", "distance": 9172.7200335982}, {"id": "ZYW34OE1yuNuSaPgXbK98g", "alias": "hangar-greenfield-greenfield", "name": "Hangar - Greenfield", "image_url": "https://s3-media3.fl.yelpcdn.com/bphoto/LshdcwdmAZYSse8fbuOqqw/o.jpg", "is_closed": false, "url": "https://www.yelp.com/biz/hangar-greenfield-greenfield?adjust_creative=ywY5UnLZrNrRl2b93Ruy_g&utm_campaign=yelp_api_v3&utm_medium=api_v3_business_search&utm_source=ywY5UnLZrNrRl2b93Ruy_g", "review_count": 28, "categories": [{"alias": "chicken_wings", "title": "Chicken Wings"}, {"alias": "pubs", "title": "Pubs"}], "rating": 3.5, "coordinates": {"latitude": 42.5889892578125, "longitude": -72.5999526977539}, "transactions": ["pickup", "delivery"], "price": "$$", "location": {"address1": "30 Federal St", "address2": "", "address3": null, "city": "Greenfield", "zip_code": "01301", "country": "US", "state": "MA", "display_address": ["30 Federal St", "Greenfield, MA 01301"]}, "phone": "+14137739464", "display_phone": "(413) 773-9464", "distance": 12315.08117209867}, {"id": "0ggseJ7x1t-I-I8GA6knjw", "alias": "bistro-63-amherst-3", "name": "Bistro 63", "image_url": "https://s3-media4.fl.yelpcdn.com/bphoto/2DDhras34EfIQjko9vTX_w/o.jpg", "is_closed": false, "url": "https://www.yelp.com/biz/bistro-63-amherst-3?adjust_creative=ywY5UnLZrNrRl2b93Ruy_g&utm_campaign=yelp_api_v3&utm_medium=api_v3_business_search&utm_source=ywY5UnLZrNrRl2b93Ruy_g", "review_count": 156, "categories": [{"alias": "newamerican", "title": "American (New)"}, {"alias": "venues", "title": "Venues & Event Spaces"}], "rating": 4.0, "coordinates": {"latitude": 42.37668, "longitude": -72.51952}, "transactions": ["delivery"], "price": "$$", "location": {"address1": "63 N Pleasant St", "address2": null, "address3": "Monkey Bar & Grill", "city": "Amherst", "zip_code": "01002", "country": "US", "state": "MA", "display_address": ["63 N Pleasant St", "Monkey Bar & Grill", "Amherst, MA 01002"]}, "phone": "+14132591600", "display_phone": "(413) 259-1600", "distance": 21511.34863680268}, {"id": "Xw5Gz7kiqxN34K8vjslNAQ", "alias": "new-fortune-chinese-restaurant-greenfield", "name": "New Fortune Chinese Restaurant", "image_url": "https://s3-media2.fl.yelpcdn.com/bphoto/ftAnKqMowdiOo9CXaIgZAg/o.jpg", "is_closed": false, "url": "https://www.yelp.com/biz/new-fortune-chinese-restaurant-greenfield?adjust_creative=ywY5UnLZrNrRl2b93Ruy_g&utm_campaign=yelp_api_v3&utm_medium=api_v3_business_search&utm_source=ywY5UnLZrNrRl2b93Ruy_g", "review_count": 37, "categories": [{"alias": "chinese", "title": "Chinese"}, {"alias": "sushi", "title": "Sushi Bars"}, {"alias": "japanese", "title": "Japanese"}], "rating": 3.5, "coordinates": {"latitude": 42.587352, "longitude": -72.626241}, "transactions": ["delivery"], "price": "$$", "location": {"address1": "249 Mohawk Trl", "address2": "", "address3": "", "city": "Greenfield", "zip_code": "01301", "country": "US", "state": "MA", "display_address": ["249 Mohawk Trl", "Greenfield, MA 01301"]}, "phone": "+14137720838", "display_phone": "(413) 772-0838", "distance": 10741.82112798072}, {"id": "YTfiTaawGtWf9CX5a64UNQ", "alias": "ciesluks-market-south-deerfield", "name": "Ciesluk's Market", "image_url": "https://s3-media4.fl.yelpcdn.com/bphoto/kMtgDkcjeQBIp-1SVychMw/o.jpg", "is_closed": false, "url": "https://www.yelp.com/biz/ciesluks-market-south-deerfield?adjust_creative=ywY5UnLZrNrRl2b93Ruy_g&utm_campaign=yelp_api_v3&utm_medium=api_v3_business_search&utm_source=ywY5UnLZrNrRl2b93Ruy_g", "review_count": 5, "categories": [{"alias": "grocery", "title": "Grocery"}, {"alias": "bakeries", "title": "Bakeries"}, {"alias": "delis", "title": "Delis"}], "rating": 4.5, "coordinates": {"latitude": 42.47767, "longitude": -72.60843}, "transactions": [], "location": {"address1": "55C N Main St", "address2": null, "address3": "", "city": "South Deerfield", "zip_code": "01373", "country": "US", "state": "MA", "display_address": ["55C N Main St", "South Deerfield, MA 01373"]}, "phone": "+14133973574", "display_phone": "(413) 397-3574", "distance": 8969.738966422638}, {"id": "gjyFpVijSZC6PUqnu8N7BQ", "alias": "bubs-bbq-sunderland", "name": "Bub's BBQ", "image_url": "https://s3-media3.fl.yelpcdn.com/bphoto/3htYzah5sVUhJqBemtBS7Q/o.jpg", "is_closed": false, "url": "https://www.yelp.com/biz/bubs-bbq-sunderland?adjust_creative=ywY5UnLZrNrRl2b93Ruy_g&utm_campaign=yelp_api_v3&utm_medium=api_v3_business_search&utm_source=ywY5UnLZrNrRl2b93Ruy_g", "review_count": 175, "categories": [{"alias": "bbq", "title": "Barbeque"}], "rating": 3.5, "coordinates": {"latitude": 42.4303359985352, "longitude": -72.5412445068359}, "transactions": ["pickup", "delivery"], "price": "$$", "location": {"address1": "676 Amherst Rd", "address2": "", "address3": "", "city": "Sunderland", "zip_code": "01375", "country": "US", "state": "MA", "display_address": ["676 Amherst Rd", "Sunderland, MA 01375"]}, "phone": "+14135489630", "display_phone": "(413) 548-9630", "distance": 16309.725887106799}, {"id": "S9w52Y8f_nfv8QXuHmXBCg", "alias": "johnnys-tavern-amherst", "name": "Johnny's Tavern", "image_url": "https://s3-media4.fl.yelpcdn.com/bphoto/CGGNA4tbYJkDkSsBqJTq-w/o.jpg", "is_closed": false, "url": "https://www.yelp.com/biz/johnnys-tavern-amherst?adjust_creative=ywY5UnLZrNrRl2b93Ruy_g&utm_campaign=yelp_api_v3&utm_medium=api_v3_business_search&utm_source=ywY5UnLZrNrRl2b93Ruy_g", "review_count": 296, "categories": [{"alias": "newamerican", "title": "American (New)"}, {"alias": "burgers", "title": "Burgers"}, {"alias": "beer_and_wine", "title": "Beer, Wine & Spirits"}], "rating": 4.0, "coordinates": {"latitude": 42.376276, "longitude": -72.518136}, "transactions": ["pickup", "delivery"], "price": "$$", "location": {"address1": "30 Boltwood Walk", "address2": "", "address3": "", "city": "Amherst", "zip_code": "01002", "country": "US", "state": "MA", "display_address": ["30 Boltwood Walk", "Amherst, MA 01002"]}, "phone": "+14132303818", "display_phone": "(413) 230-3818", "distance": 21613.54175300774}, {"id": "wqQ-cLMbLmxzc_p4jjDSxw", "alias": "the-old-creamery-cummington-2", "name": "The Old Creamery", "image_url": "https://s3-media3.fl.yelpcdn.com/bphoto/suPv8fzXhQdsR8elaUVfzg/o.jpg", "is_closed": false, "url": "https://www.yelp.com/biz/the-old-creamery-cummington-2?adjust_creative=ywY5UnLZrNrRl2b93Ruy_g&utm_campaign=yelp_api_v3&utm_medium=api_v3_business_search&utm_source=ywY5UnLZrNrRl2b93Ruy_g", "review_count": 31, "categories": [{"alias": "grocery", "title": "Grocery"}, {"alias": "bakeries", "title": "Bakeries"}, {"alias": "sandwiches", "title": "Sandwiches"}], "rating": 4.5, "coordinates": {"latitude": 42.464115, "longitude": -72.90535}, "transactions": [], "price": "$$", "location": {"address1": "445 Berkshire Trl", "address2": "", "address3": "", "city": "Cummington", "zip_code": "01026", "country": "US", "state": "MA", "display_address": ["445 Berkshire Trl", "Cummington, MA 01026"]}, "phone": "+14136345560", "display_phone": "(413) 634-5560", "distance": 17057.31957353822}, {"id": "z8ibbohpxOO6gaJHb0krUA", "alias": "bridgeside-grille-sunderland-3", "name": "BridgeSide Grille", "image_url": "https://s3-media1.fl.yelpcdn.com/bphoto/KqszBqT0JeFVOheneOgKVQ/o.jpg", "is_closed": false, "url": "https://www.yelp.com/biz/bridgeside-grille-sunderland-3?adjust_creative=ywY5UnLZrNrRl2b93Ruy_g&utm_campaign=yelp_api_v3&utm_medium=api_v3_business_search&utm_source=ywY5UnLZrNrRl2b93Ruy_g", "review_count": 52, "categories": [{"alias": "tradamerican", "title": "American (Traditional)"}], "rating": 3.0, "coordinates": {"latitude": 42.465655, "longitude": -72.57859}, "transactions": ["pickup", "delivery"], "price": "$$", "location": {"address1": "9 Amherst Rd", "address2": "", "address3": "", "city": "Sunderland", "zip_code": "01375", "country": "US", "state": "MA", "display_address": ["9 Amherst Rd", "Sunderland, MA 01375"]}, "phone": "+14133978101", "display_phone": "(413) 397-8101", "distance": 11729.82886719294}, {"id": "jilRIDbiEEtDhi4hnV6Oug", "alias": "local-burgy-williamsburg", "name": "Local Burgy", "image_url": "https://s3-media2.fl.yelpcdn.com/bphoto/V9kmP6sTF9MSAXbNKLptZw/o.jpg", "is_closed": false, "url": "https://www.yelp.com/biz/local-burgy-williamsburg?adjust_creative=ywY5UnLZrNrRl2b93Ruy_g&utm_campaign=yelp_api_v3&utm_medium=api_v3_business_search&utm_source=ywY5UnLZrNrRl2b93Ruy_g", "review_count": 23, "categories": [{"alias": "bbq", "title": "Barbeque"}, {"alias": "foodstands", "title": "Food Stands"}, {"alias": "burgers", "title": "Burgers"}], "rating": 4.5, "coordinates": {"latitude": 42.3818416889538, "longitude": -72.7114339380672}, "transactions": [], "price": "$$", "location": {"address1": "93 Main St", "address2": "", "address3": null, "city": "Williamsburg", "zip_code": "01039", "country": "US", "state": "MA", "display_address": ["93 Main St", "Williamsburg, MA 01039"]}, "phone": "+14132688300", "display_phone": "(413) 268-8300", "distance": 14425.72129492024}, {"id": "ujdYCeulx68Mfdf4pvbxYg", "alias": "grill-n-chill-hatfield", "name": "Grill N Chill", "image_url": "https://s3-media1.fl.yelpcdn.com/bphoto/6_ORnjaKTNiU_12QB0U-5w/o.jpg", "is_closed": false, "url": "https://www.yelp.com/biz/grill-n-chill-hatfield?adjust_creative=ywY5UnLZrNrRl2b93Ruy_g&utm_campaign=yelp_api_v3&utm_medium=api_v3_business_search&utm_source=ywY5UnLZrNrRl2b93Ruy_g", "review_count": 14, "categories": [{"alias": "newamerican", "title": "American (New)"}, {"alias": "pizza", "title": "Pizza"}], "rating": 3.5, "coordinates": {"latitude": 42.359764, "longitude": -72.625832}, "transactions": ["delivery"], "price": "$$", "location": {"address1": "127 Elm St", "address2": "", "address3": "", "city": "Hatfield", "zip_code": "01038", "country": "US", "state": "MA", "display_address": ["127 Elm St", "Hatfield, MA 01038"]}, "phone": "+14132475044", "display_phone": "(413) 247-5044", "distance": 18159.560692968073}, {"id": "vXmQXGQN-DnhBPFwa9rAZg", "alias": "the-taste-thai-restaurant-amherst", "name": "The Taste Thai Restaurant", "image_url": "https://s3-media3.fl.yelpcdn.com/bphoto/YT-wiZqYgEj5L6l7mJX7EQ/o.jpg", "is_closed": false, "url": "https://www.yelp.com/biz/the-taste-thai-restaurant-amherst?adjust_creative=ywY5UnLZrNrRl2b93Ruy_g&utm_campaign=yelp_api_v3&utm_medium=api_v3_business_search&utm_source=ywY5UnLZrNrRl2b93Ruy_g", "review_count": 82, "categories": [{"alias": "thai", "title": "Thai"}], "rating": 4.0, "coordinates": {"latitude": 42.376332, "longitude": -72.519874}, "transactions": ["delivery"], "price": "$$", "location": {"address1": "25 N Pleasant St", "address2": "", "address3": "", "city": "Amherst", "zip_code": "01002", "country": "US", "state": "MA", "display_address": ["25 N Pleasant St", "Amherst, MA 01002"]}, "phone": "+14132565421", "display_phone": "(413) 256-5421", "distance": 21520.205809466584}, {"id": "e8ZEjMpyR0yUdEdBdlYiJQ", "alias": "new-golden-china-restaurant-south-deerfield", "name": "New Golden China Restaurant", "image_url": "https://s3-media3.fl.yelpcdn.com/bphoto/8wVKYBzZqtc0BHauql8UvA/o.jpg", "is_closed": false, "url": "https://www.yelp.com/biz/new-golden-china-restaurant-south-deerfield?adjust_creative=ywY5UnLZrNrRl2b93Ruy_g&utm_campaign=yelp_api_v3&utm_medium=api_v3_business_search&utm_source=ywY5UnLZrNrRl2b93Ruy_g", "review_count": 17, "categories": [{"alias": "chinese", "title": "Chinese"}], "rating": 3.5, "coordinates": {"latitude": 42.4765968322754, "longitude": -72.6094131469727}, "transactions": ["delivery"], "price": "$$", "location": {"address1": "45 S Main St", "address2": "", "address3": "", "city": "South Deerfield", "zip_code": "01373", "country": "US", "state": "MA", "display_address": ["45 S Main St", "South Deerfield, MA 01373"]}, "phone": "+14136653365", "display_phone": "(413) 665-3365", "distance": 8932.964394654637}, {"id": "8x750RlduCSBUMZoZ8sJ8Q", "alias": "wild-roots-sunderland", "name": "Wild Roots", "image_url": "https://s3-media1.fl.yelpcdn.com/bphoto/9SsPB5uUmMUjJBzkOcp6yA/o.jpg", "is_closed": false, "url": "https://www.yelp.com/biz/wild-roots-sunderland?adjust_creative=ywY5UnLZrNrRl2b93Ruy_g&utm_campaign=yelp_api_v3&utm_medium=api_v3_business_search&utm_source=ywY5UnLZrNrRl2b93Ruy_g", "review_count": 26, "categories": [{"alias": "juicebars", "title": "Juice Bars & Smoothies"}, {"alias": "breakfast_brunch", "title": "Breakfast & Brunch"}, {"alias": "sandwiches", "title": "Sandwiches"}], "rating": 4.5, "coordinates": {"latitude": 42.46628, "longitude": -72.58093}, "transactions": ["pickup", "delivery"], "price": "$$", "location": {"address1": "11 Bridge St", "address2": null, "address3": "", "city": "Sunderland", "zip_code": "01375", "country": "US", "state": "MA", "display_address": ["11 Bridge St", "Sunderland, MA 01375"]}, "phone": "+14133505911", "display_phone": "(413) 350-5911", "distance": 11536.966049745157}, {"id": "vie_fCh-eUqGfKNiNVjFow", "alias": "foxtown-diner-shelburne-falls", "name": "Foxtown Diner", "image_url": "https://s3-media2.fl.yelpcdn.com/bphoto/6w_uOYWUsL-1xZUOZtd9BA/o.jpg", "is_closed": false, "url": "https://www.yelp.com/biz/foxtown-diner-shelburne-falls?adjust_creative=ywY5UnLZrNrRl2b93Ruy_g&utm_campaign=yelp_api_v3&utm_medium=api_v3_business_search&utm_source=ywY5UnLZrNrRl2b93Ruy_g", "review_count": 35, "categories": [{"alias": "sandwiches", "title": "Sandwiches"}, {"alias": "breakfast_brunch", "title": "Breakfast & Brunch"}, {"alias": "burgers", "title": "Burgers"}], "rating": 4.0, "coordinates": {"latitude": 42.603473, "longitude": -72.739337}, "transactions": [], "price": "$", "location": {"address1": "25 Bridge St", "address2": "", "address3": "", "city": "Shelburne Falls", "zip_code": "01370", "country": "US", "state": "MA", "display_address": ["25 Bridge St", "Shelburne Falls, MA 01370"]}, "phone": "+14136256606", "display_phone": "(413) 625-6606", "distance": 10545.158856640988}, {"id": "Oa-E-xgz9ZBZxPwBGmfLcA", "alias": "momo-tibetan-restaurant-amherst-4", "name": "Momo Tibetan Restaurant", "image_url": "https://s3-media2.fl.yelpcdn.com/bphoto/amBbrKZvctCPOGYA3tMhCQ/o.jpg", "is_closed": false, "url": "https://www.yelp.com/biz/momo-tibetan-restaurant-amherst-4?adjust_creative=ywY5UnLZrNrRl2b93Ruy_g&utm_campaign=yelp_api_v3&utm_medium=api_v3_business_search&utm_source=ywY5UnLZrNrRl2b93Ruy_g", "review_count": 53, "categories": [{"alias": "himalayan", "title": "Himalayan/Nepalese"}], "rating": 4.5, "coordinates": {"latitude": 42.3759300394761, "longitude": -72.5195162614796}, "transactions": ["delivery"], "price": "$$", "location": {"address1": "23 North Pleasant St", "address2": null, "address3": "", "city": "Amherst", "zip_code": "01002", "country": "US", "state": "MA", "display_address": ["23 North Pleasant St", "Amherst, MA 01002"]}, "phone": "+14138350382", "display_phone": "(413) 835-0382", "distance": 21572.472603006066}, {"id": "I3UE0kzvpVOnfIGUYMzZyg", "alias": "the-lady-killigrew-cafe-montague", "name": "The Lady Killigrew Cafe", "image_url": "https://s3-media3.fl.yelpcdn.com/bphoto/3u0HBieTFTsTE-QN8Ng14w/o.jpg", "is_closed": false, "url": "https://www.yelp.com/biz/the-lady-killigrew-cafe-montague?adjust_creative=ywY5UnLZrNrRl2b93Ruy_g&utm_campaign=yelp_api_v3&utm_medium=api_v3_business_search&utm_source=ywY5UnLZrNrRl2b93Ruy_g", "review_count": 117, "categories": [{"alias": "coffee", "title": "Coffee & Tea"}, {"alias": "sandwiches", "title": "Sandwiches"}, {"alias": "desserts", "title": "Desserts"}], "rating": 4.5, "coordinates": {"latitude": 42.5377464294434, "longitude": -72.5371627807617}, "transactions": ["delivery"], "price": "$$", "location": {"address1": "440 Greenfield Rd", "address2": "", "address3": "", "city": "Montague", "zip_code": "01351", "country": "US", "state": "MA", "display_address": ["440 Greenfield Rd", "Montague, MA 01351"]}, "phone": "+14133679666", "display_phone": "(413) 367-9666", "distance": 14256.717704832567}, {"id": "bOvwjTfloZG0w4gqldRbxw", "alias": "the-rendezvous-turners-falls", "name": "The Rendezvous", "image_url": "https://s3-media1.fl.yelpcdn.com/bphoto/XHPigS2CPvkGi04kfh1tbQ/o.jpg", "is_closed": false, "url": "https://www.yelp.com/biz/the-rendezvous-turners-falls?adjust_creative=ywY5UnLZrNrRl2b93Ruy_g&utm_campaign=yelp_api_v3&utm_medium=api_v3_business_search&utm_source=ywY5UnLZrNrRl2b93Ruy_g", "review_count": 98, "categories": [{"alias": "newamerican", "title": "American (New)"}, {"alias": "musicvenues", "title": "Music Venues"}, {"alias": "burgers", "title": "Burgers"}], "rating": 4.0, "coordinates": {"latitude": 42.60748, "longitude": -72.55612}, "transactions": ["pickup", "delivery"], "price": "$$", "location": {"address1": "78 3rd St", "address2": "", "address3": "", "city": "Turners Falls", "zip_code": "01376", "country": "US", "state": "MA", "display_address": ["78 3rd St", "Turners Falls, MA 01376"]}, "phone": "+14138632866", "display_phone": "(413) 863-2866", "distance": 16357.208701977263}, {"id": "TdZplOy0Nm7kMNpnEgo_kA", "alias": "dimos-restaurant-sunderland", "name": "Dimo's Restaurant", "image_url": "", "is_closed": false, "url": "https://www.yelp.com/biz/dimos-restaurant-sunderland?adjust_creative=ywY5UnLZrNrRl2b93Ruy_g&utm_campaign=yelp_api_v3&utm_medium=api_v3_business_search&utm_source=ywY5UnLZrNrRl2b93Ruy_g", "review_count": 11, "categories": [{"alias": "tradamerican", "title": "American (Traditional)"}], "rating": 3.0, "coordinates": {"latitude": 42.467481, "longitude": -72.578504}, "transactions": [], "price": "$$", "location": {"address1": "118 N Main St", "address2": "", "address3": "", "city": "Sunderland", "zip_code": "01375", "country": "US", "state": "MA", "display_address": ["118 N Main St", "Sunderland, MA 01375"]}, "phone": "+14136654444", "display_phone": "(413) 665-4444", "distance": 11658.167163625265}, {"id": "F60ZshsheJZSuxb3fpeFtw", "alias": "china-gourmet-greenfield-2", "name": "China Gourmet", "image_url": "https://s3-media2.fl.yelpcdn.com/bphoto/dX3zEIx-W2C6hWmklUr6hA/o.jpg", "is_closed": false, "url": "https://www.yelp.com/biz/china-gourmet-greenfield-2?adjust_creative=ywY5UnLZrNrRl2b93Ruy_g&utm_campaign=yelp_api_v3&utm_medium=api_v3_business_search&utm_source=ywY5UnLZrNrRl2b93Ruy_g", "review_count": 68, "categories": [{"alias": "chinese", "title": "Chinese"}, {"alias": "japanese", "title": "Japanese"}], "rating": 3.0, "coordinates": {"latitude": 42.5846366882324, "longitude": -72.6142959594727}, "transactions": ["delivery"], "price": "$$", "location": {"address1": "78 Mohawk Trl", "address2": null, "address3": "", "city": "Greenfield", "zip_code": "01301", "country": "US", "state": "MA", "display_address": ["78 Mohawk Trl", "Greenfield, MA 01301"]}, "phone": "+14137742299", "display_phone": "(413) 774-2299", "distance": 11152.24346929915}, {"id": "52Valo93JOiqpVPScUWEBg", "alias": "the-upper-bend-turners-falls-2", "name": "The Upper Bend", "image_url": "https://s3-media1.fl.yelpcdn.com/bphoto/7nJl1Sy_PZ5n5aK8w1eWcw/o.jpg", "is_closed": false, "url": "https://www.yelp.com/biz/the-upper-bend-turners-falls-2?adjust_creative=ywY5UnLZrNrRl2b93Ruy_g&utm_campaign=yelp_api_v3&utm_medium=api_v3_business_search&utm_source=ywY5UnLZrNrRl2b93Ruy_g", "review_count": 7, "categories": [{"alias": "breakfast_brunch", "title": "Breakfast & Brunch"}, {"alias": "coffee", "title": "Coffee & Tea"}, {"alias": "sandwiches", "title": "Sandwiches"}], "rating": 4.5, "coordinates": {"latitude": 42.6079845, "longitude": -72.55725217}, "transactions": [], "location": {"address1": "112 Avenue A", "address2": null, "address3": "", "city": "Turners Falls", "zip_code": "01376", "country": "US", "state": "MA", "display_address": ["112 Avenue A", "Turners Falls, MA 01376"]}, "phone": "+14138635270", "display_phone": "(413) 863-5270", "distance": 16322.728707699574}, {"id": "6Our5yg2Ihzg4qrwbOuwEQ", "alias": "hattapons-thai-kitchen-greenfield", "name": "Hattapon's Thai Kitchen", "image_url": "https://s3-media1.fl.yelpcdn.com/bphoto/OpC4EP9sMq0DlHgDHmrxyA/o.jpg", "is_closed": false, "url": "https://www.yelp.com/biz/hattapons-thai-kitchen-greenfield?adjust_creative=ywY5UnLZrNrRl2b93Ruy_g&utm_campaign=yelp_api_v3&utm_medium=api_v3_business_search&utm_source=ywY5UnLZrNrRl2b93Ruy_g", "review_count": 34, "categories": [{"alias": "thai", "title": "Thai"}], "rating": 3.5, "coordinates": {"latitude": 42.587759, "longitude": -72.601574}, "transactions": ["delivery"], "price": "$", "location": {"address1": "265 Main St", "address2": "", "address3": "", "city": "Greenfield", "zip_code": "01301", "country": "US", "state": "MA", "display_address": ["265 Main St", "Greenfield, MA 01301"]}, "phone": "+14137745304", "display_phone": "(413) 774-5304", "distance": 12142.915789641349}, {"id": "0xEKvNlbiPjEpNXeX02LJA", "alias": "buckland-pizza-shelburne-falls", "name": "Buckland Pizza", "image_url": "https://s3-media2.fl.yelpcdn.com/bphoto/n1hVQ3vVJQjfRA_Nfzt3og/o.jpg", "is_closed": false, "url": "https://www.yelp.com/biz/buckland-pizza-shelburne-falls?adjust_creative=ywY5UnLZrNrRl2b93Ruy_g&utm_campaign=yelp_api_v3&utm_medium=api_v3_business_search&utm_source=ywY5UnLZrNrRl2b93Ruy_g", "review_count": 22, "categories": [{"alias": "pizza", "title": "Pizza"}], "rating": 3.5, "coordinates": {"latitude": 42.6038289562622, "longitude": -72.7414358539614}, "transactions": [], "price": "$$", "location": {"address1": "13 State St", "address2": "", "address3": "", "city": "Shelburne Falls", "zip_code": "01370", "country": "US", "state": "MA", "display_address": ["13 State St", "Shelburne Falls, MA 01370"]}, "phone": "+14136256342", "display_phone": "(413) 625-6342", "distance": 10621.11628860184}, {"id": "dDA3YpteWaTXQ63z6REGeg", "alias": "the-wok-deerfield", "name": "The Wok", "image_url": "https://s3-media1.fl.yelpcdn.com/bphoto/vbZOmgKk-TYSndB9Oa5tQw/o.jpg", "is_closed": false, "url": "https://www.yelp.com/biz/the-wok-deerfield?adjust_creative=ywY5UnLZrNrRl2b93Ruy_g&utm_campaign=yelp_api_v3&utm_medium=api_v3_business_search&utm_source=ywY5UnLZrNrRl2b93Ruy_g", "review_count": 22, "categories": [{"alias": "chinese", "title": "Chinese"}, {"alias": "seafood", "title": "Seafood"}, {"alias": "soup", "title": "Soup"}], "rating": 3.0, "coordinates": {"latitude": 42.56664, "longitude": -72.593}, "transactions": ["delivery"], "price": "$$", "location": {"address1": "723 Greenfield Rd", "address2": "", "address3": "", "city": "Deerfield", "zip_code": "01342", "country": "US", "state": "MA", "display_address": ["723 Greenfield Rd", "Deerfield, MA 01342"]}, "phone": "+14137743606", "display_phone": "(413) 774-3606", "distance": 11213.841000854023}, {"id": "snV8jGHnoVWBNJyRUBJYug", "alias": "crazy-noodles-amherst", "name": "Crazy Noodles", "image_url": "https://s3-media2.fl.yelpcdn.com/bphoto/xEAIOZaKDme3BdwU223A2w/o.jpg", "is_closed": false, "url": "https://www.yelp.com/biz/crazy-noodles-amherst?adjust_creative=ywY5UnLZrNrRl2b93Ruy_g&utm_campaign=yelp_api_v3&utm_medium=api_v3_business_search&utm_source=ywY5UnLZrNrRl2b93Ruy_g", "review_count": 101, "categories": [{"alias": "soup", "title": "Soup"}, {"alias": "noodles", "title": "Noodles"}, {"alias": "chinese", "title": "Chinese"}], "rating": 4.0, "coordinates": {"latitude": 42.37596, "longitude": -72.51913}, "transactions": ["delivery"], "price": "$", "location": {"address1": "36 Main St", "address2": "", "address3": "", "city": "Amherst", "zip_code": "01002", "country": "US", "state": "MA", "display_address": ["36 Main St", "Amherst, MA 01002"]}, "phone": "+14132533287", "display_phone": "(413) 253-3287", "distance": 21605.147995606185}, {"id": "sZQnBWW8IPZUA1IVRLWjPg", "alias": "taylors-tavern-greenfield", "name": "Taylor's Tavern", "image_url": "https://s3-media1.fl.yelpcdn.com/bphoto/m7ro5xz5NB5--a5tW-7QtA/o.jpg", "is_closed": false, "url": "https://www.yelp.com/biz/taylors-tavern-greenfield?adjust_creative=ywY5UnLZrNrRl2b93Ruy_g&utm_campaign=yelp_api_v3&utm_medium=api_v3_business_search&utm_source=ywY5UnLZrNrRl2b93Ruy_g", "review_count": 51, "categories": [{"alias": "tradamerican", "title": "American (Traditional)"}, {"alias": "burgers", "title": "Burgers"}, {"alias": "sandwiches", "title": "Sandwiches"}], "rating": 3.5, "coordinates": {"latitude": 42.588072, "longitude": -72.6022799}, "transactions": ["delivery"], "price": "$$", "location": {"address1": "238 Main St", "address2": "", "address3": "", "city": "Greenfield", "zip_code": "01301", "country": "US", "state": "MA", "display_address": ["238 Main St", "Greenfield, MA 01301"]}, "phone": "+14137738313", "display_phone": "(413) 773-8313", "distance": 12113.282987327208}, {"id": "owKxbDnhxlBpqhcfiBjGiA", "alias": "berkshire-pizzeria-charlemont", "name": "Berkshire Pizzeria", "image_url": "https://s3-media1.fl.yelpcdn.com/bphoto/devT5oL9Ji6IwzHm5rv5sA/o.jpg", "is_closed": false, "url": "https://www.yelp.com/biz/berkshire-pizzeria-charlemont?adjust_creative=ywY5UnLZrNrRl2b93Ruy_g&utm_campaign=yelp_api_v3&utm_medium=api_v3_business_search&utm_source=ywY5UnLZrNrRl2b93Ruy_g", "review_count": 36, "categories": [{"alias": "pizza", "title": "Pizza"}, {"alias": "breakfast_brunch", "title": "Breakfast & Brunch"}, {"alias": "wraps", "title": "Wraps"}], "rating": 4.0, "coordinates": {"latitude": 42.6270903, "longitude": -72.8787897}, "transactions": [], "price": "$", "location": {"address1": "72 Main St", "address2": "", "address3": "", "city": "Charlemont", "zip_code": "01339", "country": "US", "state": "MA", "display_address": ["72 Main St", "Charlemont, MA 01339"]}, "phone": "+14133375501", "display_phone": "(413) 337-5501", "distance": 19020.732700997032}, {"id": "shdRdjPzsHQn5SXhsT9bVw", "alias": "toms-hot-dog-whately", "name": "Tom's Hot Dog", "image_url": "https://s3-media1.fl.yelpcdn.com/bphoto/8sAD2sXoHiFeNzO598_MaQ/o.jpg", "is_closed": false, "url": "https://www.yelp.com/biz/toms-hot-dog-whately?adjust_creative=ywY5UnLZrNrRl2b93Ruy_g&utm_campaign=yelp_api_v3&utm_medium=api_v3_business_search&utm_source=ywY5UnLZrNrRl2b93Ruy_g", "review_count": 34, "categories": [{"alias": "hotdog", "title": "Hot Dogs"}, {"alias": "burgers", "title": "Burgers"}, {"alias": "soup", "title": "Soup"}], "rating": 4.0, "coordinates": {"latitude": 42.4235720399516, "longitude": -72.6222722370316}, "transactions": ["delivery"], "price": "$", "location": {"address1": "61 State Rd Rte 5 And 10", "address2": "", "address3": "", "city": "Whately", "zip_code": "01093", "country": "US", "state": "MA", "display_address": ["61 State Rd Rte 5 And 10", "Whately, MA 01093"]}, "phone": "+14136652931", "display_phone": "(413) 665-2931", "distance": 12024.099431269326}, {"id": "1Gdcycg8N2j9oJbH1D6lBg", "alias": "lilis-restaurant-amherst", "name": "Lili's Restaurant", "image_url": "https://s3-media3.fl.yelpcdn.com/bphoto/ZmX1Ueig1zzUppwR700qMg/o.jpg", "is_closed": false, "url": "https://www.yelp.com/biz/lilis-restaurant-amherst?adjust_creative=ywY5UnLZrNrRl2b93Ruy_g&utm_campaign=yelp_api_v3&utm_medium=api_v3_business_search&utm_source=ywY5UnLZrNrRl2b93Ruy_g", "review_count": 131, "categories": [{"alias": "chinese", "title": "Chinese"}, {"alias": "noodles", "title": "Noodles"}], "rating": 5.0, "coordinates": {"latitude": 42.3785346, "longitude": -72.519757}, "transactions": ["delivery"], "price": "$", "location": {"address1": "197 North Pleasant St", "address2": "", "address3": null, "city": "Amherst", "zip_code": "01002", "country": "US", "state": "MA", "display_address": ["197 North Pleasant St", "Amherst, MA 01002"]}, "phone": "+14132535888", "display_phone": "(413) 253-5888", "distance": 21355.77241443404}, {"id": "FrJpcCrHNe0zdZCkw9IEyw", "alias": "hubies-tavern-montague", "name": "Hubie's Tavern", "image_url": "https://s3-media4.fl.yelpcdn.com/bphoto/3gWQzRgsBTzOX445tOvReA/o.jpg", "is_closed": false, "url": "https://www.yelp.com/biz/hubies-tavern-montague?adjust_creative=ywY5UnLZrNrRl2b93Ruy_g&utm_campaign=yelp_api_v3&utm_medium=api_v3_business_search&utm_source=ywY5UnLZrNrRl2b93Ruy_g", "review_count": 14, "categories": [{"alias": "diners", "title": "Diners"}, {"alias": "bars", "title": "Bars"}], "rating": 3.5, "coordinates": {"latitude": 42.6085548, "longitude": -72.5566254}, "transactions": [], "price": "$", "location": {"address1": "66 Ave A", "address2": "", "address3": "", "city": "Montague", "zip_code": "01376", "country": "US", "state": "MA", "display_address": ["66 Ave A", "Montague, MA 01376"]}, "phone": "+14138638938", "display_phone": "(413) 863-8938", "distance": 16398.50193833566}, {"id": "hRoE_3CUPnxn_1oDjjd9Lg", "alias": "jakes-at-the-mill-amherst", "name": "Jake's at The Mill", "image_url": "https://s3-media3.fl.yelpcdn.com/bphoto/E5tjKXlpbvZU282oIi1N5A/o.jpg", "is_closed": false, "url": "https://www.yelp.com/biz/jakes-at-the-mill-amherst?adjust_creative=ywY5UnLZrNrRl2b93Ruy_g&utm_campaign=yelp_api_v3&utm_medium=api_v3_business_search&utm_source=ywY5UnLZrNrRl2b93Ruy_g", "review_count": 54, "categories": [{"alias": "breakfast_brunch", "title": "Breakfast & Brunch"}, {"alias": "tradamerican", "title": "American (Traditional)"}], "rating": 4.5, "coordinates": {"latitude": 42.41545, "longitude": -72.53074}, "transactions": ["delivery"], "price": "$$", "location": {"address1": "68 Cowls Rd", "address2": null, "address3": "", "city": "Amherst", "zip_code": "01002", "country": "US", "state": "MA", "display_address": ["68 Cowls Rd", "Amherst, MA 01002"]}, "phone": "+14132303717", "display_phone": "(413) 230-3717", "distance": 18034.74061833345}, {"id": "FumYAtwmfAo1d0X3GouTHQ", "alias": "judies-amherst", "name": "Judie's", "image_url": "https://s3-media3.fl.yelpcdn.com/bphoto/GezgUMNSfF0Wuv7pHvp2jA/o.jpg", "is_closed": false, "url": "https://www.yelp.com/biz/judies-amherst?adjust_creative=ywY5UnLZrNrRl2b93Ruy_g&utm_campaign=yelp_api_v3&utm_medium=api_v3_business_search&utm_source=ywY5UnLZrNrRl2b93Ruy_g", "review_count": 338, "categories": [{"alias": "tradamerican", "title": "American (Traditional)"}, {"alias": "newamerican", "title": "American (New)"}], "rating": 3.5, "coordinates": {"latitude": 42.376468, "longitude": -72.5195815}, "transactions": ["delivery"], "price": "$$", "location": {"address1": "51 N Pleasant St", "address2": "", "address3": "", "city": "Amherst", "zip_code": "01002", "country": "US", "state": "MA", "display_address": ["51 N Pleasant St", "Amherst, MA 01002"]}, "phone": "+14132533491", "display_phone": "(413) 253-3491", "distance": 21526.81857174112}, {"id": "PlMKmByQbmWCvyOPYK-CkQ", "alias": "the-halal-cart-amherst", "name": "The Halal Cart", "image_url": "https://s3-media4.fl.yelpcdn.com/bphoto/csLyLBr79QF-PBeDrINX1A/o.jpg", "is_closed": false, "url": "https://www.yelp.com/biz/the-halal-cart-amherst?adjust_creative=ywY5UnLZrNrRl2b93Ruy_g&utm_campaign=yelp_api_v3&utm_medium=api_v3_business_search&utm_source=ywY5UnLZrNrRl2b93Ruy_g", "review_count": 21, "categories": [{"alias": "halal", "title": "Halal"}, {"alias": "streetvendors", "title": "Street Vendors"}, {"alias": "mediterranean", "title": "Mediterranean"}], "rating": 4.5, "coordinates": {"latitude": 42.378148, "longitude": -72.519928}, "transactions": [], "price": "$", "location": {"address1": "115 N Pleasant St", "address2": "", "address3": "", "city": "Amherst", "zip_code": "01002", "country": "US", "state": "MA", "display_address": ["115 N Pleasant St", "Amherst, MA 01002"]}, "phone": "+16463315115", "display_phone": "(646) 331-5115", "distance": 21376.26726161539}, {"id": "epqJjZou4WhvNHm3YI0yaw", "alias": "doves-nest-restaurant-sunderland", "name": "Dove's Nest Restaurant", "image_url": "https://s3-media2.fl.yelpcdn.com/bphoto/lZaim-3fpRBkNFOC81btZQ/o.jpg", "is_closed": false, "url": "https://www.yelp.com/biz/doves-nest-restaurant-sunderland?adjust_creative=ywY5UnLZrNrRl2b93Ruy_g&utm_campaign=yelp_api_v3&utm_medium=api_v3_business_search&utm_source=ywY5UnLZrNrRl2b93Ruy_g", "review_count": 24, "categories": [{"alias": "diners", "title": "Diners"}, {"alias": "breakfast_brunch", "title": "Breakfast & Brunch"}], "rating": 4.0, "coordinates": {"latitude": 42.4512326907386, "longitude": -72.5632996993883}, "transactions": [], "price": "$", "location": {"address1": "285 Amherst Rd", "address2": "", "address3": "", "city": "Sunderland", "zip_code": "01375", "country": "US", "state": "MA", "display_address": ["285 Amherst Rd", "Sunderland, MA 01375"]}, "phone": "+14136657969", "display_phone": "(413) 665-7969", "distance": 13595.885415512721}, {"id": "1K-cj8tD7mHMuDxvkeI-xw", "alias": "omi-omy-amherst", "name": "Omi Omy", "image_url": "https://s3-media2.fl.yelpcdn.com/bphoto/hpTgx-fE3TBg4ow70fPRuQ/o.jpg", "is_closed": false, "url": "https://www.yelp.com/biz/omi-omy-amherst?adjust_creative=ywY5UnLZrNrRl2b93Ruy_g&utm_campaign=yelp_api_v3&utm_medium=api_v3_business_search&utm_source=ywY5UnLZrNrRl2b93Ruy_g", "review_count": 44, "categories": [{"alias": "vietnamese", "title": "Vietnamese"}, {"alias": "sandwiches", "title": "Sandwiches"}, {"alias": "soup", "title": "Soup"}], "rating": 4.5, "coordinates": {"latitude": 42.36781, "longitude": -72.53494}, "transactions": ["pickup", "delivery"], "price": "$", "location": {"address1": "181 University Dr", "address2": "Ste D", "address3": "", "city": "Amherst", "zip_code": "01002", "country": "US", "state": "MA", "display_address": ["181 University Dr", "Ste D", "Amherst, MA 01002"]}, "phone": "+14132303766", "display_phone": "(413) 230-3766", "distance": 21328.289905696703}, {"id": "o766sCbxUEbiBxr14X4ryw", "alias": "formosa-chinese-restaurant-amherst-11", "name": "Formosa Chinese Restaurant", "image_url": "https://s3-media1.fl.yelpcdn.com/bphoto/iZxlIEZywP257_ADRfTKrQ/o.jpg", "is_closed": false, "url": "https://www.yelp.com/biz/formosa-chinese-restaurant-amherst-11?adjust_creative=ywY5UnLZrNrRl2b93Ruy_g&utm_campaign=yelp_api_v3&utm_medium=api_v3_business_search&utm_source=ywY5UnLZrNrRl2b93Ruy_g", "review_count": 50, "categories": [{"alias": "taiwanese", "title": "Taiwanese"}, {"alias": "chinese", "title": "Chinese"}], "rating": 4.0, "coordinates": {"latitude": 42.3758907917114, "longitude": -72.5185187374798}, "transactions": ["delivery"], "price": "$$", "location": {"address1": "62 Main St", "address2": "", "address3": null, "city": "Amherst", "zip_code": "01002", "country": "US", "state": "MA", "display_address": ["62 Main St", "Amherst, MA 01002"]}, "phone": "+14132537835", "display_phone": "(413) 253-7835", "distance": 21634.127118975965}, {"id": "6EIJiG73rc9zCZSXOrksbw", "alias": "kaiju-amherst", "name": "Kaiju", "image_url": "https://s3-media3.fl.yelpcdn.com/bphoto/sAN5t3u-cNywqMwkwfMLIA/o.jpg", "is_closed": false, "url": "https://www.yelp.com/biz/kaiju-amherst?adjust_creative=ywY5UnLZrNrRl2b93Ruy_g&utm_campaign=yelp_api_v3&utm_medium=api_v3_business_search&utm_source=ywY5UnLZrNrRl2b93Ruy_g", "review_count": 72, "categories": [{"alias": "ramen", "title": "Ramen"}, {"alias": "bbq", "title": "Barbeque"}, {"alias": "cocktailbars", "title": "Cocktail Bars"}], "rating": 3.5, "coordinates": {"latitude": 42.376387, "longitude": -72.518217}, "transactions": ["delivery", "pickup"], "price": "$$", "location": {"address1": "30 Boltwood Walk", "address2": "Basement", "address3": null, "city": "Amherst", "zip_code": "01002", "country": "US", "state": "MA", "display_address": ["30 Boltwood Walk", "Basement", "Amherst, MA 01002"]}, "phone": "+14134610405", "display_phone": "(413) 461-0405", "distance": 21613.436324364124}, {"id": "h33tLUMqn4OoS_WWpryfOQ", "alias": "whately-diner-whately-2", "name": "Whately Diner", "image_url": "https://s3-media4.fl.yelpcdn.com/bphoto/DBvU4Xihx_181DNp9oyR8w/o.jpg", "is_closed": false, "url": "https://www.yelp.com/biz/whately-diner-whately-2?adjust_creative=ywY5UnLZrNrRl2b93Ruy_g&utm_campaign=yelp_api_v3&utm_medium=api_v3_business_search&utm_source=ywY5UnLZrNrRl2b93Ruy_g", "review_count": 102, "categories": [{"alias": "diners", "title": "Diners"}, {"alias": "tradamerican", "title": "American (Traditional)"}], "rating": 3.0, "coordinates": {"latitude": 42.4640578, "longitude": -72.618024}, "transactions": ["delivery"], "price": "$$", "location": {"address1": "372 State Rd", "address2": "", "address3": "", "city": "Whately", "zip_code": "01093", "country": "US", "state": "MA", "display_address": ["372 State Rd", "Whately, MA 01093"]}, "phone": "+14136653696", "display_phone": "(413) 665-3696", "distance": 9040.575395396563}, {"id": "kMygiwbWBt1mq_6iHHmu4A", "alias": "bonnie-bs-greenfield", "name": "Bonnie B's", "image_url": "https://s3-media3.fl.yelpcdn.com/bphoto/oX_Z6yc17Tq26UVSo4o4Ig/o.jpg", "is_closed": false, "url": "https://www.yelp.com/biz/bonnie-bs-greenfield?adjust_creative=ywY5UnLZrNrRl2b93Ruy_g&utm_campaign=yelp_api_v3&utm_medium=api_v3_business_search&utm_source=ywY5UnLZrNrRl2b93Ruy_g", "review_count": 19, "categories": [{"alias": "breakfast_brunch", "title": "Breakfast & Brunch"}, {"alias": "tradamerican", "title": "American (Traditional)"}], "rating": 4.5, "coordinates": {"latitude": 42.588116, "longitude": -72.602802}, "transactions": ["pickup", "delivery"], "location": {"address1": "204 Main St", "address2": "", "address3": null, "city": "Greenfield", "zip_code": "01301", "country": "US", "state": "MA", "display_address": ["204 Main St", "Greenfield, MA 01301"]}, "phone": "+14134753758", "display_phone": "(413) 475-3758", "distance": 12086.2743163711}, {"id": "4qQyegUA1-1WFuY3MSmngw", "alias": "davenport-maple-farm-shelburne-falls", "name": "Davenport Maple Farm", "image_url": "https://s3-media3.fl.yelpcdn.com/bphoto/e-QMQdijvVHP6rbQDd4QAA/o.jpg", "is_closed": false, "url": "https://www.yelp.com/biz/davenport-maple-farm-shelburne-falls?adjust_creative=ywY5UnLZrNrRl2b93Ruy_g&utm_campaign=yelp_api_v3&utm_medium=api_v3_business_search&utm_source=ywY5UnLZrNrRl2b93Ruy_g", "review_count": 8, "categories": [{"alias": "breakfast_brunch", "title": "Breakfast & Brunch"}, {"alias": "waffles", "title": "Waffles"}], "rating": 3.5, "coordinates": {"latitude": 42.61168, "longitude": -72.70595}, "transactions": [], "price": "$$", "location": {"address1": "111 Tower Rd", "address2": null, "address3": null, "city": "Shelburne Falls", "zip_code": "01370", "country": "US", "state": "MA", "display_address": ["111 Tower Rd", "Shelburne Falls, MA 01370"]}, "phone": "+14136252866", "display_phone": "(413) 625-2866", "distance": 11277.39691665062}, {"id": "t3ZQ2eUTL4c683gbP4fmjA", "alias": "wheelhouse-amherst", "name": "Wheelhouse", "image_url": "https://s3-media1.fl.yelpcdn.com/bphoto/QGKcxLFQqVq8AM1ORQcQQQ/o.jpg", "is_closed": false, "url": "https://www.yelp.com/biz/wheelhouse-amherst?adjust_creative=ywY5UnLZrNrRl2b93Ruy_g&utm_campaign=yelp_api_v3&utm_medium=api_v3_business_search&utm_source=ywY5UnLZrNrRl2b93Ruy_g", "review_count": 13, "categories": [{"alias": "foodtrucks", "title": "Food Trucks"}, {"alias": "catering", "title": "Caterers"}, {"alias": "newamerican", "title": "American (New)"}], "rating": 4.5, "coordinates": {"latitude": 42.3756729, "longitude": -72.5123716}, "transactions": [], "price": "$$", "location": {"address1": "383 Main St", "address2": "", "address3": "", "city": "Amherst", "zip_code": "01002", "country": "US", "state": "MA", "display_address": ["383 Main St", "Amherst, MA 01002"]}, "phone": "+15084462935", "display_phone": "(508) 446-2935", "distance": 22015.16148093417}, {"id": "LXXAXCEiU4nCM8wScorQHQ", "alias": "pasta-e-basta-amherst", "name": "Pasta E Basta", "image_url": "https://s3-media2.fl.yelpcdn.com/bphoto/6lUE1U50Tech7n-hRRzBrQ/o.jpg", "is_closed": false, "url": "https://www.yelp.com/biz/pasta-e-basta-amherst?adjust_creative=ywY5UnLZrNrRl2b93Ruy_g&utm_campaign=yelp_api_v3&utm_medium=api_v3_business_search&utm_source=ywY5UnLZrNrRl2b93Ruy_g", "review_count": 140, "categories": [{"alias": "italian", "title": "Italian"}], "rating": 4.0, "coordinates": {"latitude": 42.3758399, "longitude": -72.51926}, "transactions": ["delivery"], "price": "$$", "location": {"address1": "26 Main St", "address2": null, "address3": "", "city": "Amherst", "zip_code": "01002", "country": "US", "state": "MA", "display_address": ["26 Main St", "Amherst, MA 01002"]}, "phone": "+14132563550", "display_phone": "(413) 256-3550", "distance": 21594.612753414396}, {"id": "zKiHmDHXaZVVYVe4Qm1nTg", "alias": "hillside-pizza-south-deerfield", "name": "Hillside Pizza", "image_url": "https://s3-media3.fl.yelpcdn.com/bphoto/qkuJnc_RVLnY4uz3HXBbcg/o.jpg", "is_closed": false, "url": "https://www.yelp.com/biz/hillside-pizza-south-deerfield?adjust_creative=ywY5UnLZrNrRl2b93Ruy_g&utm_campaign=yelp_api_v3&utm_medium=api_v3_business_search&utm_source=ywY5UnLZrNrRl2b93Ruy_g", "review_count": 23, "categories": [{"alias": "pizza", "title": "Pizza"}], "rating": 4.5, "coordinates": {"latitude": 42.50779, "longitude": -72.606161}, "transactions": ["delivery"], "price": "$$", "location": {"address1": "265 Greenfield Rd", "address2": "", "address3": "", "city": "South Deerfield", "zip_code": "01373", "country": "US", "state": "MA", "display_address": ["265 Greenfield Rd", "South Deerfield, MA 01373"]}, "phone": "+14136655533", "display_phone": "(413) 665-5533", "distance": 8318.705611347841}, {"id": "rSvNQylLO9N4UZxQ0yYnCQ", "alias": "shelburne-falls-coffee-roasters-shelburne-falls-2", "name": "Shelburne Falls Coffee Roasters", "image_url": "https://s3-media1.fl.yelpcdn.com/bphoto/M-wag8ZOGwBN2QvA3D9LyQ/o.jpg", "is_closed": false, "url": "https://www.yelp.com/biz/shelburne-falls-coffee-roasters-shelburne-falls-2?adjust_creative=ywY5UnLZrNrRl2b93Ruy_g&utm_campaign=yelp_api_v3&utm_medium=api_v3_business_search&utm_source=ywY5UnLZrNrRl2b93Ruy_g", "review_count": 34, "categories": [{"alias": "sandwiches", "title": "Sandwiches"}, {"alias": "coffeeroasteries", "title": "Coffee Roasteries"}, {"alias": "bagels", "title": "Bagels"}], "rating": 4.5, "coordinates": {"latitude": 42.610488, "longitude": -72.66992}, "transactions": [], "price": "$", "location": {"address1": "1207 Mohawk Trl", "address2": "", "address3": "", "city": "Shelburne Falls", "zip_code": "01370", "country": "US", "state": "MA", "display_address": ["1207 Mohawk Trl", "Shelburne Falls, MA 01370"]}, "phone": "+14136250116", "display_phone": "(413) 625-0116", "distance": 11419.573752463579}, {"id": "Qcr_HFpf7IX7hzG2rUkjWA", "alias": "pita-pockets-amherst-amherst", "name": "Pita Pockets - Amherst", "image_url": "https://s3-media2.fl.yelpcdn.com/bphoto/4Y5WGziMRU_O1KmqahR_IQ/o.jpg", "is_closed": false, "url": "https://www.yelp.com/biz/pita-pockets-amherst-amherst?adjust_creative=ywY5UnLZrNrRl2b93Ruy_g&utm_campaign=yelp_api_v3&utm_medium=api_v3_business_search&utm_source=ywY5UnLZrNrRl2b93Ruy_g", "review_count": 201, "categories": [{"alias": "falafel", "title": "Falafel"}, {"alias": "vegetarian", "title": "Vegetarian"}, {"alias": "mideastern", "title": "Middle Eastern"}], "rating": 5.0, "coordinates": {"latitude": 42.37722, "longitude": -72.51936}, "transactions": ["delivery"], "price": "$", "location": {"address1": "103 N Pleasant St", "address2": null, "address3": "", "city": "Amherst", "zip_code": "01002", "country": "US", "state": "MA", "display_address": ["103 N Pleasant St", "Amherst, MA 01002"]}, "phone": "", "display_phone": "", "distance": 21475.32758753969}, {"id": "DMv1r_XMkNj7G0n0X0bodA", "alias": "main-street-bar-and-grille-greenfield", "name": "Main Street Bar and Grille", "image_url": "https://s3-media1.fl.yelpcdn.com/bphoto/_y80dYCee_tMYms2n3dWWg/o.jpg", "is_closed": false, "url": "https://www.yelp.com/biz/main-street-bar-and-grille-greenfield?adjust_creative=ywY5UnLZrNrRl2b93Ruy_g&utm_campaign=yelp_api_v3&utm_medium=api_v3_business_search&utm_source=ywY5UnLZrNrRl2b93Ruy_g", "review_count": 7, "categories": [{"alias": "tradamerican", "title": "American (Traditional)"}, {"alias": "bars", "title": "Bars"}, {"alias": "burgers", "title": "Burgers"}], "rating": 3.5, "coordinates": {"latitude": 42.58773, "longitude": -72.60579}, "transactions": ["delivery"], "price": "$$", "location": {"address1": "94 Main St", "address2": "", "address3": "", "city": "Greenfield", "zip_code": "01301", "country": "US", "state": "MA", "display_address": ["94 Main St", "Greenfield, MA 01301"]}, "phone": "+14137746388", "display_phone": "(413) 774-6388", "distance": 11879.5360429025}, {"id": "TIm9N1EDtxj_WR95fwR5Ow", "alias": "a-1-hilltown-pizza-williamsburg", "name": "A-1 Hilltown Pizza", "image_url": "https://s3-media3.fl.yelpcdn.com/bphoto/SjPcoIjB8ZpuMJKMc9pyhw/o.jpg", "is_closed": false, "url": "https://www.yelp.com/biz/a-1-hilltown-pizza-williamsburg?adjust_creative=ywY5UnLZrNrRl2b93Ruy_g&utm_campaign=yelp_api_v3&utm_medium=api_v3_business_search&utm_source=ywY5UnLZrNrRl2b93Ruy_g", "review_count": 13, "categories": [{"alias": "pizza", "title": "Pizza"}], "rating": 3.5, "coordinates": {"latitude": 42.391134, "longitude": -72.724329}, "transactions": [], "price": "$$", "location": {"address1": "35 Main St", "address2": "", "address3": "", "city": "Williamsburg", "zip_code": "01096", "country": "US", "state": "MA", "display_address": ["35 Main St", "Williamsburg, MA 01096"]}, "phone": "+14132680202", "display_phone": "(413) 268-0202", "distance": 13459.730801218573}, {"id": "2ykfTFuQMBNreBEvDEkBGg", "alias": "robertos-pizzeria-greenfield", "name": "Roberto's Pizzeria", "image_url": "https://s3-media4.fl.yelpcdn.com/bphoto/RC3SdRAazT2BstJZNw67yw/o.jpg", "is_closed": false, "url": "https://www.yelp.com/biz/robertos-pizzeria-greenfield?adjust_creative=ywY5UnLZrNrRl2b93Ruy_g&utm_campaign=yelp_api_v3&utm_medium=api_v3_business_search&utm_source=ywY5UnLZrNrRl2b93Ruy_g", "review_count": 14, "categories": [{"alias": "pizza", "title": "Pizza"}], "rating": 4.5, "coordinates": {"latitude": 42.59002, "longitude": -72.59941}, "transactions": ["delivery"], "price": "$", "location": {"address1": "80 Federal St", "address2": "", "address3": "", "city": "Greenfield", "zip_code": "01301", "country": "US", "state": "MA", "display_address": ["80 Federal St", "Greenfield, MA 01301"]}, "phone": "+14137750155", "display_phone": "(413) 775-0155", "distance": 12440.426432080372}, {"id": "WSV-t7fuDkvZonTC-MHbPw", "alias": "lit-restaurant-and-lounge-amherst", "name": "Lit Restaurant & Lounge", "image_url": "https://s3-media1.fl.yelpcdn.com/bphoto/Bs3jjvEUd2acuZb4fk0cdA/o.jpg", "is_closed": false, "url": "https://www.yelp.com/biz/lit-restaurant-and-lounge-amherst?adjust_creative=ywY5UnLZrNrRl2b93Ruy_g&utm_campaign=yelp_api_v3&utm_medium=api_v3_business_search&utm_source=ywY5UnLZrNrRl2b93Ruy_g", "review_count": 11, "categories": [{"alias": "danceclubs", "title": "Dance Clubs"}, {"alias": "lounges", "title": "Lounges"}, {"alias": "newamerican", "title": "American (New)"}], "rating": 3.5, "coordinates": {"latitude": 42.3763305335657, "longitude": -72.5191700687967}, "transactions": [], "price": "$$", "location": {"address1": "41 Boltwood Walk", "address2": "", "address3": "", "city": "Amherst", "zip_code": "01002", "country": "US", "state": "MA", "display_address": ["41 Boltwood Walk", "Amherst, MA 01002"]}, "phone": "+14133206322", "display_phone": "(413) 320-6322", "distance": 21593.256489386324}, {"id": "RkqQC9cvFa12pCWn2leGig", "alias": "fishtales-bar-and-grill-hatfield-4", "name": "Fishtales Bar & Grill", "image_url": "https://s3-media4.fl.yelpcdn.com/bphoto/vcdupOaCugnkyzCp8XqV6Q/o.jpg", "is_closed": false, "url": "https://www.yelp.com/biz/fishtales-bar-and-grill-hatfield-4?adjust_creative=ywY5UnLZrNrRl2b93Ruy_g&utm_campaign=yelp_api_v3&utm_medium=api_v3_business_search&utm_source=ywY5UnLZrNrRl2b93Ruy_g", "review_count": 45, "categories": [{"alias": "bars", "title": "Bars"}, {"alias": "seafood", "title": "Seafood"}, {"alias": "sandwiches", "title": "Sandwiches"}], "rating": 3.0, "coordinates": {"latitude": 42.3731853, "longitude": -72.5982296}, "transactions": ["delivery"], "price": "$$", "location": {"address1": "5 School St", "address2": "", "address3": "", "city": "Hatfield", "zip_code": "01038", "country": "US", "state": "MA", "display_address": ["5 School St", "Hatfield, MA 01038"]}, "phone": "+14133494100", "display_phone": "(413) 349-4100", "distance": 17807.681765253332}, {"id": "cI-D75PC7akLsPQSrvYX2w", "alias": "deerfield-lunch-box-deerfield", "name": "Deerfield Lunch Box", "image_url": "https://s3-media4.fl.yelpcdn.com/bphoto/46kxxAh53yd4ygbpPSY7jQ/o.jpg", "is_closed": false, "url": "https://www.yelp.com/biz/deerfield-lunch-box-deerfield?adjust_creative=ywY5UnLZrNrRl2b93Ruy_g&utm_campaign=yelp_api_v3&utm_medium=api_v3_business_search&utm_source=ywY5UnLZrNrRl2b93Ruy_g", "review_count": 1, "categories": [{"alias": "hotdog", "title": "Hot Dogs"}, {"alias": "foodstands", "title": "Food Stands"}, {"alias": "burgers", "title": "Burgers"}], "rating": 2.0, "coordinates": {"latitude": 42.547239, "longitude": -72.605898}, "transactions": [], "location": {"address1": "79 Old Main St", "address2": "", "address3": "Historic Deerfield", "city": "Deerfield", "zip_code": "01342", "country": "US", "state": "MA", "display_address": ["79 Old Main St", "Historic Deerfield", "Deerfield, MA 01342"]}, "phone": "+14137757171", "display_phone": "(413) 775-7171", "distance": 9224.74507695361}, {"id": "X_gLEwRckCC3wGGVIGhvuQ", "alias": "crazy-horse-lounge-charlemont", "name": "crazy horse lounge", "image_url": "https://s3-media2.fl.yelpcdn.com/bphoto/sh9BCRP3oQ9exZUdvJRQsw/o.jpg", "is_closed": false, "url": "https://www.yelp.com/biz/crazy-horse-lounge-charlemont?adjust_creative=ywY5UnLZrNrRl2b93Ruy_g&utm_campaign=yelp_api_v3&utm_medium=api_v3_business_search&utm_source=ywY5UnLZrNrRl2b93Ruy_g", "review_count": 1, "categories": [{"alias": "salad", "title": "Salad"}, {"alias": "cafes", "title": "Cafes"}], "rating": 3.0, "coordinates": {"latitude": 42.6225341098203, "longitude": -72.8777315857901}, "transactions": [], "location": {"address1": "66 S River Rd", "address2": "", "address3": "", "city": "Charlemont", "zip_code": "01339", "country": "US", "state": "MA", "display_address": ["66 S River Rd", "Charlemont, MA 01339"]}, "phone": "+14133396617", "display_phone": "(413) 339-6617", "distance": 18617.669600573372}, {"id": "b-LHyJufYxVTDZZYgsC5zg", "alias": "applebees-grill-bar-greenfield-2", "name": "Applebee's Grill + Bar", "image_url": "https://s3-media3.fl.yelpcdn.com/bphoto/uspV9fyAGPPDasqqxw9JuQ/o.jpg", "is_closed": false, "url": "https://www.yelp.com/biz/applebees-grill-bar-greenfield-2?adjust_creative=ywY5UnLZrNrRl2b93Ruy_g&utm_campaign=yelp_api_v3&utm_medium=api_v3_business_search&utm_source=ywY5UnLZrNrRl2b93Ruy_g", "review_count": 31, "categories": [{"alias": "tradamerican", "title": "American (Traditional)"}, {"alias": "sportsbars", "title": "Sports Bars"}, {"alias": "burgers", "title": "Burgers"}], "rating": 3.5, "coordinates": {"latitude": 42.585115, "longitude": -72.618677}, "transactions": [], "price": "$$", "location": {"address1": "141 Mohawk Trl", "address2": "", "address3": "", "city": "Greenfield", "zip_code": "01301", "country": "US", "state": "MA", "display_address": ["141 Mohawk Trl", "Greenfield, MA 01301"]}, "phone": "+14137720079", "display_phone": "(413) 772-0079", "distance": 10949.508144543932}, {"id": "NZHMfENo3z9WKmlntJzoQA", "alias": "primo-restaurant-and-pizzeria-south-deerfield", "name": "Primo Restaurant and Pizzeria", "image_url": "https://s3-media2.fl.yelpcdn.com/bphoto/6IziWJ7o2qxR7as40bhJ2Q/o.jpg", "is_closed": false, "url": "https://www.yelp.com/biz/primo-restaurant-and-pizzeria-south-deerfield?adjust_creative=ywY5UnLZrNrRl2b93Ruy_g&utm_campaign=yelp_api_v3&utm_medium=api_v3_business_search&utm_source=ywY5UnLZrNrRl2b93Ruy_g", "review_count": 32, "categories": [{"alias": "pizza", "title": "Pizza"}, {"alias": "italian", "title": "Italian"}, {"alias": "burgers", "title": "Burgers"}], "rating": 2.5, "coordinates": {"latitude": 42.47667, "longitude": -72.60749}, "transactions": ["delivery"], "price": "$", "location": {"address1": "4 Sugarloaf St", "address2": "", "address3": "", "city": "South Deerfield", "zip_code": "01373", "country": "US", "state": "MA", "display_address": ["4 Sugarloaf St", "South Deerfield, MA 01373"]}, "phone": "+14136653300", "display_phone": "(413) 665-3300", "distance": 9019.079794317728}, {"id": "2xvvqUWeYDsMgixuZCpyLQ", "alias": "hangar-pub-and-grill-amherst-2", "name": "Hangar Pub & Grill", "image_url": "https://s3-media4.fl.yelpcdn.com/bphoto/KIfRNP6aRjAtfcTkSFepyg/o.jpg", "is_closed": false, "url": "https://www.yelp.com/biz/hangar-pub-and-grill-amherst-2?adjust_creative=ywY5UnLZrNrRl2b93Ruy_g&utm_campaign=yelp_api_v3&utm_medium=api_v3_business_search&utm_source=ywY5UnLZrNrRl2b93Ruy_g", "review_count": 130, "categories": [{"alias": "pubs", "title": "Pubs"}, {"alias": "arcades", "title": "Arcades"}, {"alias": "tradamerican", "title": "American (Traditional)"}], "rating": 3.5, "coordinates": {"latitude": 42.3733375, "longitude": -72.5326808}, "transactions": ["delivery", "pickup"], "price": "$$", "location": {"address1": "10 University Dr", "address2": "", "address3": "", "city": "Amherst", "zip_code": "01002", "country": "US", "state": "MA", "display_address": ["10 University Dr", "Amherst, MA 01002"]}, "phone": "+14135499461", "display_phone": "(413) 549-9461", "distance": 21119.03371948115}, {"id": "BV7lzWCXot_NQaQ5YS9z7Q", "alias": "30-boltwood-amherst-2", "name": "30 Boltwood", "image_url": "https://s3-media1.fl.yelpcdn.com/bphoto/CeAd9sSs2k6QHFBtCyx0GQ/o.jpg", "is_closed": false, "url": "https://www.yelp.com/biz/30-boltwood-amherst-2?adjust_creative=ywY5UnLZrNrRl2b93Ruy_g&utm_campaign=yelp_api_v3&utm_medium=api_v3_business_search&utm_source=ywY5UnLZrNrRl2b93Ruy_g", "review_count": 67, "categories": [{"alias": "newamerican", "title": "American (New)"}, {"alias": "bars", "title": "Bars"}, {"alias": "breakfast_brunch", "title": "Breakfast & Brunch"}], "rating": 3.5, "coordinates": {"latitude": 42.37452, "longitude": -72.51826}, "transactions": ["delivery"], "price": "$$$", "location": {"address1": "30 Boltwood Ave", "address2": "", "address3": "", "city": "Amherst", "zip_code": "01002", "country": "US", "state": "MA", "display_address": ["30 Boltwood Ave", "Amherst, MA 01002"]}, "phone": "+14138352011", "display_phone": "(413) 835-2011", "distance": 21745.69304887954}, {"id": "gCaIfAJ93W6fvmKuasF6Xw", "alias": "house-of-teriyaki-amherst", "name": "House of Teriyaki", "image_url": "https://s3-media2.fl.yelpcdn.com/bphoto/R6hmbdgtPeUaM87IpWdmeg/o.jpg", "is_closed": false, "url": "https://www.yelp.com/biz/house-of-teriyaki-amherst?adjust_creative=ywY5UnLZrNrRl2b93Ruy_g&utm_campaign=yelp_api_v3&utm_medium=api_v3_business_search&utm_source=ywY5UnLZrNrRl2b93Ruy_g", "review_count": 90, "categories": [{"alias": "japanese", "title": "Japanese"}, {"alias": "korean", "title": "Korean"}, {"alias": "sushi", "title": "Sushi Bars"}], "rating": 4.0, "coordinates": {"latitude": 42.40953, "longitude": -72.53044}, "transactions": ["delivery"], "price": "$$", "location": {"address1": "1177 N Pleasant St", "address2": "", "address3": "", "city": "Amherst", "zip_code": "01002", "country": "US", "state": "MA", "display_address": ["1177 N Pleasant St", "Amherst, MA 01002"]}, "phone": "+14135493666", "display_phone": "(413) 549-3666", "distance": 18423.4624026671}, {"id": "rfsbS44y-fo40Zis_9d7qg", "alias": "bite-me-please-amherst-center", "name": "Bite Me Please", "image_url": "https://s3-media4.fl.yelpcdn.com/bphoto/jpu3A2Uar32eGiQ0stg_4Q/o.jpg", "is_closed": false, "url": "https://www.yelp.com/biz/bite-me-please-amherst-center?adjust_creative=ywY5UnLZrNrRl2b93Ruy_g&utm_campaign=yelp_api_v3&utm_medium=api_v3_business_search&utm_source=ywY5UnLZrNrRl2b93Ruy_g", "review_count": 1, "categories": [{"alias": "foodstands", "title": "Food Stands"}], "rating": 4.0, "coordinates": {"latitude": 42.3752212524414, "longitude": -72.5198364257812}, "transactions": [], "location": {"address1": "", "address2": "", "address3": "", "city": "Amherst Center", "zip_code": "", "country": "US", "state": "MA", "display_address": ["Amherst Center, MA"]}, "phone": "+14132190591", "display_phone": "(413) 219-0591", "distance": 21631.640284469762}, {"id": "HQstHLLH3MCV-VIvkEJ8Zw", "alias": "athens-pizza-greenfield", "name": "Athens Pizza", "image_url": "https://s3-media1.fl.yelpcdn.com/bphoto/Ui-xwzsHZrIndLoKz8KLHA/o.jpg", "is_closed": false, "url": "https://www.yelp.com/biz/athens-pizza-greenfield?adjust_creative=ywY5UnLZrNrRl2b93Ruy_g&utm_campaign=yelp_api_v3&utm_medium=api_v3_business_search&utm_source=ywY5UnLZrNrRl2b93Ruy_g", "review_count": 18, "categories": [{"alias": "pizza", "title": "Pizza"}], "rating": 2.5, "coordinates": {"latitude": 42.5869255065918, "longitude": -72.6082229614258}, "transactions": ["delivery"], "price": "$$", "location": {"address1": "25 Main St", "address2": "", "address3": "", "city": "Greenfield", "zip_code": "01301", "country": "US", "state": "MA", "display_address": ["25 Main St", "Greenfield, MA 01301"]}, "phone": "+14137743722", "display_phone": "(413) 774-3722", "distance": 11683.664641856607}, {"id": "GozHnnsLBsvS2fbgyIugXw", "alias": "muffins-general-market-whately", "name": "Muffin's General Market", "image_url": "https://s3-media2.fl.yelpcdn.com/bphoto/I5w5JBJ5aHfLKOP1SWjgaQ/o.jpg", "is_closed": false, "url": "https://www.yelp.com/biz/muffins-general-market-whately?adjust_creative=ywY5UnLZrNrRl2b93Ruy_g&utm_campaign=yelp_api_v3&utm_medium=api_v3_business_search&utm_source=ywY5UnLZrNrRl2b93Ruy_g", "review_count": 7, "categories": [{"alias": "breakfast_brunch", "title": "Breakfast & Brunch"}, {"alias": "beer_and_wine", "title": "Beer, Wine & Spirits"}, {"alias": "delis", "title": "Delis"}], "rating": 4.0, "coordinates": {"latitude": 42.41856, "longitude": -72.62037}, "transactions": ["delivery", "pickup"], "price": "$", "location": {"address1": "28 State Rd", "address2": "", "address3": null, "city": "Whately", "zip_code": "01373", "country": "US", "state": "MA", "display_address": ["28 State Rd", "Whately, MA 01373"]}, "phone": "+14133973372", "display_phone": "(413) 397-3372", "distance": 12525.739400264303}, {"id": "LcfGULHH5iJ5VkT9q04iMg", "alias": "oriental-flavor-amherst", "name": "Oriental Flavor", "image_url": "https://s3-media1.fl.yelpcdn.com/bphoto/o4t1koat-p2gVbLwl0VuSQ/o.jpg", "is_closed": false, "url": "https://www.yelp.com/biz/oriental-flavor-amherst?adjust_creative=ywY5UnLZrNrRl2b93Ruy_g&utm_campaign=yelp_api_v3&utm_medium=api_v3_business_search&utm_source=ywY5UnLZrNrRl2b93Ruy_g", "review_count": 204, "categories": [{"alias": "szechuan", "title": "Szechuan"}, {"alias": "dimsum", "title": "Dim Sum"}, {"alias": "cantonese", "title": "Cantonese"}], "rating": 4.0, "coordinates": {"latitude": 42.37527, "longitude": -72.52}, "transactions": ["delivery", "pickup"], "price": "$$", "location": {"address1": "25 S Pleasant St", "address2": null, "address3": "", "city": "Amherst", "zip_code": "01002", "country": "US", "state": "MA", "display_address": ["25 S Pleasant St", "Amherst, MA 01002"]}, "phone": "+14132537673", "display_phone": "(413) 253-7673", "distance": 21592.69212792437}, {"id": "YbZg252i3vJ9wmf-gsgUog", "alias": "panda-garden-williamsburg", "name": "Panda Garden", "image_url": "https://s3-media1.fl.yelpcdn.com/bphoto/GR__trIJi5zuhynUKh7owA/o.jpg", "is_closed": false, "url": "https://www.yelp.com/biz/panda-garden-williamsburg?adjust_creative=ywY5UnLZrNrRl2b93Ruy_g&utm_campaign=yelp_api_v3&utm_medium=api_v3_business_search&utm_source=ywY5UnLZrNrRl2b93Ruy_g", "review_count": 30, "categories": [{"alias": "chinese", "title": "Chinese"}], "rating": 3.0, "coordinates": {"latitude": 42.4294774979353, "longitude": -72.7925515919924}, "transactions": ["delivery", "pickup"], "price": "$$", "location": {"address1": "49 Main St", "address2": "", "address3": "", "city": "Williamsburg", "zip_code": "01096", "country": "US", "state": "MA", "display_address": ["49 Main St", "Williamsburg, MA 01096"]}, "phone": "+14132688811", "display_phone": "(413) 268-8811", "distance": 13545.295082420662}, {"id": "6a3mUieRgCSGXCJ4lmzvFA", "alias": "ce-ces-chinese-restaurant-turners-falls", "name": "Ce Ce's Chinese Restaurant", "image_url": "https://s3-media2.fl.yelpcdn.com/bphoto/iKuaw65YUP_av-lB2p37kA/o.jpg", "is_closed": false, "url": "https://www.yelp.com/biz/ce-ces-chinese-restaurant-turners-falls?adjust_creative=ywY5UnLZrNrRl2b93Ruy_g&utm_campaign=yelp_api_v3&utm_medium=api_v3_business_search&utm_source=ywY5UnLZrNrRl2b93Ruy_g", "review_count": 10, "categories": [{"alias": "chinese", "title": "Chinese"}], "rating": 4.0, "coordinates": {"latitude": 42.6078868144459, "longitude": -72.55670151079}, "transactions": ["delivery"], "price": "$$", "location": {"address1": "53 Avenue A", "address2": "", "address3": "", "city": "Turners Falls", "zip_code": "01376", "country": "US", "state": "MA", "display_address": ["53 Avenue A", "Turners Falls, MA 01376"]}, "phone": "+14138638988", "display_phone": "(413) 863-8988", "distance": 16350.818148899285}, {"id": "sRO-U8Kxd1tXJlENTqv89A", "alias": "miss-saigon-amherst", "name": "Miss Saigon", "image_url": "https://s3-media2.fl.yelpcdn.com/bphoto/ewJ4OfKjEDPImLUeFgcpaA/o.jpg", "is_closed": false, "url": "https://www.yelp.com/biz/miss-saigon-amherst?adjust_creative=ywY5UnLZrNrRl2b93Ruy_g&utm_campaign=yelp_api_v3&utm_medium=api_v3_business_search&utm_source=ywY5UnLZrNrRl2b93Ruy_g", "review_count": 183, "categories": [{"alias": "vietnamese", "title": "Vietnamese"}, {"alias": "salad", "title": "Salad"}, {"alias": "soup", "title": "Soup"}], "rating": 3.5, "coordinates": {"latitude": 42.377159, "longitude": -72.5204679}, "transactions": ["delivery"], "price": "$$", "location": {"address1": "96 N Pleasant St", "address2": "", "address3": null, "city": "Amherst", "zip_code": "01002", "country": "US", "state": "MA", "display_address": ["96 N Pleasant St", "Amherst, MA 01002"]}, "phone": "+14132539988", "display_phone": "(413) 253-9988", "distance": 21421.044744212326}, {"id": "lNVB5KVLp9rGBOchtlPewQ", "alias": "village-pizza-shop-greenfield", "name": "Village Pizza Shop", "image_url": "https://s3-media4.fl.yelpcdn.com/bphoto/Y-OXKHBaMYwMyxx7hz5VLg/o.jpg", "is_closed": false, "url": "https://www.yelp.com/biz/village-pizza-shop-greenfield?adjust_creative=ywY5UnLZrNrRl2b93Ruy_g&utm_campaign=yelp_api_v3&utm_medium=api_v3_business_search&utm_source=ywY5UnLZrNrRl2b93Ruy_g", "review_count": 55, "categories": [{"alias": "pizza", "title": "Pizza"}], "rating": 4.0, "coordinates": {"latitude": 42.586783, "longitude": -72.600916}, "transactions": ["delivery"], "price": "$$", "location": {"address1": "42 Bank Row St", "address2": "", "address3": "", "city": "Greenfield", "zip_code": "01301", "country": "US", "state": "MA", "display_address": ["42 Bank Row St", "Greenfield, MA 01301"]}, "phone": "+14137726209", "display_phone": "(413) 772-6209", "distance": 12093.518551881578}, {"id": "Bg_8P9_cODuGHbbHA3U8VQ", "alias": "sugarloaf-frostie-sunderland", "name": "Sugarloaf Frostie", "image_url": "https://s3-media2.fl.yelpcdn.com/bphoto/rqdpJK2QJOhKcxkGlbAiZQ/o.jpg", "is_closed": false, "url": "https://www.yelp.com/biz/sugarloaf-frostie-sunderland?adjust_creative=ywY5UnLZrNrRl2b93Ruy_g&utm_campaign=yelp_api_v3&utm_medium=api_v3_business_search&utm_source=ywY5UnLZrNrRl2b93Ruy_g", "review_count": 23, "categories": [{"alias": "foodstands", "title": "Food Stands"}], "rating": 3.5, "coordinates": {"latitude": 42.464494, "longitude": -72.574273}, "transactions": [], "price": "$", "location": {"address1": "116 Amherst Rd", "address2": "", "address3": "", "city": "Sunderland", "zip_code": "01375", "country": "US", "state": "MA", "display_address": ["116 Amherst Rd", "Sunderland, MA 01375"]}, "phone": "+14136657585", "display_phone": "(413) 665-7585", "distance": 12113.784520954969}, {"id": "mdb20FDiW_bL3Hf0C1Jqvw", "alias": "iya-sushi-and-noodle-kitchen-amherst", "name": "IYA Sushi and Noodle Kitchen", "image_url": "https://s3-media4.fl.yelpcdn.com/bphoto/zkKWpDNZbJVLv5YiIVUAVg/o.jpg", "is_closed": false, "url": "https://www.yelp.com/biz/iya-sushi-and-noodle-kitchen-amherst?adjust_creative=ywY5UnLZrNrRl2b93Ruy_g&utm_campaign=yelp_api_v3&utm_medium=api_v3_business_search&utm_source=ywY5UnLZrNrRl2b93Ruy_g", "review_count": 25, "categories": [{"alias": "sushi", "title": "Sushi Bars"}, {"alias": "ramen", "title": "Ramen"}], "rating": 3.0, "coordinates": {"latitude": 42.37919, "longitude": -72.5195815}, "transactions": ["delivery", "pickup"], "location": {"address1": "1 E Pleasant St", "address2": "", "address3": null, "city": "Amherst", "zip_code": "01002", "country": "US", "state": "MA", "display_address": ["1 E Pleasant St", "Amherst, MA 01002"]}, "phone": "+14133278000", "display_phone": "(413) 327-8000", "distance": 21316.499137816347}, {"id": "JNqJUAR9is7ejRYW2c01FA", "alias": "sofias-pizza-greenfield", "name": "Sofia's Pizza", "image_url": "https://s3-media1.fl.yelpcdn.com/bphoto/ZP6DJjR_fmH9uZMJVOJvhQ/o.jpg", "is_closed": false, "url": "https://www.yelp.com/biz/sofias-pizza-greenfield?adjust_creative=ywY5UnLZrNrRl2b93Ruy_g&utm_campaign=yelp_api_v3&utm_medium=api_v3_business_search&utm_source=ywY5UnLZrNrRl2b93Ruy_g", "review_count": 31, "categories": [{"alias": "pizza", "title": "Pizza"}], "rating": 3.5, "coordinates": {"latitude": 42.5969467, "longitude": -72.5971298}, "transactions": ["delivery"], "price": "$$", "location": {"address1": "228 Federal St", "address2": "", "address3": "", "city": "Greenfield", "zip_code": "01301", "country": "US", "state": "MA", "display_address": ["228 Federal St", "Greenfield, MA 01301"]}, "phone": "+14137749900", "display_phone": "(413) 774-9900", "distance": 13134.666154443743}, {"id": "gCdtxabLxonlb7CtJK-Z-w", "alias": "d-angelo-greenfield-2", "name": "D'Angelo", "image_url": "https://s3-media2.fl.yelpcdn.com/bphoto/HHatphW_HpX1SDsDCrngDw/o.jpg", "is_closed": false, "url": "https://www.yelp.com/biz/d-angelo-greenfield-2?adjust_creative=ywY5UnLZrNrRl2b93Ruy_g&utm_campaign=yelp_api_v3&utm_medium=api_v3_business_search&utm_source=ywY5UnLZrNrRl2b93Ruy_g", "review_count": 10, "categories": [{"alias": "sandwiches", "title": "Sandwiches"}], "rating": 4.0, "coordinates": {"latitude": 42.5848445086586, "longitude": -72.6141382441874}, "transactions": [], "price": "$$", "location": {"address1": "68 Mohawk Trl", "address2": "", "address3": "", "city": "Greenfield", "zip_code": "01301", "country": "US", "state": "MA", "display_address": ["68 Mohawk Trl", "Greenfield, MA 01301"]}, "phone": "+14137742106", "display_phone": "(413) 774-2106", "distance": 11178.142597161042}, {"id": "i_N21-BF8Lj3ejHEldeWqA", "alias": "bueno-y-sano-amherst", "name": "Bueno Y Sano", "image_url": "https://s3-media1.fl.yelpcdn.com/bphoto/duOb3oSfyUVi4k-NmZqQdQ/o.jpg", "is_closed": false, "url": "https://www.yelp.com/biz/bueno-y-sano-amherst?adjust_creative=ywY5UnLZrNrRl2b93Ruy_g&utm_campaign=yelp_api_v3&utm_medium=api_v3_business_search&utm_source=ywY5UnLZrNrRl2b93Ruy_g", "review_count": 204, "categories": [{"alias": "mexican", "title": "Mexican"}], "rating": 4.0, "coordinates": {"latitude": 42.3759103, "longitude": -72.5184821}, "transactions": ["delivery", "pickup"], "price": "$", "location": {"address1": "1 Boltwood Walk", "address2": null, "address3": "", "city": "Amherst", "zip_code": "01002", "country": "US", "state": "MA", "display_address": ["1 Boltwood Walk", "Amherst, MA 01002"]}, "phone": "+14132534000", "display_phone": "(413) 253-4000", "distance": 21620.59579123307}, {"id": "54NNpmmHGyas53lS-hqzJQ", "alias": "earthfoods-cafe-amherst", "name": "Earthfoods Cafe", "image_url": "https://s3-media4.fl.yelpcdn.com/bphoto/gJkxRb6i5qzisvdib_vIMA/o.jpg", "is_closed": false, "url": "https://www.yelp.com/biz/earthfoods-cafe-amherst?adjust_creative=ywY5UnLZrNrRl2b93Ruy_g&utm_campaign=yelp_api_v3&utm_medium=api_v3_business_search&utm_source=ywY5UnLZrNrRl2b93Ruy_g", "review_count": 5, "categories": [{"alias": "vegetarian", "title": "Vegetarian"}], "rating": 4.5, "coordinates": {"latitude": 42.388348, "longitude": -72.528917}, "transactions": [], "price": "$", "location": {"address1": "130 Hicks Way", "address2": "", "address3": "", "city": "Amherst", "zip_code": "01002", "country": "US", "state": "MA", "display_address": ["130 Hicks Way", "Amherst, MA 01002"]}, "phone": "+14135451554", "display_phone": "(413) 545-1554", "distance": 20059.594404754735}, {"id": "e5bI0nEjKHM6xYRc1hb3vA", "alias": "high-horse-amherst", "name": "High Horse", "image_url": "https://s3-media1.fl.yelpcdn.com/bphoto/4Lx-eMX-7hjyrSwfSGvKWQ/o.jpg", "is_closed": false, "url": "https://www.yelp.com/biz/high-horse-amherst?adjust_creative=ywY5UnLZrNrRl2b93Ruy_g&utm_campaign=yelp_api_v3&utm_medium=api_v3_business_search&utm_source=ywY5UnLZrNrRl2b93Ruy_g", "review_count": 274, "categories": [{"alias": "pubs", "title": "Pubs"}, {"alias": "newamerican", "title": "American (New)"}], "rating": 3.0, "coordinates": {"latitude": 42.376197040205, "longitude": -72.5201359183853}, "transactions": ["delivery"], "price": "$$", "location": {"address1": "24 N Pleasant St", "address2": "", "address3": "", "city": "Amherst", "zip_code": "01002", "country": "US", "state": "MA", "display_address": ["24 N Pleasant St", "Amherst, MA 01002"]}, "phone": "+14132303034", "display_phone": "(413) 230-3034", "distance": 21515.34056743849}, {"id": "IiX7lGoQQE3T4wg_1cx8Og", "alias": "fresh-side-amherst", "name": "Fresh Side", "image_url": "https://s3-media1.fl.yelpcdn.com/bphoto/JnFSiF5wYb9Y4yIojqiNiQ/o.jpg", "is_closed": false, "url": "https://www.yelp.com/biz/fresh-side-amherst?adjust_creative=ywY5UnLZrNrRl2b93Ruy_g&utm_campaign=yelp_api_v3&utm_medium=api_v3_business_search&utm_source=ywY5UnLZrNrRl2b93Ruy_g", "review_count": 179, "categories": [{"alias": "coffee", "title": "Coffee & Tea"}, {"alias": "panasian", "title": "Pan Asian"}], "rating": 3.5, "coordinates": {"latitude": 42.3752749, "longitude": -72.5200186}, "transactions": ["delivery"], "price": "$$", "location": {"address1": "39 S Pleasant St", "address2": "", "address3": "", "city": "Amherst", "zip_code": "01002", "country": "US", "state": "MA", "display_address": ["39 S Pleasant St", "Amherst, MA 01002"]}, "phone": "+14132560296", "display_phone": "(413) 256-0296", "distance": 21597.089545461382}, {"id": "v8dqq-bW7cTLvo_jECUraA", "alias": "cheers-cut-amherst-amherst", "name": "Cheers Cut Amherst", "image_url": "https://s3-media2.fl.yelpcdn.com/bphoto/HZ5g3ozwe4wrvOuRVz2Nmw/o.jpg", "is_closed": false, "url": "https://www.yelp.com/biz/cheers-cut-amherst-amherst?adjust_creative=ywY5UnLZrNrRl2b93Ruy_g&utm_campaign=yelp_api_v3&utm_medium=api_v3_business_search&utm_source=ywY5UnLZrNrRl2b93Ruy_g", "review_count": 3, "categories": [{"alias": "chickenshop", "title": "Chicken Shop"}], "rating": 2.5, "coordinates": {"latitude": 42.376064, "longitude": -72.519357}, "transactions": ["delivery", "pickup"], "location": {"address1": "31 Boltwood Walk", "address2": null, "address3": "", "city": "Amherst", "zip_code": "01002", "country": "US", "state": "MA", "display_address": ["31 Boltwood Walk", "Amherst, MA 01002"]}, "phone": "+14132303127", "display_phone": "(413) 230-3127", "distance": 21572.194587712613}, {"id": "uvI_sThbGPccd-NHZRBnQg", "alias": "bei-jing-house-greenfield", "name": "Bei Jing House", "image_url": "https://s3-media2.fl.yelpcdn.com/bphoto/8ORL1RDkXxxEgLrcS0ps9Q/o.jpg", "is_closed": false, "url": "https://www.yelp.com/biz/bei-jing-house-greenfield?adjust_creative=ywY5UnLZrNrRl2b93Ruy_g&utm_campaign=yelp_api_v3&utm_medium=api_v3_business_search&utm_source=ywY5UnLZrNrRl2b93Ruy_g", "review_count": 18, "categories": [{"alias": "chinese", "title": "Chinese"}], "rating": 3.0, "coordinates": {"latitude": 42.58685, "longitude": -72.60736}, "transactions": ["delivery"], "price": "$", "location": {"address1": "45 Main St", "address2": "", "address3": "", "city": "Greenfield", "zip_code": "01301", "country": "US", "state": "MA", "display_address": ["45 Main St", "Greenfield, MA 01301"]}, "phone": "+14137737885", "display_phone": "(413) 773-7885", "distance": 11735.556740539847}, {"id": "ZiDnZGOCsr9xBGEL9ihzjg", "alias": "panda-east-amherst-2", "name": "Panda East", "image_url": "https://s3-media4.fl.yelpcdn.com/bphoto/TFJTGvU83_lxSSMSbAYjVQ/o.jpg", "is_closed": false, "url": "https://www.yelp.com/biz/panda-east-amherst-2?adjust_creative=ywY5UnLZrNrRl2b93Ruy_g&utm_campaign=yelp_api_v3&utm_medium=api_v3_business_search&utm_source=ywY5UnLZrNrRl2b93Ruy_g", "review_count": 96, "categories": [{"alias": "chinese", "title": "Chinese"}, {"alias": "japanese", "title": "Japanese"}], "rating": 3.0, "coordinates": {"latitude": 42.37722, "longitude": -72.51936}, "transactions": ["delivery"], "price": "$$", "location": {"address1": "103 N Pleasant St", "address2": "", "address3": "", "city": "Amherst", "zip_code": "01002", "country": "US", "state": "MA", "display_address": ["103 N Pleasant St", "Amherst, MA 01002"]}, "phone": "+14132568923", "display_phone": "(413) 256-8923", "distance": 21475.32758753969}, {"id": "0msAbcZIxbd0SNScpNaDkg", "alias": "ginger-garden-amherst", "name": "Ginger Garden", "image_url": "https://s3-media2.fl.yelpcdn.com/bphoto/js4UWunD8xiJmWjFWuerWw/o.jpg", "is_closed": false, "url": "https://www.yelp.com/biz/ginger-garden-amherst?adjust_creative=ywY5UnLZrNrRl2b93Ruy_g&utm_campaign=yelp_api_v3&utm_medium=api_v3_business_search&utm_source=ywY5UnLZrNrRl2b93Ruy_g", "review_count": 170, "categories": [{"alias": "chinese", "title": "Chinese"}, {"alias": "asianfusion", "title": "Asian Fusion"}, {"alias": "japanese", "title": "Japanese"}], "rating": 3.5, "coordinates": {"latitude": 42.3669775033261, "longitude": -72.5339299812913}, "transactions": ["delivery"], "price": "$$", "location": {"address1": "351 Northampton Rd", "address2": "", "address3": "", "city": "Amherst", "zip_code": "01002", "country": "US", "state": "MA", "display_address": ["351 Northampton Rd", "Amherst, MA 01002"]}, "phone": "+14132566666", "display_phone": "(413) 256-6666", "distance": 21478.411440348253}, {"id": "YZvXTxzycSpl0thbZbA62Q", "alias": "frontier-pizza-place-sunderland", "name": "Frontier Pizza Place", "image_url": "https://s3-media2.fl.yelpcdn.com/bphoto/bRpCBgRHsJrY_hojQ5VK7A/o.jpg", "is_closed": false, "url": "https://www.yelp.com/biz/frontier-pizza-place-sunderland?adjust_creative=ywY5UnLZrNrRl2b93Ruy_g&utm_campaign=yelp_api_v3&utm_medium=api_v3_business_search&utm_source=ywY5UnLZrNrRl2b93Ruy_g", "review_count": 30, "categories": [{"alias": "pizza", "title": "Pizza"}], "rating": 3.0, "coordinates": {"latitude": 42.450953, "longitude": -72.562729}, "transactions": ["delivery"], "price": "$$", "location": {"address1": "283 Amherst Rd", "address2": "Rte 116", "address3": "", "city": "Sunderland", "zip_code": "01375", "country": "US", "state": "MA", "display_address": ["283 Amherst Rd", "Rte 116", "Sunderland, MA 01375"]}, "phone": "+14136657066", "display_phone": "(413) 665-7066", "distance": 13651.960525535818}, {"id": "oh2hgHxtHrGCkzGHqK4quA", "alias": "goodies-restaurant-greenfield", "name": "Goodies Restaurant", "image_url": "https://s3-media3.fl.yelpcdn.com/bphoto/-bwBadmNTAtzswYG2Hh3Ig/o.jpg", "is_closed": false, "url": "https://www.yelp.com/biz/goodies-restaurant-greenfield?adjust_creative=ywY5UnLZrNrRl2b93Ruy_g&utm_campaign=yelp_api_v3&utm_medium=api_v3_business_search&utm_source=ywY5UnLZrNrRl2b93Ruy_g", "review_count": 31, "categories": [{"alias": "pizza", "title": "Pizza"}, {"alias": "italian", "title": "Italian"}], "rating": 3.0, "coordinates": {"latitude": 42.5986328125, "longitude": -72.596435546875}, "transactions": ["delivery"], "price": "$$", "location": {"address1": "256 Federal St", "address2": "", "address3": "", "city": "Greenfield", "zip_code": "01301", "country": "US", "state": "MA", "display_address": ["256 Federal St", "Greenfield, MA 01301"]}, "phone": "+14137722586", "display_phone": "(413) 772-2586", "distance": 13296.560408521102}, {"id": "leTHc9wctzklRk6rGw7VBw", "alias": "the-university-club-and-restaurant-amherst", "name": "The University Club & Restaurant", "image_url": "https://s3-media3.fl.yelpcdn.com/bphoto/Z2aAUuOi-k7EsO4_wi92nA/o.jpg", "is_closed": false, "url": "https://www.yelp.com/biz/the-university-club-and-restaurant-amherst?adjust_creative=ywY5UnLZrNrRl2b93Ruy_g&utm_campaign=yelp_api_v3&utm_medium=api_v3_business_search&utm_source=ywY5UnLZrNrRl2b93Ruy_g", "review_count": 8, "categories": [{"alias": "tradamerican", "title": "American (Traditional)"}, {"alias": "newamerican", "title": "American (New)"}, {"alias": "lounges", "title": "Lounges"}], "rating": 3.5, "coordinates": {"latitude": 42.3891652753559, "longitude": -72.5234329620205}, "transactions": ["delivery"], "price": "$$$", "location": {"address1": "243 Stockbridge Rd", "address2": "", "address3": "", "city": "Amherst", "zip_code": "01003", "country": "US", "state": "MA", "display_address": ["243 Stockbridge Rd", "Amherst, MA 01003"]}, "phone": "+14135452551", "display_phone": "(413) 545-2551", "distance": 20273.327060334534}, {"id": "qXh_8dyoLpniX1pv5jquOA", "alias": "chilis-hadley-2", "name": "Chili's", "image_url": "https://s3-media2.fl.yelpcdn.com/bphoto/ZgpcqyND1_O4weS7Np15Tg/o.jpg", "is_closed": false, "url": "https://www.yelp.com/biz/chilis-hadley-2?adjust_creative=ywY5UnLZrNrRl2b93Ruy_g&utm_campaign=yelp_api_v3&utm_medium=api_v3_business_search&utm_source=ywY5UnLZrNrRl2b93Ruy_g", "review_count": 48, "categories": [{"alias": "tradamerican", "title": "American (Traditional)"}, {"alias": "bars", "title": "Bars"}, {"alias": "tex-mex", "title": "Tex-Mex"}], "rating": 2.0, "coordinates": {"latitude": 42.3637066, "longitude": -72.5395134}, "transactions": [], "price": "$$", "location": {"address1": "426 Russell St", "address2": "", "address3": "", "city": "Hadley", "zip_code": "01035", "country": "US", "state": "MA", "display_address": ["426 Russell St", "Hadley, MA 01035"]}, "phone": "+14132534008", "display_phone": "(413) 253-4008", "distance": 21424.054100954865}, {"id": "_-DpIGE758Vq2hSJTF-P2w", "alias": "johnnys-roadside-diner-hadley", "name": "Johnny's Roadside Diner", "image_url": "https://s3-media2.fl.yelpcdn.com/bphoto/XlgfWs2nB0vm2QV5VJ7lyw/o.jpg", "is_closed": false, "url": "https://www.yelp.com/biz/johnnys-roadside-diner-hadley?adjust_creative=ywY5UnLZrNrRl2b93Ruy_g&utm_campaign=yelp_api_v3&utm_medium=api_v3_business_search&utm_source=ywY5UnLZrNrRl2b93Ruy_g", "review_count": 128, "categories": [{"alias": "tradamerican", "title": "American (Traditional)"}, {"alias": "diners", "title": "Diners"}, {"alias": "breakfast_brunch", "title": "Breakfast & Brunch"}], "rating": 3.5, "coordinates": {"latitude": 42.3655072874757, "longitude": -72.5364167243242}, "transactions": ["delivery", "pickup"], "price": "$$", "location": {"address1": "458 Russell St", "address2": "", "address3": "Campus Plaza Shopping Ctr", "city": "Hadley", "zip_code": "01035", "country": "US", "state": "MA", "display_address": ["458 Russell St", "Campus Plaza Shopping Ctr", "Hadley, MA 01035"]}, "phone": "+14132568000", "display_phone": "(413) 256-8000", "distance": 21467.120631282218}, {"id": "eolu_9FB74AaXHlgwYwQyw", "alias": "goulds-sugar-house-shelburne-falls", "name": "Gould's Sugar House", "image_url": "https://s3-media2.fl.yelpcdn.com/bphoto/hZVhRfCmNWWgCkjJf5VWBw/o.jpg", "is_closed": false, "url": "https://www.yelp.com/biz/goulds-sugar-house-shelburne-falls?adjust_creative=ywY5UnLZrNrRl2b93Ruy_g&utm_campaign=yelp_api_v3&utm_medium=api_v3_business_search&utm_source=ywY5UnLZrNrRl2b93Ruy_g", "review_count": 44, "categories": [{"alias": "gourmet", "title": "Specialty Food"}, {"alias": "breakfast_brunch", "title": "Breakfast & Brunch"}], "rating": 4.5, "coordinates": {"latitude": 42.584024, "longitude": -72.708754}, "transactions": [], "price": "$$", "location": {"address1": "570 Mohawk Trl", "address2": "", "address3": "", "city": "Shelburne Falls", "zip_code": "01370", "country": "US", "state": "MA", "display_address": ["570 Mohawk Trl", "Shelburne Falls, MA 01370"]}, "phone": "+14136256170", "display_phone": "(413) 625-6170", "distance": 8060.111352683946}, {"id": "3Wr0o6qZfbUoP7mkl0zPoQ", "alias": "la-veracruzana-mexican-restaurant-amherst", "name": "La Veracruzana Mexican Restaurant", "image_url": "https://s3-media4.fl.yelpcdn.com/bphoto/6ThJ2mUPLvY3CqmQHLTk2Q/o.jpg", "is_closed": false, "url": "https://www.yelp.com/biz/la-veracruzana-mexican-restaurant-amherst?adjust_creative=ywY5UnLZrNrRl2b93Ruy_g&utm_campaign=yelp_api_v3&utm_medium=api_v3_business_search&utm_source=ywY5UnLZrNrRl2b93Ruy_g", "review_count": 105, "categories": [{"alias": "mexican", "title": "Mexican"}], "rating": 3.0, "coordinates": {"latitude": 42.374797453538, "longitude": -72.520020664947}, "transactions": ["delivery"], "price": "$$", "location": {"address1": "63 S Pleasant St", "address2": "", "address3": "", "city": "Amherst", "zip_code": "01002", "country": "US", "state": "MA", "display_address": ["63 S Pleasant St", "Amherst, MA 01002"]}, "phone": "+14132536900", "display_phone": "(413) 253-6900", "distance": 21631.33357619287}, {"id": "d1PfS_bozULtBY4PjF3D-w", "alias": "antonios-amherst", "name": "Antonio's", "image_url": "https://s3-media1.fl.yelpcdn.com/bphoto/P-Xc3GMql09E_4KfL3t_XA/o.jpg", "is_closed": false, "url": "https://www.yelp.com/biz/antonios-amherst?adjust_creative=ywY5UnLZrNrRl2b93Ruy_g&utm_campaign=yelp_api_v3&utm_medium=api_v3_business_search&utm_source=ywY5UnLZrNrRl2b93Ruy_g", "review_count": 471, "categories": [{"alias": "pizza", "title": "Pizza"}], "rating": 4.5, "coordinates": {"latitude": 42.37619, "longitude": -72.51961}, "transactions": ["delivery"], "price": "$", "location": {"address1": "31 N Pleasant St", "address2": "", "address3": "", "city": "Amherst", "zip_code": "01002", "country": "US", "state": "MA", "display_address": ["31 N Pleasant St", "Amherst, MA 01002"]}, "phone": "+14132530808", "display_phone": "(413) 253-0808", "distance": 21544.022191786233}, {"id": "bzP1utyRGu6ywPric5UmGg", "alias": "arigato-sushi-amherst", "name": "Arigato Sushi", "image_url": "https://s3-media2.fl.yelpcdn.com/bphoto/ilaUY0nSTDWV0uGxKWxSKQ/o.jpg", "is_closed": false, "url": "https://www.yelp.com/biz/arigato-sushi-amherst?adjust_creative=ywY5UnLZrNrRl2b93Ruy_g&utm_campaign=yelp_api_v3&utm_medium=api_v3_business_search&utm_source=ywY5UnLZrNrRl2b93Ruy_g", "review_count": 75, "categories": [{"alias": "sushi", "title": "Sushi Bars"}, {"alias": "japanese", "title": "Japanese"}, {"alias": "korean", "title": "Korean"}], "rating": 3.5, "coordinates": {"latitude": 42.3759798393699, "longitude": -72.5196934563388}, "transactions": ["delivery"], "price": "$$", "location": {"address1": "11 N Pleasant St", "address2": null, "address3": "", "city": "Amherst", "zip_code": "01002", "country": "US", "state": "MA", "display_address": ["11 N Pleasant St", "Amherst, MA 01002"]}, "phone": "+14132531070", "display_phone": "(413) 253-1070", "distance": 21558.20087710703}, {"id": "5rkJ61I9GICBsEp2__7fXQ", "alias": "wings-over-greenfield-greenfield", "name": "Wings Over Greenfield", "image_url": "https://s3-media2.fl.yelpcdn.com/bphoto/Bmik4JsNWr2mPR6p0xu4aQ/o.jpg", "is_closed": false, "url": "https://www.yelp.com/biz/wings-over-greenfield-greenfield?adjust_creative=ywY5UnLZrNrRl2b93Ruy_g&utm_campaign=yelp_api_v3&utm_medium=api_v3_business_search&utm_source=ywY5UnLZrNrRl2b93Ruy_g", "review_count": 12, "categories": [{"alias": "chicken_wings", "title": "Chicken Wings"}, {"alias": "hotdogs", "title": "Fast Food"}, {"alias": "sandwiches", "title": "Sandwiches"}], "rating": 3.5, "coordinates": {"latitude": 42.5889892578125, "longitude": -72.5999526977539}, "transactions": [], "price": "$", "location": {"address1": "30 Federal St", "address2": "", "address3": null, "city": "Greenfield", "zip_code": "01301", "country": "US", "state": "MA", "display_address": ["30 Federal St", "Greenfield, MA 01301"]}, "phone": "+14137739464", "display_phone": "(413) 773-9464", "distance": 12315.08117209867}, {"id": "dEp2L6B4tFTHtK4NxWd83w", "alias": "turners-falls-pizza-house-turners-falls", "name": "Turners Falls Pizza House", "image_url": "https://s3-media2.fl.yelpcdn.com/bphoto/_xhngASvQO04GYK_oUGkMw/o.jpg", "is_closed": false, "url": "https://www.yelp.com/biz/turners-falls-pizza-house-turners-falls?adjust_creative=ywY5UnLZrNrRl2b93Ruy_g&utm_campaign=yelp_api_v3&utm_medium=api_v3_business_search&utm_source=ywY5UnLZrNrRl2b93Ruy_g", "review_count": 31, "categories": [{"alias": "pizza", "title": "Pizza"}, {"alias": "salad", "title": "Salad"}], "rating": 4.0, "coordinates": {"latitude": 42.60762, "longitude": -72.5569}, "transactions": ["delivery"], "price": "$", "location": {"address1": "119 Avenue A", "address2": "", "address3": "", "city": "Turners Falls", "zip_code": "01376", "country": "US", "state": "MA", "display_address": ["119 Avenue A", "Turners Falls, MA 01376"]}, "phone": "+14138638000", "display_phone": "(413) 863-8000", "distance": 16307.963651923756}, {"id": "33NPj7t3cxn_dPJiJN5-UQ", "alias": "roots-caf\u00e9-amherst", "name": "Roots Caf\u00e9", "image_url": "https://s3-media2.fl.yelpcdn.com/bphoto/qaM-JfiuX82_TrH_CJZbug/o.jpg", "is_closed": false, "url": "https://www.yelp.com/biz/roots-caf%C3%A9-amherst?adjust_creative=ywY5UnLZrNrRl2b93Ruy_g&utm_campaign=yelp_api_v3&utm_medium=api_v3_business_search&utm_source=ywY5UnLZrNrRl2b93Ruy_g", "review_count": 1, "categories": [{"alias": "cafes", "title": "Cafes"}, {"alias": "coffee", "title": "Coffee & Tea"}], "rating": 4.0, "coordinates": {"latitude": 42.3882024948657, "longitude": -72.5305322930217}, "transactions": [], "location": {"address1": "157 Commonwealth Ave", "address2": "", "address3": null, "city": "Amherst", "zip_code": "01002", "country": "US", "state": "MA", "display_address": ["157 Commonwealth Ave", "Amherst, MA 01002"]}, "phone": "+14135458402", "display_phone": "(413) 545-8402", "distance": 19974.1029440184}, {"id": "Rlt9O-ZnZJwbbz5lNnOe7A", "alias": "greeno-sub-shop-amherst", "name": "Greeno Sub Shop", "image_url": "https://s3-media1.fl.yelpcdn.com/bphoto/YuGAq9LxHLjiE7lQ9rm3KQ/o.jpg", "is_closed": false, "url": "https://www.yelp.com/biz/greeno-sub-shop-amherst?adjust_creative=ywY5UnLZrNrRl2b93Ruy_g&utm_campaign=yelp_api_v3&utm_medium=api_v3_business_search&utm_source=ywY5UnLZrNrRl2b93Ruy_g", "review_count": 3, "categories": [{"alias": "sandwiches", "title": "Sandwiches"}], "rating": 3.5, "coordinates": {"latitude": 42.3904151916504, "longitude": -72.5283737182617}, "transactions": [], "price": "$", "location": {"address1": "120 Greenough Hall Basement", "address2": "", "address3": "", "city": "Amherst", "zip_code": "01003", "country": "US", "state": "MA", "display_address": ["120 Greenough Hall Basement", "Amherst, MA 01003"]}, "phone": "+14135452380", "display_phone": "(413) 545-2380", "distance": 20503.54796275654}, {"id": "nKmZUo1GL5gXHI42Y_41kA", "alias": "green-fields-amherst", "name": "Green Fields", "image_url": "https://s3-media2.fl.yelpcdn.com/bphoto/vqdVIfR8a6LDcEkA_hEPVg/o.jpg", "is_closed": false, "url": "https://www.yelp.com/biz/green-fields-amherst?adjust_creative=ywY5UnLZrNrRl2b93Ruy_g&utm_campaign=yelp_api_v3&utm_medium=api_v3_business_search&utm_source=ywY5UnLZrNrRl2b93Ruy_g", "review_count": 1, "categories": [{"alias": "salad", "title": "Salad"}], "rating": 3.0, "coordinates": {"latitude": 42.3917175889903, "longitude": -72.5265750995056}, "transactions": [], "location": {"address1": "1 Campus Center Way", "address2": "Ste B", "address3": "", "city": "Amherst", "zip_code": "01003", "country": "US", "state": "MA", "display_address": ["1 Campus Center Way", "Ste B", "Amherst, MA 01003"]}, "phone": "", "display_phone": "", "distance": 19947.903534018013}, {"id": "NypGgpHGkW_VrZwYlcf7ag", "alias": "subway-sunderland-9", "name": "Subway", "image_url": "https://s3-media1.fl.yelpcdn.com/bphoto/nWFOwe3ieLFVGShR7NazoA/o.jpg", "is_closed": false, "url": "https://www.yelp.com/biz/subway-sunderland-9?adjust_creative=ywY5UnLZrNrRl2b93Ruy_g&utm_campaign=yelp_api_v3&utm_medium=api_v3_business_search&utm_source=ywY5UnLZrNrRl2b93Ruy_g", "review_count": 1, "categories": [{"alias": "sandwiches", "title": "Sandwiches"}], "rating": 4.0, "coordinates": {"latitude": 42.4507409061699, "longitude": -72.5608282907318}, "transactions": [], "price": "$", "location": {"address1": "5C Clark Mountain Rd", "address2": null, "address3": "", "city": "Sunderland", "zip_code": "01375", "country": "US", "state": "MA", "display_address": ["5C Clark Mountain Rd", "Sunderland, MA 01375"]}, "phone": "+14136650900", "display_phone": "(413) 665-0900", "distance": 13799.298571460638}, {"id": "VRA3aRN2BEb6O9rVEQ3gOg", "alias": "le-petit-cafe-greenfield", "name": "Le Petit Cafe", "image_url": "https://s3-media2.fl.yelpcdn.com/bphoto/MpWCzx2bkUihqHBPnIog_w/o.jpg", "is_closed": false, "url": "https://www.yelp.com/biz/le-petit-cafe-greenfield?adjust_creative=ywY5UnLZrNrRl2b93Ruy_g&utm_campaign=yelp_api_v3&utm_medium=api_v3_business_search&utm_source=ywY5UnLZrNrRl2b93Ruy_g", "review_count": 4, "categories": [{"alias": "cafes", "title": "Cafes"}, {"alias": "breakfast_brunch", "title": "Breakfast & Brunch"}], "rating": 4.0, "coordinates": {"latitude": 42.5876774, "longitude": -72.5981727}, "transactions": [], "price": "$", "location": {"address1": "426 Main St", "address2": null, "address3": null, "city": "Greenfield", "zip_code": "01301", "country": "US", "state": "MA", "display_address": ["426 Main St", "Greenfield, MA 01301"]}, "phone": "+14137687190", "display_phone": "(413) 768-7190", "distance": 12321.681930254961}, {"id": "fYOPoMtoJ4m0yGbxAMjNfw", "alias": "sunset-grill-and-pizza-amherst-2", "name": "Sunset Grill and Pizza", "image_url": "https://s3-media2.fl.yelpcdn.com/bphoto/dyKhKfKpARCn-1Mkxp6tog/o.jpg", "is_closed": false, "url": "https://www.yelp.com/biz/sunset-grill-and-pizza-amherst-2?adjust_creative=ywY5UnLZrNrRl2b93Ruy_g&utm_campaign=yelp_api_v3&utm_medium=api_v3_business_search&utm_source=ywY5UnLZrNrRl2b93Ruy_g", "review_count": 20, "categories": [{"alias": "pizza", "title": "Pizza"}, {"alias": "tradamerican", "title": "American (Traditional)"}], "rating": 3.5, "coordinates": {"latitude": 42.38105, "longitude": -72.52728}, "transactions": ["delivery"], "price": "$", "location": {"address1": "150 Fearing St", "address2": null, "address3": "", "city": "Amherst", "zip_code": "01002", "country": "US", "state": "MA", "display_address": ["150 Fearing St", "Amherst, MA 01002"]}, "phone": "+14138350568", "display_phone": "(413) 835-0568", "distance": 20700.38942034996}, {"id": "CI0drVFkwHgp5QMbS_NIcw", "alias": "shelburne-falls-coffee-roasters-greenfield", "name": "Shelburne Falls Coffee Roasters", "image_url": "https://s3-media3.fl.yelpcdn.com/bphoto/CqKHLzvK1qUoxC-SsqPv4A/o.jpg", "is_closed": false, "url": "https://www.yelp.com/biz/shelburne-falls-coffee-roasters-greenfield?adjust_creative=ywY5UnLZrNrRl2b93Ruy_g&utm_campaign=yelp_api_v3&utm_medium=api_v3_business_search&utm_source=ywY5UnLZrNrRl2b93Ruy_g", "review_count": 51, "categories": [{"alias": "coffee", "title": "Coffee & Tea"}, {"alias": "bagels", "title": "Bagels"}, {"alias": "sandwiches", "title": "Sandwiches"}], "rating": 3.5, "coordinates": {"latitude": 42.59049, "longitude": -72.5992799}, "transactions": ["delivery"], "price": "$$", "location": {"address1": "100 Federal St", "address2": "", "address3": "", "city": "Greenfield", "zip_code": "01301", "country": "US", "state": "MA", "display_address": ["100 Federal St", "Greenfield, MA 01301"]}, "phone": "+14137738028", "display_phone": "(413) 773-8028", "distance": 12480.919884007686}, {"id": "-cTZN8UAmWz98p492Y_OMw", "alias": "friendlys-greenfield-2", "name": "Friendly's", "image_url": "https://s3-media3.fl.yelpcdn.com/bphoto/R8N4TORIBSgbhC1_DRsLZg/o.jpg", "is_closed": false, "url": "https://www.yelp.com/biz/friendlys-greenfield-2?adjust_creative=ywY5UnLZrNrRl2b93Ruy_g&utm_campaign=yelp_api_v3&utm_medium=api_v3_business_search&utm_source=ywY5UnLZrNrRl2b93Ruy_g", "review_count": 54, "categories": [{"alias": "icecream", "title": "Ice Cream & Frozen Yogurt"}, {"alias": "tradamerican", "title": "American (Traditional)"}, {"alias": "burgers", "title": "Burgers"}], "rating": 2.0, "coordinates": {"latitude": 42.5852699, "longitude": -72.6235962}, "transactions": [], "price": "$$", "location": {"address1": "200 Mohawk Trl", "address2": null, "address3": null, "city": "Greenfield", "zip_code": "01301", "country": "US", "state": "MA", "display_address": ["200 Mohawk Trl", "Greenfield, MA 01301"]}, "phone": "+14137745435", "display_phone": "(413) 774-5435", "distance": 10707.10093880615}, {"id": "viFpmTD5zT19tizBXRrKFw", "alias": "antonios-pizza-shop-greenfield", "name": "Antonio's Pizza Shop", "image_url": "https://s3-media2.fl.yelpcdn.com/bphoto/VuMGXTShN9oxzIHMdXZ7kg/o.jpg", "is_closed": false, "url": "https://www.yelp.com/biz/antonios-pizza-shop-greenfield?adjust_creative=ywY5UnLZrNrRl2b93Ruy_g&utm_campaign=yelp_api_v3&utm_medium=api_v3_business_search&utm_source=ywY5UnLZrNrRl2b93Ruy_g", "review_count": 20, "categories": [{"alias": "pizza", "title": "Pizza"}, {"alias": "italian", "title": "Italian"}, {"alias": "sandwiches", "title": "Sandwiches"}], "rating": 3.5, "coordinates": {"latitude": 42.5876694, "longitude": -72.6027374}, "transactions": ["delivery"], "price": "$", "location": {"address1": "201 Main St", "address2": "", "address3": "", "city": "Greenfield", "zip_code": "01301", "country": "US", "state": "MA", "display_address": ["201 Main St", "Greenfield, MA 01301"]}, "phone": "+14137737517", "display_phone": "(413) 773-7517", "distance": 12056.179214091453}, {"id": "5lZ6vYXgDWjYC2DfUfiLuw", "alias": "the-blue-wall-amherst", "name": "The Blue Wall", "image_url": "https://s3-media3.fl.yelpcdn.com/bphoto/vrnn4FII9CRUFx1XzhshtA/o.jpg", "is_closed": false, "url": "https://www.yelp.com/biz/the-blue-wall-amherst?adjust_creative=ywY5UnLZrNrRl2b93Ruy_g&utm_campaign=yelp_api_v3&utm_medium=api_v3_business_search&utm_source=ywY5UnLZrNrRl2b93Ruy_g", "review_count": 19, "categories": [{"alias": "food_court", "title": "Food Court"}], "rating": 2.5, "coordinates": {"latitude": 42.391782, "longitude": -72.527004}, "transactions": [], "price": "$$", "location": {"address1": "1 Campus Center Way", "address2": "", "address3": "University of Massachusetts Campus Center", "city": "Amherst", "zip_code": "01003", "country": "US", "state": "MA", "display_address": ["1 Campus Center Way", "University of Massachusetts Campus Center", "Amherst, MA 01003"]}, "phone": "", "display_phone": "", "distance": 19916.934068518643}, {"id": "_9fx7H2bsf_COclbn5xbrg", "alias": "worcester-dining-commons-amherst", "name": "Worcester Dining Commons", "image_url": "https://s3-media1.fl.yelpcdn.com/bphoto/ty1MQG9UGyR0vn8sLx5Fqw/o.jpg", "is_closed": false, "url": "https://www.yelp.com/biz/worcester-dining-commons-amherst?adjust_creative=ywY5UnLZrNrRl2b93Ruy_g&utm_campaign=yelp_api_v3&utm_medium=api_v3_business_search&utm_source=ywY5UnLZrNrRl2b93Ruy_g", "review_count": 3, "categories": [{"alias": "soup", "title": "Soup"}, {"alias": "pizza", "title": "Pizza"}], "rating": 4.0, "coordinates": {"latitude": 42.3936650395243, "longitude": -72.5240462528631}, "transactions": [], "price": "$", "location": {"address1": "669 N Pleasant St", "address2": "", "address3": "", "city": "Amherst", "zip_code": "01003", "country": "US", "state": "MA", "display_address": ["669 N Pleasant St", "Amherst, MA 01003"]}, "phone": "+14135452472", "display_phone": "(413) 545-2472", "distance": 19959.746762167048}, {"id": "bUOQz09aRLhDVV5Lg35o6w", "alias": "paradise-of-india-restaurant-amherst", "name": "Paradise Of India Restaurant", "image_url": "https://s3-media4.fl.yelpcdn.com/bphoto/bzRIUko7RhNRfr8ANGpMSg/o.jpg", "is_closed": false, "url": "https://www.yelp.com/biz/paradise-of-india-restaurant-amherst?adjust_creative=ywY5UnLZrNrRl2b93Ruy_g&utm_campaign=yelp_api_v3&utm_medium=api_v3_business_search&utm_source=ywY5UnLZrNrRl2b93Ruy_g", "review_count": 44, "categories": [{"alias": "indpak", "title": "Indian"}], "rating": 3.0, "coordinates": {"latitude": 42.375682107816, "longitude": -72.518003456808}, "transactions": ["delivery"], "price": "$$", "location": {"address1": "87 Main St", "address2": "", "address3": "", "city": "Amherst", "zip_code": "01002", "country": "US", "state": "MA", "display_address": ["87 Main St", "Amherst, MA 01002"]}, "phone": "+14132561067", "display_phone": "(413) 256-1067", "distance": 21680.63778122893}, {"id": "R_Dbzv_Qldr8iQSurwMgNQ", "alias": "friendlys-hadley", "name": "Friendly's", "image_url": "https://s3-media1.fl.yelpcdn.com/bphoto/qcBD0f0dXi-o-3DxaVbfhA/o.jpg", "is_closed": false, "url": "https://www.yelp.com/biz/friendlys-hadley?adjust_creative=ywY5UnLZrNrRl2b93Ruy_g&utm_campaign=yelp_api_v3&utm_medium=api_v3_business_search&utm_source=ywY5UnLZrNrRl2b93Ruy_g", "review_count": 12, "categories": [{"alias": "icecream", "title": "Ice Cream & Frozen Yogurt"}, {"alias": "burgers", "title": "Burgers"}, {"alias": "tradamerican", "title": "American (Traditional)"}], "rating": 4.0, "coordinates": {"latitude": 42.3637771606445, "longitude": -72.5378112792969}, "transactions": [], "price": "$$", "location": {"address1": "455 Russell St", "address2": "", "address3": "", "city": "Hadley", "zip_code": "01035", "country": "US", "state": "MA", "display_address": ["455 Russell St", "Hadley, MA 01035"]}, "phone": "+14132537640", "display_phone": "(413) 253-7640", "distance": 21531.45213803944}, {"id": "_bXSHicL1fVAG-RhwxJYPQ", "alias": "subway-south-deerfield-3", "name": "Subway", "image_url": "https://s3-media3.fl.yelpcdn.com/bphoto/X8kbX68KBbQAXsBH5t-8rw/o.jpg", "is_closed": false, "url": "https://www.yelp.com/biz/subway-south-deerfield-3?adjust_creative=ywY5UnLZrNrRl2b93Ruy_g&utm_campaign=yelp_api_v3&utm_medium=api_v3_business_search&utm_source=ywY5UnLZrNrRl2b93Ruy_g", "review_count": 2, "categories": [{"alias": "sandwiches", "title": "Sandwiches"}], "rating": 3.0, "coordinates": {"latitude": 42.4708609610147, "longitude": -72.6158315565979}, "transactions": [], "price": "$", "location": {"address1": "1 Greenfield Rd", "address2": null, "address3": null, "city": "South Deerfield", "zip_code": "01373", "country": "US", "state": "MA", "display_address": ["1 Greenfield Rd", "South Deerfield, MA 01373"]}, "phone": "+14136659830", "display_phone": "(413) 665-9830", "distance": 8773.844586320514}, {"id": "Im68PoWLtYHB7AcxGfoM_A", "alias": "athenas-pizza-amherst", "name": "Athena's Pizza", "image_url": "https://s3-media1.fl.yelpcdn.com/bphoto/Jp1WPOmRPFycwGfsgFEYqA/o.jpg", "is_closed": false, "url": "https://www.yelp.com/biz/athenas-pizza-amherst?adjust_creative=ywY5UnLZrNrRl2b93Ruy_g&utm_campaign=yelp_api_v3&utm_medium=api_v3_business_search&utm_source=ywY5UnLZrNrRl2b93Ruy_g", "review_count": 28, "categories": [{"alias": "greek", "title": "Greek"}, {"alias": "pizza", "title": "Pizza"}, {"alias": "chicken_wings", "title": "Chicken Wings"}], "rating": 4.0, "coordinates": {"latitude": 42.371578, "longitude": -72.533959}, "transactions": ["pickup", "delivery"], "price": "$", "location": {"address1": "65 University Dr", "address2": "Ste 1", "address3": "", "city": "Amherst", "zip_code": "01002", "country": "US", "state": "MA", "display_address": ["65 University Dr", "Ste 1", "Amherst, MA 01002"]}, "phone": "+14135499900", "display_phone": "(413) 549-9900", "distance": 21107.48799868401}, {"id": "UEYeGewAHsCLA-OAFxKJ5A", "alias": "amherst-house-of-pizza-north-amherst", "name": "Amherst House of Pizza", "image_url": "https://s3-media2.fl.yelpcdn.com/bphoto/fOr-ygossK2adzltS9jayA/o.jpg", "is_closed": false, "url": "https://www.yelp.com/biz/amherst-house-of-pizza-north-amherst?adjust_creative=ywY5UnLZrNrRl2b93Ruy_g&utm_campaign=yelp_api_v3&utm_medium=api_v3_business_search&utm_source=ywY5UnLZrNrRl2b93Ruy_g", "review_count": 53, "categories": [{"alias": "pizza", "title": "Pizza"}], "rating": 3.5, "coordinates": {"latitude": 42.410941, "longitude": -72.53031}, "transactions": ["delivery"], "price": "$", "location": {"address1": "17B Montague Rd", "address2": "", "address3": "", "city": "North Amherst", "zip_code": "01002", "country": "US", "state": "MA", "display_address": ["17B Montague Rd", "North Amherst, MA 01002"]}, "phone": "+14134613510", "display_phone": "(413) 461-3510", "distance": 18342.780707891314}, {"id": "-QyJ17Tl5StCDa-J4tWCQw", "alias": "valentine-dining-hall-amherst", "name": "Valentine Dining Hall", "image_url": "https://s3-media2.fl.yelpcdn.com/bphoto/MElCxmjV49nCBS6tStIZBw/o.jpg", "is_closed": false, "url": "https://www.yelp.com/biz/valentine-dining-hall-amherst?adjust_creative=ywY5UnLZrNrRl2b93Ruy_g&utm_campaign=yelp_api_v3&utm_medium=api_v3_business_search&utm_source=ywY5UnLZrNrRl2b93Ruy_g", "review_count": 3, "categories": [{"alias": "tradamerican", "title": "American (Traditional)"}, {"alias": "diners", "title": "Diners"}, {"alias": "breakfast_brunch", "title": "Breakfast & Brunch"}], "rating": 2.5, "coordinates": {"latitude": 42.3731250339904, "longitude": -72.51625}, "transactions": [], "location": {"address1": "59 College St", "address2": "", "address3": null, "city": "Amherst", "zip_code": "01002", "country": "US", "state": "MA", "display_address": ["59 College St", "Amherst, MA 01002"]}, "phone": "+14135422220", "display_phone": "(413) 542-2220", "distance": 22035.66636696795}, {"id": "c2gucBE9DwnLOr9_Xk754A", "alias": "brads-place-greenfield", "name": "Brad's Place", "image_url": "https://s3-media2.fl.yelpcdn.com/bphoto/UniO9JMw-de02Xqojnx28g/o.jpg", "is_closed": false, "url": "https://www.yelp.com/biz/brads-place-greenfield?adjust_creative=ywY5UnLZrNrRl2b93Ruy_g&utm_campaign=yelp_api_v3&utm_medium=api_v3_business_search&utm_source=ywY5UnLZrNrRl2b93Ruy_g", "review_count": 27, "categories": [{"alias": "newamerican", "title": "American (New)"}, {"alias": "breakfast_brunch", "title": "Breakfast & Brunch"}], "rating": 3.5, "coordinates": {"latitude": 42.5876259014004, "longitude": -72.5999116420645}, "transactions": ["pickup", "delivery"], "price": "$", "location": {"address1": "353 Main St", "address2": "", "address3": "", "city": "Greenfield", "zip_code": "01301", "country": "US", "state": "MA", "display_address": ["353 Main St", "Greenfield, MA 01301"]}, "phone": "+14137738460", "display_phone": "(413) 773-8460", "distance": 12217.729168245294}, {"id": "7rD52PKYYUpAQDSruT8UJA", "alias": "primo-pizzeria-too-amherst", "name": "Primo Pizzeria Too", "image_url": "https://s3-media3.fl.yelpcdn.com/bphoto/n7w5NR3glh-ADtjH0UQdKg/o.jpg", "is_closed": false, "url": "https://www.yelp.com/biz/primo-pizzeria-too-amherst?adjust_creative=ywY5UnLZrNrRl2b93Ruy_g&utm_campaign=yelp_api_v3&utm_medium=api_v3_business_search&utm_source=ywY5UnLZrNrRl2b93Ruy_g", "review_count": 27, "categories": [{"alias": "pizza", "title": "Pizza"}, {"alias": "italian", "title": "Italian"}, {"alias": "burgers", "title": "Burgers"}], "rating": 3.5, "coordinates": {"latitude": 42.3811003969016, "longitude": -72.5186309760506}, "transactions": ["delivery"], "price": "$", "location": {"address1": "255 Triangle St", "address2": "", "address3": "", "city": "Amherst", "zip_code": "01002", "country": "US", "state": "MA", "display_address": ["255 Triangle St", "Amherst, MA 01002"]}, "phone": "+14136580100", "display_phone": "(413) 658-0100", "distance": 21218.860976085045}, {"id": "QzmmXJvK8cw7-BICO_gigQ", "alias": "shady-glen-turners-falls", "name": "Shady Glen", "image_url": "https://s3-media1.fl.yelpcdn.com/bphoto/WDilrIiLQWIs6l8y7XQbdA/o.jpg", "is_closed": false, "url": "https://www.yelp.com/biz/shady-glen-turners-falls?adjust_creative=ywY5UnLZrNrRl2b93Ruy_g&utm_campaign=yelp_api_v3&utm_medium=api_v3_business_search&utm_source=ywY5UnLZrNrRl2b93Ruy_g", "review_count": 35, "categories": [{"alias": "diners", "title": "Diners"}, {"alias": "breakfast_brunch", "title": "Breakfast & Brunch"}, {"alias": "tradamerican", "title": "American (Traditional)"}], "rating": 4.0, "coordinates": {"latitude": 42.6091117858887, "longitude": -72.5553665161133}, "transactions": ["delivery"], "price": "$", "location": {"address1": "7 Ave A", "address2": "", "address3": "", "city": "Turners Falls", "zip_code": "01376", "country": "US", "state": "MA", "display_address": ["7 Ave A", "Turners Falls, MA 01376"]}, "phone": "+14138639636", "display_phone": "(413) 863-9636", "distance": 16521.48450380268}, {"id": "q9yRUhtTnlxTJPhTMrMWCg", "alias": "applebees-grill-bar-hadley", "name": "Applebee's Grill + Bar", "image_url": "https://s3-media3.fl.yelpcdn.com/bphoto/AqPUNdyXjiPAUUcK_VM7EQ/o.jpg", "is_closed": false, "url": "https://www.yelp.com/biz/applebees-grill-bar-hadley?adjust_creative=ywY5UnLZrNrRl2b93Ruy_g&utm_campaign=yelp_api_v3&utm_medium=api_v3_business_search&utm_source=ywY5UnLZrNrRl2b93Ruy_g", "review_count": 27, "categories": [{"alias": "burgers", "title": "Burgers"}, {"alias": "sportsbars", "title": "Sports Bars"}, {"alias": "tradamerican", "title": "American (Traditional)"}], "rating": 3.0, "coordinates": {"latitude": 42.361753, "longitude": -72.54188}, "transactions": ["delivery"], "price": "$$", "location": {"address1": "100 Westgate Center Dr", "address2": "", "address3": "", "city": "Hadley", "zip_code": "01035", "country": "US", "state": "MA", "display_address": ["100 Westgate Center Dr", "Hadley, MA 01035"]}, "phone": "+14132535799", "display_phone": "(413) 253-5799", "distance": 21498.636749587706}, {"id": "mlDZf-GdNIaW5ToE3AR9CA", "alias": "subway-greenfield-20", "name": "Subway", "image_url": "https://s3-media2.fl.yelpcdn.com/bphoto/J25dG23zDO2UgNa3-tc9fw/o.jpg", "is_closed": false, "url": "https://www.yelp.com/biz/subway-greenfield-20?adjust_creative=ywY5UnLZrNrRl2b93Ruy_g&utm_campaign=yelp_api_v3&utm_medium=api_v3_business_search&utm_source=ywY5UnLZrNrRl2b93Ruy_g", "review_count": 3, "categories": [{"alias": "sandwiches", "title": "Sandwiches"}], "rating": 2.0, "coordinates": {"latitude": 42.5873648, "longitude": -72.626196}, "transactions": [], "price": "$", "location": {"address1": "251 Mohawk Trail", "address2": "", "address3": "Greenfield Plz S C", "city": "Greenfield", "zip_code": "01301", "country": "US", "state": "MA", "display_address": ["251 Mohawk Trail", "Greenfield Plz S C", "Greenfield, MA 01301"]}, "phone": "+14137743636", "display_phone": "(413) 774-3636", "distance": 10745.222634608284}, {"id": "VcKnHfkBxXSqPd_a1TJa2Q", "alias": "kfc-greenfield-4", "name": "KFC", "image_url": "https://s3-media4.fl.yelpcdn.com/bphoto/zRrjKWbYcRMZx7xjAgBC5g/o.jpg", "is_closed": false, "url": "https://www.yelp.com/biz/kfc-greenfield-4?adjust_creative=ywY5UnLZrNrRl2b93Ruy_g&utm_campaign=yelp_api_v3&utm_medium=api_v3_business_search&utm_source=ywY5UnLZrNrRl2b93Ruy_g", "review_count": 6, "categories": [{"alias": "hotdogs", "title": "Fast Food"}, {"alias": "chicken_wings", "title": "Chicken Wings"}, {"alias": "chickenshop", "title": "Chicken Shop"}], "rating": 1.5, "coordinates": {"latitude": 42.5857303098406, "longitude": -72.626232}, "transactions": ["pickup", "delivery"], "price": "$", "location": {"address1": "242 Mohawk Trl", "address2": null, "address3": null, "city": "Greenfield", "zip_code": "01301", "country": "US", "state": "MA", "display_address": ["242 Mohawk Trl", "Greenfield, MA 01301"]}, "phone": "+14137747869", "display_phone": "(413) 774-7869", "distance": 10601.420767697358}, {"id": "QxuZGiHF3jnatCUmI41FmA", "alias": "the-black-sheep-deli-amherst-2", "name": "The Black Sheep Deli", "image_url": "https://s3-media2.fl.yelpcdn.com/bphoto/DCb__h0cGUGK2wA-6T_ZEQ/o.jpg", "is_closed": false, "url": "https://www.yelp.com/biz/the-black-sheep-deli-amherst-2?adjust_creative=ywY5UnLZrNrRl2b93Ruy_g&utm_campaign=yelp_api_v3&utm_medium=api_v3_business_search&utm_source=ywY5UnLZrNrRl2b93Ruy_g", "review_count": 152, "categories": [{"alias": "bakeries", "title": "Bakeries"}, {"alias": "delis", "title": "Delis"}], "rating": 3.5, "coordinates": {"latitude": 42.3754577636719, "longitude": -72.5180435180664}, "transactions": ["delivery"], "price": "$", "location": {"address1": "79 Main St", "address2": "", "address3": "", "city": "Amherst", "zip_code": "01002", "country": "US", "state": "MA", "display_address": ["79 Main St", "Amherst, MA 01002"]}, "phone": "+14132533442", "display_phone": "(413) 253-3442", "distance": 21677.930324824585}, {"id": "VlzeNUSkepYtIgYCkrqRbg", "alias": "the-lone-wolf-amherst", "name": "The Lone Wolf", "image_url": "https://s3-media3.fl.yelpcdn.com/bphoto/16Ov-_O1_0h4BzipsZG9GQ/o.jpg", "is_closed": false, "url": "https://www.yelp.com/biz/the-lone-wolf-amherst?adjust_creative=ywY5UnLZrNrRl2b93Ruy_g&utm_campaign=yelp_api_v3&utm_medium=api_v3_business_search&utm_source=ywY5UnLZrNrRl2b93Ruy_g", "review_count": 246, "categories": [{"alias": "breakfast_brunch", "title": "Breakfast & Brunch"}, {"alias": "tradamerican", "title": "American (Traditional)"}], "rating": 4.0, "coordinates": {"latitude": 42.3755499, "longitude": -72.5184699}, "transactions": ["delivery"], "price": "$$", "location": {"address1": "63 Main St", "address2": null, "address3": "", "city": "Amherst", "zip_code": "01002", "country": "US", "state": "MA", "display_address": ["63 Main St", "Amherst, MA 01002"]}, "phone": "+14132564643", "display_phone": "(413) 256-4643", "distance": 21660.486288719127}, {"id": "KbFb1n-RZd5HOn2q1qOD1A", "alias": "brunos-pizza-amherst", "name": "Bruno's Pizza", "image_url": "https://s3-media3.fl.yelpcdn.com/bphoto/hXRlZF08A_ATYFsuWGx9-A/o.jpg", "is_closed": false, "url": "https://www.yelp.com/biz/brunos-pizza-amherst?adjust_creative=ywY5UnLZrNrRl2b93Ruy_g&utm_campaign=yelp_api_v3&utm_medium=api_v3_business_search&utm_source=ywY5UnLZrNrRl2b93Ruy_g", "review_count": 51, "categories": [{"alias": "pizza", "title": "Pizza"}], "rating": 3.5, "coordinates": {"latitude": 42.3757726413449, "longitude": -72.5127280375822}, "transactions": ["delivery"], "price": "$", "location": {"address1": "363 Main St", "address2": "", "address3": "", "city": "Amherst", "zip_code": "01002", "country": "US", "state": "MA", "display_address": ["363 Main St", "Amherst, MA 01002"]}, "phone": "+14132560222", "display_phone": "(413) 256-0222", "distance": 21986.27098279431}, {"id": "OOTU0zYwg5QVhTB_1MFjBQ", "alias": "dennys-pantry-greenfield", "name": "Denny's Pantry", "image_url": "https://s3-media3.fl.yelpcdn.com/bphoto/aJ4KdrwNtjBdKr75LY9dng/o.jpg", "is_closed": false, "url": "https://www.yelp.com/biz/dennys-pantry-greenfield?adjust_creative=ywY5UnLZrNrRl2b93Ruy_g&utm_campaign=yelp_api_v3&utm_medium=api_v3_business_search&utm_source=ywY5UnLZrNrRl2b93Ruy_g", "review_count": 36, "categories": [{"alias": "tradamerican", "title": "American (Traditional)"}, {"alias": "breakfast_brunch", "title": "Breakfast & Brunch"}], "rating": 3.5, "coordinates": {"latitude": 42.60826, "longitude": -72.58705}, "transactions": [], "price": "$", "location": {"address1": "469 Bernardston Rd", "address2": "", "address3": "", "city": "Greenfield", "zip_code": "01301", "country": "US", "state": "MA", "display_address": ["469 Bernardston Rd", "Greenfield, MA 01301"]}, "phone": "+14137733345", "display_phone": "(413) 773-3345", "distance": 14585.587215862697}, {"id": "9gUZ2bgnsPRtihya9yvzVg", "alias": "taco-bell-greenfield", "name": "Taco Bell", "image_url": "https://s3-media1.fl.yelpcdn.com/bphoto/ogHV-spWv4efdk7MthVOLw/o.jpg", "is_closed": false, "url": "https://www.yelp.com/biz/taco-bell-greenfield?adjust_creative=ywY5UnLZrNrRl2b93Ruy_g&utm_campaign=yelp_api_v3&utm_medium=api_v3_business_search&utm_source=ywY5UnLZrNrRl2b93Ruy_g", "review_count": 14, "categories": [{"alias": "hotdogs", "title": "Fast Food"}, {"alias": "tacos", "title": "Tacos"}], "rating": 1.0, "coordinates": {"latitude": 42.586462, "longitude": -72.627696}, "transactions": [], "price": "$", "location": {"address1": "242 Mohawk Trail", "address2": "", "address3": "", "city": "Greenfield", "zip_code": "01301", "country": "US", "state": "MA", "display_address": ["242 Mohawk Trail", "Greenfield, MA 01301"]}, "phone": "+14137747869", "display_phone": "(413) 774-7869", "distance": 10590.362287162377}, {"id": "9f8jUaPQOlu8Q-3W_t61fg", "alias": "subway-turners-falls-3", "name": "Subway", "image_url": "https://s3-media4.fl.yelpcdn.com/bphoto/BQKiqilNmE7skga-CDDUOg/o.jpg", "is_closed": false, "url": "https://www.yelp.com/biz/subway-turners-falls-3?adjust_creative=ywY5UnLZrNrRl2b93Ruy_g&utm_campaign=yelp_api_v3&utm_medium=api_v3_business_search&utm_source=ywY5UnLZrNrRl2b93Ruy_g", "review_count": 3, "categories": [{"alias": "sandwiches", "title": "Sandwiches"}], "rating": 3.5, "coordinates": {"latitude": 42.6085179, "longitude": -72.5561029998867}, "transactions": [], "price": "$", "location": {"address1": "57 Avenue A", "address2": "", "address3": "", "city": "Turners Falls", "zip_code": "01376", "country": "US", "state": "MA", "display_address": ["57 Avenue A", "Turners Falls, MA 01376"]}, "phone": "+14138632363", "display_phone": "(413) 863-2363", "distance": 16433.793729024634}, {"id": "0pFLeP_Xjxhf2dM-5Orw4w", "alias": "subway-sunderland-4", "name": "Subway", "image_url": "", "is_closed": false, "url": "https://www.yelp.com/biz/subway-sunderland-4?adjust_creative=ywY5UnLZrNrRl2b93Ruy_g&utm_campaign=yelp_api_v3&utm_medium=api_v3_business_search&utm_source=ywY5UnLZrNrRl2b93Ruy_g", "review_count": 2, "categories": [{"alias": "sandwiches", "title": "Sandwiches"}, {"alias": "hotdogs", "title": "Fast Food"}], "rating": 3.5, "coordinates": {"latitude": 42.464704, "longitude": -72.5758}, "transactions": [], "price": "$", "location": {"address1": "45 Amherst Rd", "address2": "", "address3": "", "city": "Sunderland", "zip_code": "01375", "country": "US", "state": "MA", "display_address": ["45 Amherst Rd", "Sunderland, MA 01375"]}, "phone": "+14136650900", "display_phone": "(413) 665-0900", "distance": 11993.18909683036}, {"id": "BEFXrXW9BIo96TA4yOlanA", "alias": "subway-greenfield-29", "name": "Subway", "image_url": "https://s3-media3.fl.yelpcdn.com/bphoto/KhBvbd8eR5pSD5juuoh8Gw/o.jpg", "is_closed": false, "url": "https://www.yelp.com/biz/subway-greenfield-29?adjust_creative=ywY5UnLZrNrRl2b93Ruy_g&utm_campaign=yelp_api_v3&utm_medium=api_v3_business_search&utm_source=ywY5UnLZrNrRl2b93Ruy_g", "review_count": 7, "categories": [{"alias": "sandwiches", "title": "Sandwiches"}], "rating": 3.5, "coordinates": {"latitude": 42.6023944623179, "longitude": -72.592163430718}, "transactions": [], "price": "$", "location": {"address1": "343 Federal St", "address2": "", "address3": "", "city": "Greenfield", "zip_code": "01301", "country": "US", "state": "MA", "display_address": ["343 Federal St", "Greenfield, MA 01301"]}, "phone": "+14137745999", "display_phone": "(413) 774-5999", "distance": 13832.093615867141}, {"id": "WQkrz00jNyQsaJadxL0h7Q", "alias": "kellys-restaurant-amherst", "name": "Kelly's Restaurant", "image_url": "https://s3-media4.fl.yelpcdn.com/bphoto/hwuMSRbWALIzfeUkyoHXWA/o.jpg", "is_closed": false, "url": "https://www.yelp.com/biz/kellys-restaurant-amherst?adjust_creative=ywY5UnLZrNrRl2b93Ruy_g&utm_campaign=yelp_api_v3&utm_medium=api_v3_business_search&utm_source=ywY5UnLZrNrRl2b93Ruy_g", "review_count": 19, "categories": [{"alias": "newamerican", "title": "American (New)"}, {"alias": "breakfast_brunch", "title": "Breakfast & Brunch"}], "rating": 3.5, "coordinates": {"latitude": 42.373229, "longitude": -72.503424}, "transactions": ["delivery"], "price": "$", "location": {"address1": "314 College St", "address2": "", "address3": "", "city": "Amherst", "zip_code": "01002", "country": "US", "state": "MA", "display_address": ["314 College St", "Amherst, MA 01002"]}, "phone": "+14132539521", "display_phone": "(413) 253-9521", "distance": 22737.977426352347}, {"id": "4Zzu0W5N2O6-ATv7vOMnog", "alias": "wendys-greenfield-2", "name": "Wendy's", "image_url": "https://s3-media1.fl.yelpcdn.com/bphoto/VjepJeSj81EQxIrHcl7H_A/o.jpg", "is_closed": false, "url": "https://www.yelp.com/biz/wendys-greenfield-2?adjust_creative=ywY5UnLZrNrRl2b93Ruy_g&utm_campaign=yelp_api_v3&utm_medium=api_v3_business_search&utm_source=ywY5UnLZrNrRl2b93Ruy_g", "review_count": 16, "categories": [{"alias": "hotdogs", "title": "Fast Food"}, {"alias": "burgers", "title": "Burgers"}], "rating": 2.0, "coordinates": {"latitude": 42.592495, "longitude": -72.598592}, "transactions": ["delivery"], "price": "$", "location": {"address1": "138 Federal Street", "address2": "", "address3": "", "city": "Greenfield", "zip_code": "01301", "country": "US", "state": "MA", "display_address": ["138 Federal Street", "Greenfield, MA 01301"]}, "phone": "+14137745201", "display_phone": "(413) 774-5201", "distance": 12675.101186395266}, {"id": "ZtM_ln7Tsn075y7RnDTsqQ", "alias": "sylvan-snack-bar-amherst", "name": "Sylvan Snack Bar", "image_url": "https://s3-media2.fl.yelpcdn.com/bphoto/y0DQzgfiJo8DUZDVWZk2Fw/o.jpg", "is_closed": false, "url": "https://www.yelp.com/biz/sylvan-snack-bar-amherst?adjust_creative=ywY5UnLZrNrRl2b93Ruy_g&utm_campaign=yelp_api_v3&utm_medium=api_v3_business_search&utm_source=ywY5UnLZrNrRl2b93Ruy_g", "review_count": 3, "categories": [{"alias": "desserts", "title": "Desserts"}, {"alias": "pizza", "title": "Pizza"}, {"alias": "sandwiches", "title": "Sandwiches"}], "rating": 3.0, "coordinates": {"latitude": 42.3973721265793, "longitude": -72.5196287781}, "transactions": [], "location": {"address1": "102 Eastman Ln", "address2": "", "address3": "McNamara Hall - UMass", "city": "Amherst", "zip_code": "01003", "country": "US", "state": "MA", "display_address": ["102 Eastman Ln", "McNamara Hall - UMass", "Amherst, MA 01003"]}, "phone": "+14135453020", "display_phone": "(413) 545-3020", "distance": 19752.21700269109}, {"id": "Eu9D2dTHMxUZifR8Nw_7sg", "alias": "dominos-pizza-hadley-2", "name": "Domino's Pizza", "image_url": "https://s3-media4.fl.yelpcdn.com/bphoto/WhZ0RjxN0fl-omymcOPiow/o.jpg", "is_closed": false, "url": "https://www.yelp.com/biz/dominos-pizza-hadley-2?adjust_creative=ywY5UnLZrNrRl2b93Ruy_g&utm_campaign=yelp_api_v3&utm_medium=api_v3_business_search&utm_source=ywY5UnLZrNrRl2b93Ruy_g", "review_count": 29, "categories": [{"alias": "pizza", "title": "Pizza"}, {"alias": "chicken_wings", "title": "Chicken Wings"}, {"alias": "sandwiches", "title": "Sandwiches"}], "rating": 1.5, "coordinates": {"latitude": 42.36456463353, "longitude": -72.5365933603404}, "transactions": [], "price": "$", "location": {"address1": "459 Russell St", "address2": "", "address3": "", "city": "Hadley", "zip_code": "01035", "country": "US", "state": "MA", "display_address": ["459 Russell St", "Hadley, MA 01035"]}, "phone": "+14132568911", "display_phone": "(413) 256-8911", "distance": 21537.143236631924}, {"id": "MQ9PTbD-EFRUxhg0R5kjUw", "alias": "cushman-market-and-cafe-amherst", "name": "Cushman Market and Cafe", "image_url": "https://s3-media1.fl.yelpcdn.com/bphoto/DO5X8alL6hHAyTMwtOLyvg/o.jpg", "is_closed": false, "url": "https://www.yelp.com/biz/cushman-market-and-cafe-amherst?adjust_creative=ywY5UnLZrNrRl2b93Ruy_g&utm_campaign=yelp_api_v3&utm_medium=api_v3_business_search&utm_source=ywY5UnLZrNrRl2b93Ruy_g", "review_count": 82, "categories": [{"alias": "breakfast_brunch", "title": "Breakfast & Brunch"}, {"alias": "grocery", "title": "Grocery"}, {"alias": "coffee", "title": "Coffee & Tea"}], "rating": 4.0, "coordinates": {"latitude": 42.4126167297363, "longitude": -72.5079345703125}, "transactions": ["pickup", "delivery"], "price": "$", "location": {"address1": "491 Pine St", "address2": "", "address3": "", "city": "Amherst", "zip_code": "01002", "country": "US", "state": "MA", "display_address": ["491 Pine St", "Amherst, MA 01002"]}, "phone": "+14135490100", "display_phone": "(413) 549-0100", "distance": 19714.941988553903}, {"id": "lAHlJinahtGJQkd25QJrRw", "alias": "dominos-pizza-greenfield-4", "name": "Domino's Pizza", "image_url": "https://s3-media3.fl.yelpcdn.com/bphoto/ZFcc_blzn6KVp9PDfMX_0Q/o.jpg", "is_closed": false, "url": "https://www.yelp.com/biz/dominos-pizza-greenfield-4?adjust_creative=ywY5UnLZrNrRl2b93Ruy_g&utm_campaign=yelp_api_v3&utm_medium=api_v3_business_search&utm_source=ywY5UnLZrNrRl2b93Ruy_g", "review_count": 10, "categories": [{"alias": "pizza", "title": "Pizza"}, {"alias": "chicken_wings", "title": "Chicken Wings"}, {"alias": "sandwiches", "title": "Sandwiches"}], "rating": 1.5, "coordinates": {"latitude": 42.603973, "longitude": -72.591673}, "transactions": [], "price": "$", "location": {"address1": "368 Federal St", "address2": "", "address3": "", "city": "Greenfield", "zip_code": "01301", "country": "US", "state": "MA", "display_address": ["368 Federal St", "Greenfield, MA 01301"]}, "phone": "+14137747291", "display_phone": "(413) 774-7291", "distance": 13987.937930443131}, {"id": "lGTaMLtrvNzg8kJqm93KTA", "alias": "mcdonalds-greenfield-5", "name": "McDonald's", "image_url": "https://s3-media4.fl.yelpcdn.com/bphoto/k0TRfvZBOqKHdWPr7vZsnA/o.jpg", "is_closed": false, "url": "https://www.yelp.com/biz/mcdonalds-greenfield-5?adjust_creative=ywY5UnLZrNrRl2b93Ruy_g&utm_campaign=yelp_api_v3&utm_medium=api_v3_business_search&utm_source=ywY5UnLZrNrRl2b93Ruy_g", "review_count": 9, "categories": [{"alias": "hotdogs", "title": "Fast Food"}, {"alias": "burgers", "title": "Burgers"}, {"alias": "coffee", "title": "Coffee & Tea"}], "rating": 2.0, "coordinates": {"latitude": 42.5998173687393, "longitude": -72.5944671034812}, "transactions": [], "price": "$", "location": {"address1": "285 Federal St", "address2": "", "address3": "", "city": "Greenfield", "zip_code": "01301", "country": "US", "state": "MA", "display_address": ["285 Federal St", "Greenfield, MA 01301"]}, "phone": "+14137743618", "display_phone": "(413) 774-3618", "distance": 13494.174856487893}, {"id": "7IOS0bILt7y2-6eiiXxJRg", "alias": "mcdonalds-greenfield", "name": "McDonald's", "image_url": "https://s3-media4.fl.yelpcdn.com/bphoto/RUa3FiH2Cx7jHuH740Rw8Q/o.jpg", "is_closed": false, "url": "https://www.yelp.com/biz/mcdonalds-greenfield?adjust_creative=ywY5UnLZrNrRl2b93Ruy_g&utm_campaign=yelp_api_v3&utm_medium=api_v3_business_search&utm_source=ywY5UnLZrNrRl2b93Ruy_g", "review_count": 19, "categories": [{"alias": "hotdogs", "title": "Fast Food"}, {"alias": "burgers", "title": "Burgers"}, {"alias": "coffee", "title": "Coffee & Tea"}], "rating": 2.5, "coordinates": {"latitude": 42.5854669, "longitude": -72.6247290475385}, "transactions": [], "price": "$", "location": {"address1": "208 Mohawk Trl", "address2": "", "address3": "", "city": "Greenfield", "zip_code": "01301", "country": "US", "state": "MA", "display_address": ["208 Mohawk Trl", "Greenfield, MA 01301"]}, "phone": "+14137745311", "display_phone": "(413) 774-5311", "distance": 10656.582738634123}, {"id": "NWZbIKlYUT9LwUD7v-5vfA", "alias": "the-works-bakery-caf\u00e9-amherst", "name": "The Works Bakery Caf\u00e9", "image_url": "https://s3-media2.fl.yelpcdn.com/bphoto/w6Zcisqdu7cOkPZSNmtzJg/o.jpg", "is_closed": false, "url": "https://www.yelp.com/biz/the-works-bakery-caf%C3%A9-amherst?adjust_creative=ywY5UnLZrNrRl2b93Ruy_g&utm_campaign=yelp_api_v3&utm_medium=api_v3_business_search&utm_source=ywY5UnLZrNrRl2b93Ruy_g", "review_count": 67, "categories": [{"alias": "bagels", "title": "Bagels"}, {"alias": "sandwiches", "title": "Sandwiches"}, {"alias": "breakfast_brunch", "title": "Breakfast & Brunch"}], "rating": 3.0, "coordinates": {"latitude": 42.376465, "longitude": -72.52031}, "transactions": ["delivery"], "price": "$$", "location": {"address1": "48 N Pleasant St", "address2": "", "address3": "", "city": "Amherst", "zip_code": "01002", "country": "US", "state": "MA", "display_address": ["48 N Pleasant St", "Amherst, MA 01002"]}, "phone": "+14138350561", "display_phone": "(413) 835-0561", "distance": 21484.270117356362}, {"id": "EBOKlLXepUQImS8wV4068A", "alias": "subway-amherst-17", "name": "Subway", "image_url": "https://s3-media2.fl.yelpcdn.com/bphoto/8Lcf7urdszZgs5hG6MNr_w/o.jpg", "is_closed": false, "url": "https://www.yelp.com/biz/subway-amherst-17?adjust_creative=ywY5UnLZrNrRl2b93Ruy_g&utm_campaign=yelp_api_v3&utm_medium=api_v3_business_search&utm_source=ywY5UnLZrNrRl2b93Ruy_g", "review_count": 8, "categories": [{"alias": "sandwiches", "title": "Sandwiches"}], "rating": 2.5, "coordinates": {"latitude": 42.3758654810346, "longitude": -72.5196445020015}, "transactions": ["pickup", "delivery"], "price": "$", "location": {"address1": "4 Main St", "address2": "Store 1A", "address3": "", "city": "Amherst", "zip_code": "01002", "country": "US", "state": "MA", "display_address": ["4 Main St", "Store 1A", "Amherst, MA 01002"]}, "phone": "+14132561919", "display_phone": "(413) 256-1919", "distance": 21569.97490396769}, {"id": "A0e-tQr8h6nZ7a9VzZMgCg", "alias": "brueggers-bagels-amherst-2", "name": "Bruegger's Bagels", "image_url": "https://s3-media4.fl.yelpcdn.com/bphoto/Wo7oMIDoFYao7kQbaJ4pqw/o.jpg", "is_closed": false, "url": "https://www.yelp.com/biz/brueggers-bagels-amherst-2?adjust_creative=ywY5UnLZrNrRl2b93Ruy_g&utm_campaign=yelp_api_v3&utm_medium=api_v3_business_search&utm_source=ywY5UnLZrNrRl2b93Ruy_g", "review_count": 32, "categories": [{"alias": "bagels", "title": "Bagels"}, {"alias": "breakfast_brunch", "title": "Breakfast & Brunch"}, {"alias": "sandwiches", "title": "Sandwiches"}], "rating": 2.5, "coordinates": {"latitude": 42.3782241, "longitude": -72.5201029}, "transactions": [], "price": "$", "location": {"address1": "170 N Pleasant St", "address2": "", "address3": "", "city": "Amherst", "zip_code": "01002", "country": "US", "state": "MA", "display_address": ["170 N Pleasant St", "Amherst, MA 01002"]}, "phone": "+14132535713", "display_phone": "(413) 253-5713", "distance": 21358.68854145207}, {"id": "qqA8YX58xnmEXLyanHfdUg", "alias": "stufd-food-truck-brooklyn", "name": "Stuf'd Food Truck", "image_url": "https://s3-media2.fl.yelpcdn.com/bphoto/_Wn0i-tLIOFinw8BPAqxPA/o.jpg", "is_closed": false, "url": "https://www.yelp.com/biz/stufd-food-truck-brooklyn?adjust_creative=ywY5UnLZrNrRl2b93Ruy_g&utm_campaign=yelp_api_v3&utm_medium=api_v3_business_search&utm_source=ywY5UnLZrNrRl2b93Ruy_g", "review_count": 4, "categories": [{"alias": "sandwiches", "title": "Sandwiches"}, {"alias": "foodtrucks", "title": "Food Trucks"}], "rating": 4.0, "coordinates": {"latitude": 40.7124539, "longitude": -73.9287374}, "transactions": [], "location": {"address1": "178 Varick Ave", "address2": "", "address3": null, "city": "Brooklyn", "zip_code": "11237", "country": "US", "state": "NY", "display_address": ["178 Varick Ave", "Brooklyn, NY 11237"]}, "phone": "+18457091808", "display_phone": "(845) 709-1808", "distance": 224331.1212943231}]