[{"id": "WchQRtW_lbGEI8DLvLeUVw", "alias": "the-farm-table-bernardston", "name": "The Farm Table", "image_url": "https://s3-media4.fl.yelpcdn.com/bphoto/DGU-IEeKKTh1ByhQStXZuw/o.jpg", "is_closed": false, "url": "https://www.yelp.com/biz/the-farm-table-bernardston?adjust_creative=ywY5UnLZrNrRl2b93Ruy_g&utm_campaign=yelp_api_v3&utm_medium=api_v3_business_search&utm_source=ywY5UnLZrNrRl2b93Ruy_g", "review_count": 309, "categories": [{"alias": "newamerican", "title": "American (New)"}], "rating": 4.0, "coordinates": {"latitude": 42.658211, "longitude": -72.5619356}, "transactions": ["restaurant_reservation", "delivery"], "price": "$$", "location": {"address1": "219 South St", "address2": "", "address3": "", "city": "Bernardston", "zip_code": "01337", "country": "US", "state": "MA", "display_address": ["219 South St", "Bernardston, MA 01337"]}, "phone": "+14136485200", "display_phone": "(413) 648-5200", "distance": 9473.381331494296}, {"id": "e4NQleebi2maK-FwHhOPcw", "alias": "the-gill-tavern-gill", "name": "The Gill Tavern", "image_url": "https://s3-media4.fl.yelpcdn.com/bphoto/RcLFtAnwpIt0AK7Lrn0ptQ/o.jpg", "is_closed": false, "url": "https://www.yelp.com/biz/the-gill-tavern-gill?adjust_creative=ywY5UnLZrNrRl2b93Ruy_g&utm_campaign=yelp_api_v3&utm_medium=api_v3_business_search&utm_source=ywY5UnLZrNrRl2b93Ruy_g", "review_count": 64, "categories": [{"alias": "newamerican", "title": "American (New)"}], "rating": 4.0, "coordinates": {"latitude": 42.640793, "longitude": -72.499757}, "transactions": [], "price": "$$", "location": {"address1": "326 Main Rd", "address2": "", "address3": "", "city": "Gill", "zip_code": "01354", "country": "US", "state": "MA", "display_address": ["326 Main Rd", "Gill, MA 01354"]}, "phone": "+14138639006", "display_phone": "(413) 863-9006", "distance": 5187.0091574481075}, {"id": "cHRcqEfOxKAWTPK5JxFmRA", "alias": "the-rustic-table-winchester", "name": "The Rustic Table", "image_url": "https://s3-media3.fl.yelpcdn.com/bphoto/UXgEYMn0JYMb49BI3iKWGQ/o.jpg", "is_closed": false, "url": "https://www.yelp.com/biz/the-rustic-table-winchester?adjust_creative=ywY5UnLZrNrRl2b93Ruy_g&utm_campaign=yelp_api_v3&utm_medium=api_v3_business_search&utm_source=ywY5UnLZrNrRl2b93Ruy_g", "review_count": 45, "categories": [{"alias": "tradamerican", "title": "American (Traditional)"}, {"alias": "seafood", "title": "Seafood"}, {"alias": "italian", "title": "Italian"}], "rating": 4.5, "coordinates": {"latitude": 42.793927, "longitude": -72.373842}, "transactions": [], "price": "$$", "location": {"address1": "320 Keene Rd", "address2": "", "address3": "", "city": "Winchester", "zip_code": "03470", "country": "US", "state": "NH", "display_address": ["320 Keene Rd", "Winchester, NH 03470"]}, "phone": "+16033920296", "display_phone": "(603) 392-0296", "distance": 15392.055242172108}, {"id": "vuakpKxCBDz6kezGY2Os8Q", "alias": "hope-and-olive-greenfield", "name": "Hope & Olive", "image_url": "https://s3-media1.fl.yelpcdn.com/bphoto/JXgp6DSGLyNQUmPdvjgbDA/o.jpg", "is_closed": false, "url": "https://www.yelp.com/biz/hope-and-olive-greenfield?adjust_creative=ywY5UnLZrNrRl2b93Ruy_g&utm_campaign=yelp_api_v3&utm_medium=api_v3_business_search&utm_source=ywY5UnLZrNrRl2b93Ruy_g", "review_count": 261, "categories": [{"alias": "tradamerican", "title": "American (Traditional)"}, {"alias": "bars", "title": "Bars"}], "rating": 4.0, "coordinates": {"latitude": 42.5862655639648, "longitude": -72.5992050170898}, "transactions": ["delivery"], "price": "$$", "location": {"address1": "44 Hope St", "address2": "", "address3": "", "city": "Greenfield", "zip_code": "01301", "country": "US", "state": "MA", "display_address": ["44 Hope St", "Greenfield, MA 01301"]}, "phone": "+14137743150", "display_phone": "(413) 774-3150", "distance": 15324.480969785729}, {"id": "jRkRfmnAWeioG1YSB0-V6A", "alias": "the-alvah-stone-montague", "name": "The Alvah Stone", "image_url": "https://s3-media2.fl.yelpcdn.com/bphoto/WZarGmnHvPAsgoIF5mKRqw/o.jpg", "is_closed": false, "url": "https://www.yelp.com/biz/the-alvah-stone-montague?adjust_creative=ywY5UnLZrNrRl2b93Ruy_g&utm_campaign=yelp_api_v3&utm_medium=api_v3_business_search&utm_source=ywY5UnLZrNrRl2b93Ruy_g", "review_count": 195, "categories": [{"alias": "bars", "title": "Bars"}, {"alias": "tradamerican", "title": "American (Traditional)"}, {"alias": "newamerican", "title": "American (New)"}], "rating": 4.0, "coordinates": {"latitude": 42.537929, "longitude": -72.5372039}, "transactions": ["restaurant_reservation", "delivery"], "price": "$$", "location": {"address1": "440 Greenfield Rd", "address2": null, "address3": "", "city": "Montague", "zip_code": "01351", "country": "US", "state": "MA", "display_address": ["440 Greenfield Rd", "Montague, MA 01351"]}, "phone": "+14133675345", "display_phone": "(413) 367-5345", "distance": 16079.311839061811}, {"id": "Pi1vuMna90sAsd9KUnI-kQ", "alias": "riffs-north-turners-falls", "name": "Riff's North", "image_url": "https://s3-media3.fl.yelpcdn.com/bphoto/-P1r6baoRAmWRz18K-pwvA/o.jpg", "is_closed": false, "url": "https://www.yelp.com/biz/riffs-north-turners-falls?adjust_creative=ywY5UnLZrNrRl2b93Ruy_g&utm_campaign=yelp_api_v3&utm_medium=api_v3_business_search&utm_source=ywY5UnLZrNrRl2b93Ruy_g", "review_count": 71, "categories": [{"alias": "burgers", "title": "Burgers"}, {"alias": "tradamerican", "title": "American (Traditional)"}, {"alias": "sandwiches", "title": "Sandwiches"}], "rating": 4.5, "coordinates": {"latitude": 42.6060869184616, "longitude": -72.5584889575839}, "transactions": ["delivery"], "price": "$$", "location": {"address1": "166 Ave A", "address2": "", "address3": "", "city": "Turners Falls", "zip_code": "01376", "country": "US", "state": "MA", "display_address": ["166 Ave A", "Turners Falls, MA 01376"]}, "phone": "+14138633700", "display_phone": "(413) 863-3700", "distance": 11336.372994356505}, {"id": "2QTT7kY9qMp88GbkAi2kRQ", "alias": "terrazza-greenfield-2", "name": "Terrazza", "image_url": "https://s3-media4.fl.yelpcdn.com/bphoto/GJYRmIwN23NA33b_qnYcoQ/o.jpg", "is_closed": false, "url": "https://www.yelp.com/biz/terrazza-greenfield-2?adjust_creative=ywY5UnLZrNrRl2b93Ruy_g&utm_campaign=yelp_api_v3&utm_medium=api_v3_business_search&utm_source=ywY5UnLZrNrRl2b93Ruy_g", "review_count": 29, "categories": [{"alias": "italian", "title": "Italian"}, {"alias": "lounges", "title": "Lounges"}, {"alias": "eventplanning", "title": "Party & Event Planning"}], "rating": 4.5, "coordinates": {"latitude": 42.618689, "longitude": -72.595328}, "transactions": ["delivery", "pickup"], "price": "$$", "location": {"address1": "244 Country Club Rd", "address2": null, "address3": null, "city": "Greenfield", "zip_code": "01301", "country": "US", "state": "MA", "display_address": ["244 Country Club Rd", "Greenfield, MA 01301"]}, "phone": "+14137720970", "display_phone": "(413) 772-0970", "distance": 13264.351845406884}, {"id": "lUxVsuNo5syFd_cxEplvaA", "alias": "herricks-tavern-orange", "name": "Herrick's Tavern", "image_url": "https://s3-media1.fl.yelpcdn.com/bphoto/mAHqpOXGI32xph2DHpHtHg/o.jpg", "is_closed": false, "url": "https://www.yelp.com/biz/herricks-tavern-orange?adjust_creative=ywY5UnLZrNrRl2b93Ruy_g&utm_campaign=yelp_api_v3&utm_medium=api_v3_business_search&utm_source=ywY5UnLZrNrRl2b93Ruy_g", "review_count": 49, "categories": [{"alias": "tradamerican", "title": "American (Traditional)"}, {"alias": "sportsbars", "title": "Sports Bars"}], "rating": 4.0, "coordinates": {"latitude": 42.5542299, "longitude": -72.28915}, "transactions": [], "price": "$$", "location": {"address1": "207 Daniel Shays Hwy", "address2": null, "address3": null, "city": "Orange", "zip_code": "01364", "country": "US", "state": "MA", "display_address": ["207 Daniel Shays Hwy", "Orange, MA 01364"]}, "phone": "+19785443902", "display_phone": "(978) 544-3902", "distance": 17906.6771561071}, {"id": "SvMeNEEWcJw0w6lmjgxdew", "alias": "titos-taqueria-greenfield", "name": "Tito's Taqueria", "image_url": "https://s3-media3.fl.yelpcdn.com/bphoto/wZBeQpxZsgDEmwK5EswnXQ/o.jpg", "is_closed": false, "url": "https://www.yelp.com/biz/titos-taqueria-greenfield?adjust_creative=ywY5UnLZrNrRl2b93Ruy_g&utm_campaign=yelp_api_v3&utm_medium=api_v3_business_search&utm_source=ywY5UnLZrNrRl2b93Ruy_g", "review_count": 3, "categories": [{"alias": "foodstands", "title": "Food Stands"}, {"alias": "mexican", "title": "Mexican"}], "rating": 4.5, "coordinates": {"latitude": 42.5927892, "longitude": -72.5978838}, "transactions": ["delivery", "pickup"], "location": {"address1": "145 Federal St", "address2": null, "address3": "", "city": "Greenfield", "zip_code": "01301", "country": "US", "state": "MA", "display_address": ["145 Federal St", "Greenfield, MA 01301"]}, "phone": "", "display_phone": "", "distance": 14828.718986012913}, {"id": "IdJQcFjuiOtkiZKGvTcqpQ", "alias": "windmill-restaurant-bernardston", "name": "Windmill Restaurant", "image_url": "https://s3-media4.fl.yelpcdn.com/bphoto/cFWJPCvE4wQtv8_4Lg1X7Q/o.jpg", "is_closed": false, "url": "https://www.yelp.com/biz/windmill-restaurant-bernardston?adjust_creative=ywY5UnLZrNrRl2b93Ruy_g&utm_campaign=yelp_api_v3&utm_medium=api_v3_business_search&utm_source=ywY5UnLZrNrRl2b93Ruy_g", "review_count": 1, "categories": [{"alias": "restaurants", "title": "Restaurants"}], "rating": 3.0, "coordinates": {"latitude": 42.6760040223598, "longitude": -72.4974147230387}, "transactions": [], "price": "$", "location": {"address1": "497 Northfield Rd", "address2": "", "address3": "", "city": "Bernardston", "zip_code": "01337", "country": "US", "state": "MA", "display_address": ["497 Northfield Rd", "Bernardston, MA 01337"]}, "phone": "+14136489859", "display_phone": "(413) 648-9859", "distance": 4512.993324450064}, {"id": "8sKIaGoMceZ14IWg2h2M7g", "alias": "the-notch-northfield", "name": "The Notch", "image_url": "https://s3-media1.fl.yelpcdn.com/bphoto/7qOmPQ4q-y91S2pfvc2zXQ/o.jpg", "is_closed": false, "url": "https://www.yelp.com/biz/the-notch-northfield?adjust_creative=ywY5UnLZrNrRl2b93Ruy_g&utm_campaign=yelp_api_v3&utm_medium=api_v3_business_search&utm_source=ywY5UnLZrNrRl2b93Ruy_g", "review_count": 8, "categories": [{"alias": "diners", "title": "Diners"}], "rating": 3.0, "coordinates": {"latitude": 42.69466, "longitude": -72.45556}, "transactions": [], "price": "$", "location": {"address1": "77 Main St", "address2": "", "address3": "", "city": "Northfield", "zip_code": "01360", "country": "US", "state": "MA", "display_address": ["77 Main St", "Northfield, MA 01360"]}, "phone": "+14134980100", "display_phone": "(413) 498-0100", "distance": 3249.9772479084986}, {"id": "o9QX_uCqOVdwk3Gvy34Bng", "alias": "great-falls-harvest-turners-falls", "name": "Great Falls Harvest", "image_url": "https://s3-media4.fl.yelpcdn.com/bphoto/OkD_KkZ6Kve21zBRzA_kKg/o.jpg", "is_closed": false, "url": "https://www.yelp.com/biz/great-falls-harvest-turners-falls?adjust_creative=ywY5UnLZrNrRl2b93Ruy_g&utm_campaign=yelp_api_v3&utm_medium=api_v3_business_search&utm_source=ywY5UnLZrNrRl2b93Ruy_g", "review_count": 46, "categories": [{"alias": "diners", "title": "Diners"}, {"alias": "salad", "title": "Salad"}], "rating": 4.5, "coordinates": {"latitude": 42.6080433, "longitude": -72.5566357}, "transactions": [], "price": "$$", "location": {"address1": "50 3rd St", "address2": "", "address3": "", "city": "Turners Falls", "zip_code": "01376", "country": "US", "state": "MA", "display_address": ["50 3rd St", "Turners Falls, MA 01376"]}, "phone": "+14138630023", "display_phone": "(413) 863-0023", "distance": 11085.845005985257}, {"id": "SV4vcr74r6LG-LbTAKh1MA", "alias": "whistle-stop-cafe-millers-falls-2", "name": "Whistle Stop Cafe", "image_url": "https://s3-media3.fl.yelpcdn.com/bphoto/1SC0WPCzKgFjDuCI44q57Q/o.jpg", "is_closed": false, "url": "https://www.yelp.com/biz/whistle-stop-cafe-millers-falls-2?adjust_creative=ywY5UnLZrNrRl2b93Ruy_g&utm_campaign=yelp_api_v3&utm_medium=api_v3_business_search&utm_source=ywY5UnLZrNrRl2b93Ruy_g", "review_count": 7, "categories": [{"alias": "cafes", "title": "Cafes"}], "rating": 4.0, "coordinates": {"latitude": 42.5781478, "longitude": -72.4940642}, "transactions": ["delivery", "pickup"], "location": {"address1": "29 E Main St", "address2": "", "address3": null, "city": "Millers Falls", "zip_code": "01349", "country": "US", "state": "MA", "display_address": ["29 E Main St", "Millers Falls, MA 01349"]}, "phone": "+14138348174", "display_phone": "(413) 834-8174", "distance": 10523.81335195762}, {"id": "aqxqBtpWLmyEwWvgfLTxZA", "alias": "magpie-greenfield", "name": "Magpie", "image_url": "https://s3-media1.fl.yelpcdn.com/bphoto/L2HxqLlx7n0XbbsWFddCaQ/o.jpg", "is_closed": false, "url": "https://www.yelp.com/biz/magpie-greenfield?adjust_creative=ywY5UnLZrNrRl2b93Ruy_g&utm_campaign=yelp_api_v3&utm_medium=api_v3_business_search&utm_source=ywY5UnLZrNrRl2b93Ruy_g", "review_count": 99, "categories": [{"alias": "pizza", "title": "Pizza"}], "rating": 4.0, "coordinates": {"latitude": 42.5869828462601, "longitude": -72.6005423069}, "transactions": ["delivery"], "price": "$$", "location": {"address1": "21 Bank Row", "address2": "", "address3": "", "city": "Greenfield", "zip_code": "01301", "country": "US", "state": "MA", "display_address": ["21 Bank Row", "Greenfield, MA 01301"]}, "phone": "+14134753570", "display_phone": "(413) 475-3570", "distance": 15349.828340247974}, {"id": "rM26yhJCf8spmob1iCkpTA", "alias": "french-king-restaurant-and-motel-erving", "name": "French King Restaurant and Motel", "image_url": "https://s3-media3.fl.yelpcdn.com/bphoto/0JOjCjjQ6AgsODrtn77g0A/o.jpg", "is_closed": false, "url": "https://www.yelp.com/biz/french-king-restaurant-and-motel-erving?adjust_creative=ywY5UnLZrNrRl2b93Ruy_g&utm_campaign=yelp_api_v3&utm_medium=api_v3_business_search&utm_source=ywY5UnLZrNrRl2b93Ruy_g", "review_count": 25, "categories": [{"alias": "tradamerican", "title": "American (Traditional)"}, {"alias": "italian", "title": "Italian"}, {"alias": "lounges", "title": "Lounges"}], "rating": 3.5, "coordinates": {"latitude": 42.596912, "longitude": -72.493921}, "transactions": [], "price": "$$", "location": {"address1": "129 French King Hwy", "address2": "", "address3": "", "city": "Erving", "zip_code": "01344", "country": "US", "state": "MA", "display_address": ["129 French King Hwy", "Erving, MA 01344"]}, "phone": "+14134233328", "display_phone": "(413) 423-3328", "distance": 8626.03052739677}, {"id": "Kd7unePYbesshmVtrvTnMQ", "alias": "four-leaf-clover-bernardston", "name": "Four Leaf Clover", "image_url": "https://s3-media2.fl.yelpcdn.com/bphoto/GsADBXLF5s0nkpa7vjedeg/o.jpg", "is_closed": false, "url": "https://www.yelp.com/biz/four-leaf-clover-bernardston?adjust_creative=ywY5UnLZrNrRl2b93Ruy_g&utm_campaign=yelp_api_v3&utm_medium=api_v3_business_search&utm_source=ywY5UnLZrNrRl2b93Ruy_g", "review_count": 59, "categories": [{"alias": "tradamerican", "title": "American (Traditional)"}], "rating": 3.5, "coordinates": {"latitude": 42.6702041625977, "longitude": -72.5550842285156}, "transactions": [], "price": "$$", "location": {"address1": "19 South St", "address2": "", "address3": "", "city": "Bernardston", "zip_code": "01337", "country": "US", "state": "MA", "display_address": ["19 South St", "Bernardston, MA 01337"]}, "phone": "+14136489514", "display_phone": "(413) 648-9514", "distance": 8882.72120572995}, {"id": "ExPrawZiMKFCtz9HV-Hw3Q", "alias": "the-peoples-pint-greenfield", "name": "The People's Pint", "image_url": "https://s3-media4.fl.yelpcdn.com/bphoto/tXW4H4plAEoPzXDNviVIGg/o.jpg", "is_closed": false, "url": "https://www.yelp.com/biz/the-peoples-pint-greenfield?adjust_creative=ywY5UnLZrNrRl2b93Ruy_g&utm_campaign=yelp_api_v3&utm_medium=api_v3_business_search&utm_source=ywY5UnLZrNrRl2b93Ruy_g", "review_count": 290, "categories": [{"alias": "tradamerican", "title": "American (Traditional)"}, {"alias": "breweries", "title": "Breweries"}], "rating": 4.0, "coordinates": {"latitude": 42.58858, "longitude": -72.60011}, "transactions": ["delivery"], "price": "$$", "location": {"address1": "24 Federal St", "address2": "", "address3": "", "city": "Greenfield", "zip_code": "01301", "country": "US", "state": "MA", "display_address": ["24 Federal St", "Greenfield, MA 01301"]}, "phone": "+14137730333", "display_phone": "(413) 773-0333", "distance": 15247.553003561281}, {"id": "efnGUoB4SVkhsF9a2wjebg", "alias": "the-wagon-wheel-restaurant-gill", "name": "The Wagon Wheel Restaurant", "image_url": "https://s3-media1.fl.yelpcdn.com/bphoto/_ifEFpgX3i8RfdhHYMX1uQ/o.jpg", "is_closed": false, "url": "https://www.yelp.com/biz/the-wagon-wheel-restaurant-gill?adjust_creative=ywY5UnLZrNrRl2b93Ruy_g&utm_campaign=yelp_api_v3&utm_medium=api_v3_business_search&utm_source=ywY5UnLZrNrRl2b93Ruy_g", "review_count": 136, "categories": [{"alias": "burgers", "title": "Burgers"}, {"alias": "tradamerican", "title": "American (Traditional)"}], "rating": 4.0, "coordinates": {"latitude": 42.61201, "longitude": -72.54543}, "transactions": ["delivery"], "price": "$", "location": {"address1": "39 French King Hwy", "address2": "", "address3": "", "city": "Gill", "zip_code": "01354", "country": "US", "state": "MA", "display_address": ["39 French King Hwy", "Gill, MA 01354"]}, "phone": "+14138638210", "display_phone": "(413) 863-8210", "distance": 10099.214396235562}, {"id": "gntEo3k4A_B1BkdGnJI3Pw", "alias": "namaste-indian-nepalese-restaurant-greenfield", "name": "Namaste Indian/Nepalese Restaurant", "image_url": "https://s3-media4.fl.yelpcdn.com/bphoto/s1NNDn1n3dA345Qf_IDT9A/o.jpg", "is_closed": false, "url": "https://www.yelp.com/biz/namaste-indian-nepalese-restaurant-greenfield?adjust_creative=ywY5UnLZrNrRl2b93Ruy_g&utm_campaign=yelp_api_v3&utm_medium=api_v3_business_search&utm_source=ywY5UnLZrNrRl2b93Ruy_g", "review_count": 36, "categories": [{"alias": "indpak", "title": "Indian"}, {"alias": "himalayan", "title": "Himalayan/Nepalese"}], "rating": 4.0, "coordinates": {"latitude": 42.58832, "longitude": -72.60112}, "transactions": ["delivery", "pickup"], "price": "$$", "location": {"address1": "286 Main St", "address2": null, "address3": "", "city": "Greenfield", "zip_code": "01301", "country": "US", "state": "MA", "display_address": ["286 Main St", "Greenfield, MA 01301"]}, "phone": "+14133258232", "display_phone": "(413) 325-8232", "distance": 15336.420550199455}, {"id": "OQvVnrwhOvA69-X7jIAnPg", "alias": "manna-house-greenfield", "name": "Manna House", "image_url": "https://s3-media2.fl.yelpcdn.com/bphoto/micyK8VUFzhW9_BmqmVSSA/o.jpg", "is_closed": false, "url": "https://www.yelp.com/biz/manna-house-greenfield?adjust_creative=ywY5UnLZrNrRl2b93Ruy_g&utm_campaign=yelp_api_v3&utm_medium=api_v3_business_search&utm_source=ywY5UnLZrNrRl2b93Ruy_g", "review_count": 45, "categories": [{"alias": "korean", "title": "Korean"}], "rating": 4.0, "coordinates": {"latitude": 42.5870285, "longitude": -72.6003113}, "transactions": ["delivery"], "price": "$$", "location": {"address1": "27 Bank Row", "address2": null, "address3": null, "city": "Greenfield", "zip_code": "01301", "country": "US", "state": "MA", "display_address": ["27 Bank Row", "Greenfield, MA 01301"]}, "phone": "+14137745955", "display_phone": "(413) 774-5955", "distance": 15354.264615722848}, {"id": "f7RXJjnUe_mTm-B0wEOshw", "alias": "petes-seafood-restaurant-greenfield", "name": "Pete's Seafood Restaurant", "image_url": "https://s3-media4.fl.yelpcdn.com/bphoto/jxzmJc-NN4wG9QarQEQvHg/o.jpg", "is_closed": false, "url": "https://www.yelp.com/biz/petes-seafood-restaurant-greenfield?adjust_creative=ywY5UnLZrNrRl2b93Ruy_g&utm_campaign=yelp_api_v3&utm_medium=api_v3_business_search&utm_source=ywY5UnLZrNrRl2b93Ruy_g", "review_count": 35, "categories": [{"alias": "seafood", "title": "Seafood"}], "rating": 4.5, "coordinates": {"latitude": 42.5895936, "longitude": -72.600997}, "transactions": ["delivery"], "price": "$$", "location": {"address1": "54 School St", "address2": "", "address3": "", "city": "Greenfield", "zip_code": "01301", "country": "US", "state": "MA", "display_address": ["54 School St", "Greenfield, MA 01301"]}, "phone": "+14137722153", "display_phone": "(413) 772-2153", "distance": 15238.073861590108}, {"id": "_JUzxtxuvLxHiG_XJNLR0g", "alias": "hillside-pizza-bernardston", "name": "Hillside Pizza", "image_url": "https://s3-media1.fl.yelpcdn.com/bphoto/ArMiQNIjj8WPqrNp-qcYiw/o.jpg", "is_closed": false, "url": "https://www.yelp.com/biz/hillside-pizza-bernardston?adjust_creative=ywY5UnLZrNrRl2b93Ruy_g&utm_campaign=yelp_api_v3&utm_medium=api_v3_business_search&utm_source=ywY5UnLZrNrRl2b93Ruy_g", "review_count": 37, "categories": [{"alias": "pizza", "title": "Pizza"}], "rating": 4.5, "coordinates": {"latitude": 42.6702842712402, "longitude": -72.547119140625}, "transactions": [], "price": "$", "location": {"address1": "77 Church St", "address2": "", "address3": "", "city": "Bernardston", "zip_code": "01337", "country": "US", "state": "MA", "display_address": ["77 Church St", "Bernardston, MA 01337"]}, "phone": "+14136480500", "display_phone": "(413) 648-0500", "distance": 8250.529393394421}, {"id": "QvbRLA7kxFgs89Y1UnghsA", "alias": "mt-pisgah-diner-winchester", "name": "Mt Pisgah Diner", "image_url": "https://s3-media2.fl.yelpcdn.com/bphoto/WKFI92oGtCabaaKKwigPEA/o.jpg", "is_closed": false, "url": "https://www.yelp.com/biz/mt-pisgah-diner-winchester?adjust_creative=ywY5UnLZrNrRl2b93Ruy_g&utm_campaign=yelp_api_v3&utm_medium=api_v3_business_search&utm_source=ywY5UnLZrNrRl2b93Ruy_g", "review_count": 8, "categories": [{"alias": "diners", "title": "Diners"}], "rating": 4.0, "coordinates": {"latitude": 42.7729, "longitude": -72.38411}, "transactions": [], "price": "$", "location": {"address1": "118 Main St", "address2": "", "address3": "", "city": "Winchester", "zip_code": "03470", "country": "US", "state": "NH", "display_address": ["118 Main St", "Winchester, NH 03470"]}, "phone": "+16032394101", "display_phone": "(603) 239-4101", "distance": 12913.319220888454}, {"id": "eAcs6r0L0QkH3qjzH5ytFQ", "alias": "guilford-country-store-guilford", "name": "Guilford Country Store", "image_url": "https://s3-media3.fl.yelpcdn.com/bphoto/JZpjiubztBIUuDKcizEgiA/o.jpg", "is_closed": false, "url": "https://www.yelp.com/biz/guilford-country-store-guilford?adjust_creative=ywY5UnLZrNrRl2b93Ruy_g&utm_campaign=yelp_api_v3&utm_medium=api_v3_business_search&utm_source=ywY5UnLZrNrRl2b93Ruy_g", "review_count": 9, "categories": [{"alias": "delis", "title": "Delis"}, {"alias": "convenience", "title": "Convenience Stores"}], "rating": 5.0, "coordinates": {"latitude": 42.8178902, "longitude": -72.5751495}, "transactions": [], "price": "$$", "location": {"address1": "475 Coolidge Hwy", "address2": null, "address3": "", "city": "Guilford", "zip_code": "05301", "country": "US", "state": "VT", "display_address": ["475 Coolidge Hwy", "Guilford, VT 05301"]}, "phone": "+18024902233", "display_phone": "(802) 490-2233", "distance": 13075.201960452689}, {"id": "bOvwjTfloZG0w4gqldRbxw", "alias": "the-rendezvous-turners-falls", "name": "The Rendezvous", "image_url": "https://s3-media1.fl.yelpcdn.com/bphoto/XHPigS2CPvkGi04kfh1tbQ/o.jpg", "is_closed": false, "url": "https://www.yelp.com/biz/the-rendezvous-turners-falls?adjust_creative=ywY5UnLZrNrRl2b93Ruy_g&utm_campaign=yelp_api_v3&utm_medium=api_v3_business_search&utm_source=ywY5UnLZrNrRl2b93Ruy_g", "review_count": 98, "categories": [{"alias": "newamerican", "title": "American (New)"}, {"alias": "musicvenues", "title": "Music Venues"}, {"alias": "burgers", "title": "Burgers"}], "rating": 4.0, "coordinates": {"latitude": 42.60748, "longitude": -72.55612}, "transactions": ["delivery", "pickup"], "price": "$$", "location": {"address1": "78 3rd St", "address2": "", "address3": "", "city": "Turners Falls", "zip_code": "01376", "country": "US", "state": "MA", "display_address": ["78 3rd St", "Turners Falls, MA 01376"]}, "phone": "+14138632866", "display_phone": "(413) 863-2866", "distance": 11088.704821616497}, {"id": "mxWNNxba4bmQ5ke5wQsQdw", "alias": "boiler-bar-and-grille-orange-2", "name": "Boiler Bar & Grille", "image_url": "https://s3-media2.fl.yelpcdn.com/bphoto/SxpP3zjHjOUTLdGZ_FWCXw/o.jpg", "is_closed": false, "url": "https://www.yelp.com/biz/boiler-bar-and-grille-orange-2?adjust_creative=ywY5UnLZrNrRl2b93Ruy_g&utm_campaign=yelp_api_v3&utm_medium=api_v3_business_search&utm_source=ywY5UnLZrNrRl2b93Ruy_g", "review_count": 33, "categories": [{"alias": "bars", "title": "Bars"}, {"alias": "tradamerican", "title": "American (Traditional)"}, {"alias": "bbq", "title": "Barbeque"}], "rating": 3.0, "coordinates": {"latitude": 42.636516, "longitude": -72.247943}, "transactions": [], "price": "$$", "location": {"address1": "245 Tully Rd", "address2": "", "address3": "", "city": "Orange", "zip_code": "01364", "country": "US", "state": "MA", "display_address": ["245 Tully Rd", "Orange, MA 01364"]}, "phone": "+19782489700", "display_phone": "(978) 248-9700", "distance": 16578.894135167433}, {"id": "ESGUgUn3t-v1O4K5crrl6w", "alias": "black-cow-burger-bar-turners-falls", "name": "Black Cow Burger Bar", "image_url": "https://s3-media3.fl.yelpcdn.com/bphoto/NrX9m8XL7VxDQ4UvZvAccw/o.jpg", "is_closed": false, "url": "https://www.yelp.com/biz/black-cow-burger-bar-turners-falls?adjust_creative=ywY5UnLZrNrRl2b93Ruy_g&utm_campaign=yelp_api_v3&utm_medium=api_v3_business_search&utm_source=ywY5UnLZrNrRl2b93Ruy_g", "review_count": 97, "categories": [{"alias": "newamerican", "title": "American (New)"}, {"alias": "burgers", "title": "Burgers"}, {"alias": "hotdog", "title": "Hot Dogs"}], "rating": 4.0, "coordinates": {"latitude": 42.60748, "longitude": -72.55704}, "transactions": ["delivery", "pickup"], "price": "$$", "location": {"address1": "125 Ave A", "address2": "", "address3": "", "city": "Turners Falls", "zip_code": "01376", "country": "US", "state": "MA", "display_address": ["125 Ave A", "Turners Falls, MA 01376"]}, "phone": "+14138635183", "display_phone": "(413) 863-5183", "distance": 11211.888582432797}, {"id": "SAvy9WokbPywn-Q6bO9xaw", "alias": "thai-blue-ginger-greenfield", "name": "Thai Blue Ginger", "image_url": "https://s3-media2.fl.yelpcdn.com/bphoto/8OSPpAICVUhAW-ZcYhCo_w/o.jpg", "is_closed": false, "url": "https://www.yelp.com/biz/thai-blue-ginger-greenfield?adjust_creative=ywY5UnLZrNrRl2b93Ruy_g&utm_campaign=yelp_api_v3&utm_medium=api_v3_business_search&utm_source=ywY5UnLZrNrRl2b93Ruy_g", "review_count": 69, "categories": [{"alias": "thai", "title": "Thai"}], "rating": 4.0, "coordinates": {"latitude": 42.5881226929282, "longitude": -72.6008848324572}, "transactions": ["delivery", "pickup"], "price": "$$", "location": {"address1": "298 Main St", "address2": "", "address3": "", "city": "Greenfield", "zip_code": "01301", "country": "US", "state": "MA", "display_address": ["298 Main St", "Greenfield, MA 01301"]}, "phone": "+14137720921", "display_phone": "(413) 772-0921", "distance": 15322.706672902365}, {"id": "ZYW34OE1yuNuSaPgXbK98g", "alias": "hangar-greenfield-greenfield", "name": "Hangar - Greenfield", "image_url": "https://s3-media3.fl.yelpcdn.com/bphoto/LshdcwdmAZYSse8fbuOqqw/o.jpg", "is_closed": false, "url": "https://www.yelp.com/biz/hangar-greenfield-greenfield?adjust_creative=ywY5UnLZrNrRl2b93Ruy_g&utm_campaign=yelp_api_v3&utm_medium=api_v3_business_search&utm_source=ywY5UnLZrNrRl2b93Ruy_g", "review_count": 28, "categories": [{"alias": "chicken_wings", "title": "Chicken Wings"}, {"alias": "pubs", "title": "Pubs"}], "rating": 3.5, "coordinates": {"latitude": 42.5889892578125, "longitude": -72.5999526977539}, "transactions": ["delivery", "pickup"], "price": "$$", "location": {"address1": "30 Federal St", "address2": "", "address3": null, "city": "Greenfield", "zip_code": "01301", "country": "US", "state": "MA", "display_address": ["30 Federal St", "Greenfield, MA 01301"]}, "phone": "+14137739464", "display_phone": "(413) 773-9464", "distance": 15210.923179936768}, {"id": "EWCyLEMETdIUFOmwMSRxTQ", "alias": "mesa-verde-greenfield", "name": "Mesa Verde", "image_url": "https://s3-media4.fl.yelpcdn.com/bphoto/ok7I_ZBW8l4NdmeyyBtLBw/o.jpg", "is_closed": false, "url": "https://www.yelp.com/biz/mesa-verde-greenfield?adjust_creative=ywY5UnLZrNrRl2b93Ruy_g&utm_campaign=yelp_api_v3&utm_medium=api_v3_business_search&utm_source=ywY5UnLZrNrRl2b93Ruy_g", "review_count": 141, "categories": [{"alias": "mexican", "title": "Mexican"}], "rating": 4.0, "coordinates": {"latitude": 42.587334, "longitude": -72.602582}, "transactions": ["delivery"], "price": "$", "location": {"address1": "10 Fiske Ave", "address2": "", "address3": "", "city": "Greenfield", "zip_code": "01301", "country": "US", "state": "MA", "display_address": ["10 Fiske Ave", "Greenfield, MA 01301"]}, "phone": "+14137722531", "display_phone": "(413) 772-2531", "distance": 15486.428657497707}, {"id": "FrJpcCrHNe0zdZCkw9IEyw", "alias": "hubies-tavern-montague", "name": "Hubie's Tavern", "image_url": "https://s3-media4.fl.yelpcdn.com/bphoto/3gWQzRgsBTzOX445tOvReA/o.jpg", "is_closed": false, "url": "https://www.yelp.com/biz/hubies-tavern-montague?adjust_creative=ywY5UnLZrNrRl2b93Ruy_g&utm_campaign=yelp_api_v3&utm_medium=api_v3_business_search&utm_source=ywY5UnLZrNrRl2b93Ruy_g", "review_count": 14, "categories": [{"alias": "diners", "title": "Diners"}, {"alias": "bars", "title": "Bars"}], "rating": 3.5, "coordinates": {"latitude": 42.6085548, "longitude": -72.5566254}, "transactions": [], "price": "$", "location": {"address1": "66 Ave A", "address2": "", "address3": "", "city": "Montague", "zip_code": "01376", "country": "US", "state": "MA", "display_address": ["66 Ave A", "Montague, MA 01376"]}, "phone": "+14138638938", "display_phone": "(413) 863-8938", "distance": 11058.367188996765}, {"id": "y_J6bCd3m6B2gmwdTcqh0A", "alias": "northfield-pizza-house-northfield", "name": "Northfield Pizza House", "image_url": "", "is_closed": false, "url": "https://www.yelp.com/biz/northfield-pizza-house-northfield?adjust_creative=ywY5UnLZrNrRl2b93Ruy_g&utm_campaign=yelp_api_v3&utm_medium=api_v3_business_search&utm_source=ywY5UnLZrNrRl2b93Ruy_g", "review_count": 8, "categories": [{"alias": "pizza", "title": "Pizza"}], "rating": 3.5, "coordinates": {"latitude": 42.70967, "longitude": -72.44878}, "transactions": [], "price": "$", "location": {"address1": "198 Main St", "address2": "", "address3": "", "city": "Northfield", "zip_code": "01360", "country": "US", "state": "MA", "display_address": ["198 Main St", "Northfield, MA 01360"]}, "phone": "+14134985000", "display_phone": "(413) 498-5000", "distance": 4833.395914574924}, {"id": "O54cKWsDae66i8x19Q0soQ", "alias": "zekes-bar-and-grill-bernardston", "name": "Zeke's Bar & Grill", "image_url": "https://s3-media1.fl.yelpcdn.com/bphoto/0X-tuRBN04LhHH1guk5-FQ/o.jpg", "is_closed": false, "url": "https://www.yelp.com/biz/zekes-bar-and-grill-bernardston?adjust_creative=ywY5UnLZrNrRl2b93Ruy_g&utm_campaign=yelp_api_v3&utm_medium=api_v3_business_search&utm_source=ywY5UnLZrNrRl2b93Ruy_g", "review_count": 7, "categories": [{"alias": "bars", "title": "Bars"}, {"alias": "tradamerican", "title": "American (Traditional)"}], "rating": 2.5, "coordinates": {"latitude": 42.6798121733333, "longitude": -72.5231491774321}, "transactions": [], "location": {"address1": "87 Parameter Rd", "address2": "", "address3": "Crumpin-Fox Club", "city": "Bernardston", "zip_code": "01337", "country": "US", "state": "MA", "display_address": ["87 Parameter Rd", "Crumpin-Fox Club", "Bernardston, MA 01337"]}, "phone": "+14136485356", "display_phone": "(413) 648-5356", "distance": 6438.207923340776}, {"id": "QG0drESFSFC-fICafjJbeA", "alias": "williams-sugar-house-deerfield", "name": "Williams Sugar House", "image_url": "https://s3-media1.fl.yelpcdn.com/bphoto/j_AOHIXm4lellRljT1Dmfg/o.jpg", "is_closed": false, "url": "https://www.yelp.com/biz/williams-sugar-house-deerfield?adjust_creative=ywY5UnLZrNrRl2b93Ruy_g&utm_campaign=yelp_api_v3&utm_medium=api_v3_business_search&utm_source=ywY5UnLZrNrRl2b93Ruy_g", "review_count": 7, "categories": [{"alias": "newamerican", "title": "American (New)"}], "rating": 4.0, "coordinates": {"latitude": 42.5378105789423, "longitude": -72.6030052453279}, "transactions": [], "price": "$$", "location": {"address1": "491 Greenfield Rd", "address2": "", "address3": "", "city": "Deerfield", "zip_code": "01342", "country": "US", "state": "MA", "display_address": ["491 Greenfield Rd", "Deerfield, MA 01342"]}, "phone": "+14137735186", "display_phone": "(413) 773-5186", "distance": 19039.234183567736}, {"id": "l0NWu0BZldXF3jHhk9SDgQ", "alias": "el-greco-cafe-greenfield", "name": "El Greco Cafe", "image_url": "https://s3-media2.fl.yelpcdn.com/bphoto/FPblzw5Gsz41dTeeA7r32A/o.jpg", "is_closed": false, "url": "https://www.yelp.com/biz/el-greco-cafe-greenfield?adjust_creative=ywY5UnLZrNrRl2b93Ruy_g&utm_campaign=yelp_api_v3&utm_medium=api_v3_business_search&utm_source=ywY5UnLZrNrRl2b93Ruy_g", "review_count": 50, "categories": [{"alias": "greek", "title": "Greek"}, {"alias": "mediterranean", "title": "Mediterranean"}], "rating": 4.0, "coordinates": {"latitude": 42.587867, "longitude": -72.602179}, "transactions": ["delivery"], "price": "$", "location": {"address1": "233 Main St", "address2": "", "address3": "", "city": "Greenfield", "zip_code": "01301", "country": "US", "state": "MA", "display_address": ["233 Main St", "Greenfield, MA 01301"]}, "phone": "+14137742844", "display_phone": "(413) 774-2844", "distance": 15426.115720110192}, {"id": "kMygiwbWBt1mq_6iHHmu4A", "alias": "bonnie-bs-greenfield", "name": "Bonnie B's", "image_url": "https://s3-media3.fl.yelpcdn.com/bphoto/oX_Z6yc17Tq26UVSo4o4Ig/o.jpg", "is_closed": false, "url": "https://www.yelp.com/biz/bonnie-bs-greenfield?adjust_creative=ywY5UnLZrNrRl2b93Ruy_g&utm_campaign=yelp_api_v3&utm_medium=api_v3_business_search&utm_source=ywY5UnLZrNrRl2b93Ruy_g", "review_count": 19, "categories": [{"alias": "breakfast_brunch", "title": "Breakfast & Brunch"}, {"alias": "tradamerican", "title": "American (Traditional)"}], "rating": 4.5, "coordinates": {"latitude": 42.588116, "longitude": -72.602802}, "transactions": ["delivery", "pickup"], "location": {"address1": "204 Main St", "address2": "", "address3": null, "city": "Greenfield", "zip_code": "01301", "country": "US", "state": "MA", "display_address": ["204 Main St", "Greenfield, MA 01301"]}, "phone": "+14134753758", "display_phone": "(413) 475-3758", "distance": 15452.652180355759}, {"id": "HdpJ9-YxNriWZa03RS4VyQ", "alias": "antonios-ii-pizza-and-grinders-bernardston", "name": "Antonio's II Pizza & Grinders", "image_url": "https://s3-media3.fl.yelpcdn.com/bphoto/sJhlchuDAMEkHVBnTS_l7w/o.jpg", "is_closed": false, "url": "https://www.yelp.com/biz/antonios-ii-pizza-and-grinders-bernardston?adjust_creative=ywY5UnLZrNrRl2b93Ruy_g&utm_campaign=yelp_api_v3&utm_medium=api_v3_business_search&utm_source=ywY5UnLZrNrRl2b93Ruy_g", "review_count": 21, "categories": [{"alias": "pizza", "title": "Pizza"}, {"alias": "salad", "title": "Salad"}], "rating": 3.0, "coordinates": {"latitude": 42.671588, "longitude": -72.5545055}, "transactions": [], "price": "$", "location": {"address1": "1 S St", "address2": null, "address3": null, "city": "Bernardston", "zip_code": "01337", "country": "US", "state": "MA", "display_address": ["1 S St", "Bernardston, MA 01337"]}, "phone": "+14136489800", "display_phone": "(413) 648-9800", "distance": 8842.83846793429}, {"id": "I3UE0kzvpVOnfIGUYMzZyg", "alias": "the-lady-killigrew-cafe-montague", "name": "The Lady Killigrew Cafe", "image_url": "https://s3-media3.fl.yelpcdn.com/bphoto/3u0HBieTFTsTE-QN8Ng14w/o.jpg", "is_closed": false, "url": "https://www.yelp.com/biz/the-lady-killigrew-cafe-montague?adjust_creative=ywY5UnLZrNrRl2b93Ruy_g&utm_campaign=yelp_api_v3&utm_medium=api_v3_business_search&utm_source=ywY5UnLZrNrRl2b93Ruy_g", "review_count": 117, "categories": [{"alias": "coffee", "title": "Coffee & Tea"}, {"alias": "sandwiches", "title": "Sandwiches"}, {"alias": "desserts", "title": "Desserts"}], "rating": 4.5, "coordinates": {"latitude": 42.5377464294434, "longitude": -72.5371627807617}, "transactions": ["delivery"], "price": "$$", "location": {"address1": "440 Greenfield Rd", "address2": "", "address3": "", "city": "Montague", "zip_code": "01351", "country": "US", "state": "MA", "display_address": ["440 Greenfield Rd", "Montague, MA 01351"]}, "phone": "+14133679666", "display_phone": "(413) 367-9666", "distance": 16086.190524299474}, {"id": "W4sLmaC91ain7-EIW6rJhg", "alias": "99-restaurants-greenfield", "name": "99 Restaurants", "image_url": "https://s3-media1.fl.yelpcdn.com/bphoto/O1tqImdbBB0XmapA_c5vUQ/o.jpg", "is_closed": false, "url": "https://www.yelp.com/biz/99-restaurants-greenfield?adjust_creative=ywY5UnLZrNrRl2b93Ruy_g&utm_campaign=yelp_api_v3&utm_medium=api_v3_business_search&utm_source=ywY5UnLZrNrRl2b93Ruy_g", "review_count": 38, "categories": [{"alias": "pubs", "title": "Pubs"}, {"alias": "tradamerican", "title": "American (Traditional)"}], "rating": 4.0, "coordinates": {"latitude": 42.586313, "longitude": -72.623546}, "transactions": [], "price": "$$", "location": {"address1": "17 Colrain Rd", "address2": null, "address3": null, "city": "Greenfield", "zip_code": "01301", "country": "US", "state": "MA", "display_address": ["17 Colrain Rd", "Greenfield, MA 01301"]}, "phone": "+14137759997", "display_phone": "(413) 775-9997", "distance": 16987.404887271467}, {"id": "cU2qJ6cyv3U0Gj0xyFCVJw", "alias": "historic-catering-erving", "name": "Historic Catering", "image_url": "https://s3-media1.fl.yelpcdn.com/bphoto/BAolcB6t409QxK-E7OWmNg/o.jpg", "is_closed": false, "url": "https://www.yelp.com/biz/historic-catering-erving?adjust_creative=ywY5UnLZrNrRl2b93Ruy_g&utm_campaign=yelp_api_v3&utm_medium=api_v3_business_search&utm_source=ywY5UnLZrNrRl2b93Ruy_g", "review_count": 1, "categories": [{"alias": "catering", "title": "Caterers"}, {"alias": "salad", "title": "Salad"}, {"alias": "wraps", "title": "Wraps"}], "rating": 5.0, "coordinates": {"latitude": 42.6010286, "longitude": -72.4389351}, "transactions": [], "location": {"address1": "", "address2": "", "address3": null, "city": "Erving", "zip_code": "01344", "country": "US", "state": "MA", "display_address": ["Erving, MA 01344"]}, "phone": "+14134221130", "display_phone": "(413) 422-1130", "distance": 7277.587295185227}, {"id": "6a3mUieRgCSGXCJ4lmzvFA", "alias": "ce-ces-chinese-restaurant-turners-falls", "name": "Ce Ce's Chinese Restaurant", "image_url": "https://s3-media2.fl.yelpcdn.com/bphoto/iKuaw65YUP_av-lB2p37kA/o.jpg", "is_closed": false, "url": "https://www.yelp.com/biz/ce-ces-chinese-restaurant-turners-falls?adjust_creative=ywY5UnLZrNrRl2b93Ruy_g&utm_campaign=yelp_api_v3&utm_medium=api_v3_business_search&utm_source=ywY5UnLZrNrRl2b93Ruy_g", "review_count": 10, "categories": [{"alias": "chinese", "title": "Chinese"}], "rating": 4.0, "coordinates": {"latitude": 42.6078868144459, "longitude": -72.55670151079}, "transactions": ["delivery"], "price": "$$", "location": {"address1": "53 Avenue A", "address2": "", "address3": "", "city": "Turners Falls", "zip_code": "01376", "country": "US", "state": "MA", "display_address": ["53 Avenue A", "Turners Falls, MA 01376"]}, "phone": "+14138638988", "display_phone": "(413) 863-8988", "distance": 11100.387099145471}, {"id": "yiV75hVHG23qJ3ESA1MzRg", "alias": "202-grill-nos-age-orange", "name": "202 Grill Nos/Age", "image_url": "https://s3-media3.fl.yelpcdn.com/bphoto/opbKFoo58C8lRuy_kJ53VQ/o.jpg", "is_closed": false, "url": "https://www.yelp.com/biz/202-grill-nos-age-orange?adjust_creative=ywY5UnLZrNrRl2b93Ruy_g&utm_campaign=yelp_api_v3&utm_medium=api_v3_business_search&utm_source=ywY5UnLZrNrRl2b93Ruy_g", "review_count": 8, "categories": [{"alias": "tradamerican", "title": "American (Traditional)"}], "rating": 3.5, "coordinates": {"latitude": 42.55423, "longitude": -72.28915}, "transactions": [], "price": "$$$", "location": {"address1": "207 Daniel Shay Hwy", "address2": "Route 202", "address3": "", "city": "Orange", "zip_code": "01364", "country": "US", "state": "MA", "display_address": ["207 Daniel Shay Hwy", "Route 202", "Orange, MA 01364"]}, "phone": "+19785443902", "display_phone": "(978) 544-3902", "distance": 17906.6771561071}, {"id": "k8vXS4BM-dzeV3xRu2w15Q", "alias": "champneys-restaurant-and-tavern-deerfield", "name": "Champney's Restaurant & Tavern", "image_url": "https://s3-media3.fl.yelpcdn.com/bphoto/5PJAiYN018fAejDnsPipVw/o.jpg", "is_closed": false, "url": "https://www.yelp.com/biz/champneys-restaurant-and-tavern-deerfield?adjust_creative=ywY5UnLZrNrRl2b93Ruy_g&utm_campaign=yelp_api_v3&utm_medium=api_v3_business_search&utm_source=ywY5UnLZrNrRl2b93Ruy_g", "review_count": 58, "categories": [{"alias": "beer_and_wine", "title": "Beer, Wine & Spirits"}, {"alias": "tradamerican", "title": "American (Traditional)"}, {"alias": "breakfast_brunch", "title": "Breakfast & Brunch"}], "rating": 3.5, "coordinates": {"latitude": 42.547022, "longitude": -72.604508}, "transactions": ["delivery"], "price": "$$", "location": {"address1": "81 Old Main St", "address2": "", "address3": "", "city": "Deerfield", "zip_code": "01342", "country": "US", "state": "MA", "display_address": ["81 Old Main St", "Deerfield, MA 01342"]}, "phone": "+14137723087", "display_phone": "(413) 772-3087", "distance": 18513.332480531397}, {"id": "I77MoYXuGN2b2pHiY_8bCA", "alias": "raynettes-diner-and-coffee-shop-hinsdale", "name": "Raynette's Diner & Coffee Shop", "image_url": "https://s3-media2.fl.yelpcdn.com/bphoto/G3FKv7i5-Ic--f7kVBNY2Q/o.jpg", "is_closed": false, "url": "https://www.yelp.com/biz/raynettes-diner-and-coffee-shop-hinsdale?adjust_creative=ywY5UnLZrNrRl2b93Ruy_g&utm_campaign=yelp_api_v3&utm_medium=api_v3_business_search&utm_source=ywY5UnLZrNrRl2b93Ruy_g", "review_count": 11, "categories": [{"alias": "tradamerican", "title": "American (Traditional)"}, {"alias": "diners", "title": "Diners"}, {"alias": "cafes", "title": "Cafes"}], "rating": 4.0, "coordinates": {"latitude": 42.7865448, "longitude": -72.4842758}, "transactions": [], "price": "$", "location": {"address1": "50 Main St", "address2": "", "address3": "", "city": "Hinsdale", "zip_code": "03451", "country": "US", "state": "NH", "display_address": ["50 Main St", "Hinsdale, NH 03451"]}, "phone": "+16033368600", "display_phone": "(603) 336-8600", "distance": 13735.063580359614}, {"id": "hCMxwnucaO1NBv_U5rT8tw", "alias": "win-win-express-winchester", "name": "Win Win Express", "image_url": "https://s3-media2.fl.yelpcdn.com/bphoto/5eVCXa_8sXOkGk9Wggyj_A/o.jpg", "is_closed": false, "url": "https://www.yelp.com/biz/win-win-express-winchester?adjust_creative=ywY5UnLZrNrRl2b93Ruy_g&utm_campaign=yelp_api_v3&utm_medium=api_v3_business_search&utm_source=ywY5UnLZrNrRl2b93Ruy_g", "review_count": 14, "categories": [{"alias": "chinese", "title": "Chinese"}], "rating": 4.0, "coordinates": {"latitude": 42.77272, "longitude": -72.38429}, "transactions": [], "location": {"address1": "112 Main St", "address2": "", "address3": "", "city": "Winchester", "zip_code": "03470", "country": "US", "state": "NH", "display_address": ["112 Main St", "Winchester, NH 03470"]}, "phone": "+16032396886", "display_phone": "(603) 239-6886", "distance": 12890.677910096805}, {"id": "M-DCwXS6_O-rOVJAxr3ofw", "alias": "kobe-hibachi-sushi-and-bar-greenfield-2", "name": "Kobe Hibachi Sushi and Bar", "image_url": "https://s3-media1.fl.yelpcdn.com/bphoto/zBcLhfB-95e9l01Zykb7Cg/o.jpg", "is_closed": false, "url": "https://www.yelp.com/biz/kobe-hibachi-sushi-and-bar-greenfield-2?adjust_creative=ywY5UnLZrNrRl2b93Ruy_g&utm_campaign=yelp_api_v3&utm_medium=api_v3_business_search&utm_source=ywY5UnLZrNrRl2b93Ruy_g", "review_count": 54, "categories": [{"alias": "japanese", "title": "Japanese"}, {"alias": "sushi", "title": "Sushi Bars"}, {"alias": "cocktailbars", "title": "Cocktail Bars"}], "rating": 3.5, "coordinates": {"latitude": 42.5863135, "longitude": -72.6271816}, "transactions": ["pickup"], "price": "$$", "location": {"address1": "254 Mohawk Trl", "address2": null, "address3": "", "city": "Greenfield", "zip_code": "01301", "country": "US", "state": "MA", "display_address": ["254 Mohawk Trl", "Greenfield, MA 01301"]}, "phone": "+14137728888", "display_phone": "(413) 772-8888", "distance": 17270.96354838347}, {"id": "2MVvyKZRr98i4egs3LMHHw", "alias": "white-cloud-diner-orange", "name": "White Cloud Diner", "image_url": "https://s3-media3.fl.yelpcdn.com/bphoto/VLhBY2lGr9Xf6KzBoWteoA/o.jpg", "is_closed": false, "url": "https://www.yelp.com/biz/white-cloud-diner-orange?adjust_creative=ywY5UnLZrNrRl2b93Ruy_g&utm_campaign=yelp_api_v3&utm_medium=api_v3_business_search&utm_source=ywY5UnLZrNrRl2b93Ruy_g", "review_count": 13, "categories": [{"alias": "diners", "title": "Diners"}], "rating": 4.0, "coordinates": {"latitude": 42.5746688842773, "longitude": -72.2816772460938}, "transactions": [], "price": "$", "location": {"address1": "627 E River St", "address2": null, "address3": "", "city": "Orange", "zip_code": "01364", "country": "US", "state": "MA", "display_address": ["627 E River St", "Orange, MA 01364"]}, "phone": "+19785446821", "display_phone": "(978) 544-6821", "distance": 16887.598076122675}, {"id": "gLypgJyGFwhiq_yQnFAuSw", "alias": "prondecki-s-pizza-erving", "name": "Prondecki\u2019s Pizza", "image_url": "https://s3-media1.fl.yelpcdn.com/bphoto/5Ll_Ubt1KtRGQ9lh_84hpA/o.jpg", "is_closed": false, "url": "https://www.yelp.com/biz/prondecki-s-pizza-erving?adjust_creative=ywY5UnLZrNrRl2b93Ruy_g&utm_campaign=yelp_api_v3&utm_medium=api_v3_business_search&utm_source=ywY5UnLZrNrRl2b93Ruy_g", "review_count": 2, "categories": [{"alias": "pizza", "title": "Pizza"}, {"alias": "sandwiches", "title": "Sandwiches"}], "rating": 3.0, "coordinates": {"latitude": 42.582573438486, "longitude": -72.4938782869538}, "transactions": [], "location": {"address1": "1 W High St", "address2": "", "address3": "", "city": "Erving", "zip_code": "01344", "country": "US", "state": "MA", "display_address": ["1 W High St", "Erving, MA 01344"]}, "phone": "+14134233907", "display_phone": "(413) 423-3907", "distance": 10075.052252082873}, {"id": "MoT-keudhxbWp9bX2go0fg", "alias": "bacon-me-crazy-hinsdale", "name": "Bacon Me Crazy", "image_url": "https://s3-media2.fl.yelpcdn.com/bphoto/A2VO_icyXdZjXRvku3dpZQ/o.jpg", "is_closed": false, "url": "https://www.yelp.com/biz/bacon-me-crazy-hinsdale?adjust_creative=ywY5UnLZrNrRl2b93Ruy_g&utm_campaign=yelp_api_v3&utm_medium=api_v3_business_search&utm_source=ywY5UnLZrNrRl2b93Ruy_g", "review_count": 1, "categories": [{"alias": "tradamerican", "title": "American (Traditional)"}, {"alias": "breakfast_brunch", "title": "Breakfast & Brunch"}, {"alias": "sandwiches", "title": "Sandwiches"}], "rating": 4.0, "coordinates": {"latitude": 42.7869227016973, "longitude": -72.4812406674027}, "transactions": [], "location": {"address1": "6 Main St", "address2": "", "address3": null, "city": "Hinsdale", "zip_code": "03451", "country": "US", "state": "NH", "display_address": ["6 Main St", "Hinsdale, NH 03451"]}, "phone": "+16033366249", "display_phone": "(603) 336-6249", "distance": 13715.05334525045}, {"id": "lNVB5KVLp9rGBOchtlPewQ", "alias": "village-pizza-shop-greenfield", "name": "Village Pizza Shop", "image_url": "https://s3-media4.fl.yelpcdn.com/bphoto/Y-OXKHBaMYwMyxx7hz5VLg/o.jpg", "is_closed": false, "url": "https://www.yelp.com/biz/village-pizza-shop-greenfield?adjust_creative=ywY5UnLZrNrRl2b93Ruy_g&utm_campaign=yelp_api_v3&utm_medium=api_v3_business_search&utm_source=ywY5UnLZrNrRl2b93Ruy_g", "review_count": 55, "categories": [{"alias": "pizza", "title": "Pizza"}], "rating": 4.0, "coordinates": {"latitude": 42.586783, "longitude": -72.600916}, "transactions": ["delivery"], "price": "$$", "location": {"address1": "42 Bank Row St", "address2": "", "address3": "", "city": "Greenfield", "zip_code": "01301", "country": "US", "state": "MA", "display_address": ["42 Bank Row St", "Greenfield, MA 01301"]}, "phone": "+14137726209", "display_phone": "(413) 772-6209", "distance": 15409.837323439047}, {"id": "x29F4HcyieBpyaqo7WqVxg", "alias": "a-1-pizza-winchester", "name": "A-1 Pizza", "image_url": "https://s3-media4.fl.yelpcdn.com/bphoto/On4KzHKIYkdr_NiV5W1JNg/o.jpg", "is_closed": false, "url": "https://www.yelp.com/biz/a-1-pizza-winchester?adjust_creative=ywY5UnLZrNrRl2b93Ruy_g&utm_campaign=yelp_api_v3&utm_medium=api_v3_business_search&utm_source=ywY5UnLZrNrRl2b93Ruy_g", "review_count": 12, "categories": [{"alias": "pizza", "title": "Pizza"}], "rating": 2.5, "coordinates": {"latitude": 42.7662579109911, "longitude": -72.3884633613147}, "transactions": [], "price": "$$", "location": {"address1": "15 Warwick Rd", "address2": "", "address3": "", "city": "Winchester", "zip_code": "03470", "country": "US", "state": "NH", "display_address": ["15 Warwick Rd", "Winchester, NH 03470"]}, "phone": "+16032398118", "display_phone": "(603) 239-8118", "distance": 12061.199272373595}, {"id": "sZQnBWW8IPZUA1IVRLWjPg", "alias": "taylors-tavern-greenfield", "name": "Taylor's Tavern", "image_url": "https://s3-media1.fl.yelpcdn.com/bphoto/m7ro5xz5NB5--a5tW-7QtA/o.jpg", "is_closed": false, "url": "https://www.yelp.com/biz/taylors-tavern-greenfield?adjust_creative=ywY5UnLZrNrRl2b93Ruy_g&utm_campaign=yelp_api_v3&utm_medium=api_v3_business_search&utm_source=ywY5UnLZrNrRl2b93Ruy_g", "review_count": 51, "categories": [{"alias": "tradamerican", "title": "American (Traditional)"}, {"alias": "burgers", "title": "Burgers"}, {"alias": "sandwiches", "title": "Sandwiches"}], "rating": 3.5, "coordinates": {"latitude": 42.588072, "longitude": -72.6022799}, "transactions": ["delivery"], "price": "$$", "location": {"address1": "238 Main St", "address2": "", "address3": "", "city": "Greenfield", "zip_code": "01301", "country": "US", "state": "MA", "display_address": ["238 Main St", "Greenfield, MA 01301"]}, "phone": "+14137738313", "display_phone": "(413) 773-8313", "distance": 15420.051452015843}, {"id": "8UGk7xXWl2S1sukzncygOA", "alias": "friendly-town-pizza-athol", "name": "Friendly Town Pizza", "image_url": "https://s3-media2.fl.yelpcdn.com/bphoto/p3xHl6JjujdkBj7l85xrnw/o.jpg", "is_closed": false, "url": "https://www.yelp.com/biz/friendly-town-pizza-athol?adjust_creative=ywY5UnLZrNrRl2b93Ruy_g&utm_campaign=yelp_api_v3&utm_medium=api_v3_business_search&utm_source=ywY5UnLZrNrRl2b93Ruy_g", "review_count": 30, "categories": [{"alias": "pizza", "title": "Pizza"}], "rating": 4.5, "coordinates": {"latitude": 42.581438, "longitude": -72.261868}, "transactions": [], "price": "$$", "location": {"address1": "1604 S Main St", "address2": null, "address3": null, "city": "Athol", "zip_code": "01331", "country": "US", "state": "MA", "display_address": ["1604 S Main St", "Athol, MA 01331"]}, "phone": "+19782493651", "display_phone": "(978) 249-3651", "distance": 17814.048193113682}, {"id": "52Valo93JOiqpVPScUWEBg", "alias": "the-upper-bend-turners-falls-2", "name": "The Upper Bend", "image_url": "https://s3-media1.fl.yelpcdn.com/bphoto/7nJl1Sy_PZ5n5aK8w1eWcw/o.jpg", "is_closed": false, "url": "https://www.yelp.com/biz/the-upper-bend-turners-falls-2?adjust_creative=ywY5UnLZrNrRl2b93Ruy_g&utm_campaign=yelp_api_v3&utm_medium=api_v3_business_search&utm_source=ywY5UnLZrNrRl2b93Ruy_g", "review_count": 7, "categories": [{"alias": "breakfast_brunch", "title": "Breakfast & Brunch"}, {"alias": "coffee", "title": "Coffee & Tea"}, {"alias": "sandwiches", "title": "Sandwiches"}], "rating": 4.5, "coordinates": {"latitude": 42.6079845, "longitude": -72.55725217}, "transactions": [], "location": {"address1": "112 Avenue A", "address2": null, "address3": "", "city": "Turners Falls", "zip_code": "01376", "country": "US", "state": "MA", "display_address": ["112 Avenue A", "Turners Falls, MA 01376"]}, "phone": "+14138635270", "display_phone": "(413) 863-5270", "distance": 11132.217529478781}, {"id": "F60ZshsheJZSuxb3fpeFtw", "alias": "china-gourmet-greenfield-2", "name": "China Gourmet", "image_url": "https://s3-media2.fl.yelpcdn.com/bphoto/dX3zEIx-W2C6hWmklUr6hA/o.jpg", "is_closed": false, "url": "https://www.yelp.com/biz/china-gourmet-greenfield-2?adjust_creative=ywY5UnLZrNrRl2b93Ruy_g&utm_campaign=yelp_api_v3&utm_medium=api_v3_business_search&utm_source=ywY5UnLZrNrRl2b93Ruy_g", "review_count": 68, "categories": [{"alias": "chinese", "title": "Chinese"}, {"alias": "japanese", "title": "Japanese"}], "rating": 3.0, "coordinates": {"latitude": 42.5846366882324, "longitude": -72.6142959594727}, "transactions": ["delivery"], "price": "$$", "location": {"address1": "78 Mohawk Trl", "address2": null, "address3": "", "city": "Greenfield", "zip_code": "01301", "country": "US", "state": "MA", "display_address": ["78 Mohawk Trl", "Greenfield, MA 01301"]}, "phone": "+14137742299", "display_phone": "(413) 774-2299", "distance": 16450.53293916119}, {"id": "DMv1r_XMkNj7G0n0X0bodA", "alias": "main-street-bar-and-grille-greenfield", "name": "Main Street Bar and Grille", "image_url": "https://s3-media1.fl.yelpcdn.com/bphoto/_y80dYCee_tMYms2n3dWWg/o.jpg", "is_closed": false, "url": "https://www.yelp.com/biz/main-street-bar-and-grille-greenfield?adjust_creative=ywY5UnLZrNrRl2b93Ruy_g&utm_campaign=yelp_api_v3&utm_medium=api_v3_business_search&utm_source=ywY5UnLZrNrRl2b93Ruy_g", "review_count": 7, "categories": [{"alias": "tradamerican", "title": "American (Traditional)"}, {"alias": "bars", "title": "Bars"}, {"alias": "burgers", "title": "Burgers"}], "rating": 3.5, "coordinates": {"latitude": 42.58773, "longitude": -72.60579}, "transactions": ["delivery"], "price": "$$", "location": {"address1": "94 Main St", "address2": "", "address3": "", "city": "Greenfield", "zip_code": "01301", "country": "US", "state": "MA", "display_address": ["94 Main St", "Greenfield, MA 01301"]}, "phone": "+14137746388", "display_phone": "(413) 774-6388", "distance": 15683.104895163906}, {"id": "421ECUnYmdE2Ct1Wm4O4gQ", "alias": "tea-house-orange", "name": "Tea House", "image_url": "https://s3-media1.fl.yelpcdn.com/bphoto/KvF3hIcpyxXCyvSXlCV0aQ/o.jpg", "is_closed": false, "url": "https://www.yelp.com/biz/tea-house-orange?adjust_creative=ywY5UnLZrNrRl2b93Ruy_g&utm_campaign=yelp_api_v3&utm_medium=api_v3_business_search&utm_source=ywY5UnLZrNrRl2b93Ruy_g", "review_count": 24, "categories": [{"alias": "chinese", "title": "Chinese"}], "rating": 3.0, "coordinates": {"latitude": 42.58773, "longitude": -72.2954}, "transactions": [], "price": "$$", "location": {"address1": "326 E Main St", "address2": "", "address3": "", "city": "Orange", "zip_code": "01364", "country": "US", "state": "MA", "display_address": ["326 E Main St", "Orange, MA 01364"]}, "phone": "+19785443802", "display_phone": "(978) 544-3802", "distance": 15134.849228689436}, {"id": "6Our5yg2Ihzg4qrwbOuwEQ", "alias": "hattapons-thai-kitchen-greenfield", "name": "Hattapon's Thai Kitchen", "image_url": "https://s3-media1.fl.yelpcdn.com/bphoto/OpC4EP9sMq0DlHgDHmrxyA/o.jpg", "is_closed": false, "url": "https://www.yelp.com/biz/hattapons-thai-kitchen-greenfield?adjust_creative=ywY5UnLZrNrRl2b93Ruy_g&utm_campaign=yelp_api_v3&utm_medium=api_v3_business_search&utm_source=ywY5UnLZrNrRl2b93Ruy_g", "review_count": 34, "categories": [{"alias": "thai", "title": "Thai"}], "rating": 3.5, "coordinates": {"latitude": 42.587759, "longitude": -72.601574}, "transactions": ["delivery"], "price": "$", "location": {"address1": "265 Main St", "address2": "", "address3": "", "city": "Greenfield", "zip_code": "01301", "country": "US", "state": "MA", "display_address": ["265 Main St", "Greenfield, MA 01301"]}, "phone": "+14137745304", "display_phone": "(413) 774-5304", "distance": 15380.295426591983}, {"id": "3p3pMwBPluQSEscxeqFa5g", "alias": "bittersweet-bakery-and-cafe-deerfield", "name": "Bittersweet Bakery & Cafe", "image_url": "https://s3-media2.fl.yelpcdn.com/bphoto/_2c3G5F_Kt0IvHqtfncUSg/o.jpg", "is_closed": false, "url": "https://www.yelp.com/biz/bittersweet-bakery-and-cafe-deerfield?adjust_creative=ywY5UnLZrNrRl2b93Ruy_g&utm_campaign=yelp_api_v3&utm_medium=api_v3_business_search&utm_source=ywY5UnLZrNrRl2b93Ruy_g", "review_count": 17, "categories": [{"alias": "cafes", "title": "Cafes"}, {"alias": "bakeries", "title": "Bakeries"}, {"alias": "coffee", "title": "Coffee & Tea"}], "rating": 4.0, "coordinates": {"latitude": 42.53364, "longitude": -72.60323}, "transactions": [], "location": {"address1": "470 Greenfield Rd", "address2": "", "address3": null, "city": "Deerfield", "zip_code": "01342", "country": "US", "state": "MA", "display_address": ["470 Greenfield Rd", "Deerfield, MA 01342"]}, "phone": "+14132235496", "display_phone": "(413) 223-5496", "distance": 19523.119742084888}, {"id": "QzmmXJvK8cw7-BICO_gigQ", "alias": "shady-glen-turners-falls", "name": "Shady Glen", "image_url": "https://s3-media1.fl.yelpcdn.com/bphoto/WDilrIiLQWIs6l8y7XQbdA/o.jpg", "is_closed": false, "url": "https://www.yelp.com/biz/shady-glen-turners-falls?adjust_creative=ywY5UnLZrNrRl2b93Ruy_g&utm_campaign=yelp_api_v3&utm_medium=api_v3_business_search&utm_source=ywY5UnLZrNrRl2b93Ruy_g", "review_count": 35, "categories": [{"alias": "diners", "title": "Diners"}, {"alias": "breakfast_brunch", "title": "Breakfast & Brunch"}, {"alias": "tradamerican", "title": "American (Traditional)"}], "rating": 4.0, "coordinates": {"latitude": 42.6091117858887, "longitude": -72.5553665161133}, "transactions": ["delivery"], "price": "$", "location": {"address1": "7 Ave A", "address2": "", "address3": "", "city": "Turners Falls", "zip_code": "01376", "country": "US", "state": "MA", "display_address": ["7 Ave A", "Turners Falls, MA 01376"]}, "phone": "+14138639636", "display_phone": "(413) 863-9636", "distance": 10933.543535129322}, {"id": "7ccuuvYz9PAUMZ-2VVBZZw", "alias": "pizza-factory-orange", "name": "Pizza Factory", "image_url": "https://s3-media3.fl.yelpcdn.com/bphoto/bb8FyfINlCRnHsfbwKu_jA/o.jpg", "is_closed": false, "url": "https://www.yelp.com/biz/pizza-factory-orange?adjust_creative=ywY5UnLZrNrRl2b93Ruy_g&utm_campaign=yelp_api_v3&utm_medium=api_v3_business_search&utm_source=ywY5UnLZrNrRl2b93Ruy_g", "review_count": 5, "categories": [{"alias": "pizza", "title": "Pizza"}], "rating": 3.0, "coordinates": {"latitude": 42.59063, "longitude": -72.31046}, "transactions": [], "price": "$", "location": {"address1": "11 W Main St", "address2": "", "address3": "", "city": "Orange", "zip_code": "01364", "country": "US", "state": "MA", "display_address": ["11 W Main St", "Orange, MA 01364"]}, "phone": "+19785445818", "display_phone": "(978) 544-5818", "distance": 13953.819170902914}, {"id": "dEp2L6B4tFTHtK4NxWd83w", "alias": "turners-falls-pizza-house-turners-falls", "name": "Turners Falls Pizza House", "image_url": "https://s3-media2.fl.yelpcdn.com/bphoto/_xhngASvQO04GYK_oUGkMw/o.jpg", "is_closed": false, "url": "https://www.yelp.com/biz/turners-falls-pizza-house-turners-falls?adjust_creative=ywY5UnLZrNrRl2b93Ruy_g&utm_campaign=yelp_api_v3&utm_medium=api_v3_business_search&utm_source=ywY5UnLZrNrRl2b93Ruy_g", "review_count": 31, "categories": [{"alias": "pizza", "title": "Pizza"}, {"alias": "salad", "title": "Salad"}], "rating": 4.0, "coordinates": {"latitude": 42.60762, "longitude": -72.5569}, "transactions": ["delivery"], "price": "$", "location": {"address1": "119 Avenue A", "address2": "", "address3": "", "city": "Turners Falls", "zip_code": "01376", "country": "US", "state": "MA", "display_address": ["119 Avenue A", "Turners Falls, MA 01376"]}, "phone": "+14138638000", "display_phone": "(413) 863-8000", "distance": 11143.824527590084}, {"id": "qhFqS8F57n7vmKKfrFZu-w", "alias": "friendly-town-pizza-orange", "name": "Friendly Town Pizza", "image_url": "", "is_closed": false, "url": "https://www.yelp.com/biz/friendly-town-pizza-orange?adjust_creative=ywY5UnLZrNrRl2b93Ruy_g&utm_campaign=yelp_api_v3&utm_medium=api_v3_business_search&utm_source=ywY5UnLZrNrRl2b93Ruy_g", "review_count": 1, "categories": [{"alias": "pizza", "title": "Pizza"}], "rating": 4.0, "coordinates": {"latitude": 42.5891990661621, "longitude": -72.3095703125}, "transactions": [], "location": {"address1": "", "address2": "", "address3": "", "city": "Orange", "zip_code": "", "country": "US", "state": "MA", "display_address": ["Orange, MA"]}, "phone": "+19782493651", "display_phone": "(978) 249-3651", "distance": 13484.22308004835}, {"id": "2ykfTFuQMBNreBEvDEkBGg", "alias": "robertos-pizzeria-greenfield", "name": "Roberto's Pizzeria", "image_url": "https://s3-media4.fl.yelpcdn.com/bphoto/RC3SdRAazT2BstJZNw67yw/o.jpg", "is_closed": false, "url": "https://www.yelp.com/biz/robertos-pizzeria-greenfield?adjust_creative=ywY5UnLZrNrRl2b93Ruy_g&utm_campaign=yelp_api_v3&utm_medium=api_v3_business_search&utm_source=ywY5UnLZrNrRl2b93Ruy_g", "review_count": 14, "categories": [{"alias": "pizza", "title": "Pizza"}], "rating": 4.5, "coordinates": {"latitude": 42.59002, "longitude": -72.59941}, "transactions": ["delivery"], "price": "$", "location": {"address1": "80 Federal St", "address2": "", "address3": "", "city": "Greenfield", "zip_code": "01301", "country": "US", "state": "MA", "display_address": ["80 Federal St", "Greenfield, MA 01301"]}, "phone": "+14137750155", "display_phone": "(413) 775-0155", "distance": 15094.743102225893}, {"id": "Xw5Gz7kiqxN34K8vjslNAQ", "alias": "new-fortune-chinese-restaurant-greenfield", "name": "New Fortune Chinese Restaurant", "image_url": "https://s3-media2.fl.yelpcdn.com/bphoto/ftAnKqMowdiOo9CXaIgZAg/o.jpg", "is_closed": false, "url": "https://www.yelp.com/biz/new-fortune-chinese-restaurant-greenfield?adjust_creative=ywY5UnLZrNrRl2b93Ruy_g&utm_campaign=yelp_api_v3&utm_medium=api_v3_business_search&utm_source=ywY5UnLZrNrRl2b93Ruy_g", "review_count": 37, "categories": [{"alias": "chinese", "title": "Chinese"}, {"alias": "sushi", "title": "Sushi Bars"}, {"alias": "japanese", "title": "Japanese"}], "rating": 3.5, "coordinates": {"latitude": 42.587352, "longitude": -72.626241}, "transactions": ["delivery"], "price": "$$", "location": {"address1": "249 Mohawk Trl", "address2": "", "address3": "", "city": "Greenfield", "zip_code": "01301", "country": "US", "state": "MA", "display_address": ["249 Mohawk Trl", "Greenfield, MA 01301"]}, "phone": "+14137720838", "display_phone": "(413) 772-0838", "distance": 17116.10940099373}, {"id": "JNqJUAR9is7ejRYW2c01FA", "alias": "sofias-pizza-greenfield", "name": "Sofia's Pizza", "image_url": "https://s3-media1.fl.yelpcdn.com/bphoto/ZP6DJjR_fmH9uZMJVOJvhQ/o.jpg", "is_closed": false, "url": "https://www.yelp.com/biz/sofias-pizza-greenfield?adjust_creative=ywY5UnLZrNrRl2b93Ruy_g&utm_campaign=yelp_api_v3&utm_medium=api_v3_business_search&utm_source=ywY5UnLZrNrRl2b93Ruy_g", "review_count": 31, "categories": [{"alias": "pizza", "title": "Pizza"}], "rating": 3.5, "coordinates": {"latitude": 42.5969467, "longitude": -72.5971298}, "transactions": ["delivery"], "price": "$$", "location": {"address1": "228 Federal St", "address2": "", "address3": "", "city": "Greenfield", "zip_code": "01301", "country": "US", "state": "MA", "display_address": ["228 Federal St", "Greenfield, MA 01301"]}, "phone": "+14137749900", "display_phone": "(413) 774-9900", "distance": 14513.427115350896}, {"id": "oh2hgHxtHrGCkzGHqK4quA", "alias": "goodies-restaurant-greenfield", "name": "Goodies Restaurant", "image_url": "https://s3-media3.fl.yelpcdn.com/bphoto/-bwBadmNTAtzswYG2Hh3Ig/o.jpg", "is_closed": false, "url": "https://www.yelp.com/biz/goodies-restaurant-greenfield?adjust_creative=ywY5UnLZrNrRl2b93Ruy_g&utm_campaign=yelp_api_v3&utm_medium=api_v3_business_search&utm_source=ywY5UnLZrNrRl2b93Ruy_g", "review_count": 31, "categories": [{"alias": "pizza", "title": "Pizza"}, {"alias": "italian", "title": "Italian"}], "rating": 3.0, "coordinates": {"latitude": 42.5986328125, "longitude": -72.596435546875}, "transactions": ["delivery"], "price": "$$", "location": {"address1": "256 Federal St", "address2": "", "address3": "", "city": "Greenfield", "zip_code": "01301", "country": "US", "state": "MA", "display_address": ["256 Federal St", "Greenfield, MA 01301"]}, "phone": "+14137722586", "display_phone": "(413) 772-2586", "distance": 14371.533975858822}, {"id": "b-LHyJufYxVTDZZYgsC5zg", "alias": "applebees-grill-bar-greenfield-2", "name": "Applebee's Grill + Bar", "image_url": "https://s3-media3.fl.yelpcdn.com/bphoto/uspV9fyAGPPDasqqxw9JuQ/o.jpg", "is_closed": false, "url": "https://www.yelp.com/biz/applebees-grill-bar-greenfield-2?adjust_creative=ywY5UnLZrNrRl2b93Ruy_g&utm_campaign=yelp_api_v3&utm_medium=api_v3_business_search&utm_source=ywY5UnLZrNrRl2b93Ruy_g", "review_count": 31, "categories": [{"alias": "tradamerican", "title": "American (Traditional)"}, {"alias": "sportsbars", "title": "Sports Bars"}, {"alias": "burgers", "title": "Burgers"}], "rating": 3.5, "coordinates": {"latitude": 42.585115, "longitude": -72.618677}, "transactions": [], "price": "$$", "location": {"address1": "141 Mohawk Trl", "address2": "", "address3": "", "city": "Greenfield", "zip_code": "01301", "country": "US", "state": "MA", "display_address": ["141 Mohawk Trl", "Greenfield, MA 01301"]}, "phone": "+14137720079", "display_phone": "(413) 772-0079", "distance": 16720.80696579335}, {"id": "dDA3YpteWaTXQ63z6REGeg", "alias": "the-wok-deerfield", "name": "The Wok", "image_url": "https://s3-media1.fl.yelpcdn.com/bphoto/vbZOmgKk-TYSndB9Oa5tQw/o.jpg", "is_closed": false, "url": "https://www.yelp.com/biz/the-wok-deerfield?adjust_creative=ywY5UnLZrNrRl2b93Ruy_g&utm_campaign=yelp_api_v3&utm_medium=api_v3_business_search&utm_source=ywY5UnLZrNrRl2b93Ruy_g", "review_count": 22, "categories": [{"alias": "chinese", "title": "Chinese"}, {"alias": "seafood", "title": "Seafood"}, {"alias": "soup", "title": "Soup"}], "rating": 3.0, "coordinates": {"latitude": 42.56664, "longitude": -72.593}, "transactions": ["delivery"], "price": "$$", "location": {"address1": "723 Greenfield Rd", "address2": "", "address3": "", "city": "Deerfield", "zip_code": "01342", "country": "US", "state": "MA", "display_address": ["723 Greenfield Rd", "Deerfield, MA 01342"]}, "phone": "+14137743606", "display_phone": "(413) 774-3606", "distance": 16308.029339166389}, {"id": "gCdtxabLxonlb7CtJK-Z-w", "alias": "d-angelo-greenfield-2", "name": "D'Angelo", "image_url": "https://s3-media2.fl.yelpcdn.com/bphoto/HHatphW_HpX1SDsDCrngDw/o.jpg", "is_closed": false, "url": "https://www.yelp.com/biz/d-angelo-greenfield-2?adjust_creative=ywY5UnLZrNrRl2b93Ruy_g&utm_campaign=yelp_api_v3&utm_medium=api_v3_business_search&utm_source=ywY5UnLZrNrRl2b93Ruy_g", "review_count": 10, "categories": [{"alias": "sandwiches", "title": "Sandwiches"}], "rating": 4.0, "coordinates": {"latitude": 42.5848445086586, "longitude": -72.6141382441874}, "transactions": [], "price": "$$", "location": {"address1": "68 Mohawk Trl", "address2": "", "address3": "", "city": "Greenfield", "zip_code": "01301", "country": "US", "state": "MA", "display_address": ["68 Mohawk Trl", "Greenfield, MA 01301"]}, "phone": "+14137742106", "display_phone": "(413) 774-2106", "distance": 16425.928862560795}, {"id": "VRA3aRN2BEb6O9rVEQ3gOg", "alias": "le-petit-cafe-greenfield", "name": "Le Petit Cafe", "image_url": "https://s3-media2.fl.yelpcdn.com/bphoto/MpWCzx2bkUihqHBPnIog_w/o.jpg", "is_closed": false, "url": "https://www.yelp.com/biz/le-petit-cafe-greenfield?adjust_creative=ywY5UnLZrNrRl2b93Ruy_g&utm_campaign=yelp_api_v3&utm_medium=api_v3_business_search&utm_source=ywY5UnLZrNrRl2b93Ruy_g", "review_count": 4, "categories": [{"alias": "cafes", "title": "Cafes"}, {"alias": "breakfast_brunch", "title": "Breakfast & Brunch"}], "rating": 4.0, "coordinates": {"latitude": 42.5876774, "longitude": -72.5981727}, "transactions": [], "price": "$", "location": {"address1": "426 Main St", "address2": null, "address3": null, "city": "Greenfield", "zip_code": "01301", "country": "US", "state": "MA", "display_address": ["426 Main St", "Greenfield, MA 01301"]}, "phone": "+14137687190", "display_phone": "(413) 768-7190", "distance": 15173.479310625107}, {"id": "RiVxyVtL8fxMb2kYP0zutA", "alias": "moms-country-kitchen-orange", "name": "Moms Country Kitchen", "image_url": "https://s3-media2.fl.yelpcdn.com/bphoto/3_oYhJcGjKqGj3iuDH_r1Q/o.jpg", "is_closed": false, "url": "https://www.yelp.com/biz/moms-country-kitchen-orange?adjust_creative=ywY5UnLZrNrRl2b93Ruy_g&utm_campaign=yelp_api_v3&utm_medium=api_v3_business_search&utm_source=ywY5UnLZrNrRl2b93Ruy_g", "review_count": 2, "categories": [{"alias": "breakfast_brunch", "title": "Breakfast & Brunch"}], "rating": 1.0, "coordinates": {"latitude": 42.58912, "longitude": -72.29988}, "transactions": [], "location": {"address1": "217 E Main St", "address2": "", "address3": null, "city": "Orange", "zip_code": "01364", "country": "US", "state": "MA", "display_address": ["217 E Main St", "Orange, MA 01364"]}, "phone": "+19789393233", "display_phone": "(978) 939-3233", "distance": 14760.165278373179}, {"id": "uvI_sThbGPccd-NHZRBnQg", "alias": "bei-jing-house-greenfield", "name": "Bei Jing House", "image_url": "https://s3-media2.fl.yelpcdn.com/bphoto/8ORL1RDkXxxEgLrcS0ps9Q/o.jpg", "is_closed": false, "url": "https://www.yelp.com/biz/bei-jing-house-greenfield?adjust_creative=ywY5UnLZrNrRl2b93Ruy_g&utm_campaign=yelp_api_v3&utm_medium=api_v3_business_search&utm_source=ywY5UnLZrNrRl2b93Ruy_g", "review_count": 18, "categories": [{"alias": "chinese", "title": "Chinese"}], "rating": 3.0, "coordinates": {"latitude": 42.58685, "longitude": -72.60736}, "transactions": ["delivery"], "price": "$", "location": {"address1": "45 Main St", "address2": "", "address3": "", "city": "Greenfield", "zip_code": "01301", "country": "US", "state": "MA", "display_address": ["45 Main St", "Greenfield, MA 01301"]}, "phone": "+14137737885", "display_phone": "(413) 773-7885", "distance": 15829.439811082259}, {"id": "viFpmTD5zT19tizBXRrKFw", "alias": "antonios-pizza-shop-greenfield", "name": "Antonio's Pizza Shop", "image_url": "https://s3-media2.fl.yelpcdn.com/bphoto/VuMGXTShN9oxzIHMdXZ7kg/o.jpg", "is_closed": false, "url": "https://www.yelp.com/biz/antonios-pizza-shop-greenfield?adjust_creative=ywY5UnLZrNrRl2b93Ruy_g&utm_campaign=yelp_api_v3&utm_medium=api_v3_business_search&utm_source=ywY5UnLZrNrRl2b93Ruy_g", "review_count": 20, "categories": [{"alias": "pizza", "title": "Pizza"}, {"alias": "italian", "title": "Italian"}, {"alias": "sandwiches", "title": "Sandwiches"}], "rating": 3.5, "coordinates": {"latitude": 42.5876694, "longitude": -72.6027374}, "transactions": ["delivery"], "price": "$", "location": {"address1": "201 Main St", "address2": "", "address3": "", "city": "Greenfield", "zip_code": "01301", "country": "US", "state": "MA", "display_address": ["201 Main St", "Greenfield, MA 01301"]}, "phone": "+14137737517", "display_phone": "(413) 773-7517", "distance": 15475.870484841065}, {"id": "CI0drVFkwHgp5QMbS_NIcw", "alias": "shelburne-falls-coffee-roasters-greenfield", "name": "Shelburne Falls Coffee Roasters", "image_url": "https://s3-media3.fl.yelpcdn.com/bphoto/CqKHLzvK1qUoxC-SsqPv4A/o.jpg", "is_closed": false, "url": "https://www.yelp.com/biz/shelburne-falls-coffee-roasters-greenfield?adjust_creative=ywY5UnLZrNrRl2b93Ruy_g&utm_campaign=yelp_api_v3&utm_medium=api_v3_business_search&utm_source=ywY5UnLZrNrRl2b93Ruy_g", "review_count": 51, "categories": [{"alias": "coffee", "title": "Coffee & Tea"}, {"alias": "bagels", "title": "Bagels"}, {"alias": "sandwiches", "title": "Sandwiches"}], "rating": 3.5, "coordinates": {"latitude": 42.59049, "longitude": -72.5992799}, "transactions": ["delivery"], "price": "$$", "location": {"address1": "100 Federal St", "address2": "", "address3": "", "city": "Greenfield", "zip_code": "01301", "country": "US", "state": "MA", "display_address": ["100 Federal St", "Greenfield, MA 01301"]}, "phone": "+14137738028", "display_phone": "(413) 773-8028", "distance": 15060.439930051072}, {"id": "VIUwZgCQnwpbB2w2Xbr5CA", "alias": "annes-dairy-drive-in-orange", "name": "Anne's Dairy Drive-In", "image_url": "https://s3-media2.fl.yelpcdn.com/bphoto/-Z0ToiFKnU69bQkKByRxHQ/o.jpg", "is_closed": false, "url": "https://www.yelp.com/biz/annes-dairy-drive-in-orange?adjust_creative=ywY5UnLZrNrRl2b93Ruy_g&utm_campaign=yelp_api_v3&utm_medium=api_v3_business_search&utm_source=ywY5UnLZrNrRl2b93Ruy_g", "review_count": 31, "categories": [{"alias": "seafood", "title": "Seafood"}, {"alias": "icecream", "title": "Ice Cream & Frozen Yogurt"}], "rating": 4.0, "coordinates": {"latitude": 42.587263, "longitude": -72.292644}, "transactions": [], "price": "$", "location": {"address1": "360 E Main St", "address2": "", "address3": "", "city": "Orange", "zip_code": "01364", "country": "US", "state": "MA", "display_address": ["360 E Main St", "Orange, MA 01364"]}, "phone": "+19785442093", "display_phone": "(978) 544-2093", "distance": 15299.444452627922}, {"id": "HQstHLLH3MCV-VIvkEJ8Zw", "alias": "athens-pizza-greenfield", "name": "Athens Pizza", "image_url": "https://s3-media1.fl.yelpcdn.com/bphoto/Ui-xwzsHZrIndLoKz8KLHA/o.jpg", "is_closed": false, "url": "https://www.yelp.com/biz/athens-pizza-greenfield?adjust_creative=ywY5UnLZrNrRl2b93Ruy_g&utm_campaign=yelp_api_v3&utm_medium=api_v3_business_search&utm_source=ywY5UnLZrNrRl2b93Ruy_g", "review_count": 18, "categories": [{"alias": "pizza", "title": "Pizza"}], "rating": 2.5, "coordinates": {"latitude": 42.5869255065918, "longitude": -72.6082229614258}, "transactions": ["delivery"], "price": "$$", "location": {"address1": "25 Main St", "address2": "", "address3": "", "city": "Greenfield", "zip_code": "01301", "country": "US", "state": "MA", "display_address": ["25 Main St", "Greenfield, MA 01301"]}, "phone": "+14137743722", "display_phone": "(413) 774-3722", "distance": 15892.503434937578}, {"id": "cI-D75PC7akLsPQSrvYX2w", "alias": "deerfield-lunch-box-deerfield", "name": "Deerfield Lunch Box", "image_url": "https://s3-media4.fl.yelpcdn.com/bphoto/46kxxAh53yd4ygbpPSY7jQ/o.jpg", "is_closed": false, "url": "https://www.yelp.com/biz/deerfield-lunch-box-deerfield?adjust_creative=ywY5UnLZrNrRl2b93Ruy_g&utm_campaign=yelp_api_v3&utm_medium=api_v3_business_search&utm_source=ywY5UnLZrNrRl2b93Ruy_g", "review_count": 1, "categories": [{"alias": "hotdog", "title": "Hot Dogs"}, {"alias": "foodstands", "title": "Food Stands"}, {"alias": "burgers", "title": "Burgers"}], "rating": 2.0, "coordinates": {"latitude": 42.547239, "longitude": -72.605898}, "transactions": [], "location": {"address1": "79 Old Main St", "address2": "", "address3": "Historic Deerfield", "city": "Deerfield", "zip_code": "01342", "country": "US", "state": "MA", "display_address": ["79 Old Main St", "Historic Deerfield", "Deerfield, MA 01342"]}, "phone": "+14137757171", "display_phone": "(413) 775-7171", "distance": 18575.71356415598}, {"id": "9f8jUaPQOlu8Q-3W_t61fg", "alias": "subway-turners-falls-3", "name": "Subway", "image_url": "https://s3-media4.fl.yelpcdn.com/bphoto/BQKiqilNmE7skga-CDDUOg/o.jpg", "is_closed": false, "url": "https://www.yelp.com/biz/subway-turners-falls-3?adjust_creative=ywY5UnLZrNrRl2b93Ruy_g&utm_campaign=yelp_api_v3&utm_medium=api_v3_business_search&utm_source=ywY5UnLZrNrRl2b93Ruy_g", "review_count": 3, "categories": [{"alias": "sandwiches", "title": "Sandwiches"}], "rating": 3.5, "coordinates": {"latitude": 42.6085179, "longitude": -72.5561029998867}, "transactions": [], "price": "$", "location": {"address1": "57 Avenue A", "address2": "", "address3": "", "city": "Turners Falls", "zip_code": "01376", "country": "US", "state": "MA", "display_address": ["57 Avenue A", "Turners Falls, MA 01376"]}, "phone": "+14138632363", "display_phone": "(413) 863-2363", "distance": 11019.64581385595}, {"id": "5rkJ61I9GICBsEp2__7fXQ", "alias": "wings-over-greenfield-greenfield", "name": "Wings Over Greenfield", "image_url": "https://s3-media2.fl.yelpcdn.com/bphoto/Bmik4JsNWr2mPR6p0xu4aQ/o.jpg", "is_closed": false, "url": "https://www.yelp.com/biz/wings-over-greenfield-greenfield?adjust_creative=ywY5UnLZrNrRl2b93Ruy_g&utm_campaign=yelp_api_v3&utm_medium=api_v3_business_search&utm_source=ywY5UnLZrNrRl2b93Ruy_g", "review_count": 12, "categories": [{"alias": "chicken_wings", "title": "Chicken Wings"}, {"alias": "hotdogs", "title": "Fast Food"}, {"alias": "sandwiches", "title": "Sandwiches"}], "rating": 3.5, "coordinates": {"latitude": 42.5889892578125, "longitude": -72.5999526977539}, "transactions": [], "price": "$", "location": {"address1": "30 Federal St", "address2": "", "address3": null, "city": "Greenfield", "zip_code": "01301", "country": "US", "state": "MA", "display_address": ["30 Federal St", "Greenfield, MA 01301"]}, "phone": "+14137739464", "display_phone": "(413) 773-9464", "distance": 15210.923179936768}, {"id": "OOTU0zYwg5QVhTB_1MFjBQ", "alias": "dennys-pantry-greenfield", "name": "Denny's Pantry", "image_url": "https://s3-media3.fl.yelpcdn.com/bphoto/aJ4KdrwNtjBdKr75LY9dng/o.jpg", "is_closed": false, "url": "https://www.yelp.com/biz/dennys-pantry-greenfield?adjust_creative=ywY5UnLZrNrRl2b93Ruy_g&utm_campaign=yelp_api_v3&utm_medium=api_v3_business_search&utm_source=ywY5UnLZrNrRl2b93Ruy_g", "review_count": 36, "categories": [{"alias": "tradamerican", "title": "American (Traditional)"}, {"alias": "breakfast_brunch", "title": "Breakfast & Brunch"}], "rating": 3.5, "coordinates": {"latitude": 42.60826, "longitude": -72.58705}, "transactions": [], "price": "$", "location": {"address1": "469 Bernardston Rd", "address2": "", "address3": "", "city": "Greenfield", "zip_code": "01301", "country": "US", "state": "MA", "display_address": ["469 Bernardston Rd", "Greenfield, MA 01301"]}, "phone": "+14137733345", "display_phone": "(413) 773-3345", "distance": 13186.919854126625}, {"id": "c2gucBE9DwnLOr9_Xk754A", "alias": "brads-place-greenfield", "name": "Brad's Place", "image_url": "https://s3-media2.fl.yelpcdn.com/bphoto/UniO9JMw-de02Xqojnx28g/o.jpg", "is_closed": false, "url": "https://www.yelp.com/biz/brads-place-greenfield?adjust_creative=ywY5UnLZrNrRl2b93Ruy_g&utm_campaign=yelp_api_v3&utm_medium=api_v3_business_search&utm_source=ywY5UnLZrNrRl2b93Ruy_g", "review_count": 27, "categories": [{"alias": "newamerican", "title": "American (New)"}, {"alias": "breakfast_brunch", "title": "Breakfast & Brunch"}], "rating": 3.5, "coordinates": {"latitude": 42.5876259014004, "longitude": -72.5999116420645}, "transactions": ["pickup", "delivery"], "price": "$", "location": {"address1": "353 Main St", "address2": "", "address3": "", "city": "Greenfield", "zip_code": "01301", "country": "US", "state": "MA", "display_address": ["353 Main St", "Greenfield, MA 01301"]}, "phone": "+14137738460", "display_phone": "(413) 773-8460", "distance": 15288.735808143334}, {"id": "WY4tfGTemDlVoqEA7TnZLw", "alias": "subway-orange-65", "name": "Subway", "image_url": "https://s3-media1.fl.yelpcdn.com/bphoto/yHsfwTIjg-rqZZxw4IC2Ww/o.jpg", "is_closed": false, "url": "https://www.yelp.com/biz/subway-orange-65?adjust_creative=ywY5UnLZrNrRl2b93Ruy_g&utm_campaign=yelp_api_v3&utm_medium=api_v3_business_search&utm_source=ywY5UnLZrNrRl2b93Ruy_g", "review_count": 3, "categories": [{"alias": "sandwiches", "title": "Sandwiches"}], "rating": 3.0, "coordinates": {"latitude": 42.5906842536539, "longitude": -72.309052020203}, "transactions": [], "price": "$", "location": {"address1": "12 E Main St", "address2": null, "address3": null, "city": "Orange", "zip_code": "01364", "country": "US", "state": "MA", "display_address": ["12 E Main St", "Orange, MA 01364"]}, "phone": "+19785442498", "display_phone": "(978) 544-2498", "distance": 14042.681035507965}, {"id": "BEFXrXW9BIo96TA4yOlanA", "alias": "subway-greenfield-29", "name": "Subway", "image_url": "https://s3-media3.fl.yelpcdn.com/bphoto/KhBvbd8eR5pSD5juuoh8Gw/o.jpg", "is_closed": false, "url": "https://www.yelp.com/biz/subway-greenfield-29?adjust_creative=ywY5UnLZrNrRl2b93Ruy_g&utm_campaign=yelp_api_v3&utm_medium=api_v3_business_search&utm_source=ywY5UnLZrNrRl2b93Ruy_g", "review_count": 7, "categories": [{"alias": "sandwiches", "title": "Sandwiches"}], "rating": 3.5, "coordinates": {"latitude": 42.6023944623179, "longitude": -72.592163430718}, "transactions": [], "price": "$", "location": {"address1": "343 Federal St", "address2": "", "address3": "", "city": "Greenfield", "zip_code": "01301", "country": "US", "state": "MA", "display_address": ["343 Federal St", "Greenfield, MA 01301"]}, "phone": "+14137745999", "display_phone": "(413) 774-5999", "distance": 13863.581229580817}, {"id": "-cTZN8UAmWz98p492Y_OMw", "alias": "friendlys-greenfield-2", "name": "Friendly's", "image_url": "https://s3-media3.fl.yelpcdn.com/bphoto/R8N4TORIBSgbhC1_DRsLZg/o.jpg", "is_closed": false, "url": "https://www.yelp.com/biz/friendlys-greenfield-2?adjust_creative=ywY5UnLZrNrRl2b93Ruy_g&utm_campaign=yelp_api_v3&utm_medium=api_v3_business_search&utm_source=ywY5UnLZrNrRl2b93Ruy_g", "review_count": 54, "categories": [{"alias": "icecream", "title": "Ice Cream & Frozen Yogurt"}, {"alias": "tradamerican", "title": "American (Traditional)"}, {"alias": "burgers", "title": "Burgers"}], "rating": 2.0, "coordinates": {"latitude": 42.5852699, "longitude": -72.6235962}, "transactions": [], "price": "$$", "location": {"address1": "200 Mohawk Trl", "address2": null, "address3": null, "city": "Greenfield", "zip_code": "01301", "country": "US", "state": "MA", "display_address": ["200 Mohawk Trl", "Greenfield, MA 01301"]}, "phone": "+14137745435", "display_phone": "(413) 774-5435", "distance": 17045.77463108267}, {"id": "mlDZf-GdNIaW5ToE3AR9CA", "alias": "subway-greenfield-20", "name": "Subway", "image_url": "https://s3-media2.fl.yelpcdn.com/bphoto/J25dG23zDO2UgNa3-tc9fw/o.jpg", "is_closed": false, "url": "https://www.yelp.com/biz/subway-greenfield-20?adjust_creative=ywY5UnLZrNrRl2b93Ruy_g&utm_campaign=yelp_api_v3&utm_medium=api_v3_business_search&utm_source=ywY5UnLZrNrRl2b93Ruy_g", "review_count": 3, "categories": [{"alias": "sandwiches", "title": "Sandwiches"}], "rating": 2.0, "coordinates": {"latitude": 42.5873648, "longitude": -72.626196}, "transactions": [], "price": "$", "location": {"address1": "251 Mohawk Trail", "address2": "", "address3": "Greenfield Plz S C", "city": "Greenfield", "zip_code": "01301", "country": "US", "state": "MA", "display_address": ["251 Mohawk Trail", "Greenfield Plz S C", "Greenfield, MA 01301"]}, "phone": "+14137743636", "display_phone": "(413) 774-3636", "distance": 17112.217246122225}, {"id": "lAHlJinahtGJQkd25QJrRw", "alias": "dominos-pizza-greenfield-4", "name": "Domino's Pizza", "image_url": "https://s3-media3.fl.yelpcdn.com/bphoto/ZFcc_blzn6KVp9PDfMX_0Q/o.jpg", "is_closed": false, "url": "https://www.yelp.com/biz/dominos-pizza-greenfield-4?adjust_creative=ywY5UnLZrNrRl2b93Ruy_g&utm_campaign=yelp_api_v3&utm_medium=api_v3_business_search&utm_source=ywY5UnLZrNrRl2b93Ruy_g", "review_count": 10, "categories": [{"alias": "pizza", "title": "Pizza"}, {"alias": "chicken_wings", "title": "Chicken Wings"}, {"alias": "sandwiches", "title": "Sandwiches"}], "rating": 1.5, "coordinates": {"latitude": 42.603973, "longitude": -72.591673}, "transactions": [], "price": "$", "location": {"address1": "368 Federal St", "address2": "", "address3": "", "city": "Greenfield", "zip_code": "01301", "country": "US", "state": "MA", "display_address": ["368 Federal St", "Greenfield, MA 01301"]}, "phone": "+14137747291", "display_phone": "(413) 774-7291", "distance": 13739.731483631776}, {"id": "4Zzu0W5N2O6-ATv7vOMnog", "alias": "wendys-greenfield-2", "name": "Wendy's", "image_url": "https://s3-media1.fl.yelpcdn.com/bphoto/VjepJeSj81EQxIrHcl7H_A/o.jpg", "is_closed": false, "url": "https://www.yelp.com/biz/wendys-greenfield-2?adjust_creative=ywY5UnLZrNrRl2b93Ruy_g&utm_campaign=yelp_api_v3&utm_medium=api_v3_business_search&utm_source=ywY5UnLZrNrRl2b93Ruy_g", "review_count": 16, "categories": [{"alias": "hotdogs", "title": "Fast Food"}, {"alias": "burgers", "title": "Burgers"}], "rating": 2.0, "coordinates": {"latitude": 42.592495, "longitude": -72.598592}, "transactions": ["delivery"], "price": "$", "location": {"address1": "138 Federal Street", "address2": "", "address3": "", "city": "Greenfield", "zip_code": "01301", "country": "US", "state": "MA", "display_address": ["138 Federal Street", "Greenfield, MA 01301"]}, "phone": "+14137745201", "display_phone": "(413) 774-5201", "distance": 14894.692971712557}, {"id": "VcKnHfkBxXSqPd_a1TJa2Q", "alias": "kfc-greenfield-4", "name": "KFC", "image_url": "https://s3-media4.fl.yelpcdn.com/bphoto/zRrjKWbYcRMZx7xjAgBC5g/o.jpg", "is_closed": false, "url": "https://www.yelp.com/biz/kfc-greenfield-4?adjust_creative=ywY5UnLZrNrRl2b93Ruy_g&utm_campaign=yelp_api_v3&utm_medium=api_v3_business_search&utm_source=ywY5UnLZrNrRl2b93Ruy_g", "review_count": 6, "categories": [{"alias": "hotdogs", "title": "Fast Food"}, {"alias": "chicken_wings", "title": "Chicken Wings"}, {"alias": "chickenshop", "title": "Chicken Shop"}], "rating": 1.5, "coordinates": {"latitude": 42.5857303098406, "longitude": -72.626232}, "transactions": ["pickup", "delivery"], "price": "$", "location": {"address1": "242 Mohawk Trl", "address2": null, "address3": null, "city": "Greenfield", "zip_code": "01301", "country": "US", "state": "MA", "display_address": ["242 Mohawk Trl", "Greenfield, MA 01301"]}, "phone": "+14137747869", "display_phone": "(413) 774-7869", "distance": 17208.749233917304}, {"id": "9gUZ2bgnsPRtihya9yvzVg", "alias": "taco-bell-greenfield", "name": "Taco Bell", "image_url": "https://s3-media1.fl.yelpcdn.com/bphoto/ogHV-spWv4efdk7MthVOLw/o.jpg", "is_closed": false, "url": "https://www.yelp.com/biz/taco-bell-greenfield?adjust_creative=ywY5UnLZrNrRl2b93Ruy_g&utm_campaign=yelp_api_v3&utm_medium=api_v3_business_search&utm_source=ywY5UnLZrNrRl2b93Ruy_g", "review_count": 14, "categories": [{"alias": "hotdogs", "title": "Fast Food"}, {"alias": "tacos", "title": "Tacos"}], "rating": 1.0, "coordinates": {"latitude": 42.586462, "longitude": -72.627696}, "transactions": [], "price": "$", "location": {"address1": "242 Mohawk Trail", "address2": "", "address3": "", "city": "Greenfield", "zip_code": "01301", "country": "US", "state": "MA", "display_address": ["242 Mohawk Trail", "Greenfield, MA 01301"]}, "phone": "+14137747869", "display_phone": "(413) 774-7869", "distance": 17269.153180359404}, {"id": "lGTaMLtrvNzg8kJqm93KTA", "alias": "mcdonalds-greenfield-5", "name": "McDonald's", "image_url": "https://s3-media4.fl.yelpcdn.com/bphoto/k0TRfvZBOqKHdWPr7vZsnA/o.jpg", "is_closed": false, "url": "https://www.yelp.com/biz/mcdonalds-greenfield-5?adjust_creative=ywY5UnLZrNrRl2b93Ruy_g&utm_campaign=yelp_api_v3&utm_medium=api_v3_business_search&utm_source=ywY5UnLZrNrRl2b93Ruy_g", "review_count": 9, "categories": [{"alias": "hotdogs", "title": "Fast Food"}, {"alias": "burgers", "title": "Burgers"}, {"alias": "coffee", "title": "Coffee & Tea"}], "rating": 2.0, "coordinates": {"latitude": 42.5998173687393, "longitude": -72.5944671034812}, "transactions": [], "price": "$", "location": {"address1": "285 Federal St", "address2": "", "address3": "", "city": "Greenfield", "zip_code": "01301", "country": "US", "state": "MA", "display_address": ["285 Federal St", "Greenfield, MA 01301"]}, "phone": "+14137743618", "display_phone": "(413) 774-3618", "distance": 14173.187611029578}, {"id": "U4ZdIbDtIlwXYbEzzDtiCQ", "alias": "mcdonalds-athol", "name": "McDonald's", "image_url": "https://s3-media1.fl.yelpcdn.com/bphoto/FSBdlAPNx4Un2ivWTJTteA/o.jpg", "is_closed": false, "url": "https://www.yelp.com/biz/mcdonalds-athol?adjust_creative=ywY5UnLZrNrRl2b93Ruy_g&utm_campaign=yelp_api_v3&utm_medium=api_v3_business_search&utm_source=ywY5UnLZrNrRl2b93Ruy_g", "review_count": 16, "categories": [{"alias": "burgers", "title": "Burgers"}, {"alias": "hotdogs", "title": "Fast Food"}, {"alias": "coffee", "title": "Coffee & Tea"}], "rating": 2.5, "coordinates": {"latitude": 42.5814984273631, "longitude": -72.2548806667328}, "transactions": [], "price": "$", "location": {"address1": "100 Brookside Rd", "address2": "", "address3": "", "city": "Athol", "zip_code": "01331", "country": "US", "state": "MA", "display_address": ["100 Brookside Rd", "Athol, MA 01331"]}, "phone": "+19782499866", "display_phone": "(978) 249-9866", "distance": 18298.129278911976}, {"id": "7IOS0bILt7y2-6eiiXxJRg", "alias": "mcdonalds-greenfield", "name": "McDonald's", "image_url": "https://s3-media4.fl.yelpcdn.com/bphoto/RUa3FiH2Cx7jHuH740Rw8Q/o.jpg", "is_closed": false, "url": "https://www.yelp.com/biz/mcdonalds-greenfield?adjust_creative=ywY5UnLZrNrRl2b93Ruy_g&utm_campaign=yelp_api_v3&utm_medium=api_v3_business_search&utm_source=ywY5UnLZrNrRl2b93Ruy_g", "review_count": 19, "categories": [{"alias": "hotdogs", "title": "Fast Food"}, {"alias": "burgers", "title": "Burgers"}, {"alias": "coffee", "title": "Coffee & Tea"}], "rating": 2.5, "coordinates": {"latitude": 42.5854669, "longitude": -72.6247290475385}, "transactions": [], "price": "$", "location": {"address1": "208 Mohawk Trl", "address2": "", "address3": "", "city": "Greenfield", "zip_code": "01301", "country": "US", "state": "MA", "display_address": ["208 Mohawk Trl", "Greenfield, MA 01301"]}, "phone": "+14137745311", "display_phone": "(413) 774-5311", "distance": 17119.223221093183}, {"id": "qqA8YX58xnmEXLyanHfdUg", "alias": "stufd-food-truck-brooklyn", "name": "Stuf'd Food Truck", "image_url": "https://s3-media2.fl.yelpcdn.com/bphoto/_Wn0i-tLIOFinw8BPAqxPA/o.jpg", "is_closed": false, "url": "https://www.yelp.com/biz/stufd-food-truck-brooklyn?adjust_creative=ywY5UnLZrNrRl2b93Ruy_g&utm_campaign=yelp_api_v3&utm_medium=api_v3_business_search&utm_source=ywY5UnLZrNrRl2b93Ruy_g", "review_count": 4, "categories": [{"alias": "sandwiches", "title": "Sandwiches"}, {"alias": "foodtrucks", "title": "Food Trucks"}], "rating": 4.0, "coordinates": {"latitude": 40.7124539, "longitude": -73.9287374}, "transactions": [], "location": {"address1": "178 Varick Ave", "address2": "", "address3": null, "city": "Brooklyn", "zip_code": "11237", "country": "US", "state": "NY", "display_address": ["178 Varick Ave", "Brooklyn, NY 11237"]}, "phone": "+18457091808", "display_phone": "(845) 709-1808", "distance": 249677.562188392}]