[{"id": "txZsuJHzyUuxauIRymkd1Q", "alias": "the-harbour-sports-bar-winchendon", "name": "The Harbour Sports Bar", "image_url": "https://s3-media2.fl.yelpcdn.com/bphoto/m-dA8xoxpq-BrqxttgifgA/o.jpg", "is_closed": false, "url": "https://www.yelp.com/biz/the-harbour-sports-bar-winchendon?adjust_creative=ywY5UnLZrNrRl2b93Ruy_g&utm_campaign=yelp_api_v3&utm_medium=api_v3_business_search&utm_source=ywY5UnLZrNrRl2b93Ruy_g", "review_count": 27, "categories": [{"alias": "newamerican", "title": "American (New)"}, {"alias": "sportsbars", "title": "Sports Bars"}, {"alias": "seafood", "title": "Seafood"}], "rating": 3.5, "coordinates": {"latitude": 42.6916458, "longitude": -72.0211916}, "transactions": [], "price": "$$", "location": {"address1": "456 Maple St", "address2": "", "address3": "", "city": "Winchendon", "zip_code": "01475", "country": "US", "state": "MA", "display_address": ["456 Maple St", "Winchendon, MA 01475"]}, "phone": "+19782972133", "display_phone": "(978) 297-2133", "distance": 852.4753083087551}, {"id": "pFjkbm5Z5lYiaWHuOLRV8A", "alias": "little-anthonys-and-little-lizzys-winchendon", "name": "Little Anthonys & Little Lizzy's", "image_url": "https://s3-media3.fl.yelpcdn.com/bphoto/AYEd3ty3ul5yf4NuEUbz-g/o.jpg", "is_closed": false, "url": "https://www.yelp.com/biz/little-anthonys-and-little-lizzys-winchendon?adjust_creative=ywY5UnLZrNrRl2b93Ruy_g&utm_campaign=yelp_api_v3&utm_medium=api_v3_business_search&utm_source=ywY5UnLZrNrRl2b93Ruy_g", "review_count": 9, "categories": [{"alias": "seafood", "title": "Seafood"}, {"alias": "tradamerican", "title": "American (Traditional)"}, {"alias": "cocktailbars", "title": "Cocktail Bars"}], "rating": 4.0, "coordinates": {"latitude": 42.66681, "longitude": -72.00934}, "transactions": [], "price": "$$", "location": {"address1": "678 Spring St", "address2": null, "address3": null, "city": "Winchendon", "zip_code": "01475", "country": "US", "state": "MA", "display_address": ["678 Spring St", "Winchendon, MA 01475"]}, "phone": "+19782972669", "display_phone": "(978) 297-2669", "distance": 3209.349454738661}, {"id": "QJYU56p7TYpLo_r61q0RZQ", "alias": "glen-caffe-winchendon", "name": "Glen Caffe", "image_url": "https://s3-media3.fl.yelpcdn.com/bphoto/hdLJzdQfBYu25yY9tFVkhg/o.jpg", "is_closed": false, "url": "https://www.yelp.com/biz/glen-caffe-winchendon?adjust_creative=ywY5UnLZrNrRl2b93Ruy_g&utm_campaign=yelp_api_v3&utm_medium=api_v3_business_search&utm_source=ywY5UnLZrNrRl2b93Ruy_g", "review_count": 5, "categories": [{"alias": "tradamerican", "title": "American (Traditional)"}], "rating": 5.0, "coordinates": {"latitude": 42.6826401, "longitude": -72.0235138}, "transactions": [], "location": {"address1": "63 Glenallen St", "address2": null, "address3": null, "city": "Winchendon", "zip_code": "01475", "country": "US", "state": "MA", "display_address": ["63 Glenallen St", "Winchendon, MA 01475"]}, "phone": "+19782970800", "display_phone": "(978) 297-0800", "distance": 1648.6570138997229}, {"id": "yHRurK18GoXezP5QuyI39w", "alias": "carriage-house-restaurant-winchendon", "name": "Carriage House Restaurant", "image_url": "", "is_closed": false, "url": "https://www.yelp.com/biz/carriage-house-restaurant-winchendon?adjust_creative=ywY5UnLZrNrRl2b93Ruy_g&utm_campaign=yelp_api_v3&utm_medium=api_v3_business_search&utm_source=ywY5UnLZrNrRl2b93Ruy_g", "review_count": 34, "categories": [{"alias": "seafood", "title": "Seafood"}, {"alias": "hotdogs", "title": "Fast Food"}, {"alias": "tradamerican", "title": "American (Traditional)"}], "rating": 3.0, "coordinates": {"latitude": 42.668126, "longitude": -72.014773}, "transactions": [], "price": "$$", "location": {"address1": "660 Spring St", "address2": "", "address3": "", "city": "Winchendon", "zip_code": "01475", "country": "US", "state": "MA", "display_address": ["660 Spring St", "Winchendon, MA 01475"]}, "phone": "+19782971089", "display_phone": "(978) 297-1089", "distance": 3043.6853207651225}, {"id": "6rcmMBO7GBGAB356Pw05IQ", "alias": "hometown-cafe-winchendon", "name": "Hometown Cafe", "image_url": "https://s3-media2.fl.yelpcdn.com/bphoto/dlyJrrhtQsq3izUyKGZsAg/o.jpg", "is_closed": false, "url": "https://www.yelp.com/biz/hometown-cafe-winchendon?adjust_creative=ywY5UnLZrNrRl2b93Ruy_g&utm_campaign=yelp_api_v3&utm_medium=api_v3_business_search&utm_source=ywY5UnLZrNrRl2b93Ruy_g", "review_count": 28, "categories": [{"alias": "cafes", "title": "Cafes"}, {"alias": "breakfast_brunch", "title": "Breakfast & Brunch"}], "rating": 5.0, "coordinates": {"latitude": 42.6869202, "longitude": -72.0442123}, "transactions": [], "price": "$", "location": {"address1": "314 Central St", "address2": "", "address3": "", "city": "Winchendon", "zip_code": "01475", "country": "US", "state": "MA", "display_address": ["314 Central St", "Winchendon, MA 01475"]}, "phone": "+19782972233", "display_phone": "(978) 297-2233", "distance": 2790.8820758536103}, {"id": "wKX-Vhcx0bxLCFvoM-qy7A", "alias": "crusin-12-diner-winchendon-2", "name": "Crusin 12 Diner", "image_url": "https://s3-media2.fl.yelpcdn.com/bphoto/8bzCj-b9CgHL_Z3EQlkDMA/o.jpg", "is_closed": false, "url": "https://www.yelp.com/biz/crusin-12-diner-winchendon-2?adjust_creative=ywY5UnLZrNrRl2b93Ruy_g&utm_campaign=yelp_api_v3&utm_medium=api_v3_business_search&utm_source=ywY5UnLZrNrRl2b93Ruy_g", "review_count": 13, "categories": [{"alias": "diners", "title": "Diners"}], "rating": 4.0, "coordinates": {"latitude": 42.688899, "longitude": -72.057312}, "transactions": [], "price": "$", "location": {"address1": "241 School St", "address2": null, "address3": "", "city": "Winchendon", "zip_code": "01475", "country": "US", "state": "MA", "display_address": ["241 School St", "Winchendon, MA 01475"]}, "phone": "+19782972001", "display_phone": "(978) 297-2001", "distance": 3770.569896465349}, {"id": "y7uF47HIjx7uAPiXSiVEOQ", "alias": "christos-place-winchendon", "name": "Christo's Place", "image_url": "https://s3-media1.fl.yelpcdn.com/bphoto/eONDEM9lZv_mrtIPdkTx8w/o.jpg", "is_closed": false, "url": "https://www.yelp.com/biz/christos-place-winchendon?adjust_creative=ywY5UnLZrNrRl2b93Ruy_g&utm_campaign=yelp_api_v3&utm_medium=api_v3_business_search&utm_source=ywY5UnLZrNrRl2b93Ruy_g", "review_count": 10, "categories": [{"alias": "pizza", "title": "Pizza"}], "rating": 3.0, "coordinates": {"latitude": 42.681835, "longitude": -72.047646}, "transactions": [], "price": "$$", "location": {"address1": "51 Central St", "address2": "", "address3": "", "city": "Winchendon", "zip_code": "01475", "country": "US", "state": "MA", "display_address": ["51 Central St", "Winchendon, MA 01475"]}, "phone": "+19782971142", "display_phone": "(978) 297-1142", "distance": 3273.605576941091}, {"id": "InO-YBiVrA6sBTU0nwzKlg", "alias": "zoes-restaurant-winchendon", "name": "Zoe's Restaurant", "image_url": "https://s3-media3.fl.yelpcdn.com/bphoto/w7KLHPgrEAbKwf9akJ8wtw/o.jpg", "is_closed": false, "url": "https://www.yelp.com/biz/zoes-restaurant-winchendon?adjust_creative=ywY5UnLZrNrRl2b93Ruy_g&utm_campaign=yelp_api_v3&utm_medium=api_v3_business_search&utm_source=ywY5UnLZrNrRl2b93Ruy_g", "review_count": 12, "categories": [{"alias": "pizza", "title": "Pizza"}], "rating": 3.0, "coordinates": {"latitude": 42.67668833, "longitude": -72.02859667}, "transactions": [], "location": {"address1": "435 Spring St", "address2": "", "address3": "", "city": "Winchendon", "zip_code": "01475", "country": "US", "state": "MA", "display_address": ["435 Spring St", "Winchendon, MA 01475"]}, "phone": "", "display_phone": "", "distance": 2479.844764244879}, {"id": "ZotvCkZnaImGJUyIEBX4Mw", "alias": "gabbys-pizza-winchendon-2", "name": "Gabby's Pizza", "image_url": "https://s3-media4.fl.yelpcdn.com/bphoto/eb75nQNfktU1Fzfdz6ya4g/o.jpg", "is_closed": false, "url": "https://www.yelp.com/biz/gabbys-pizza-winchendon-2?adjust_creative=ywY5UnLZrNrRl2b93Ruy_g&utm_campaign=yelp_api_v3&utm_medium=api_v3_business_search&utm_source=ywY5UnLZrNrRl2b93Ruy_g", "review_count": 21, "categories": [{"alias": "pizza", "title": "Pizza"}], "rating": 4.0, "coordinates": {"latitude": 42.6858862, "longitude": -72.0447741}, "transactions": [], "price": "$", "location": {"address1": "255 Central St", "address2": "", "address3": "", "city": "Winchendon", "zip_code": "01475", "country": "US", "state": "MA", "display_address": ["255 Central St", "Winchendon, MA 01475"]}, "phone": "+19782973909", "display_phone": "(978) 297-3909", "distance": 2872.1103206371217}, {"id": "SB9nvFYt5w_dBqmblN9diQ", "alias": "c-and-s-pizza-of-winchendon-winchendon", "name": "C & S Pizza of Winchendon", "image_url": "https://s3-media2.fl.yelpcdn.com/bphoto/amwciQINWANoDPgIgLwlEw/o.jpg", "is_closed": false, "url": "https://www.yelp.com/biz/c-and-s-pizza-of-winchendon-winchendon?adjust_creative=ywY5UnLZrNrRl2b93Ruy_g&utm_campaign=yelp_api_v3&utm_medium=api_v3_business_search&utm_source=ywY5UnLZrNrRl2b93Ruy_g", "review_count": 20, "categories": [{"alias": "pizza", "title": "Pizza"}], "rating": 4.0, "coordinates": {"latitude": 42.68464, "longitude": -72.04595}, "transactions": [], "price": "$$", "location": {"address1": "188 Central St", "address2": "", "address3": "", "city": "Winchendon", "zip_code": "01475", "country": "US", "state": "MA", "display_address": ["188 Central St", "Winchendon, MA 01475"]}, "phone": "+19782972202", "display_phone": "(978) 297-2202", "distance": 3020.0246078000596}, {"id": "M4pDTg4c5gUmYsvHXpTllw", "alias": "friends-garden-winchendon", "name": "Friend's Garden", "image_url": "https://s3-media2.fl.yelpcdn.com/bphoto/jKW6chQtwYeR_MQZkExGIA/o.jpg", "is_closed": false, "url": "https://www.yelp.com/biz/friends-garden-winchendon?adjust_creative=ywY5UnLZrNrRl2b93Ruy_g&utm_campaign=yelp_api_v3&utm_medium=api_v3_business_search&utm_source=ywY5UnLZrNrRl2b93Ruy_g", "review_count": 10, "categories": [{"alias": "chinese", "title": "Chinese"}], "rating": 3.0, "coordinates": {"latitude": 42.6819683, "longitude": -72.04811}, "transactions": [], "price": "$$", "location": {"address1": "56 Central St", "address2": "", "address3": "", "city": "Winchendon", "zip_code": "01475", "country": "US", "state": "MA", "display_address": ["56 Central St", "Winchendon, MA 01475"]}, "phone": "+19782972277", "display_phone": "(978) 297-2277", "distance": 3296.426355990539}, {"id": "-K-JE-XwyrytnEQlSqJwXg", "alias": "subway-winchendon-2", "name": "Subway", "image_url": "https://s3-media1.fl.yelpcdn.com/bphoto/zYt-V8vyTjY46dvcLXezdg/o.jpg", "is_closed": false, "url": "https://www.yelp.com/biz/subway-winchendon-2?adjust_creative=ywY5UnLZrNrRl2b93Ruy_g&utm_campaign=yelp_api_v3&utm_medium=api_v3_business_search&utm_source=ywY5UnLZrNrRl2b93Ruy_g", "review_count": 3, "categories": [{"alias": "sandwiches", "title": "Sandwiches"}], "rating": 3.5, "coordinates": {"latitude": 42.6810712435512, "longitude": -72.0476153215999}, "transactions": [], "price": "$", "location": {"address1": "29 Central St", "address2": "", "address3": "", "city": "Winchendon", "zip_code": "01475", "country": "US", "state": "MA", "display_address": ["29 Central St", "Winchendon, MA 01475"]}, "phone": "+19782970011", "display_phone": "(978) 297-0011", "distance": 3311.4946967831065}, {"id": "ZuiYzeLI0xkuaKtK344W7g", "alias": "mcdonalds-winchendon", "name": "McDonald's", "image_url": "https://s3-media3.fl.yelpcdn.com/bphoto/rvm1pTAhYvCSxMfjEkZ2Ig/o.jpg", "is_closed": false, "url": "https://www.yelp.com/biz/mcdonalds-winchendon?adjust_creative=ywY5UnLZrNrRl2b93Ruy_g&utm_campaign=yelp_api_v3&utm_medium=api_v3_business_search&utm_source=ywY5UnLZrNrRl2b93Ruy_g", "review_count": 10, "categories": [{"alias": "hotdogs", "title": "Fast Food"}, {"alias": "burgers", "title": "Burgers"}, {"alias": "coffee", "title": "Coffee & Tea"}], "rating": 3.0, "coordinates": {"latitude": 42.6788121982942, "longitude": -72.039158642292}, "transactions": [], "price": "$", "location": {"address1": "235 Spring St", "address2": "", "address3": "", "city": "Winchendon", "zip_code": "01475", "country": "US", "state": "MA", "display_address": ["235 Spring St", "Winchendon, MA 01475"]}, "phone": "+19782973528", "display_phone": "(978) 297-3528", "distance": 2880.6988655363634}]