[{"id": "n_qop5yfcZTk1gLfK-99NQ", "alias": "rapscallion-table-and-tap-acton-2", "name": "Rapscallion Table & Tap", "image_url": "https://s3-media2.fl.yelpcdn.com/bphoto/LLK_PzB0b0Miwyo6v-bCdg/o.jpg", "is_closed": false, "url": "https://www.yelp.com/biz/rapscallion-table-and-tap-acton-2?adjust_creative=HdhkN5EEH6lAqE3kwhsHEQ&utm_campaign=yelp_api_v3&utm_medium=api_v3_business_search&utm_source=HdhkN5EEH6lAqE3kwhsHEQ", "review_count": 302, "categories": [{"alias": "breweries", "title": "Breweries"}, {"alias": "pubs", "title": "Pubs"}, {"alias": "tradamerican", "title": "American (Traditional)"}], "rating": 4.0, "coordinates": {"latitude": 42.49191, "longitude": -71.41585}, "transactions": [], "price": "$$", "location": {"address1": "5 Strawberry Hill Rd", "address2": "", "address3": "", "city": "Acton", "zip_code": "01720", "country": "US", "state": "MA", "display_address": ["5 Strawberry Hill Rd", "Acton, MA 01720"]}, "phone": "+19784298161", "display_phone": "(978) 429-8161", "distance": 6923.603897993172}, {"id": "Njx_JiKQH6BsylGkBLR9_g", "alias": "fuse-bistro-westford", "name": "Fuse Bistro", "image_url": "https://s3-media3.fl.yelpcdn.com/bphoto/8wRQhgdZ8DaMimqW-Vyv_Q/o.jpg", "is_closed": false, "url": "https://www.yelp.com/biz/fuse-bistro-westford?adjust_creative=HdhkN5EEH6lAqE3kwhsHEQ&utm_campaign=yelp_api_v3&utm_medium=api_v3_business_search&utm_source=HdhkN5EEH6lAqE3kwhsHEQ", "review_count": 52, "categories": [{"alias": "newamerican", "title": "American (New)"}], "rating": 4.0, "coordinates": {"latitude": 42.55631, "longitude": -71.437977}, "transactions": ["delivery"], "price": "$$", "location": {"address1": "2 Powers Rd", "address2": "", "address3": null, "city": "Westford", "zip_code": "01886", "country": "US", "state": "MA", "display_address": ["2 Powers Rd", "Westford, MA 01886"]}, "phone": "+19783923636", "display_phone": "(978) 392-3636", "distance": 7496.063824197439}, {"id": "J94ix1CGaPR1yCjykc75Jg", "alias": "posto-bedford", "name": "Posto", "image_url": "https://s3-media2.fl.yelpcdn.com/bphoto/G9a8hkV3T9-7od9Q1qAUKw/o.jpg", "is_closed": false, "url": "https://www.yelp.com/biz/posto-bedford?adjust_creative=HdhkN5EEH6lAqE3kwhsHEQ&utm_campaign=yelp_api_v3&utm_medium=api_v3_business_search&utm_source=HdhkN5EEH6lAqE3kwhsHEQ", "review_count": 16, "categories": [{"alias": "italian", "title": "Italian"}, {"alias": "pizza", "title": "Pizza"}], "rating": 4.0, "coordinates": {"latitude": 42.490669, "longitude": -71.274866}, "transactions": [], "location": {"address1": "158 Great Rd", "address2": null, "address3": "", "city": "Bedford", "zip_code": "01730", "country": "US", "state": "MA", "display_address": ["158 Great Rd", "Bedford, MA 01730"]}, "phone": "+17812719100", "display_phone": "(781) 271-9100", "distance": 7909.832631995662}, {"id": "Lgscuo6rAZDvamRxX-PLuw", "alias": "seoul-kitchen-westford", "name": "Seoul Kitchen", "image_url": "https://s3-media2.fl.yelpcdn.com/bphoto/rPBhf6gr8M_o2q0BUphAZg/o.jpg", "is_closed": false, "url": "https://www.yelp.com/biz/seoul-kitchen-westford?adjust_creative=HdhkN5EEH6lAqE3kwhsHEQ&utm_campaign=yelp_api_v3&utm_medium=api_v3_business_search&utm_source=HdhkN5EEH6lAqE3kwhsHEQ", "review_count": 256, "categories": [{"alias": "korean", "title": "Korean"}, {"alias": "sushi", "title": "Sushi Bars"}, {"alias": "asianfusion", "title": "Asian Fusion"}], "rating": 4.0, "coordinates": {"latitude": 42.5693397521973, "longitude": -71.4185485839844}, "transactions": ["delivery"], "price": "$$", "location": {"address1": "142 Littleton Rd", "address2": "", "address3": "", "city": "Westford", "zip_code": "01886", "country": "US", "state": "MA", "display_address": ["142 Littleton Rd", "Westford, MA 01886"]}, "phone": "+19783990016", "display_phone": "(978) 399-0016", "distance": 6726.11800640216}, {"id": "4_JhsvIImVFbrUr5qN_jKw", "alias": "ferns-country-store-carlisle", "name": "Ferns Country Store", "image_url": "https://s3-media1.fl.yelpcdn.com/bphoto/vQd4bqthOCBv_GzXXbL5_Q/o.jpg", "is_closed": false, "url": "https://www.yelp.com/biz/ferns-country-store-carlisle?adjust_creative=HdhkN5EEH6lAqE3kwhsHEQ&utm_campaign=yelp_api_v3&utm_medium=api_v3_business_search&utm_source=HdhkN5EEH6lAqE3kwhsHEQ", "review_count": 67, "categories": [{"alias": "grocery", "title": "Grocery"}, {"alias": "delis", "title": "Delis"}, {"alias": "sandwiches", "title": "Sandwiches"}], "rating": 3.5, "coordinates": {"latitude": 42.5295369675744, "longitude": -71.3486747890895}, "transactions": ["delivery"], "price": "$", "location": {"address1": "8 Lowell Rd", "address2": null, "address3": "", "city": "Carlisle", "zip_code": "01741", "country": "US", "state": "MA", "display_address": ["8 Lowell Rd", "Carlisle, MA 01741"]}, "phone": "+19783690200", "display_phone": "(978) 369-0200", "distance": 500.1236981662632}, {"id": "a7tZ3pEWpAgzacgtew4Tcg", "alias": "genes-chinese-flatbread-cafe-westford", "name": "Gene's Chinese Flatbread Cafe", "image_url": "https://s3-media4.fl.yelpcdn.com/bphoto/c9Dmtu-1TSZpIl9G6IBsVg/o.jpg", "is_closed": false, "url": "https://www.yelp.com/biz/genes-chinese-flatbread-cafe-westford?adjust_creative=HdhkN5EEH6lAqE3kwhsHEQ&utm_campaign=yelp_api_v3&utm_medium=api_v3_business_search&utm_source=HdhkN5EEH6lAqE3kwhsHEQ", "review_count": 89, "categories": [{"alias": "chinese", "title": "Chinese"}, {"alias": "noodles", "title": "Noodles"}], "rating": 4.5, "coordinates": {"latitude": 42.5679893493652, "longitude": -71.4228134155273}, "transactions": ["delivery"], "price": "$", "location": {"address1": "175 Littleton Rd", "address2": "", "address3": null, "city": "Westford", "zip_code": "01886", "country": "US", "state": "MA", "display_address": ["175 Littleton Rd", "Westford, MA 01886"]}, "phone": "+19786923406", "display_phone": "(978) 692-3406", "distance": 6957.714475268919}, {"id": "Tte2DPv0D3tlrFx0pqYRLw", "alias": "girasol-central-american-food-chelmsford", "name": "Girasol Central American Food", "image_url": "https://s3-media3.fl.yelpcdn.com/bphoto/oKT9H7nWMH3i8XTMSaUfTg/o.jpg", "is_closed": false, "url": "https://www.yelp.com/biz/girasol-central-american-food-chelmsford?adjust_creative=HdhkN5EEH6lAqE3kwhsHEQ&utm_campaign=yelp_api_v3&utm_medium=api_v3_business_search&utm_source=HdhkN5EEH6lAqE3kwhsHEQ", "review_count": 26, "categories": [{"alias": "latin", "title": "Latin American"}], "rating": 4.5, "coordinates": {"latitude": 42.581695, "longitude": -71.391105}, "transactions": ["delivery"], "price": "$$", "location": {"address1": "313 Littleton Rd", "address2": "", "address3": "", "city": "Chelmsford", "zip_code": "01824", "country": "US", "state": "MA", "display_address": ["313 Littleton Rd", "Chelmsford, MA 01824"]}, "phone": "+19786410125", "display_phone": "(978) 641-0125", "distance": 6289.9492918236365}, {"id": "OKwVGtexA7A-ug0c5S45XA", "alias": "holy-grail-bar-and-restaurant-acton", "name": "Holy Grail Bar and Restaurant", "image_url": "https://s3-media4.fl.yelpcdn.com/bphoto/FP1yJ-fpE7TiMsR0kb813g/o.jpg", "is_closed": false, "url": "https://www.yelp.com/biz/holy-grail-bar-and-restaurant-acton?adjust_creative=HdhkN5EEH6lAqE3kwhsHEQ&utm_campaign=yelp_api_v3&utm_medium=api_v3_business_search&utm_source=HdhkN5EEH6lAqE3kwhsHEQ", "review_count": 26, "categories": [{"alias": "pubs", "title": "Pubs"}, {"alias": "tradamerican", "title": "American (Traditional)"}], "rating": 4.0, "coordinates": {"latitude": 42.485569, "longitude": -71.41708}, "transactions": [], "location": {"address1": "166 Great Rd", "address2": "", "address3": null, "city": "Acton", "zip_code": "01720", "country": "US", "state": "MA", "display_address": ["166 Great Rd", "Acton, MA 01720"]}, "phone": "+19782635500", "display_phone": "(978) 263-5500", "distance": 7483.576070918066}, {"id": "dGZQuZLb5rJQ6rFNbCSLnQ", "alias": "moonstones-chelmsford", "name": "Moonstones", "image_url": "https://s3-media2.fl.yelpcdn.com/bphoto/XB-gLrqPy226BVa6XOhRXw/o.jpg", "is_closed": false, "url": "https://www.yelp.com/biz/moonstones-chelmsford?adjust_creative=HdhkN5EEH6lAqE3kwhsHEQ&utm_campaign=yelp_api_v3&utm_medium=api_v3_business_search&utm_source=HdhkN5EEH6lAqE3kwhsHEQ", "review_count": 419, "categories": [{"alias": "raw_food", "title": "Live/Raw Food"}, {"alias": "tapas", "title": "Tapas Bars"}, {"alias": "cocktailbars", "title": "Cocktail Bars"}], "rating": 4.0, "coordinates": {"latitude": 42.6083, "longitude": -71.3407}, "transactions": ["pickup", "delivery"], "price": "$$", "location": {"address1": "185 Chelmsford St", "address2": "", "address3": "", "city": "Chelmsford", "zip_code": "01824", "country": "US", "state": "MA", "display_address": ["185 Chelmsford St", "Chelmsford, MA 01824"]}, "phone": "+19782567777", "display_phone": "(978) 256-7777", "distance": 8253.549793085955}, {"id": "0w07T1zS3Nmoj7ovnM1vqw", "alias": "herradura-vieja-chelmsford-2", "name": "Herradura Vieja", "image_url": "https://s3-media4.fl.yelpcdn.com/bphoto/TapHqF7YZqwUFd26lXuYYg/o.jpg", "is_closed": false, "url": "https://www.yelp.com/biz/herradura-vieja-chelmsford-2?adjust_creative=HdhkN5EEH6lAqE3kwhsHEQ&utm_campaign=yelp_api_v3&utm_medium=api_v3_business_search&utm_source=HdhkN5EEH6lAqE3kwhsHEQ", "review_count": 101, "categories": [{"alias": "mexican", "title": "Mexican"}], "rating": 4.0, "coordinates": {"latitude": 42.59392, "longitude": -71.34935}, "transactions": ["pickup", "delivery"], "price": "$$", "location": {"address1": "7 Summer St", "address2": "", "address3": null, "city": "Chelmsford", "zip_code": "01824", "country": "US", "state": "MA", "display_address": ["7 Summer St", "Chelmsford, MA 01824"]}, "phone": "+19784553954", "display_phone": "(978) 455-3954", "distance": 6748.615707113106}, {"id": "_TlGhXKPH5lAE2sP7Nba7A", "alias": "evviva-trattoria-westford", "name": "Evviva Trattoria", "image_url": "https://s3-media3.fl.yelpcdn.com/bphoto/pP8Aa9-2cHLwKRNZ2xBR7w/o.jpg", "is_closed": false, "url": "https://www.yelp.com/biz/evviva-trattoria-westford?adjust_creative=HdhkN5EEH6lAqE3kwhsHEQ&utm_campaign=yelp_api_v3&utm_medium=api_v3_business_search&utm_source=HdhkN5EEH6lAqE3kwhsHEQ", "review_count": 310, "categories": [{"alias": "italian", "title": "Italian"}, {"alias": "pizza", "title": "Pizza"}, {"alias": "cocktailbars", "title": "Cocktail Bars"}], "rating": 4.0, "coordinates": {"latitude": 42.5660302344765, "longitude": -71.4269551946463}, "transactions": ["delivery"], "price": "$$", "location": {"address1": "7 Cornerstone Sq", "address2": "", "address3": "", "city": "Westford", "zip_code": "01886", "country": "US", "state": "MA", "display_address": ["7 Cornerstone Sq", "Westford, MA 01886"]}, "phone": "+19786929050", "display_phone": "(978) 692-9050", "distance": 7139.2823315320975}, {"id": "5-8MQFc5cYPz-XyDn8c-hA", "alias": "fishbones-chelmsford", "name": "Fishbones", "image_url": "https://s3-media3.fl.yelpcdn.com/bphoto/GUIz1NYWlHN9wFknLWsZ2Q/o.jpg", "is_closed": false, "url": "https://www.yelp.com/biz/fishbones-chelmsford?adjust_creative=HdhkN5EEH6lAqE3kwhsHEQ&utm_campaign=yelp_api_v3&utm_medium=api_v3_business_search&utm_source=HdhkN5EEH6lAqE3kwhsHEQ", "review_count": 485, "categories": [{"alias": "seafood", "title": "Seafood"}], "rating": 4.0, "coordinates": {"latitude": 42.595965, "longitude": -71.351788}, "transactions": ["delivery"], "price": "$$", "location": {"address1": "34 Central Sq", "address2": "", "address3": "", "city": "Chelmsford", "zip_code": "01824", "country": "US", "state": "MA", "display_address": ["34 Central Sq", "Chelmsford, MA 01824"]}, "phone": "+19782500101", "display_phone": "(978) 250-0101", "distance": 6992.040974204875}, {"id": "dVUinhjpeVLEU-Uzd8JV3Q", "alias": "beijing-tokyo-acton-5", "name": "Beijing Tokyo", "image_url": "https://s3-media2.fl.yelpcdn.com/bphoto/y99WW4gqEmkiEt57XVGdSA/o.jpg", "is_closed": false, "url": "https://www.yelp.com/biz/beijing-tokyo-acton-5?adjust_creative=HdhkN5EEH6lAqE3kwhsHEQ&utm_campaign=yelp_api_v3&utm_medium=api_v3_business_search&utm_source=HdhkN5EEH6lAqE3kwhsHEQ", "review_count": 53, "categories": [{"alias": "chinese", "title": "Chinese"}, {"alias": "japanese", "title": "Japanese"}, {"alias": "bars", "title": "Bars"}], "rating": 4.0, "coordinates": {"latitude": 42.5224910880023, "longitude": -71.4315375519852}, "transactions": [], "location": {"address1": "103 Nagog Park", "address2": "", "address3": null, "city": "Acton", "zip_code": "01720", "country": "US", "state": "MA", "display_address": ["103 Nagog Park", "Acton, MA 01720"]}, "phone": "+19784298989", "display_phone": "(978) 429-8989", "distance": 6589.075866334234}, {"id": "taacolR488haMfXIrtwSEw", "alias": "chelmsford-pizza-chelmsford", "name": "Chelmsford Pizza", "image_url": "https://s3-media1.fl.yelpcdn.com/bphoto/7mL4vT8JgEOnzHWCS7YRHw/o.jpg", "is_closed": false, "url": "https://www.yelp.com/biz/chelmsford-pizza-chelmsford?adjust_creative=HdhkN5EEH6lAqE3kwhsHEQ&utm_campaign=yelp_api_v3&utm_medium=api_v3_business_search&utm_source=HdhkN5EEH6lAqE3kwhsHEQ", "review_count": 14, "categories": [{"alias": "pizza", "title": "Pizza"}], "rating": 4.5, "coordinates": {"latitude": 42.568126, "longitude": -71.350414}, "transactions": ["delivery"], "location": {"address1": "170 Concord Rd", "address2": "", "address3": null, "city": "Chelmsford", "zip_code": "01824", "country": "US", "state": "MA", "display_address": ["170 Concord Rd", "Chelmsford, MA 01824"]}, "phone": "+19784557230", "display_phone": "(978) 455-7230", "distance": 3897.4094988742454}, {"id": "v7SeEO1M54Gj3qwiBadwNg", "alias": "fiorellas-cucina-concord", "name": "Fiorella's Cucina", "image_url": "https://s3-media4.fl.yelpcdn.com/bphoto/SUD9twt5MbluEFpM6bNtJA/o.jpg", "is_closed": false, "url": "https://www.yelp.com/biz/fiorellas-cucina-concord?adjust_creative=HdhkN5EEH6lAqE3kwhsHEQ&utm_campaign=yelp_api_v3&utm_medium=api_v3_business_search&utm_source=HdhkN5EEH6lAqE3kwhsHEQ", "review_count": 77, "categories": [{"alias": "italian", "title": "Italian"}, {"alias": "pizza", "title": "Pizza"}], "rating": 3.5, "coordinates": {"latitude": 42.459156, "longitude": -71.350138}, "transactions": ["restaurant_reservation"], "price": "$$", "location": {"address1": "24 Walden St", "address2": "", "address3": null, "city": "Concord", "zip_code": "01742", "country": "US", "state": "MA", "display_address": ["24 Walden St", "Concord, MA 01742"]}, "phone": "+19783419999", "display_phone": "(978) 341-9999", "distance": 8222.7406459145}, {"id": "Qqc1Qei9AdwPIrUdeddTWw", "alias": "pita-chelmsford-2", "name": "Pita", "image_url": "https://s3-media3.fl.yelpcdn.com/bphoto/m_D0ZkUGCAeClX_zCzeOdQ/o.jpg", "is_closed": false, "url": "https://www.yelp.com/biz/pita-chelmsford-2?adjust_creative=HdhkN5EEH6lAqE3kwhsHEQ&utm_campaign=yelp_api_v3&utm_medium=api_v3_business_search&utm_source=HdhkN5EEH6lAqE3kwhsHEQ", "review_count": 143, "categories": [{"alias": "salad", "title": "Salad"}, {"alias": "greek", "title": "Greek"}, {"alias": "mediterranean", "title": "Mediterranean"}], "rating": 4.0, "coordinates": {"latitude": 42.5938774645329, "longitude": -71.3512370735407}, "transactions": ["delivery"], "price": "$$", "location": {"address1": "18 Boston Rd", "address2": "", "address3": null, "city": "Chelmsford", "zip_code": "01824", "country": "US", "state": "MA", "display_address": ["18 Boston Rd", "Chelmsford, MA 01824"]}, "phone": "+19784554092", "display_phone": "(978) 455-4092", "distance": 6760.423121690688}, {"id": "1l5FRrmWn0MsnMDf6KtZzA", "alias": "sichuan-gourmet-billerica", "name": "Sichuan Gourmet", "image_url": "https://s3-media2.fl.yelpcdn.com/bphoto/wxWn8BLsg7qVC0Ye2X3ELw/o.jpg", "is_closed": false, "url": "https://www.yelp.com/biz/sichuan-gourmet-billerica?adjust_creative=HdhkN5EEH6lAqE3kwhsHEQ&utm_campaign=yelp_api_v3&utm_medium=api_v3_business_search&utm_source=HdhkN5EEH6lAqE3kwhsHEQ", "review_count": 374, "categories": [{"alias": "szechuan", "title": "Szechuan"}], "rating": 4.5, "coordinates": {"latitude": 42.5539811, "longitude": -71.2646387}, "transactions": ["delivery"], "price": "$$", "location": {"address1": "502 Boston Rd", "address2": "", "address3": "", "city": "Billerica", "zip_code": "01821", "country": "US", "state": "MA", "display_address": ["502 Boston Rd", "Billerica, MA 01821"]}, "phone": "+19786707339", "display_phone": "(978) 670-7339", "distance": 7604.567422211936}, {"id": "8XI8MDIVaJZ-m-r9oGWvNw", "alias": "asian-gourmet-concord", "name": "Asian Gourmet", "image_url": "https://s3-media1.fl.yelpcdn.com/bphoto/HybezMamXhxgODGUrhhDHQ/o.jpg", "is_closed": false, "url": "https://www.yelp.com/biz/asian-gourmet-concord?adjust_creative=HdhkN5EEH6lAqE3kwhsHEQ&utm_campaign=yelp_api_v3&utm_medium=api_v3_business_search&utm_source=HdhkN5EEH6lAqE3kwhsHEQ", "review_count": 155, "categories": [{"alias": "chinese", "title": "Chinese"}, {"alias": "japanese", "title": "Japanese"}], "rating": 4.0, "coordinates": {"latitude": 42.4658299, "longitude": -71.3893}, "transactions": [], "price": "$$", "location": {"address1": "794 Elm St", "address2": "", "address3": "", "city": "Concord", "zip_code": "01742", "country": "US", "state": "MA", "display_address": ["794 Elm St", "Concord, MA 01742"]}, "phone": "+19783698114", "display_phone": "(978) 369-8114", "distance": 8094.830825359855}, {"id": "mcZb2oSI-0x1vlPysfN4LA", "alias": "the-red-raven-gastropub-acton", "name": "The Red Raven Gastropub", "image_url": "https://s3-media2.fl.yelpcdn.com/bphoto/PF6eP8GTy7n1DCdD9rklUQ/o.jpg", "is_closed": false, "url": "https://www.yelp.com/biz/the-red-raven-gastropub-acton?adjust_creative=HdhkN5EEH6lAqE3kwhsHEQ&utm_campaign=yelp_api_v3&utm_medium=api_v3_business_search&utm_source=HdhkN5EEH6lAqE3kwhsHEQ", "review_count": 356, "categories": [{"alias": "gastropubs", "title": "Gastropubs"}], "rating": 3.0, "coordinates": {"latitude": 42.5210909755955, "longitude": -71.432013687558}, "transactions": [], "price": "$$", "location": {"address1": "3 Nagog Park", "address2": null, "address3": "", "city": "Acton", "zip_code": "01720", "country": "US", "state": "MA", "display_address": ["3 Nagog Park", "Acton, MA 01720"]}, "phone": "+19782742231", "display_phone": "(978) 274-2231", "distance": 6656.976529234162}, {"id": "iT1BEwaFSmXlWN6Xh8R6XA", "alias": "red-heat-tavern-bedford", "name": "Red Heat Tavern", "image_url": "https://s3-media4.fl.yelpcdn.com/bphoto/PoVWTn5-dee7qBjcaN_C1A/o.jpg", "is_closed": false, "url": "https://www.yelp.com/biz/red-heat-tavern-bedford?adjust_creative=HdhkN5EEH6lAqE3kwhsHEQ&utm_campaign=yelp_api_v3&utm_medium=api_v3_business_search&utm_source=HdhkN5EEH6lAqE3kwhsHEQ", "review_count": 149, "categories": [{"alias": "tradamerican", "title": "American (Traditional)"}, {"alias": "vegetarian", "title": "Vegetarian"}, {"alias": "catering", "title": "Caterers"}], "rating": 3.5, "coordinates": {"latitude": 42.4905579, "longitude": -71.2754919}, "transactions": ["pickup", "delivery"], "price": "$$", "location": {"address1": "152 Great Rd", "address2": "", "address3": "", "city": "Bedford", "zip_code": "01730", "country": "US", "state": "MA", "display_address": ["152 Great Rd", "Bedford, MA 01730"]}, "phone": "+17815384330", "display_phone": "(781) 538-4330", "distance": 7938.2640313723305}, {"id": "Wo5dw0BUZsfjdTArdjIWQQ", "alias": "filhos-great-road-acton", "name": "Filhos Great Road", "image_url": "https://s3-media4.fl.yelpcdn.com/bphoto/u4B2hWfUgPdaDAUV7zwr1Q/o.jpg", "is_closed": false, "url": "https://www.yelp.com/biz/filhos-great-road-acton?adjust_creative=HdhkN5EEH6lAqE3kwhsHEQ&utm_campaign=yelp_api_v3&utm_medium=api_v3_business_search&utm_source=HdhkN5EEH6lAqE3kwhsHEQ", "review_count": 70, "categories": [{"alias": "pizza", "title": "Pizza"}, {"alias": "italian", "title": "Italian"}, {"alias": "bars", "title": "Bars"}], "rating": 4.0, "coordinates": {"latitude": 42.4763295831699, "longitude": -71.4099392294884}, "transactions": [], "price": "$$", "location": {"address1": "59 Great Rd", "address2": "", "address3": null, "city": "Acton", "zip_code": "01720", "country": "US", "state": "MA", "display_address": ["59 Great Rd", "Acton, MA 01720"]}, "phone": "+19782632222", "display_phone": "(978) 263-2222", "distance": 7877.669569939896}, {"id": "EhkS284RJA5QO6aAMRHPvQ", "alias": "110-grill-chelmsford-3", "name": "110 Grill", "image_url": "https://s3-media4.fl.yelpcdn.com/bphoto/X6iVeBnJZ3lRWb5UP0Z0SQ/o.jpg", "is_closed": false, "url": "https://www.yelp.com/biz/110-grill-chelmsford-3?adjust_creative=HdhkN5EEH6lAqE3kwhsHEQ&utm_campaign=yelp_api_v3&utm_medium=api_v3_business_search&utm_source=HdhkN5EEH6lAqE3kwhsHEQ", "review_count": 207, "categories": [{"alias": "bars", "title": "Bars"}, {"alias": "newamerican", "title": "American (New)"}], "rating": 4.0, "coordinates": {"latitude": 42.60305, "longitude": -71.34663}, "transactions": [], "price": "$$", "location": {"address1": "116 Chelmsford St", "address2": null, "address3": "", "city": "Chelmsford", "zip_code": "01824", "country": "US", "state": "MA", "display_address": ["116 Chelmsford St", "Chelmsford, MA 01824"]}, "phone": "+19782562777", "display_phone": "(978) 256-2777", "distance": 7786.440608200277}, {"id": "CDmBklDDaC6sYsBfsL4Teg", "alias": "holi-indian-restaurant-bedford", "name": "Holi Indian Restaurant", "image_url": "https://s3-media3.fl.yelpcdn.com/bphoto/mFbnVghu4_oudeEuv_Fp1Q/o.jpg", "is_closed": false, "url": "https://www.yelp.com/biz/holi-indian-restaurant-bedford?adjust_creative=HdhkN5EEH6lAqE3kwhsHEQ&utm_campaign=yelp_api_v3&utm_medium=api_v3_business_search&utm_source=HdhkN5EEH6lAqE3kwhsHEQ", "review_count": 185, "categories": [{"alias": "indpak", "title": "Indian"}], "rating": 4.5, "coordinates": {"latitude": 42.49415, "longitude": -71.28633}, "transactions": ["pickup", "delivery"], "price": "$$", "location": {"address1": "20 North Rd", "address2": null, "address3": "", "city": "Bedford", "zip_code": "01730", "country": "US", "state": "MA", "display_address": ["20 North Rd", "Bedford, MA 01730"]}, "phone": "+17815385906", "display_phone": "(781) 538-5906", "distance": 6960.400155112696}, {"id": "bE0BvOH5AyZ36XBNAdWYsA", "alias": "bawarchi-biryanis-chelmsford", "name": "Bawarchi Biryanis", "image_url": "https://s3-media1.fl.yelpcdn.com/bphoto/PM2wEeF4D5yqls2FppAHfQ/o.jpg", "is_closed": false, "url": "https://www.yelp.com/biz/bawarchi-biryanis-chelmsford?adjust_creative=HdhkN5EEH6lAqE3kwhsHEQ&utm_campaign=yelp_api_v3&utm_medium=api_v3_business_search&utm_source=HdhkN5EEH6lAqE3kwhsHEQ", "review_count": 18, "categories": [{"alias": "indpak", "title": "Indian"}, {"alias": "halal", "title": "Halal"}], "rating": 4.0, "coordinates": {"latitude": 42.582195, "longitude": -71.391123}, "transactions": ["pickup", "delivery"], "price": "$$", "location": {"address1": "313 Littleton Rd", "address2": null, "address3": "", "city": "Chelmsford", "zip_code": "01824", "country": "US", "state": "MA", "display_address": ["313 Littleton Rd", "Chelmsford, MA 01824"]}, "phone": "+19787702777", "display_phone": "(978) 770-2777", "distance": 6313.927292821167}, {"id": "pWPc2yNmmwbCQL6KivMjNw", "alias": "max-and-leos-chelmsford", "name": "Max and Leo's", "image_url": "https://s3-media3.fl.yelpcdn.com/bphoto/pKgl0lijuLoZazGU8k3PoA/o.jpg", "is_closed": false, "url": "https://www.yelp.com/biz/max-and-leos-chelmsford?adjust_creative=HdhkN5EEH6lAqE3kwhsHEQ&utm_campaign=yelp_api_v3&utm_medium=api_v3_business_search&utm_source=HdhkN5EEH6lAqE3kwhsHEQ", "review_count": 27, "categories": [{"alias": "pizza", "title": "Pizza"}, {"alias": "sandwiches", "title": "Sandwiches"}, {"alias": "bars", "title": "Bars"}], "rating": 3.5, "coordinates": {"latitude": 42.59395, "longitude": -71.35117483}, "transactions": [], "location": {"address1": "20 Boston Rd", "address2": "", "address3": null, "city": "Chelmsford", "zip_code": "01824", "country": "US", "state": "MA", "display_address": ["20 Boston Rd", "Chelmsford, MA 01824"]}, "phone": "+19786777253", "display_phone": "(978) 677-7253", "distance": 6767.606532685416}, {"id": "bRWadeHGVrIPvg4DL9FOqA", "alias": "the-shack-chelmsford-chelmsford", "name": "The Shack Chelmsford", "image_url": "https://s3-media3.fl.yelpcdn.com/bphoto/T4Ibcgz_DonXsC8mdSSPbw/o.jpg", "is_closed": false, "url": "https://www.yelp.com/biz/the-shack-chelmsford-chelmsford?adjust_creative=HdhkN5EEH6lAqE3kwhsHEQ&utm_campaign=yelp_api_v3&utm_medium=api_v3_business_search&utm_source=HdhkN5EEH6lAqE3kwhsHEQ", "review_count": 3, "categories": [{"alias": "coffee", "title": "Coffee & Tea"}, {"alias": "cupcakes", "title": "Cupcakes"}, {"alias": "hotdog", "title": "Hot Dogs"}], "rating": 5.0, "coordinates": {"latitude": 42.6058279, "longitude": -71.391082}, "transactions": [], "location": {"address1": "272 Old Westford Rd", "address2": "", "address3": null, "city": "Chelmsford", "zip_code": "01824", "country": "US", "state": "MA", "display_address": ["272 Old Westford Rd", "Chelmsford, MA 01824"]}, "phone": "", "display_phone": "", "distance": 8685.969097258378}, {"id": "KU-0YSQVWdhaofW2BPwLxg", "alias": "nobo-restaurant-chelmsford", "name": "Nobo Restaurant", "image_url": "https://s3-media2.fl.yelpcdn.com/bphoto/_Wi144JKB_c0jY4wpZ05Og/o.jpg", "is_closed": false, "url": "https://www.yelp.com/biz/nobo-restaurant-chelmsford?adjust_creative=HdhkN5EEH6lAqE3kwhsHEQ&utm_campaign=yelp_api_v3&utm_medium=api_v3_business_search&utm_source=HdhkN5EEH6lAqE3kwhsHEQ", "review_count": 141, "categories": [{"alias": "sushi", "title": "Sushi Bars"}, {"alias": "japanese", "title": "Japanese"}, {"alias": "noodles", "title": "Noodles"}], "rating": 4.0, "coordinates": {"latitude": 42.5947208096762, "longitude": -71.3497622693946}, "transactions": ["pickup", "delivery"], "price": "$$", "location": {"address1": "18 Boston Rd", "address2": "", "address3": "", "city": "Chelmsford", "zip_code": "01824", "country": "US", "state": "MA", "display_address": ["18 Boston Rd", "Chelmsford, MA 01824"]}, "phone": "+19787702499", "display_phone": "(978) 770-2499", "distance": 6856.966622348043}, {"id": "Os0kUBz0KIzPcuvDN68ipA", "alias": "atlantic-sea-grill-acton-2", "name": "Atlantic Sea Grill", "image_url": "https://s3-media1.fl.yelpcdn.com/bphoto/9jqrz0eNsB20mXtXengRPw/o.jpg", "is_closed": false, "url": "https://www.yelp.com/biz/atlantic-sea-grill-acton-2?adjust_creative=HdhkN5EEH6lAqE3kwhsHEQ&utm_campaign=yelp_api_v3&utm_medium=api_v3_business_search&utm_source=HdhkN5EEH6lAqE3kwhsHEQ", "review_count": 98, "categories": [{"alias": "seafood", "title": "Seafood"}, {"alias": "bars", "title": "Bars"}, {"alias": "seafoodmarkets", "title": "Seafood Markets"}], "rating": 4.0, "coordinates": {"latitude": 42.4778499, "longitude": -71.4109}, "transactions": [], "price": "$$$", "location": {"address1": "77 Great Rd", "address2": "", "address3": "", "city": "Acton", "zip_code": "01720", "country": "US", "state": "MA", "display_address": ["77 Great Rd", "Acton, MA 01720"]}, "phone": "+19782633162", "display_phone": "(978) 263-3162", "distance": 7789.3800233841475}, {"id": "Tf-pIBEe-pYs7N6E0TGb8Q", "alias": "hubbas-real-pit-bbq-and-catering-westford", "name": "Hubba's Real Pit BBQ & Catering", "image_url": "https://s3-media1.fl.yelpcdn.com/bphoto/wN8O68uZSUZn1YRbQd_uJA/o.jpg", "is_closed": false, "url": "https://www.yelp.com/biz/hubbas-real-pit-bbq-and-catering-westford?adjust_creative=HdhkN5EEH6lAqE3kwhsHEQ&utm_campaign=yelp_api_v3&utm_medium=api_v3_business_search&utm_source=HdhkN5EEH6lAqE3kwhsHEQ", "review_count": 32, "categories": [{"alias": "bbq", "title": "Barbeque"}, {"alias": "catering", "title": "Caterers"}, {"alias": "foodtrucks", "title": "Food Trucks"}], "rating": 4.0, "coordinates": {"latitude": 42.5700999, "longitude": -71.41628}, "transactions": ["delivery"], "price": "$$", "location": {"address1": "129 Littleton Rd", "address2": "", "address3": "", "city": "Westford", "zip_code": "01886", "country": "US", "state": "MA", "display_address": ["129 Littleton Rd", "Westford, MA 01886"]}, "phone": "+19787998346", "display_phone": "(978) 799-8346", "distance": 6643.700857644343}, {"id": "v0HL2bpOdX40taZXdOkhMw", "alias": "mr-macs-macaroni-and-cheese-westford-westford", "name": "Mr. Mac's Macaroni & Cheese - Westford", "image_url": "https://s3-media4.fl.yelpcdn.com/bphoto/MuCqj6tdJdl4UFPmjUKtuQ/o.jpg", "is_closed": false, "url": "https://www.yelp.com/biz/mr-macs-macaroni-and-cheese-westford-westford?adjust_creative=HdhkN5EEH6lAqE3kwhsHEQ&utm_campaign=yelp_api_v3&utm_medium=api_v3_business_search&utm_source=HdhkN5EEH6lAqE3kwhsHEQ", "review_count": 5, "categories": [{"alias": "tradamerican", "title": "American (Traditional)"}, {"alias": "comfortfood", "title": "Comfort Food"}, {"alias": "hotdogs", "title": "Fast Food"}], "rating": 4.0, "coordinates": {"latitude": 42.5681588746786, "longitude": -71.4225386428528}, "transactions": ["pickup", "delivery"], "location": {"address1": "175 Littleton Rd", "address2": null, "address3": "", "city": "Westford", "zip_code": "01886", "country": "US", "state": "MA", "display_address": ["175 Littleton Rd", "Westford, MA 01886"]}, "phone": "+19783929495", "display_phone": "(978) 392-9495", "distance": 6942.343748115116}, {"id": "FBX--Prm93_wcTa8KAUUCw", "alias": "purple-bamboo-restaurant-billerica", "name": "Purple Bamboo Restaurant", "image_url": "https://s3-media1.fl.yelpcdn.com/bphoto/heywEWstXA6UYnPg0AFNZA/o.jpg", "is_closed": false, "url": "https://www.yelp.com/biz/purple-bamboo-restaurant-billerica?adjust_creative=HdhkN5EEH6lAqE3kwhsHEQ&utm_campaign=yelp_api_v3&utm_medium=api_v3_business_search&utm_source=HdhkN5EEH6lAqE3kwhsHEQ", "review_count": 93, "categories": [{"alias": "chinese", "title": "Chinese"}, {"alias": "hotpot", "title": "Hot Pot"}], "rating": 4.0, "coordinates": {"latitude": 42.5762574240527, "longitude": -71.2836467474699}, "transactions": ["delivery"], "price": "$$", "location": {"address1": "265 Boston Rd", "address2": "", "address3": "", "city": "Billerica", "zip_code": "01862", "country": "US", "state": "MA", "display_address": ["265 Boston Rd", "Billerica, MA 01862"]}, "phone": "+19782948994", "display_phone": "(978) 294-8994", "distance": 7401.461463219925}, {"id": "YVxRFGmxzo1P3j_o6m7iJg", "alias": "le-lyonnais-acton", "name": "Le Lyonnais", "image_url": "https://s3-media1.fl.yelpcdn.com/bphoto/gu20DtgUXBiLjipC4MhFYg/o.jpg", "is_closed": false, "url": "https://www.yelp.com/biz/le-lyonnais-acton?adjust_creative=HdhkN5EEH6lAqE3kwhsHEQ&utm_campaign=yelp_api_v3&utm_medium=api_v3_business_search&utm_source=HdhkN5EEH6lAqE3kwhsHEQ", "review_count": 49, "categories": [{"alias": "french", "title": "French"}], "rating": 3.5, "coordinates": {"latitude": 42.509717, "longitude": -71.421318}, "transactions": [], "price": "$$$", "location": {"address1": "416 Great Rd", "address2": "", "address3": "Rte 2A", "city": "Acton", "zip_code": "01720", "country": "US", "state": "MA", "display_address": ["416 Great Rd", "Rte 2A", "Acton, MA 01720"]}, "phone": "+19782639068", "display_phone": "(978) 263-9068", "distance": 6215.296235458611}, {"id": "zGHik4SQUGR8iEAeEt28XQ", "alias": "saltbox-kitchen-concord-4", "name": "Saltbox Kitchen", "image_url": "https://s3-media3.fl.yelpcdn.com/bphoto/f3O98iMYwzF6hmD_4zcmBw/o.jpg", "is_closed": false, "url": "https://www.yelp.com/biz/saltbox-kitchen-concord-4?adjust_creative=HdhkN5EEH6lAqE3kwhsHEQ&utm_campaign=yelp_api_v3&utm_medium=api_v3_business_search&utm_source=HdhkN5EEH6lAqE3kwhsHEQ", "review_count": 98, "categories": [{"alias": "newamerican", "title": "American (New)"}, {"alias": "breweries", "title": "Breweries"}, {"alias": "pubs", "title": "Pubs"}], "rating": 3.5, "coordinates": {"latitude": 42.4572267093922, "longitude": -71.3951056710102}, "transactions": [], "price": "$$", "location": {"address1": "84 Commonwealth Ave", "address2": "", "address3": "", "city": "Concord", "zip_code": "01742", "country": "US", "state": "MA", "display_address": ["84 Commonwealth Ave", "Concord, MA 01742"]}, "phone": "+19782123585", "display_phone": "(978) 212-3585", "distance": 9132.178441107713}, {"id": "xmAaaZldwaJD0NJIwzwvsg", "alias": "rangoli-grill-westford", "name": "Rangoli Grill", "image_url": "https://s3-media2.fl.yelpcdn.com/bphoto/qNntlpqpIkCH3RbnILSgDQ/o.jpg", "is_closed": false, "url": "https://www.yelp.com/biz/rangoli-grill-westford?adjust_creative=HdhkN5EEH6lAqE3kwhsHEQ&utm_campaign=yelp_api_v3&utm_medium=api_v3_business_search&utm_source=HdhkN5EEH6lAqE3kwhsHEQ", "review_count": 68, "categories": [{"alias": "indpak", "title": "Indian"}], "rating": 4.0, "coordinates": {"latitude": 42.564871, "longitude": -71.427813}, "transactions": ["pickup", "delivery"], "price": "$", "location": {"address1": "8 Cornerstone Sq", "address2": "", "address3": "", "city": "Westford", "zip_code": "01886", "country": "US", "state": "MA", "display_address": ["8 Cornerstone Sq", "Westford, MA 01886"]}, "phone": "+19786928130", "display_phone": "(978) 692-8130", "distance": 7115.456534937039}, {"id": "jtX2ilfxvT5P0ix8kDiJrA", "alias": "the-hanger-cafe-lexington", "name": "The Hanger Cafe", "image_url": "https://s3-media4.fl.yelpcdn.com/bphoto/eYye4-fyEmA8ywNoGemwow/o.jpg", "is_closed": false, "url": "https://www.yelp.com/biz/the-hanger-cafe-lexington?adjust_creative=HdhkN5EEH6lAqE3kwhsHEQ&utm_campaign=yelp_api_v3&utm_medium=api_v3_business_search&utm_source=HdhkN5EEH6lAqE3kwhsHEQ", "review_count": 1, "categories": [{"alias": "cafes", "title": "Cafes"}], "rating": 5.0, "coordinates": {"latitude": 42.465748, "longitude": -71.264553}, "transactions": [], "location": {"address1": "103 Hartwell Ave", "address2": "", "address3": null, "city": "Lexington", "zip_code": "02421", "country": "US", "state": "MA", "display_address": ["103 Hartwell Ave", "Lexington, MA 02421"]}, "phone": "", "display_phone": "", "distance": 10390.404385383925}, {"id": "ahK_lCLqp3cV3ES-Z5REHg", "alias": "the-okipok\u00e9-westford-3", "name": "The Okipok\u00e9", "image_url": "https://s3-media1.fl.yelpcdn.com/bphoto/RjmXccYK0ELkP72NTNnQ1Q/o.jpg", "is_closed": false, "url": "https://www.yelp.com/biz/the-okipok%C3%A9-westford-3?adjust_creative=HdhkN5EEH6lAqE3kwhsHEQ&utm_campaign=yelp_api_v3&utm_medium=api_v3_business_search&utm_source=HdhkN5EEH6lAqE3kwhsHEQ", "review_count": 126, "categories": [{"alias": "japanese", "title": "Japanese"}, {"alias": "poke", "title": "Poke"}, {"alias": "salad", "title": "Salad"}], "rating": 4.5, "coordinates": {"latitude": 42.5649744, "longitude": -71.4278108}, "transactions": ["delivery"], "price": "$$", "location": {"address1": "8 Cornerstone Square", "address2": "Unit B", "address3": "", "city": "Westford", "zip_code": "01886", "country": "US", "state": "MA", "display_address": ["8 Cornerstone Square", "Unit B", "Westford, MA 01886"]}, "phone": "+19785776372", "display_phone": "(978) 577-6372", "distance": 7114.029626431637}, {"id": "6H_ALfCZhN-j84lHQcHn1g", "alias": "ginger-court-acton", "name": "Ginger Court", "image_url": "https://s3-media3.fl.yelpcdn.com/bphoto/HQLKRRYl8TA3VopKBOa0jA/o.jpg", "is_closed": false, "url": "https://www.yelp.com/biz/ginger-court-acton?adjust_creative=HdhkN5EEH6lAqE3kwhsHEQ&utm_campaign=yelp_api_v3&utm_medium=api_v3_business_search&utm_source=HdhkN5EEH6lAqE3kwhsHEQ", "review_count": 26, "categories": [{"alias": "seafood", "title": "Seafood"}, {"alias": "chinese", "title": "Chinese"}], "rating": 4.0, "coordinates": {"latitude": 42.502129, "longitude": -71.420804}, "transactions": [], "price": "$$", "location": {"address1": "344 Great Rd", "address2": "", "address3": null, "city": "Acton", "zip_code": "01720", "country": "US", "state": "MA", "display_address": ["344 Great Rd", "Acton, MA 01720"]}, "phone": "+19782643100", "display_phone": "(978) 264-3100", "distance": 6576.979086979256}, {"id": "8Pbb00BwbOLlaaSdNzRrag", "alias": "burtons-grill-and-bar-of-westford-westford", "name": "Burtons Grill & Bar of Westford", "image_url": "https://s3-media2.fl.yelpcdn.com/bphoto/5GC8uzO2NnDqC4Wwy2gOvg/o.jpg", "is_closed": false, "url": "https://www.yelp.com/biz/burtons-grill-and-bar-of-westford-westford?adjust_creative=HdhkN5EEH6lAqE3kwhsHEQ&utm_campaign=yelp_api_v3&utm_medium=api_v3_business_search&utm_source=HdhkN5EEH6lAqE3kwhsHEQ", "review_count": 250, "categories": [{"alias": "tradamerican", "title": "American (Traditional)"}, {"alias": "seafood", "title": "Seafood"}], "rating": 3.5, "coordinates": {"latitude": 42.567217886514, "longitude": -71.4254665374756}, "transactions": ["pickup", "delivery"], "price": "$$", "location": {"address1": "1 Cornerstone Sq", "address2": "", "address3": "", "city": "Westford", "zip_code": "01886", "country": "US", "state": "MA", "display_address": ["1 Cornerstone Sq", "Westford, MA 01886"]}, "phone": "+19786921220", "display_phone": "(978) 692-1220", "distance": 7085.47753687905}, {"id": "al2GwCG0p6f78VUcaVYUKg", "alias": "andiamo-restaurant-bar-chelmsford", "name": "Andiamo Restaurant + Bar", "image_url": "https://s3-media1.fl.yelpcdn.com/bphoto/BxTUKrvKe1RkDRlVM6dBpw/o.jpg", "is_closed": false, "url": "https://www.yelp.com/biz/andiamo-restaurant-bar-chelmsford?adjust_creative=HdhkN5EEH6lAqE3kwhsHEQ&utm_campaign=yelp_api_v3&utm_medium=api_v3_business_search&utm_source=HdhkN5EEH6lAqE3kwhsHEQ", "review_count": 118, "categories": [{"alias": "italian", "title": "Italian"}, {"alias": "tradamerican", "title": "American (Traditional)"}, {"alias": "bars", "title": "Bars"}], "rating": 3.5, "coordinates": {"latitude": 42.5939758, "longitude": -71.3511484}, "transactions": ["pickup", "delivery"], "price": "$$", "location": {"address1": "18 Boston Rd", "address2": "", "address3": null, "city": "Chelmsford", "zip_code": "01824", "country": "US", "state": "MA", "display_address": ["18 Boston Rd", "Chelmsford, MA 01824"]}, "phone": "+19787107218", "display_phone": "(978) 710-7218", "distance": 6838.284717174433}, {"id": "qo9VoTwxz_QdNHAazCKLZQ", "alias": "mangia-mangia-italian-kitchen-billerica", "name": "Mangia Mangia Italian Kitchen", "image_url": "https://s3-media2.fl.yelpcdn.com/bphoto/3j95aMjUnKS6FyvbPuyFXg/o.jpg", "is_closed": false, "url": "https://www.yelp.com/biz/mangia-mangia-italian-kitchen-billerica?adjust_creative=HdhkN5EEH6lAqE3kwhsHEQ&utm_campaign=yelp_api_v3&utm_medium=api_v3_business_search&utm_source=HdhkN5EEH6lAqE3kwhsHEQ", "review_count": 145, "categories": [{"alias": "pizza", "title": "Pizza"}, {"alias": "italian", "title": "Italian"}], "rating": 4.0, "coordinates": {"latitude": 42.5590744, "longitude": -71.2685746}, "transactions": ["delivery"], "price": "$$", "location": {"address1": "430 Boston Rd", "address2": "", "address3": "", "city": "Billerica", "zip_code": "01821", "country": "US", "state": "MA", "display_address": ["430 Boston Rd", "Billerica, MA 01821"]}, "phone": "+19786672697", "display_phone": "(978) 667-2697", "distance": 7456.848226817798}, {"id": "4xfqjOKIDuyJXChEEIUnfA", "alias": "karma-westford", "name": "KARMA", "image_url": "https://s3-media4.fl.yelpcdn.com/bphoto/h4vebcLJe7HSexUTMRYNUg/o.jpg", "is_closed": false, "url": "https://www.yelp.com/biz/karma-westford?adjust_creative=HdhkN5EEH6lAqE3kwhsHEQ&utm_campaign=yelp_api_v3&utm_medium=api_v3_business_search&utm_source=HdhkN5EEH6lAqE3kwhsHEQ", "review_count": 189, "categories": [{"alias": "asianfusion", "title": "Asian Fusion"}, {"alias": "chinese", "title": "Chinese"}, {"alias": "japanese", "title": "Japanese"}], "rating": 3.5, "coordinates": {"latitude": 42.56655, "longitude": -71.42205}, "transactions": ["delivery"], "price": "$$", "location": {"address1": "174 Littleton Rd", "address2": "", "address3": "", "city": "Westford", "zip_code": "01886", "country": "US", "state": "MA", "display_address": ["174 Littleton Rd", "Westford, MA 01886"]}, "phone": "+19786926920", "display_phone": "(978) 692-6920", "distance": 6799.207435461468}, {"id": "QjrLrpB73pnFIk2VEEgeFQ", "alias": "virsa-de-punjab-bedford", "name": "Virsa De Punjab", "image_url": "https://s3-media1.fl.yelpcdn.com/bphoto/duxbR9xpILMoWA98uaZZMg/o.jpg", "is_closed": false, "url": "https://www.yelp.com/biz/virsa-de-punjab-bedford?adjust_creative=HdhkN5EEH6lAqE3kwhsHEQ&utm_campaign=yelp_api_v3&utm_medium=api_v3_business_search&utm_source=HdhkN5EEH6lAqE3kwhsHEQ", "review_count": 186, "categories": [{"alias": "indpak", "title": "Indian"}, {"alias": "buffets", "title": "Buffets"}], "rating": 4.0, "coordinates": {"latitude": 42.48466068905, "longitude": -71.2607570520354}, "transactions": ["pickup", "delivery"], "price": "$$", "location": {"address1": "347 Great Rd", "address2": null, "address3": "", "city": "Bedford", "zip_code": "01730", "country": "US", "state": "MA", "display_address": ["347 Great Rd", "Bedford, MA 01730"]}, "phone": "+17815386136", "display_phone": "(781) 538-6136", "distance": 9244.12238061703}, {"id": "WLUtB6dUhP616jGFXA3YKA", "alias": "trails-end-cafe-concord", "name": "Trail's End Cafe", "image_url": "https://s3-media2.fl.yelpcdn.com/bphoto/HeEZFX34T4hQ_8KJAkfZsA/o.jpg", "is_closed": false, "url": "https://www.yelp.com/biz/trails-end-cafe-concord?adjust_creative=HdhkN5EEH6lAqE3kwhsHEQ&utm_campaign=yelp_api_v3&utm_medium=api_v3_business_search&utm_source=HdhkN5EEH6lAqE3kwhsHEQ", "review_count": 191, "categories": [{"alias": "cafes", "title": "Cafes"}], "rating": 3.5, "coordinates": {"latitude": 42.4633244898799, "longitude": -71.3525062394678}, "transactions": [], "price": "$$", "location": {"address1": "97 Lowell Rd", "address2": "", "address3": "", "city": "Concord", "zip_code": "01742", "country": "US", "state": "MA", "display_address": ["97 Lowell Rd", "Concord, MA 01742"]}, "phone": "+19786106633", "display_phone": "(978) 610-6633", "distance": 7757.091733998691}, {"id": "LE-yxmrMI4b_-vIyYlXN2Q", "alias": "thai-jasmine-chelmsford", "name": "Thai Jasmine", "image_url": "https://s3-media1.fl.yelpcdn.com/bphoto/BpLlRHvPwuObx0pw1bWMCg/o.jpg", "is_closed": false, "url": "https://www.yelp.com/biz/thai-jasmine-chelmsford?adjust_creative=HdhkN5EEH6lAqE3kwhsHEQ&utm_campaign=yelp_api_v3&utm_medium=api_v3_business_search&utm_source=HdhkN5EEH6lAqE3kwhsHEQ", "review_count": 99, "categories": [{"alias": "thai", "title": "Thai"}], "rating": 3.5, "coordinates": {"latitude": 42.5816955566406, "longitude": -71.3911056518555}, "transactions": ["pickup"], "price": "$$", "location": {"address1": "313 Littleton Rd", "address2": "", "address3": "", "city": "Chelmsford", "zip_code": "01824", "country": "US", "state": "MA", "display_address": ["313 Littleton Rd", "Chelmsford, MA 01824"]}, "phone": "+19782509509", "display_phone": "(978) 250-9509", "distance": 6289.9492918236365}, {"id": "qY1OhJ-Csd5Iox5h54JHyA", "alias": "ginger-japanese-cuisine-bedford", "name": "Ginger Japanese Cuisine", "image_url": "https://s3-media2.fl.yelpcdn.com/bphoto/9JyNfx8KBps1Y5zeBiPJKQ/o.jpg", "is_closed": false, "url": "https://www.yelp.com/biz/ginger-japanese-cuisine-bedford?adjust_creative=HdhkN5EEH6lAqE3kwhsHEQ&utm_campaign=yelp_api_v3&utm_medium=api_v3_business_search&utm_source=HdhkN5EEH6lAqE3kwhsHEQ", "review_count": 134, "categories": [{"alias": "japanese", "title": "Japanese"}, {"alias": "sushi", "title": "Sushi Bars"}], "rating": 4.0, "coordinates": {"latitude": 42.4922241532921, "longitude": -71.279456304595}, "transactions": ["delivery", "pickup"], "price": "$$", "location": {"address1": "88 Great Rd", "address2": "", "address3": "", "city": "Bedford", "zip_code": "01730", "country": "US", "state": "MA", "display_address": ["88 Great Rd", "Bedford, MA 01730"]}, "phone": "+17812719988", "display_phone": "(781) 271-9988", "distance": 7510.968185191672}, {"id": "NiZ71XJcKTk2d4HgMlJ_zQ", "alias": "mayuri-indian-cuisine-acton-3", "name": "Mayuri Indian Cuisine", "image_url": "https://s3-media4.fl.yelpcdn.com/bphoto/T5YlIdUqtsghaSD-t5Rm9A/o.jpg", "is_closed": false, "url": "https://www.yelp.com/biz/mayuri-indian-cuisine-acton-3?adjust_creative=HdhkN5EEH6lAqE3kwhsHEQ&utm_campaign=yelp_api_v3&utm_medium=api_v3_business_search&utm_source=HdhkN5EEH6lAqE3kwhsHEQ", "review_count": 83, "categories": [{"alias": "indpak", "title": "Indian"}], "rating": 4.0, "coordinates": {"latitude": 42.523, "longitude": -71.432142}, "transactions": ["pickup"], "price": "$$", "location": {"address1": "5 Nagog Park", "address2": "Ste 508", "address3": "Nagog Mall", "city": "Acton", "zip_code": "01720", "country": "US", "state": "MA", "display_address": ["5 Nagog Park", "Ste 508", "Nagog Mall", "Acton, MA 01720"]}, "phone": "+19782742323", "display_phone": "(978) 274-2323", "distance": 6627.97965077039}, {"id": "mbZ05PWBjga4XZnzZxpaFw", "alias": "papa-razzi-concord-concord-2", "name": "Papa Razzi- Concord", "image_url": "https://s3-media3.fl.yelpcdn.com/bphoto/KQ1MgKXcisKVygda5IqWpg/o.jpg", "is_closed": false, "url": "https://www.yelp.com/biz/papa-razzi-concord-concord-2?adjust_creative=HdhkN5EEH6lAqE3kwhsHEQ&utm_campaign=yelp_api_v3&utm_medium=api_v3_business_search&utm_source=HdhkN5EEH6lAqE3kwhsHEQ", "review_count": 165, "categories": [{"alias": "italian", "title": "Italian"}, {"alias": "desserts", "title": "Desserts"}, {"alias": "pizza", "title": "Pizza"}], "rating": 3.5, "coordinates": {"latitude": 42.4658299, "longitude": -71.38799}, "transactions": [], "price": "$$", "location": {"address1": "768 Elm St", "address2": "", "address3": "", "city": "Concord", "zip_code": "01742", "country": "US", "state": "MA", "display_address": ["768 Elm St", "Concord, MA 01742"]}, "phone": "+19783710030", "display_phone": "(978) 371-0030", "distance": 8075.750489847106}, {"id": "bi5rgh0pyLYi3c0pAwCNKg", "alias": "amici-trattoria-chelmsford", "name": "Amici Trattoria", "image_url": "https://s3-media4.fl.yelpcdn.com/bphoto/a3PN4dXoRnLvKaAF-UXffA/o.jpg", "is_closed": false, "url": "https://www.yelp.com/biz/amici-trattoria-chelmsford?adjust_creative=HdhkN5EEH6lAqE3kwhsHEQ&utm_campaign=yelp_api_v3&utm_medium=api_v3_business_search&utm_source=HdhkN5EEH6lAqE3kwhsHEQ", "review_count": 70, "categories": [{"alias": "italian", "title": "Italian"}, {"alias": "pizza", "title": "Pizza"}], "rating": 4.0, "coordinates": {"latitude": 42.593547, "longitude": -71.349221}, "transactions": ["delivery"], "price": "$$", "location": {"address1": "7 Summer St", "address2": "", "address3": "", "city": "Chelmsford", "zip_code": "01824", "country": "US", "state": "MA", "display_address": ["7 Summer St", "Chelmsford, MA 01824"]}, "phone": "+19782449154", "display_phone": "(978) 244-9154", "distance": 6728.095261333752}, {"id": "eC2V7rxoCANbm0PnrtfZQQ", "alias": "livingstones-seafood-and-deli-billerica", "name": "Livingstone's Seafood & Deli", "image_url": "https://s3-media4.fl.yelpcdn.com/bphoto/M12iwGaxzDir5FqvblyB5g/o.jpg", "is_closed": false, "url": "https://www.yelp.com/biz/livingstones-seafood-and-deli-billerica?adjust_creative=HdhkN5EEH6lAqE3kwhsHEQ&utm_campaign=yelp_api_v3&utm_medium=api_v3_business_search&utm_source=HdhkN5EEH6lAqE3kwhsHEQ", "review_count": 66, "categories": [{"alias": "seafood", "title": "Seafood"}, {"alias": "delis", "title": "Delis"}, {"alias": "sandwiches", "title": "Sandwiches"}], "rating": 4.5, "coordinates": {"latitude": 42.575997, "longitude": -71.283352}, "transactions": ["delivery"], "price": "$$", "location": {"address1": "265 Boston Rd", "address2": "", "address3": "", "city": "Billerica", "zip_code": "01862", "country": "US", "state": "MA", "display_address": ["265 Boston Rd", "Billerica, MA 01862"]}, "phone": "+19783621247", "display_phone": "(978) 362-1247", "distance": 7401.16098724915}, {"id": "XR6QHyaa1zPAsTo-Pznl_g", "alias": "bamboo-fine-asian-cuisine-westford", "name": "Bamboo Fine Asian Cuisine", "image_url": "https://s3-media3.fl.yelpcdn.com/bphoto/C4UZJg_I4RHNY2PXHseTug/o.jpg", "is_closed": false, "url": "https://www.yelp.com/biz/bamboo-fine-asian-cuisine-westford?adjust_creative=HdhkN5EEH6lAqE3kwhsHEQ&utm_campaign=yelp_api_v3&utm_medium=api_v3_business_search&utm_source=HdhkN5EEH6lAqE3kwhsHEQ", "review_count": 216, "categories": [{"alias": "sushi", "title": "Sushi Bars"}, {"alias": "asianfusion", "title": "Asian Fusion"}], "rating": 3.5, "coordinates": {"latitude": 42.55985, "longitude": -71.43074}, "transactions": ["delivery"], "price": "$$", "location": {"address1": "1 Lan Dr", "address2": "", "address3": "", "city": "Westford", "zip_code": "01886", "country": "US", "state": "MA", "display_address": ["1 Lan Dr", "Westford, MA 01886"]}, "phone": "+19785899666", "display_phone": "(978) 589-9666", "distance": 7182.846439470156}, {"id": "t_p1nX2bz6aT6RfXgqOlvQ", "alias": "madras-grill-chelmsford", "name": "Madras Grill", "image_url": "https://s3-media4.fl.yelpcdn.com/bphoto/TDf6ZKEVRRSp1UIpar4Faw/o.jpg", "is_closed": false, "url": "https://www.yelp.com/biz/madras-grill-chelmsford?adjust_creative=HdhkN5EEH6lAqE3kwhsHEQ&utm_campaign=yelp_api_v3&utm_medium=api_v3_business_search&utm_source=HdhkN5EEH6lAqE3kwhsHEQ", "review_count": 140, "categories": [{"alias": "indpak", "title": "Indian"}, {"alias": "buffets", "title": "Buffets"}], "rating": 4.0, "coordinates": {"latitude": 42.594028, "longitude": -71.347428}, "transactions": ["pickup", "delivery"], "price": "$$", "location": {"address1": "7 Summer St", "address2": "", "address3": "", "city": "Chelmsford", "zip_code": "01824", "country": "US", "state": "MA", "display_address": ["7 Summer St", "Chelmsford, MA 01824"]}, "phone": "+19783305133", "display_phone": "(978) 330-5133", "distance": 6788.806688536867}, {"id": "AnOv0DnCJIgdcFfiq2LVEA", "alias": "rufinas-town-of-chelmsford", "name": "Rufina's", "image_url": "https://s3-media2.fl.yelpcdn.com/bphoto/AGUKkqxXMECvo3IbCA6G0w/o.jpg", "is_closed": false, "url": "https://www.yelp.com/biz/rufinas-town-of-chelmsford?adjust_creative=HdhkN5EEH6lAqE3kwhsHEQ&utm_campaign=yelp_api_v3&utm_medium=api_v3_business_search&utm_source=HdhkN5EEH6lAqE3kwhsHEQ", "review_count": 46, "categories": [{"alias": "italian", "title": "Italian"}], "rating": 3.5, "coordinates": {"latitude": 42.5682932138443, "longitude": -71.3509608060122}, "transactions": ["delivery"], "price": "$$", "location": {"address1": "170 Concord Rd", "address2": null, "address3": "", "city": "Town of Chelmsford", "zip_code": "01824", "country": "US", "state": "MA", "display_address": ["170 Concord Rd", "Town of Chelmsford, MA 01824"]}, "phone": "+19782561250", "display_phone": "(978) 256-1250", "distance": 3899.7207663642193}, {"id": "REh9lfY6bIcfPGXOCNXxEA", "alias": "pizza-place-chelmsford", "name": "Pizza Place", "image_url": "https://s3-media1.fl.yelpcdn.com/bphoto/BkZ4jKRqQg0jMMnBJZOQJQ/o.jpg", "is_closed": false, "url": "https://www.yelp.com/biz/pizza-place-chelmsford?adjust_creative=HdhkN5EEH6lAqE3kwhsHEQ&utm_campaign=yelp_api_v3&utm_medium=api_v3_business_search&utm_source=HdhkN5EEH6lAqE3kwhsHEQ", "review_count": 27, "categories": [{"alias": "pizza", "title": "Pizza"}], "rating": 4.5, "coordinates": {"latitude": 42.57944, "longitude": -71.33972}, "transactions": ["delivery"], "price": "$", "location": {"address1": "210 Boston Rd", "address2": "", "address3": "", "city": "Chelmsford", "zip_code": "01824", "country": "US", "state": "MA", "display_address": ["210 Boston Rd", "Chelmsford, MA 01824"]}, "phone": "+19782562721", "display_phone": "(978) 256-2721", "distance": 5251.601676706566}, {"id": "XYyikWnhGsbNjiwRSTy8Dw", "alias": "the-centre-deli-chelmsford", "name": "The Centre Deli", "image_url": "https://s3-media4.fl.yelpcdn.com/bphoto/oBO8mxRke0-LjKhZeYiEAg/o.jpg", "is_closed": false, "url": "https://www.yelp.com/biz/the-centre-deli-chelmsford?adjust_creative=HdhkN5EEH6lAqE3kwhsHEQ&utm_campaign=yelp_api_v3&utm_medium=api_v3_business_search&utm_source=HdhkN5EEH6lAqE3kwhsHEQ", "review_count": 47, "categories": [{"alias": "delis", "title": "Delis"}], "rating": 4.0, "coordinates": {"latitude": 42.593739, "longitude": -71.348864}, "transactions": ["pickup", "delivery"], "price": "$", "location": {"address1": "7 Summer St", "address2": "Unit 4", "address3": "", "city": "Chelmsford", "zip_code": "01824", "country": "US", "state": "MA", "display_address": ["7 Summer St", "Unit 4", "Chelmsford, MA 01824"]}, "phone": "+19782563621", "display_phone": "(978) 256-3621", "distance": 6750.628236977186}, {"id": "jrS2LnzudMz5Zlva3UufmA", "alias": "oodles-of-noodles-chelmsford", "name": "Oodles of Noodles", "image_url": "https://s3-media3.fl.yelpcdn.com/bphoto/K9GjFal3J2PgWz9JGDQrlQ/o.jpg", "is_closed": false, "url": "https://www.yelp.com/biz/oodles-of-noodles-chelmsford?adjust_creative=HdhkN5EEH6lAqE3kwhsHEQ&utm_campaign=yelp_api_v3&utm_medium=api_v3_business_search&utm_source=HdhkN5EEH6lAqE3kwhsHEQ", "review_count": 19, "categories": [{"alias": "noodles", "title": "Noodles"}, {"alias": "asianfusion", "title": "Asian Fusion"}], "rating": 4.5, "coordinates": {"latitude": 42.59751667, "longitude": -71.35101167}, "transactions": [], "location": {"address1": "14 Chelmsford St", "address2": null, "address3": "", "city": "Chelmsford", "zip_code": "01824", "country": "US", "state": "MA", "display_address": ["14 Chelmsford St", "Chelmsford, MA 01824"]}, "phone": "+19787105602", "display_phone": "(978) 710-5602", "distance": 7166.485999881727}, {"id": "3p4J2ltKODEIZusat54BGA", "alias": "not-your-average-joes-acton", "name": "Not Your Average Joe's", "image_url": "https://s3-media2.fl.yelpcdn.com/bphoto/sokHFL5Ns3RJj5AJqP3Nqg/o.jpg", "is_closed": false, "url": "https://www.yelp.com/biz/not-your-average-joes-acton?adjust_creative=HdhkN5EEH6lAqE3kwhsHEQ&utm_campaign=yelp_api_v3&utm_medium=api_v3_business_search&utm_source=HdhkN5EEH6lAqE3kwhsHEQ", "review_count": 247, "categories": [{"alias": "newamerican", "title": "American (New)"}], "rating": 3.5, "coordinates": {"latitude": 42.4764274, "longitude": -71.4509788}, "transactions": [], "price": "$$", "location": {"address1": "305 Main", "address2": "", "address3": "", "city": "Acton", "zip_code": "01720", "country": "US", "state": "MA", "display_address": ["305 Main", "Acton, MA 01720"]}, "phone": "+19786350101", "display_phone": "(978) 635-0101", "distance": 10229.507091911642}, {"id": "xuzlm-QBL_L7mJ83M2MVGg", "alias": "sichuan-palace-chelmsford", "name": "Sichuan Palace", "image_url": "https://s3-media4.fl.yelpcdn.com/bphoto/L72WohbqE8HWD1gpz4HIrA/o.jpg", "is_closed": false, "url": "https://www.yelp.com/biz/sichuan-palace-chelmsford?adjust_creative=HdhkN5EEH6lAqE3kwhsHEQ&utm_campaign=yelp_api_v3&utm_medium=api_v3_business_search&utm_source=HdhkN5EEH6lAqE3kwhsHEQ", "review_count": 98, "categories": [{"alias": "chinese", "title": "Chinese"}], "rating": 3.5, "coordinates": {"latitude": 42.593864440918, "longitude": -71.3481674194336}, "transactions": ["pickup", "delivery"], "price": "$$", "location": {"address1": "7 Summer St", "address2": "Ste 17-18", "address3": "", "city": "Chelmsford", "zip_code": "01824", "country": "US", "state": "MA", "display_address": ["7 Summer St", "Ste 17-18", "Chelmsford, MA 01824"]}, "phone": "+19782568545", "display_phone": "(978) 256-8545", "distance": 6748.615707113106}, {"id": "ZI5ILT2br3V4bwggBfIa3Q", "alias": "adelita-concord-2", "name": "Adelita", "image_url": "https://s3-media2.fl.yelpcdn.com/bphoto/RDJtJDWmglrXtURoZ4Z5Jw/o.jpg", "is_closed": false, "url": "https://www.yelp.com/biz/adelita-concord-2?adjust_creative=HdhkN5EEH6lAqE3kwhsHEQ&utm_campaign=yelp_api_v3&utm_medium=api_v3_business_search&utm_source=HdhkN5EEH6lAqE3kwhsHEQ", "review_count": 94, "categories": [{"alias": "mexican", "title": "Mexican"}, {"alias": "coffee", "title": "Coffee & Tea"}, {"alias": "juicebars", "title": "Juice Bars & Smoothies"}], "rating": 3.5, "coordinates": {"latitude": 42.4570887640645, "longitude": -71.3913274749516}, "transactions": [], "price": "$$", "location": {"address1": "1200 Main St", "address2": null, "address3": "", "city": "Concord", "zip_code": "01742", "country": "US", "state": "MA", "display_address": ["1200 Main St", "Concord, MA 01742"]}, "phone": "+19782540710", "display_phone": "(978) 254-0710", "distance": 9032.370932879936}, {"id": "XOeQIhLOSX-FBUcMVa2W8Q", "alias": "el-huipil-acton", "name": "El Huipil", "image_url": "https://s3-media2.fl.yelpcdn.com/bphoto/taeO0agrkAGFS-7TY-fUqA/o.jpg", "is_closed": false, "url": "https://www.yelp.com/biz/el-huipil-acton?adjust_creative=HdhkN5EEH6lAqE3kwhsHEQ&utm_campaign=yelp_api_v3&utm_medium=api_v3_business_search&utm_source=HdhkN5EEH6lAqE3kwhsHEQ", "review_count": 41, "categories": [{"alias": "mexican", "title": "Mexican"}], "rating": 3.5, "coordinates": {"latitude": 42.4956935, "longitude": -71.4164793}, "transactions": [], "price": "$$", "location": {"address1": "273 Great Rd", "address2": "", "address3": null, "city": "Acton", "zip_code": "01720", "country": "US", "state": "MA", "display_address": ["273 Great Rd", "Acton, MA 01720"]}, "phone": "+19787954413", "display_phone": "(978) 795-4413", "distance": 6649.924962638784}, {"id": "5ON_5GZBllK1BWgn4FLIeg", "alias": "the-concord-cheese-shop-concord", "name": "The Concord Cheese Shop", "image_url": "https://s3-media2.fl.yelpcdn.com/bphoto/IIPqpThYfR_9dQcMeyfSRQ/o.jpg", "is_closed": false, "url": "https://www.yelp.com/biz/the-concord-cheese-shop-concord?adjust_creative=HdhkN5EEH6lAqE3kwhsHEQ&utm_campaign=yelp_api_v3&utm_medium=api_v3_business_search&utm_source=HdhkN5EEH6lAqE3kwhsHEQ", "review_count": 116, "categories": [{"alias": "cheese", "title": "Cheese Shops"}, {"alias": "delis", "title": "Delis"}], "rating": 4.5, "coordinates": {"latitude": 42.459372, "longitude": -71.349636}, "transactions": [], "price": "$$", "location": {"address1": "29 Walden St", "address2": "", "address3": "", "city": "Concord", "zip_code": "01742", "country": "US", "state": "MA", "display_address": ["29 Walden St", "Concord, MA 01742"]}, "phone": "+19783695778", "display_phone": "(978) 369-5778", "distance": 8199.773156208845}, {"id": "wyirXVQZpSid8PVOv2hfDA", "alias": "helens-restaurant-concord", "name": "Helen's Restaurant", "image_url": "https://s3-media2.fl.yelpcdn.com/bphoto/tAHVlEfnkjbN2-X6-_hdOQ/o.jpg", "is_closed": false, "url": "https://www.yelp.com/biz/helens-restaurant-concord?adjust_creative=HdhkN5EEH6lAqE3kwhsHEQ&utm_campaign=yelp_api_v3&utm_medium=api_v3_business_search&utm_source=HdhkN5EEH6lAqE3kwhsHEQ", "review_count": 215, "categories": [{"alias": "tradamerican", "title": "American (Traditional)"}], "rating": 3.5, "coordinates": {"latitude": 42.4600590800073, "longitude": -71.3493883609772}, "transactions": [], "price": "$$", "location": {"address1": "17 Main St", "address2": "", "address3": "", "city": "Concord", "zip_code": "01742", "country": "US", "state": "MA", "display_address": ["17 Main St", "Concord, MA 01742"]}, "phone": "+19783699885", "display_phone": "(978) 369-9885", "distance": 8124.00013818813}, {"id": "61UV7C68CcPcm5k1nmww2A", "alias": "asian-plus-noodle-and-rice-westford-2", "name": "Asian Plus Noodle & Rice", "image_url": "https://s3-media2.fl.yelpcdn.com/bphoto/fs1M_bDFL_r0Cpo2lsigOA/o.jpg", "is_closed": false, "url": "https://www.yelp.com/biz/asian-plus-noodle-and-rice-westford-2?adjust_creative=HdhkN5EEH6lAqE3kwhsHEQ&utm_campaign=yelp_api_v3&utm_medium=api_v3_business_search&utm_source=HdhkN5EEH6lAqE3kwhsHEQ", "review_count": 39, "categories": [{"alias": "japanese", "title": "Japanese"}, {"alias": "vietnamese", "title": "Vietnamese"}, {"alias": "thai", "title": "Thai"}], "rating": 4.0, "coordinates": {"latitude": 42.5554964625884, "longitude": -71.4442735165357}, "transactions": ["delivery"], "price": "$", "location": {"address1": "313 Littleton Rd", "address2": "", "address3": null, "city": "Westford", "zip_code": "01886", "country": "US", "state": "MA", "display_address": ["313 Littleton Rd", "Westford, MA 01886"]}, "phone": "+19785776425", "display_phone": "(978) 577-6425", "distance": 7926.469820105279}, {"id": "dwg2RWcoAVlDh6iq3Gid3Q", "alias": "divito-brothers-italian-specialities-billerica", "name": "DiVito Brothers Italian Specialities", "image_url": "https://s3-media1.fl.yelpcdn.com/bphoto/LJYefhr4gQjwGLjpWu-9aw/o.jpg", "is_closed": false, "url": "https://www.yelp.com/biz/divito-brothers-italian-specialities-billerica?adjust_creative=HdhkN5EEH6lAqE3kwhsHEQ&utm_campaign=yelp_api_v3&utm_medium=api_v3_business_search&utm_source=HdhkN5EEH6lAqE3kwhsHEQ", "review_count": 35, "categories": [{"alias": "italian", "title": "Italian"}, {"alias": "pizza", "title": "Pizza"}], "rating": 4.0, "coordinates": {"latitude": 42.558927, "longitude": -71.267468}, "transactions": ["pickup", "delivery"], "price": "$", "location": {"address1": "446 Boston Rd", "address2": "", "address3": "", "city": "Billerica", "zip_code": "01821", "country": "US", "state": "MA", "display_address": ["446 Boston Rd", "Billerica, MA 01821"]}, "phone": "+19786637353", "display_phone": "(978) 663-7353", "distance": 7529.570514684709}, {"id": "8PR8KhsywWUU1e95pF2SXQ", "alias": "merchants-row-at-the-concords-colonial-inn-concord", "name": "Merchants Row At The Concord's Colonial Inn", "image_url": "https://s3-media2.fl.yelpcdn.com/bphoto/KqCrcuRYVDNrHwaWbNKjgQ/o.jpg", "is_closed": false, "url": "https://www.yelp.com/biz/merchants-row-at-the-concords-colonial-inn-concord?adjust_creative=HdhkN5EEH6lAqE3kwhsHEQ&utm_campaign=yelp_api_v3&utm_medium=api_v3_business_search&utm_source=HdhkN5EEH6lAqE3kwhsHEQ", "review_count": 121, "categories": [{"alias": "breakfast_brunch", "title": "Breakfast & Brunch"}, {"alias": "newamerican", "title": "American (New)"}], "rating": 3.5, "coordinates": {"latitude": 42.4617798657571, "longitude": -71.3495174447824}, "transactions": [], "price": "$$", "location": {"address1": "48 Monument Sq", "address2": null, "address3": "Concord's Colonial Inn", "city": "Concord", "zip_code": "01742", "country": "US", "state": "MA", "display_address": ["48 Monument Sq", "Concord's Colonial Inn", "Concord, MA 01742"]}, "phone": "+19783692373", "display_phone": "(978) 369-2373", "distance": 7932.424575103276}, {"id": "Z06dzN5KvdLIkFYLF4MZtQ", "alias": "clover-food-lab-westford-2", "name": "Clover Food Lab", "image_url": "https://s3-media3.fl.yelpcdn.com/bphoto/szBDIofkP8ykYGOvcZ1oJQ/o.jpg", "is_closed": false, "url": "https://www.yelp.com/biz/clover-food-lab-westford-2?adjust_creative=HdhkN5EEH6lAqE3kwhsHEQ&utm_campaign=yelp_api_v3&utm_medium=api_v3_business_search&utm_source=HdhkN5EEH6lAqE3kwhsHEQ", "review_count": 28, "categories": [{"alias": "sandwiches", "title": "Sandwiches"}, {"alias": "cafes", "title": "Cafes"}, {"alias": "newamerican", "title": "American (New)"}], "rating": 4.5, "coordinates": {"latitude": 42.568171, "longitude": -71.420156}, "transactions": [], "price": "$", "location": {"address1": "160 Littleton Rd", "address2": "", "address3": "Whole Foods Market", "city": "Westford", "zip_code": "01886", "country": "US", "state": "MA", "display_address": ["160 Littleton Rd", "Whole Foods Market", "Westford, MA 01886"]}, "phone": "", "display_phone": "", "distance": 6786.746024082692}, {"id": "3CpdvqWa2In4ztdnanBfLw", "alias": "british-beer-company-westford", "name": "British Beer Company", "image_url": "https://s3-media4.fl.yelpcdn.com/bphoto/jhxnItL3CXqxAZCV1F55QQ/o.jpg", "is_closed": false, "url": "https://www.yelp.com/biz/british-beer-company-westford?adjust_creative=HdhkN5EEH6lAqE3kwhsHEQ&utm_campaign=yelp_api_v3&utm_medium=api_v3_business_search&utm_source=HdhkN5EEH6lAqE3kwhsHEQ", "review_count": 264, "categories": [{"alias": "pubs", "title": "Pubs"}, {"alias": "tradamerican", "title": "American (Traditional)"}], "rating": 3.0, "coordinates": {"latitude": 42.57051, "longitude": -71.42046}, "transactions": ["pickup", "delivery"], "price": "$$", "location": {"address1": "149 Littleton Rd", "address2": "", "address3": "", "city": "Westford", "zip_code": "01886", "country": "US", "state": "MA", "display_address": ["149 Littleton Rd", "Westford, MA 01886"]}, "phone": "+19785776034", "display_phone": "(978) 577-6034", "distance": 6906.46135822413}, {"id": "oGoJ5e53HLdaC7HIuac79Q", "alias": "main-streets-market-and-cafe-concord", "name": "Main Street's Market & Cafe", "image_url": "https://s3-media2.fl.yelpcdn.com/bphoto/MucbwnjYTePyZWG9tEm16w/o.jpg", "is_closed": false, "url": "https://www.yelp.com/biz/main-streets-market-and-cafe-concord?adjust_creative=HdhkN5EEH6lAqE3kwhsHEQ&utm_campaign=yelp_api_v3&utm_medium=api_v3_business_search&utm_source=HdhkN5EEH6lAqE3kwhsHEQ", "review_count": 329, "categories": [{"alias": "tradamerican", "title": "American (Traditional)"}, {"alias": "musicvenues", "title": "Music Venues"}, {"alias": "acaibowls", "title": "Acai Bowls"}], "rating": 3.0, "coordinates": {"latitude": 42.4600272957087, "longitude": -71.3501745546912}, "transactions": [], "price": "$$", "location": {"address1": "42 Main St", "address2": "", "address3": "", "city": "Concord", "zip_code": "01742", "country": "US", "state": "MA", "display_address": ["42 Main St", "Concord, MA 01742"]}, "phone": "+19783699948", "display_phone": "(978) 369-9948", "distance": 8125.813954433669}, {"id": "25LfXIYeS3H6NMkzKmWUeg", "alias": "sorrentos-brick-oven-pizzeria-concord", "name": "Sorrento's Brick Oven Pizzeria", "image_url": "https://s3-media1.fl.yelpcdn.com/bphoto/_EKv3xdEqc-AbVmrURPDzA/o.jpg", "is_closed": false, "url": "https://www.yelp.com/biz/sorrentos-brick-oven-pizzeria-concord?adjust_creative=HdhkN5EEH6lAqE3kwhsHEQ&utm_campaign=yelp_api_v3&utm_medium=api_v3_business_search&utm_source=HdhkN5EEH6lAqE3kwhsHEQ", "review_count": 87, "categories": [{"alias": "pizza", "title": "Pizza"}], "rating": 3.5, "coordinates": {"latitude": 42.457067, "longitude": -71.3583692}, "transactions": ["pickup", "delivery"], "price": "$", "location": {"address1": "58 Thoreau St", "address2": "", "address3": "", "city": "Concord", "zip_code": "01742", "country": "US", "state": "MA", "display_address": ["58 Thoreau St", "Concord, MA 01742"]}, "phone": "", "display_phone": "", "distance": 8466.9285013185}, {"id": "x9tRSzYjHWPl_sdsVgWBnQ", "alias": "garrisons-billerica-2", "name": "Garrison's", "image_url": "https://s3-media1.fl.yelpcdn.com/bphoto/AvkknzzWYP9fQ7PITkLtyw/o.jpg", "is_closed": false, "url": "https://www.yelp.com/biz/garrisons-billerica-2?adjust_creative=HdhkN5EEH6lAqE3kwhsHEQ&utm_campaign=yelp_api_v3&utm_medium=api_v3_business_search&utm_source=HdhkN5EEH6lAqE3kwhsHEQ", "review_count": 122, "categories": [{"alias": "tradamerican", "title": "American (Traditional)"}, {"alias": "salad", "title": "Salad"}, {"alias": "soup", "title": "Soup"}], "rating": 3.5, "coordinates": {"latitude": 42.57162, "longitude": -71.27789}, "transactions": ["delivery"], "price": "$$", "location": {"address1": "303 Boston Rd", "address2": "", "address3": "", "city": "Billerica", "zip_code": "01821", "country": "US", "state": "MA", "display_address": ["303 Boston Rd", "Billerica, MA 01821"]}, "phone": "+19786701202", "display_phone": "(978) 670-1202", "distance": 7463.491268291045}, {"id": "U-RWLBNihwgteY7htlaUnw", "alias": "the-outlook-restaurant-westford", "name": "The Outlook Restaurant", "image_url": "https://s3-media2.fl.yelpcdn.com/bphoto/tUJeLAnRyONU6SgNTBspyw/o.jpg", "is_closed": false, "url": "https://www.yelp.com/biz/the-outlook-restaurant-westford?adjust_creative=HdhkN5EEH6lAqE3kwhsHEQ&utm_campaign=yelp_api_v3&utm_medium=api_v3_business_search&utm_source=HdhkN5EEH6lAqE3kwhsHEQ", "review_count": 45, "categories": [{"alias": "venues", "title": "Venues & Event Spaces"}, {"alias": "newamerican", "title": "American (New)"}], "rating": 3.0, "coordinates": {"latitude": 42.5423329, "longitude": -71.4446193}, "transactions": [], "price": "$$", "location": {"address1": "79 Powers Rd", "address2": "", "address3": "", "city": "Westford", "zip_code": "01886", "country": "US", "state": "MA", "display_address": ["79 Powers Rd", "Westford, MA 01886"]}, "phone": "+19786925700", "display_phone": "(978) 692-5700", "distance": 7623.351664881913}, {"id": "YByVjJAotMMB1KwduACZlQ", "alias": "sunco-gourmet-bedford", "name": "SunCo Gourmet", "image_url": "https://s3-media4.fl.yelpcdn.com/bphoto/fqcv_nvnvKwzBVRmkpLR1Q/o.jpg", "is_closed": false, "url": "https://www.yelp.com/biz/sunco-gourmet-bedford?adjust_creative=HdhkN5EEH6lAqE3kwhsHEQ&utm_campaign=yelp_api_v3&utm_medium=api_v3_business_search&utm_source=HdhkN5EEH6lAqE3kwhsHEQ", "review_count": 2, "categories": [{"alias": "pizza", "title": "Pizza"}, {"alias": "sandwiches", "title": "Sandwiches"}, {"alias": "tradamerican", "title": "American (Traditional)"}], "rating": 4.5, "coordinates": {"latitude": 42.463415, "longitude": -71.276792}, "transactions": [], "location": {"address1": "Hanscom Air Force Base", "address2": "Bldg 1531", "address3": "", "city": "Bedford", "zip_code": "01731", "country": "US", "state": "MA", "display_address": ["Hanscom Air Force Base", "Bldg 1531", "Bedford, MA 01731"]}, "phone": "+17818625329", "display_phone": "(781) 862-5329", "distance": 9922.919744486562}, {"id": "H8_TO5vw4R9zsZOZy9CxfQ", "alias": "comellas-concord-2", "name": "Comella's", "image_url": "https://s3-media4.fl.yelpcdn.com/bphoto/BFsvP4sam1OUhCBraPaTkA/o.jpg", "is_closed": false, "url": "https://www.yelp.com/biz/comellas-concord-2?adjust_creative=HdhkN5EEH6lAqE3kwhsHEQ&utm_campaign=yelp_api_v3&utm_medium=api_v3_business_search&utm_source=HdhkN5EEH6lAqE3kwhsHEQ", "review_count": 71, "categories": [{"alias": "italian", "title": "Italian"}, {"alias": "tradamerican", "title": "American (Traditional)"}, {"alias": "chicken_wings", "title": "Chicken Wings"}], "rating": 2.5, "coordinates": {"latitude": 42.4599336126537, "longitude": -71.3498156866057}, "transactions": [], "price": "$$", "location": {"address1": "33 Main St", "address2": "", "address3": "", "city": "Concord", "zip_code": "01742", "country": "US", "state": "MA", "display_address": ["33 Main St", "Concord, MA 01742"]}, "phone": "+19783699555", "display_phone": "(978) 369-9555", "distance": 8136.948603921613}, {"id": "q9s0qz4VdwwLhcRiMIyZjw", "alias": "bedford-house-of-roast-beef-bedford", "name": "Bedford House Of Roast Beef", "image_url": "https://s3-media1.fl.yelpcdn.com/bphoto/JJdzb55GC-xtEzuia92KgA/o.jpg", "is_closed": false, "url": "https://www.yelp.com/biz/bedford-house-of-roast-beef-bedford?adjust_creative=HdhkN5EEH6lAqE3kwhsHEQ&utm_campaign=yelp_api_v3&utm_medium=api_v3_business_search&utm_source=HdhkN5EEH6lAqE3kwhsHEQ", "review_count": 159, "categories": [{"alias": "sandwiches", "title": "Sandwiches"}, {"alias": "burgers", "title": "Burgers"}, {"alias": "hotdogs", "title": "Fast Food"}], "rating": 4.5, "coordinates": {"latitude": 42.48637, "longitude": -71.261326}, "transactions": ["delivery"], "price": "$", "location": {"address1": "328 Great Rd", "address2": "", "address3": "", "city": "Bedford", "zip_code": "01730", "country": "US", "state": "MA", "display_address": ["328 Great Rd", "Bedford, MA 01730"]}, "phone": "+17812752006", "display_phone": "(781) 275-2006", "distance": 9096.309937853937}, {"id": "xExVdEyfCHIQ7xEUL-NMkg", "alias": "blue-fuji-bedford-2", "name": "Blue Fuji", "image_url": "https://s3-media2.fl.yelpcdn.com/bphoto/AhPE59tVg-csCSpJLBJYmQ/o.jpg", "is_closed": false, "url": "https://www.yelp.com/biz/blue-fuji-bedford-2?adjust_creative=HdhkN5EEH6lAqE3kwhsHEQ&utm_campaign=yelp_api_v3&utm_medium=api_v3_business_search&utm_source=HdhkN5EEH6lAqE3kwhsHEQ", "review_count": 108, "categories": [{"alias": "japanese", "title": "Japanese"}, {"alias": "chinese", "title": "Chinese"}, {"alias": "sushi", "title": "Sushi Bars"}], "rating": 3.5, "coordinates": {"latitude": 42.49003, "longitude": -71.27143}, "transactions": ["pickup", "delivery"], "price": "$$", "location": {"address1": "200 Great Rd", "address2": "", "address3": null, "city": "Bedford", "zip_code": "01730", "country": "US", "state": "MA", "display_address": ["200 Great Rd", "Bedford, MA 01730"]}, "phone": "+17812800707", "display_phone": "(781) 280-0707", "distance": 8143.512799603767}, {"id": "6oYFWlTblWV_8w6Rwyw_cw", "alias": "new-london-style-pizza-concord", "name": "New London Style Pizza", "image_url": "https://s3-media1.fl.yelpcdn.com/bphoto/cj2ybg2KUGb4UL3FoRdFnQ/o.jpg", "is_closed": false, "url": "https://www.yelp.com/biz/new-london-style-pizza-concord?adjust_creative=HdhkN5EEH6lAqE3kwhsHEQ&utm_campaign=yelp_api_v3&utm_medium=api_v3_business_search&utm_source=HdhkN5EEH6lAqE3kwhsHEQ", "review_count": 64, "categories": [{"alias": "pizza", "title": "Pizza"}], "rating": 4.0, "coordinates": {"latitude": 42.4571121201525, "longitude": -71.3575818002711}, "transactions": ["pickup", "delivery"], "price": "$", "location": {"address1": "71 Thoreau St", "address2": "", "address3": "", "city": "Concord", "zip_code": "01742", "country": "US", "state": "MA", "display_address": ["71 Thoreau St", "Concord, MA 01742"]}, "phone": "+19783697053", "display_phone": "(978) 369-7053", "distance": 8458.446920345814}, {"id": "T51Wxd2LnUcUNkYCOGYlZw", "alias": "crossroads-cafe-acton", "name": "Crossroads Cafe", "image_url": "https://s3-media4.fl.yelpcdn.com/bphoto/LGGpXVv1WmDC95QD7c1xIg/o.jpg", "is_closed": false, "url": "https://www.yelp.com/biz/crossroads-cafe-acton?adjust_creative=HdhkN5EEH6lAqE3kwhsHEQ&utm_campaign=yelp_api_v3&utm_medium=api_v3_business_search&utm_source=HdhkN5EEH6lAqE3kwhsHEQ", "review_count": 114, "categories": [{"alias": "tradamerican", "title": "American (Traditional)"}, {"alias": "lounges", "title": "Lounges"}], "rating": 3.5, "coordinates": {"latitude": 42.5231520552662, "longitude": -71.4325873768414}, "transactions": ["delivery"], "price": "$$", "location": {"address1": "405 Nagog Sq", "address2": "", "address3": "", "city": "Acton", "zip_code": "01720", "country": "US", "state": "MA", "display_address": ["405 Nagog Sq", "Acton, MA 01720"]}, "phone": "+19782639733", "display_phone": "(978) 263-9733", "distance": 6661.1200562752665}, {"id": "15Vv8Qu-s88jdo4bOCqcow", "alias": "7-nana-japanese-steakhouse-north-billerica", "name": "7 Nana Japanese Steakhouse", "image_url": "https://s3-media2.fl.yelpcdn.com/bphoto/ScOlKH3du8_uStaepu6PtA/o.jpg", "is_closed": false, "url": "https://www.yelp.com/biz/7-nana-japanese-steakhouse-north-billerica?adjust_creative=HdhkN5EEH6lAqE3kwhsHEQ&utm_campaign=yelp_api_v3&utm_medium=api_v3_business_search&utm_source=HdhkN5EEH6lAqE3kwhsHEQ", "review_count": 215, "categories": [{"alias": "japanese", "title": "Japanese"}, {"alias": "steak", "title": "Steakhouses"}, {"alias": "soup", "title": "Soup"}], "rating": 3.0, "coordinates": {"latitude": 42.5805625915527, "longitude": -71.2892150878906}, "transactions": ["pickup", "delivery"], "price": "$$", "location": {"address1": "199 Boston Rd", "address2": "", "address3": "", "city": "North Billerica", "zip_code": "01862", "country": "US", "state": "MA", "display_address": ["199 Boston Rd", "North Billerica, MA 01862"]}, "phone": "+19782621300", "display_phone": "(978) 262-1300", "distance": 7402.061198107814}, {"id": "bCboJRI-rzHaP_NT3l5leQ", "alias": "minuteman-diner-bedford", "name": "Minuteman Diner", "image_url": "https://s3-media4.fl.yelpcdn.com/bphoto/nKbZcuNkqj8W6eGy2tTYog/o.jpg", "is_closed": false, "url": "https://www.yelp.com/biz/minuteman-diner-bedford?adjust_creative=HdhkN5EEH6lAqE3kwhsHEQ&utm_campaign=yelp_api_v3&utm_medium=api_v3_business_search&utm_source=HdhkN5EEH6lAqE3kwhsHEQ", "review_count": 9, "categories": [{"alias": "diners", "title": "Diners"}, {"alias": "breakfast_brunch", "title": "Breakfast & Brunch"}], "rating": 2.5, "coordinates": {"latitude": 42.484107, "longitude": -71.260328}, "transactions": ["pickup", "delivery"], "price": "$$", "location": {"address1": "363 Great Rd", "address2": "", "address3": null, "city": "Bedford", "zip_code": "01730", "country": "US", "state": "MA", "display_address": ["363 Great Rd", "Bedford, MA 01730"]}, "phone": "+17815385728", "display_phone": "(781) 538-5728", "distance": 9308.645725485932}, {"id": "3kbpa1aF89g2qCE_S3z0PQ", "alias": "augusta-subs-and-salads-billerica", "name": "Augusta Subs & Salads", "image_url": "https://s3-media2.fl.yelpcdn.com/bphoto/7IwXIOFvbNZgKk3i0v8pKw/o.jpg", "is_closed": false, "url": "https://www.yelp.com/biz/augusta-subs-and-salads-billerica?adjust_creative=HdhkN5EEH6lAqE3kwhsHEQ&utm_campaign=yelp_api_v3&utm_medium=api_v3_business_search&utm_source=HdhkN5EEH6lAqE3kwhsHEQ", "review_count": 109, "categories": [{"alias": "salad", "title": "Salad"}, {"alias": "chickenshop", "title": "Chicken Shop"}, {"alias": "foodtrucks", "title": "Food Trucks"}], "rating": 4.5, "coordinates": {"latitude": 42.542601, "longitude": -71.252998}, "transactions": ["delivery"], "price": "$", "location": {"address1": "599 Boston Rd", "address2": "", "address3": "", "city": "Billerica", "zip_code": "01821", "country": "US", "state": "MA", "display_address": ["599 Boston Rd", "Billerica, MA 01821"]}, "phone": "+19786676612", "display_phone": "(978) 667-6612", "distance": 8214.622335669568}, {"id": "5BeejJKClOLDlF7qDStTUQ", "alias": "zestys-pizza-billerica", "name": "Zesty's Pizza", "image_url": "https://s3-media2.fl.yelpcdn.com/bphoto/oOhTDpC7jG_vGx8VPh-8LQ/o.jpg", "is_closed": false, "url": "https://www.yelp.com/biz/zestys-pizza-billerica?adjust_creative=HdhkN5EEH6lAqE3kwhsHEQ&utm_campaign=yelp_api_v3&utm_medium=api_v3_business_search&utm_source=HdhkN5EEH6lAqE3kwhsHEQ", "review_count": 11, "categories": [{"alias": "pizza", "title": "Pizza"}], "rating": 3.0, "coordinates": {"latitude": 42.53905, "longitude": -71.30329}, "transactions": ["delivery"], "price": "$$", "location": {"address1": "240 Nashua Rd", "address2": "", "address3": null, "city": "Billerica", "zip_code": "01862", "country": "US", "state": "MA", "display_address": ["240 Nashua Rd", "Billerica, MA 01862"]}, "phone": "+19786676674", "display_phone": "(978) 667-6674", "distance": 4083.7062501830637}, {"id": "HL4s9I_kt877Dk_6RKsjLw", "alias": "nashoba-brook-bakery-concord", "name": "Nashoba Brook Bakery", "image_url": "https://s3-media1.fl.yelpcdn.com/bphoto/NAajVEygjt-axDgluih4fA/o.jpg", "is_closed": false, "url": "https://www.yelp.com/biz/nashoba-brook-bakery-concord?adjust_creative=HdhkN5EEH6lAqE3kwhsHEQ&utm_campaign=yelp_api_v3&utm_medium=api_v3_business_search&utm_source=HdhkN5EEH6lAqE3kwhsHEQ", "review_count": 223, "categories": [{"alias": "bakeries", "title": "Bakeries"}, {"alias": "sandwiches", "title": "Sandwiches"}], "rating": 4.0, "coordinates": {"latitude": 42.458352, "longitude": -71.396623}, "transactions": [], "price": "$", "location": {"address1": "152 Commonwealth Ave", "address2": "", "address3": "", "city": "Concord", "zip_code": "01742", "country": "US", "state": "MA", "display_address": ["152 Commonwealth Ave", "Concord, MA 01742"]}, "phone": "+19783181999", "display_phone": "(978) 318-1999", "distance": 9065.721785486126}, {"id": "O-rrKieU47NbyXkLYjNEnA", "alias": "playoffs-sports-bar-and-grille-billerica", "name": "Playoffs Sports Bar And Grille", "image_url": "https://s3-media1.fl.yelpcdn.com/bphoto/LCLO-Ft5XJm44Ay6DZdsUg/o.jpg", "is_closed": false, "url": "https://www.yelp.com/biz/playoffs-sports-bar-and-grille-billerica?adjust_creative=HdhkN5EEH6lAqE3kwhsHEQ&utm_campaign=yelp_api_v3&utm_medium=api_v3_business_search&utm_source=HdhkN5EEH6lAqE3kwhsHEQ", "review_count": 49, "categories": [{"alias": "sportsbars", "title": "Sports Bars"}, {"alias": "tradamerican", "title": "American (Traditional)"}], "rating": 2.5, "coordinates": {"latitude": 42.537942, "longitude": -71.268715}, "transactions": ["pickup"], "price": "$$", "location": {"address1": "512 Middlesex Tpke", "address2": "", "address3": "", "city": "Billerica", "zip_code": "01821", "country": "US", "state": "MA", "display_address": ["512 Middlesex Tpke", "Billerica, MA 01821"]}, "phone": "", "display_phone": "", "distance": 6879.957267656654}, {"id": "mm-XWRPGaT7BsS31zluDag", "alias": "kens-ny-deli-and-brick-oven-pizzeria-bedford", "name": "Ken's NY Deli & Brick Oven Pizzeria", "image_url": "https://s3-media4.fl.yelpcdn.com/bphoto/mcu3vAgiLPgSrE2ZmjALdg/o.jpg", "is_closed": false, "url": "https://www.yelp.com/biz/kens-ny-deli-and-brick-oven-pizzeria-bedford?adjust_creative=HdhkN5EEH6lAqE3kwhsHEQ&utm_campaign=yelp_api_v3&utm_medium=api_v3_business_search&utm_source=HdhkN5EEH6lAqE3kwhsHEQ", "review_count": 93, "categories": [{"alias": "delis", "title": "Delis"}, {"alias": "sandwiches", "title": "Sandwiches"}, {"alias": "pizza", "title": "Pizza"}], "rating": 3.5, "coordinates": {"latitude": 42.4922054, "longitude": -71.2794583}, "transactions": [], "price": "$$", "location": {"address1": "72 Great Rd", "address2": "", "address3": "", "city": "Bedford", "zip_code": "01730", "country": "US", "state": "MA", "display_address": ["72 Great Rd", "Bedford, MA 01730"]}, "phone": "+17812764999", "display_phone": "(781) 276-4999", "distance": 7497.2972410132625}, {"id": "m6hE_-HXIMpKpUZEKmz4oA", "alias": "bixbite-westford", "name": "BixBite", "image_url": "https://s3-media2.fl.yelpcdn.com/bphoto/QUql2ePOh3YIEL2-nvE0Hw/o.jpg", "is_closed": false, "url": "https://www.yelp.com/biz/bixbite-westford?adjust_creative=HdhkN5EEH6lAqE3kwhsHEQ&utm_campaign=yelp_api_v3&utm_medium=api_v3_business_search&utm_source=HdhkN5EEH6lAqE3kwhsHEQ", "review_count": 61, "categories": [{"alias": "tradamerican", "title": "American (Traditional)"}], "rating": 3.5, "coordinates": {"latitude": 42.5679923, "longitude": -71.4229017}, "transactions": ["delivery"], "price": "$$", "location": {"address1": "175 Littleton Rd", "address2": "", "address3": "", "city": "Westford", "zip_code": "01886", "country": "US", "state": "MA", "display_address": ["175 Littleton Rd", "Westford, MA 01886"]}, "phone": "+19783999709", "display_phone": "(978) 399-9709", "distance": 6956.622486794383}, {"id": "z4Mt9nFakMoKYio_XjW3bw", "alias": "jon-ryans-pubs-billerica", "name": "Jon Ryan's Pubs", "image_url": "https://s3-media2.fl.yelpcdn.com/bphoto/IcDWy3onlGCBe5Lhlc1gYw/o.jpg", "is_closed": false, "url": "https://www.yelp.com/biz/jon-ryans-pubs-billerica?adjust_creative=HdhkN5EEH6lAqE3kwhsHEQ&utm_campaign=yelp_api_v3&utm_medium=api_v3_business_search&utm_source=HdhkN5EEH6lAqE3kwhsHEQ", "review_count": 77, "categories": [{"alias": "pubs", "title": "Pubs"}, {"alias": "burgers", "title": "Burgers"}, {"alias": "seafood", "title": "Seafood"}], "rating": 3.0, "coordinates": {"latitude": 42.5843573729496, "longitude": -71.3014377877229}, "transactions": [], "price": "$$", "location": {"address1": "56 Chelmsford Rd", "address2": "", "address3": "", "city": "Billerica", "zip_code": "01862", "country": "US", "state": "MA", "display_address": ["56 Chelmsford Rd", "Billerica, MA 01862"]}, "phone": "+19783621051", "display_phone": "(978) 362-1051", "distance": 7066.988618539748}, {"id": "k2k8MMsn82hs1rblVug3lw", "alias": "wing-squad-chelmsford", "name": "Wing Squad", "image_url": "https://s3-media3.fl.yelpcdn.com/bphoto/1o717_hYy4tv5DykFf8VUA/o.jpg", "is_closed": false, "url": "https://www.yelp.com/biz/wing-squad-chelmsford?adjust_creative=HdhkN5EEH6lAqE3kwhsHEQ&utm_campaign=yelp_api_v3&utm_medium=api_v3_business_search&utm_source=HdhkN5EEH6lAqE3kwhsHEQ", "review_count": 3, "categories": [{"alias": "fooddeliveryservices", "title": "Food Delivery Services"}, {"alias": "chicken_wings", "title": "Chicken Wings"}], "rating": 2.5, "coordinates": {"latitude": 42.59993, "longitude": -71.3486}, "transactions": ["delivery"], "location": {"address1": "", "address2": null, "address3": null, "city": "Chelmsford", "zip_code": "01824", "country": "US", "state": "MA", "display_address": ["Chelmsford, MA 01824"]}, "phone": "+18887996601", "display_phone": "(888) 799-6601", "distance": 7503.826472896927}, {"id": "eejjiIHAVf5Jg7hiLoYjEQ", "alias": "bertuccis-italian-restaurant-chelmsford-2", "name": "Bertucci's Italian Restaurant", "image_url": "https://s3-media4.fl.yelpcdn.com/bphoto/4ULwRDYjlde5M7_EfRFd_g/o.jpg", "is_closed": false, "url": "https://www.yelp.com/biz/bertuccis-italian-restaurant-chelmsford-2?adjust_creative=HdhkN5EEH6lAqE3kwhsHEQ&utm_campaign=yelp_api_v3&utm_medium=api_v3_business_search&utm_source=HdhkN5EEH6lAqE3kwhsHEQ", "review_count": 89, "categories": [{"alias": "pizza", "title": "Pizza"}, {"alias": "italian", "title": "Italian"}], "rating": 2.5, "coordinates": {"latitude": 42.5962837448431, "longitude": -71.3549332797622}, "transactions": ["pickup", "delivery"], "price": "$$", "location": {"address1": "14 Littleton Rd", "address2": "", "address3": "", "city": "Chelmsford", "zip_code": "01824", "country": "US", "state": "MA", "display_address": ["14 Littleton Rd", "Chelmsford, MA 01824"]}, "phone": "+19782508800", "display_phone": "(978) 250-8800", "distance": 7030.291997857527}, {"id": "HF8QGwVo8cfdgnVbi6Idig", "alias": "strombolis-billerica", "name": "Stromboli's", "image_url": "https://s3-media3.fl.yelpcdn.com/bphoto/C7xf1F7W7K8Pyu2kZyFJ-w/o.jpg", "is_closed": false, "url": "https://www.yelp.com/biz/strombolis-billerica?adjust_creative=HdhkN5EEH6lAqE3kwhsHEQ&utm_campaign=yelp_api_v3&utm_medium=api_v3_business_search&utm_source=HdhkN5EEH6lAqE3kwhsHEQ", "review_count": 158, "categories": [{"alias": "pizza", "title": "Pizza"}, {"alias": "italian", "title": "Italian"}], "rating": 3.5, "coordinates": {"latitude": 42.55125, "longitude": -71.264083}, "transactions": ["delivery"], "price": "$$", "location": {"address1": "481 Boston Rd", "address2": "", "address3": "", "city": "Billerica", "zip_code": "01821", "country": "US", "state": "MA", "display_address": ["481 Boston Rd", "Billerica, MA 01821"]}, "phone": "+19786637737", "display_phone": "(978) 663-7737", "distance": 7512.452412974261}, {"id": "S29JX5oRCOZcVBT7uv468Q", "alias": "chilis-westford", "name": "Chili's", "image_url": "https://s3-media3.fl.yelpcdn.com/bphoto/JXOI5EkknCWo4BklSSlx1g/o.jpg", "is_closed": false, "url": "https://www.yelp.com/biz/chilis-westford?adjust_creative=HdhkN5EEH6lAqE3kwhsHEQ&utm_campaign=yelp_api_v3&utm_medium=api_v3_business_search&utm_source=HdhkN5EEH6lAqE3kwhsHEQ", "review_count": 46, "categories": [{"alias": "tradamerican", "title": "American (Traditional)"}, {"alias": "bars", "title": "Bars"}, {"alias": "tex-mex", "title": "Tex-Mex"}], "rating": 2.0, "coordinates": {"latitude": 42.5700979, "longitude": -71.4188018}, "transactions": [], "price": "$$", "location": {"address1": "137 Littleton Rd", "address2": "", "address3": "", "city": "Westford", "zip_code": "01886", "country": "US", "state": "MA", "display_address": ["137 Littleton Rd", "Westford, MA 01886"]}, "phone": "+19786928498", "display_phone": "(978) 692-8498", "distance": 6846.865990347916}, {"id": "m8Qhq_wyN5nz-kmfT9QXzQ", "alias": "brickhouse-center-sports-grill-chelmsford", "name": "Brickhouse Center Sports Grill", "image_url": "https://s3-media1.fl.yelpcdn.com/bphoto/RXuS4eAVLcs6bMqGh2yl1A/o.jpg", "is_closed": false, "url": "https://www.yelp.com/biz/brickhouse-center-sports-grill-chelmsford?adjust_creative=HdhkN5EEH6lAqE3kwhsHEQ&utm_campaign=yelp_api_v3&utm_medium=api_v3_business_search&utm_source=HdhkN5EEH6lAqE3kwhsHEQ", "review_count": 127, "categories": [{"alias": "sportsbars", "title": "Sports Bars"}, {"alias": "burgers", "title": "Burgers"}, {"alias": "sandwiches", "title": "Sandwiches"}], "rating": 3.0, "coordinates": {"latitude": 42.59677948509, "longitude": -71.352258806531}, "transactions": [], "price": "$$", "location": {"address1": "1 Central Sq", "address2": null, "address3": null, "city": "Chelmsford", "zip_code": "01824", "country": "US", "state": "MA", "display_address": ["1 Central Sq", "Chelmsford, MA 01824"]}, "phone": "+19782562112", "display_phone": "(978) 256-2112", "distance": 7082.426114814996}, {"id": "kFq4OKA8LGODIxaX-6MTPQ", "alias": "chung-king-ricks-cafe-billerica", "name": "Chung King Rick's Cafe", "image_url": "https://s3-media3.fl.yelpcdn.com/bphoto/rMwnYyVD-bwCSz94V2rCAw/o.jpg", "is_closed": false, "url": "https://www.yelp.com/biz/chung-king-ricks-cafe-billerica?adjust_creative=HdhkN5EEH6lAqE3kwhsHEQ&utm_campaign=yelp_api_v3&utm_medium=api_v3_business_search&utm_source=HdhkN5EEH6lAqE3kwhsHEQ", "review_count": 107, "categories": [{"alias": "chinese", "title": "Chinese"}], "rating": 3.5, "coordinates": {"latitude": 42.558826, "longitude": -71.26655}, "transactions": ["delivery"], "price": "$$", "location": {"address1": "446 Boston Rd", "address2": "", "address3": "", "city": "Billerica", "zip_code": "01821", "country": "US", "state": "MA", "display_address": ["446 Boston Rd", "Billerica, MA 01821"]}, "phone": "+19782629922", "display_phone": "(978) 262-9922", "distance": 7593.984752128433}, {"id": "qAptkJzco52JLXsxwKngrA", "alias": "mooyah-burgers-fries-and-shakes-north-billerica", "name": "MOOYAH Burgers, Fries & Shakes", "image_url": "https://s3-media2.fl.yelpcdn.com/bphoto/pQSf6yPNl2Qsh_xh09pj_g/o.jpg", "is_closed": false, "url": "https://www.yelp.com/biz/mooyah-burgers-fries-and-shakes-north-billerica?adjust_creative=HdhkN5EEH6lAqE3kwhsHEQ&utm_campaign=yelp_api_v3&utm_medium=api_v3_business_search&utm_source=HdhkN5EEH6lAqE3kwhsHEQ", "review_count": 85, "categories": [{"alias": "burgers", "title": "Burgers"}, {"alias": "icecream", "title": "Ice Cream & Frozen Yogurt"}, {"alias": "hotdog", "title": "Hot Dogs"}], "rating": 3.0, "coordinates": {"latitude": 42.58101, "longitude": -71.28844}, "transactions": ["pickup", "delivery"], "price": "$$", "location": {"address1": "199 Boston Road", "address2": "Ste 8", "address3": null, "city": "North Billerica", "zip_code": "01862", "country": "US", "state": "MA", "display_address": ["199 Boston Road", "Ste 8", "North Billerica, MA 01862"]}, "phone": "+19783623658", "display_phone": "(978) 362-3658", "distance": 7474.158486291586}, {"id": "EexSBVsR_N0LVVXkg17Z8g", "alias": "sushi-house-concord", "name": "Sushi House", "image_url": "https://s3-media3.fl.yelpcdn.com/bphoto/G1po1T0WeFBJfG5cHl_M-w/o.jpg", "is_closed": false, "url": "https://www.yelp.com/biz/sushi-house-concord?adjust_creative=HdhkN5EEH6lAqE3kwhsHEQ&utm_campaign=yelp_api_v3&utm_medium=api_v3_business_search&utm_source=HdhkN5EEH6lAqE3kwhsHEQ", "review_count": 50, "categories": [{"alias": "sushi", "title": "Sushi Bars"}, {"alias": "japanese", "title": "Japanese"}], "rating": 3.5, "coordinates": {"latitude": 42.4658299, "longitude": -71.3893}, "transactions": [], "price": "$$", "location": {"address1": "794 Elm St", "address2": "Fl 2", "address3": "", "city": "Concord", "zip_code": "01742", "country": "US", "state": "MA", "display_address": ["794 Elm St", "Fl 2", "Concord, MA 01742"]}, "phone": "+19783698856", "display_phone": "(978) 369-8856", "distance": 8094.830825359855}, {"id": "jDluFekOGbleBjKqB0G4Og", "alias": "westford-pizza-westford", "name": "Westford Pizza", "image_url": "https://s3-media1.fl.yelpcdn.com/bphoto/bL8fljvyhbFmK7xmFi7vew/o.jpg", "is_closed": false, "url": "https://www.yelp.com/biz/westford-pizza-westford?adjust_creative=HdhkN5EEH6lAqE3kwhsHEQ&utm_campaign=yelp_api_v3&utm_medium=api_v3_business_search&utm_source=HdhkN5EEH6lAqE3kwhsHEQ", "review_count": 23, "categories": [{"alias": "pizza", "title": "Pizza"}, {"alias": "italian", "title": "Italian"}], "rating": 4.0, "coordinates": {"latitude": 42.5856444, "longitude": -71.426297}, "transactions": ["delivery"], "price": "$", "location": {"address1": "103 Main St", "address2": "", "address3": "", "city": "Westford", "zip_code": "01886", "country": "US", "state": "MA", "display_address": ["103 Main St", "Westford, MA 01886"]}, "phone": "+19786923247", "display_phone": "(978) 692-3247", "distance": 8412.055867652884}, {"id": "WRMLT-BB6s9Py9Zf_Z8ldg", "alias": "blackbird-acton", "name": "Blackbird", "image_url": "https://s3-media4.fl.yelpcdn.com/bphoto/p8cD7TSbYHGAIB8Zk2qXgg/o.jpg", "is_closed": false, "url": "https://www.yelp.com/biz/blackbird-acton?adjust_creative=HdhkN5EEH6lAqE3kwhsHEQ&utm_campaign=yelp_api_v3&utm_medium=api_v3_business_search&utm_source=HdhkN5EEH6lAqE3kwhsHEQ", "review_count": 63, "categories": [{"alias": "cafes", "title": "Cafes"}, {"alias": "breakfast_brunch", "title": "Breakfast & Brunch"}, {"alias": "tradamerican", "title": "American (Traditional)"}], "rating": 3.5, "coordinates": {"latitude": 42.5019749, "longitude": -71.420928}, "transactions": ["pickup", "delivery"], "price": "$$", "location": {"address1": "342 Great Rd", "address2": "", "address3": null, "city": "Acton", "zip_code": "01720", "country": "US", "state": "MA", "display_address": ["342 Great Rd", "Acton, MA 01720"]}, "phone": "+19782742403", "display_phone": "(978) 274-2403", "distance": 6594.619380766354}, {"id": "bciazF_t78j9oplGI1Cpbw", "alias": "concord-provisions-and-country-kitchen-concord", "name": "Concord Provisions & Country Kitchen", "image_url": "https://s3-media1.fl.yelpcdn.com/bphoto/c5CbfoQhKeS8sNWMSvc7iw/o.jpg", "is_closed": false, "url": "https://www.yelp.com/biz/concord-provisions-and-country-kitchen-concord?adjust_creative=HdhkN5EEH6lAqE3kwhsHEQ&utm_campaign=yelp_api_v3&utm_medium=api_v3_business_search&utm_source=HdhkN5EEH6lAqE3kwhsHEQ", "review_count": 11, "categories": [{"alias": "grocery", "title": "Grocery"}, {"alias": "beer_and_wine", "title": "Beer, Wine & Spirits"}, {"alias": "sandwiches", "title": "Sandwiches"}], "rating": 4.0, "coordinates": {"latitude": 42.457309, "longitude": -71.357483}, "transactions": [], "price": "$$$", "location": {"address1": "73 Thoreau St", "address2": "", "address3": "", "city": "Concord", "zip_code": "01742", "country": "US", "state": "MA", "display_address": ["73 Thoreau St", "Concord, MA 01742"]}, "phone": "+19783695555", "display_phone": "(978) 369-5555", "distance": 8436.18021433876}, {"id": "-kah9M8Zd7HuWSA9mkQxsg", "alias": "peppers-grille-bedford", "name": "Peppers Grille", "image_url": "https://s3-media2.fl.yelpcdn.com/bphoto/pWKxAsiZa_OTTDoUse6gpA/o.jpg", "is_closed": false, "url": "https://www.yelp.com/biz/peppers-grille-bedford?adjust_creative=HdhkN5EEH6lAqE3kwhsHEQ&utm_campaign=yelp_api_v3&utm_medium=api_v3_business_search&utm_source=HdhkN5EEH6lAqE3kwhsHEQ", "review_count": 32, "categories": [{"alias": "italian", "title": "Italian"}, {"alias": "tradamerican", "title": "American (Traditional)"}, {"alias": "bars", "title": "Bars"}], "rating": 3.5, "coordinates": {"latitude": 42.4845274432543, "longitude": -71.2637924596726}, "transactions": ["delivery"], "location": {"address1": "321 Great Rd", "address2": "", "address3": null, "city": "Bedford", "zip_code": "01730", "country": "US", "state": "MA", "display_address": ["321 Great Rd", "Bedford, MA 01730"]}, "phone": "+17812751234", "display_phone": "(781) 275-1234", "distance": 9051.876703076401}, {"id": "GqKUnxqykzDWdKZNX85RFw", "alias": "roscos-diner-chelmsford", "name": "Rosco's Diner", "image_url": "https://s3-media4.fl.yelpcdn.com/bphoto/oASJkF3T5V94dkWC_nqOHw/o.jpg", "is_closed": false, "url": "https://www.yelp.com/biz/roscos-diner-chelmsford?adjust_creative=HdhkN5EEH6lAqE3kwhsHEQ&utm_campaign=yelp_api_v3&utm_medium=api_v3_business_search&utm_source=HdhkN5EEH6lAqE3kwhsHEQ", "review_count": 76, "categories": [{"alias": "breakfast_brunch", "title": "Breakfast & Brunch"}, {"alias": "tradamerican", "title": "American (Traditional)"}], "rating": 3.5, "coordinates": {"latitude": 42.59651, "longitude": -71.35214}, "transactions": [], "price": "$$", "location": {"address1": "11 Central Square", "address2": "", "address3": null, "city": "Chelmsford", "zip_code": "01824", "country": "US", "state": "MA", "display_address": ["11 Central Square", "Chelmsford, MA 01824"]}, "phone": "+19789544774", "display_phone": "(978) 954-4774", "distance": 7056.482925236333}, {"id": "YAfSdB0IFLI2kPodj_6Qlg", "alias": "short-stop-cafe-bedford", "name": "Short Stop Cafe", "image_url": "https://s3-media2.fl.yelpcdn.com/bphoto/kgy3RN7aYV6WboevXL05wA/o.jpg", "is_closed": false, "url": "https://www.yelp.com/biz/short-stop-cafe-bedford?adjust_creative=HdhkN5EEH6lAqE3kwhsHEQ&utm_campaign=yelp_api_v3&utm_medium=api_v3_business_search&utm_source=HdhkN5EEH6lAqE3kwhsHEQ", "review_count": 55, "categories": [{"alias": "waffles", "title": "Waffles"}, {"alias": "coffee", "title": "Coffee & Tea"}, {"alias": "delis", "title": "Delis"}], "rating": 4.0, "coordinates": {"latitude": 42.48694, "longitude": -71.27546}, "transactions": ["delivery"], "price": "$", "location": {"address1": "54 Loomis St", "address2": "Ste 1106", "address3": null, "city": "Bedford", "zip_code": "01730", "country": "US", "state": "MA", "display_address": ["54 Loomis St", "Ste 1106", "Bedford, MA 01730"]}, "phone": "+17814042663", "display_phone": "(781) 404-2663", "distance": 8138.4336025541315}, {"id": "7lx5A4jl-bOe9ItQOwoNhg", "alias": "spicepepper-garden-acton", "name": "Spicepepper Garden", "image_url": "https://s3-media4.fl.yelpcdn.com/bphoto/g4AN9LEA40R6OwLhOa5JGg/o.jpg", "is_closed": false, "url": "https://www.yelp.com/biz/spicepepper-garden-acton?adjust_creative=HdhkN5EEH6lAqE3kwhsHEQ&utm_campaign=yelp_api_v3&utm_medium=api_v3_business_search&utm_source=HdhkN5EEH6lAqE3kwhsHEQ", "review_count": 106, "categories": [{"alias": "chinese", "title": "Chinese"}], "rating": 3.5, "coordinates": {"latitude": 42.4742335600206, "longitude": -71.4079248905182}, "transactions": [], "price": "$$", "location": {"address1": "36 Great Rd", "address2": "", "address3": "", "city": "Acton", "zip_code": "01720", "country": "US", "state": "MA", "display_address": ["36 Great Rd", "Acton, MA 01720"]}, "phone": "+19783698808", "display_phone": "(978) 369-8808", "distance": 7970.235985769454}, {"id": "djEgtC3NHk20AMQd_Dr2gA", "alias": "wu-loon-ming-north-billerica-2", "name": "WU Loon Ming", "image_url": "https://s3-media1.fl.yelpcdn.com/bphoto/MqVExCR3JtpXUefp1S1xbg/o.jpg", "is_closed": false, "url": "https://www.yelp.com/biz/wu-loon-ming-north-billerica-2?adjust_creative=HdhkN5EEH6lAqE3kwhsHEQ&utm_campaign=yelp_api_v3&utm_medium=api_v3_business_search&utm_source=HdhkN5EEH6lAqE3kwhsHEQ", "review_count": 54, "categories": [{"alias": "chinese", "title": "Chinese"}, {"alias": "thai", "title": "Thai"}, {"alias": "wine_bars", "title": "Wine Bars"}], "rating": 2.0, "coordinates": {"latitude": 42.584469, "longitude": -71.293401}, "transactions": ["delivery"], "price": "$$", "location": {"address1": "8 Chelmsford Rd", "address2": "", "address3": "", "city": "North Billerica", "zip_code": "01862", "country": "US", "state": "MA", "display_address": ["8 Chelmsford Rd", "North Billerica, MA 01862"]}, "phone": "+19786639090", "display_phone": "(978) 663-9090", "distance": 7484.317257721933}, {"id": "LTYPU2dmDMUEluvIs2l1Tg", "alias": "yoong-tong-ii-chelmsford", "name": "Yoong Tong II", "image_url": "https://s3-media3.fl.yelpcdn.com/bphoto/stg6Zn__WpF2agUUc5Va7Q/o.jpg", "is_closed": false, "url": "https://www.yelp.com/biz/yoong-tong-ii-chelmsford?adjust_creative=HdhkN5EEH6lAqE3kwhsHEQ&utm_campaign=yelp_api_v3&utm_medium=api_v3_business_search&utm_source=HdhkN5EEH6lAqE3kwhsHEQ", "review_count": 45, "categories": [{"alias": "thai", "title": "Thai"}], "rating": 4.0, "coordinates": {"latitude": 42.5971662, "longitude": -71.351915}, "transactions": ["pickup", "delivery"], "price": "$$", "location": {"address1": "61 Central Square", "address2": "Ste 6", "address3": "", "city": "Chelmsford", "zip_code": "01824", "country": "US", "state": "MA", "display_address": ["61 Central Square", "Ste 6", "Chelmsford, MA 01824"]}, "phone": "+19782442442", "display_phone": "(978) 244-2442", "distance": 7140.996602681808}, {"id": "q4gMSKIO1Oxdq-JJ_9Uvrg", "alias": "casa-blanca-mexican-restaurant-n-billerica", "name": "Casa Blanca Mexican Restaurant", "image_url": "https://s3-media3.fl.yelpcdn.com/bphoto/_nt4pryuzyaNSamu-c4QFA/o.jpg", "is_closed": false, "url": "https://www.yelp.com/biz/casa-blanca-mexican-restaurant-n-billerica?adjust_creative=HdhkN5EEH6lAqE3kwhsHEQ&utm_campaign=yelp_api_v3&utm_medium=api_v3_business_search&utm_source=HdhkN5EEH6lAqE3kwhsHEQ", "review_count": 180, "categories": [{"alias": "mexican", "title": "Mexican"}], "rating": 3.0, "coordinates": {"latitude": 42.588086, "longitude": -71.306796}, "transactions": ["pickup", "delivery"], "price": "$$", "location": {"address1": "99 Chelmsford Rd", "address2": "", "address3": "", "city": "N Billerica", "zip_code": "01862", "country": "US", "state": "MA", "display_address": ["99 Chelmsford Rd", "N Billerica, MA 01862"]}, "phone": "+19782629030", "display_phone": "(978) 262-9030", "distance": 7177.776261219792}, {"id": "8rCV2oUmJDvB30wq4nBZ0g", "alias": "donelans-supermarket-acton", "name": "Donelan's Supermarket", "image_url": "https://s3-media4.fl.yelpcdn.com/bphoto/MnkN2uSvRXy9V9UefHjsRg/o.jpg", "is_closed": false, "url": "https://www.yelp.com/biz/donelans-supermarket-acton?adjust_creative=HdhkN5EEH6lAqE3kwhsHEQ&utm_campaign=yelp_api_v3&utm_medium=api_v3_business_search&utm_source=HdhkN5EEH6lAqE3kwhsHEQ", "review_count": 39, "categories": [{"alias": "grocery", "title": "Grocery"}, {"alias": "delis", "title": "Delis"}, {"alias": "seafoodmarkets", "title": "Seafood Markets"}], "rating": 3.5, "coordinates": {"latitude": 42.494058606129, "longitude": -71.417516662218}, "transactions": [], "price": "$$", "location": {"address1": "248 Great Rd", "address2": "", "address3": "", "city": "Acton", "zip_code": "01720", "country": "US", "state": "MA", "display_address": ["248 Great Rd", "Acton, MA 01720"]}, "phone": "+19786359893", "display_phone": "(978) 635-9893", "distance": 6877.236625197635}, {"id": "li_Ba23hOchCAIKaLE5NVg", "alias": "pizza-mia-hanscom-air-force-base", "name": "Pizza Mia", "image_url": "https://s3-media2.fl.yelpcdn.com/bphoto/n8Py36key-YOX8y6oYAeoQ/o.jpg", "is_closed": false, "url": "https://www.yelp.com/biz/pizza-mia-hanscom-air-force-base?adjust_creative=HdhkN5EEH6lAqE3kwhsHEQ&utm_campaign=yelp_api_v3&utm_medium=api_v3_business_search&utm_source=HdhkN5EEH6lAqE3kwhsHEQ", "review_count": 8, "categories": [{"alias": "pizza", "title": "Pizza"}], "rating": 3.5, "coordinates": {"latitude": 42.4607081713039, "longitude": -71.2778266273651}, "transactions": ["delivery"], "location": {"address1": "98 Barksdale St", "address2": "", "address3": null, "city": "Hanscom Air Force Base", "zip_code": "01731", "country": "US", "state": "MA", "display_address": ["98 Barksdale St", "Hanscom Air Force Base, MA 01731"]}, "phone": "+17812746000", "display_phone": "(781) 274-6000", "distance": 10108.180522896708}, {"id": "lT_6D1KeunYNTbmjzL28aQ", "alias": "the-great-wall-restaurant-bedford-6", "name": "The Great Wall Restaurant", "image_url": "https://s3-media3.fl.yelpcdn.com/bphoto/yQlFfw2Kzo7JoaoBbUNaEQ/o.jpg", "is_closed": false, "url": "https://www.yelp.com/biz/the-great-wall-restaurant-bedford-6?adjust_creative=HdhkN5EEH6lAqE3kwhsHEQ&utm_campaign=yelp_api_v3&utm_medium=api_v3_business_search&utm_source=HdhkN5EEH6lAqE3kwhsHEQ", "review_count": 127, "categories": [{"alias": "chinese", "title": "Chinese"}, {"alias": "buffets", "title": "Buffets"}], "rating": 3.0, "coordinates": {"latitude": 42.484928, "longitude": -71.26419}, "transactions": ["pickup", "delivery"], "price": "$$", "location": {"address1": "309B Great Rd", "address2": "", "address3": "", "city": "Bedford", "zip_code": "01730", "country": "US", "state": "MA", "display_address": ["309B Great Rd", "Bedford, MA 01730"]}, "phone": "+17812757007", "display_phone": "(781) 275-7007", "distance": 8999.150688697384}, {"id": "ueZX_5VV8nRgpjkmXFN3Iw", "alias": "99-restaurants-billerica-2", "name": "99 Restaurants", "image_url": "https://s3-media1.fl.yelpcdn.com/bphoto/Bolt2ncuvxENBKuBb3GY0A/o.jpg", "is_closed": false, "url": "https://www.yelp.com/biz/99-restaurants-billerica-2?adjust_creative=HdhkN5EEH6lAqE3kwhsHEQ&utm_campaign=yelp_api_v3&utm_medium=api_v3_business_search&utm_source=HdhkN5EEH6lAqE3kwhsHEQ", "review_count": 37, "categories": [{"alias": "tradamerican", "title": "American (Traditional)"}, {"alias": "pubs", "title": "Pubs"}], "rating": 3.0, "coordinates": {"latitude": 42.527957093466, "longitude": -71.2563364835162}, "transactions": [], "price": "$$", "location": {"address1": "160 Lexington Rd", "address2": "", "address3": "", "city": "Billerica", "zip_code": "01821", "country": "US", "state": "MA", "display_address": ["160 Lexington Rd", "Billerica, MA 01821"]}, "phone": "+19786633999", "display_phone": "(978) 663-3999", "distance": 7894.219596996126}, {"id": "Bq_zhxiiHYeDO2IhsHidvQ", "alias": "sorrentos-brick-oven-pizzeria-acton", "name": "Sorrento's Brick Oven Pizzeria", "image_url": "https://s3-media3.fl.yelpcdn.com/bphoto/1T3Nn5xQJCeHcIf6Qv6HFw/o.jpg", "is_closed": false, "url": "https://www.yelp.com/biz/sorrentos-brick-oven-pizzeria-acton?adjust_creative=HdhkN5EEH6lAqE3kwhsHEQ&utm_campaign=yelp_api_v3&utm_medium=api_v3_business_search&utm_source=HdhkN5EEH6lAqE3kwhsHEQ", "review_count": 94, "categories": [{"alias": "pizza", "title": "Pizza"}, {"alias": "italian", "title": "Italian"}], "rating": 3.5, "coordinates": {"latitude": 42.4735904934316, "longitude": -71.4538613494138}, "transactions": ["pickup", "delivery"], "price": "$$", "location": {"address1": "251 Main St", "address2": "", "address3": "", "city": "Acton", "zip_code": "01720", "country": "US", "state": "MA", "display_address": ["251 Main St", "Acton, MA 01720"]}, "phone": "+19782649006", "display_phone": "(978) 264-9006", "distance": 10626.04708906121}, {"id": "ZV8pXUGi3ZMZgjoNqJgZgg", "alias": "bueno-y-sano-acton", "name": "Bueno Y Sano", "image_url": "https://s3-media4.fl.yelpcdn.com/bphoto/IYMIxeVOoW1c_KPevDibuQ/o.jpg", "is_closed": false, "url": "https://www.yelp.com/biz/bueno-y-sano-acton?adjust_creative=HdhkN5EEH6lAqE3kwhsHEQ&utm_campaign=yelp_api_v3&utm_medium=api_v3_business_search&utm_source=HdhkN5EEH6lAqE3kwhsHEQ", "review_count": 140, "categories": [{"alias": "mexican", "title": "Mexican"}, {"alias": "tex-mex", "title": "Tex-Mex"}], "rating": 3.0, "coordinates": {"latitude": 42.47463, "longitude": -71.45357}, "transactions": [], "price": "$", "location": {"address1": "263 Main St", "address2": "", "address3": "", "city": "Acton", "zip_code": "01720", "country": "US", "state": "MA", "display_address": ["263 Main St", "Acton, MA 01720"]}, "phone": "+19782639200", "display_phone": "(978) 263-9200", "distance": 10532.087885925137}, {"id": "H6fQ9lIHkOhb6dP6eE_gqA", "alias": "suppas-pizza-subs-and-seafood-billerica", "name": "Suppa's Pizza, Subs & Seafood", "image_url": "https://s3-media2.fl.yelpcdn.com/bphoto/fqoKBkpL2ybVSZ3nrO64TQ/o.jpg", "is_closed": false, "url": "https://www.yelp.com/biz/suppas-pizza-subs-and-seafood-billerica?adjust_creative=HdhkN5EEH6lAqE3kwhsHEQ&utm_campaign=yelp_api_v3&utm_medium=api_v3_business_search&utm_source=HdhkN5EEH6lAqE3kwhsHEQ", "review_count": 23, "categories": [{"alias": "pizza", "title": "Pizza"}, {"alias": "seafood", "title": "Seafood"}, {"alias": "cheesesteaks", "title": "Cheesesteaks"}], "rating": 3.0, "coordinates": {"latitude": 42.5878172635941, "longitude": -71.3064491288225}, "transactions": ["delivery"], "location": {"address1": "99 Chelmsford Rd", "address2": "", "address3": null, "city": "Billerica", "zip_code": "01862", "country": "US", "state": "MA", "display_address": ["99 Chelmsford Rd", "Billerica, MA 01862"]}, "phone": "+19786674000", "display_phone": "(978) 667-4000", "distance": 7156.577892427464}, {"id": "49e0Lpbovspg8iaQboXGjg", "alias": "pauls-diner-westford", "name": "Paul's Diner", "image_url": "https://s3-media2.fl.yelpcdn.com/bphoto/3Oc0df-vohFH32HjqQorlA/o.jpg", "is_closed": false, "url": "https://www.yelp.com/biz/pauls-diner-westford?adjust_creative=HdhkN5EEH6lAqE3kwhsHEQ&utm_campaign=yelp_api_v3&utm_medium=api_v3_business_search&utm_source=HdhkN5EEH6lAqE3kwhsHEQ", "review_count": 143, "categories": [{"alias": "diners", "title": "Diners"}, {"alias": "breakfast_brunch", "title": "Breakfast & Brunch"}], "rating": 3.5, "coordinates": {"latitude": 42.56581, "longitude": -71.4228}, "transactions": [], "price": "$$", "location": {"address1": "6 Carlisle Rd", "address2": "", "address3": "", "city": "Westford", "zip_code": "01886", "country": "US", "state": "MA", "display_address": ["6 Carlisle Rd", "Westford, MA 01886"]}, "phone": "+19786929269", "display_phone": "(978) 692-9269", "distance": 6820.856104766074}, {"id": "lp7ljnND_WTAW9041dOcnQ", "alias": "jimmys-pizza-chelmsford", "name": "Jimmy's Pizza", "image_url": "https://s3-media2.fl.yelpcdn.com/bphoto/TNO_qNwDkJFfTYSS1XRa3A/o.jpg", "is_closed": false, "url": "https://www.yelp.com/biz/jimmys-pizza-chelmsford?adjust_creative=HdhkN5EEH6lAqE3kwhsHEQ&utm_campaign=yelp_api_v3&utm_medium=api_v3_business_search&utm_source=HdhkN5EEH6lAqE3kwhsHEQ", "review_count": 79, "categories": [{"alias": "pizza", "title": "Pizza"}], "rating": 3.5, "coordinates": {"latitude": 42.602407, "longitude": -71.347411}, "transactions": ["delivery"], "price": "$", "location": {"address1": "2 Alpine Ln", "address2": "", "address3": "", "city": "Chelmsford", "zip_code": "01824", "country": "US", "state": "MA", "display_address": ["2 Alpine Ln", "Chelmsford, MA 01824"]}, "phone": "+19782508100", "display_phone": "(978) 250-8100", "distance": 7706.0725433399875}, {"id": "UZ6NWpy2sJ4_s78sFRSc6g", "alias": "stelios-restaurant-billerica", "name": "Stelios Restaurant", "image_url": "https://s3-media1.fl.yelpcdn.com/bphoto/Ttsr4VwNM2h7twasOzW5tg/o.jpg", "is_closed": false, "url": "https://www.yelp.com/biz/stelios-restaurant-billerica?adjust_creative=HdhkN5EEH6lAqE3kwhsHEQ&utm_campaign=yelp_api_v3&utm_medium=api_v3_business_search&utm_source=HdhkN5EEH6lAqE3kwhsHEQ", "review_count": 102, "categories": [{"alias": "newamerican", "title": "American (New)"}, {"alias": "italian", "title": "Italian"}, {"alias": "seafood", "title": "Seafood"}], "rating": 2.5, "coordinates": {"latitude": 42.5735, "longitude": -71.27975}, "transactions": ["pickup"], "price": "$$", "location": {"address1": "293 Boston Rd", "address2": null, "address3": "", "city": "Billerica", "zip_code": "01862", "country": "US", "state": "MA", "display_address": ["293 Boston Rd", "Billerica, MA 01862"]}, "phone": "+19785285780", "display_phone": "(978) 528-5780", "distance": 7477.471587844706}, {"id": "qgMMNIUvGvQiTo9AuhVFrQ", "alias": "taqueria-bedford-5", "name": "Taqueria", "image_url": "https://s3-media2.fl.yelpcdn.com/bphoto/g2TCycxn_urQW4JV8KGjvw/o.jpg", "is_closed": false, "url": "https://www.yelp.com/biz/taqueria-bedford-5?adjust_creative=HdhkN5EEH6lAqE3kwhsHEQ&utm_campaign=yelp_api_v3&utm_medium=api_v3_business_search&utm_source=HdhkN5EEH6lAqE3kwhsHEQ", "review_count": 1, "categories": [{"alias": "mexican", "title": "Mexican"}], "rating": 3.0, "coordinates": {"latitude": 42.490921, "longitude": -71.273009}, "transactions": [], "location": {"address1": "170 Great Rd", "address2": null, "address3": "Whole Foods Market", "city": "Bedford", "zip_code": "01730", "country": "US", "state": "MA", "display_address": ["170 Great Rd", "Whole Foods Market", "Bedford, MA 01730"]}, "phone": "+17812758264", "display_phone": "(781) 275-8264", "distance": 8024.686397351166}, {"id": "OkB4eTW7dXyazwrmvmJNVw", "alias": "souped-up-food-billerica", "name": "Souped Up Food", "image_url": "https://s3-media1.fl.yelpcdn.com/bphoto/q72dJDqROrXj2hHd0PL5iA/o.jpg", "is_closed": false, "url": "https://www.yelp.com/biz/souped-up-food-billerica?adjust_creative=HdhkN5EEH6lAqE3kwhsHEQ&utm_campaign=yelp_api_v3&utm_medium=api_v3_business_search&utm_source=HdhkN5EEH6lAqE3kwhsHEQ", "review_count": 3, "categories": [{"alias": "foodtrucks", "title": "Food Trucks"}, {"alias": "salad", "title": "Salad"}, {"alias": "sandwiches", "title": "Sandwiches"}], "rating": 4.5, "coordinates": {"latitude": 42.55582, "longitude": -71.26625}, "transactions": [], "location": {"address1": "", "address2": "", "address3": "", "city": "Billerica", "zip_code": "01821", "country": "US", "state": "MA", "display_address": ["Billerica, MA 01821"]}, "phone": "+17814393925", "display_phone": "(781) 439-3925", "distance": 8379.880166050216}, {"id": "6Vu3RyO_4AU1FjcdAkdcQA", "alias": "walden-italian-kitchen-concord", "name": "Walden Italian Kitchen", "image_url": "https://s3-media2.fl.yelpcdn.com/bphoto/TorHuHRcDTZ0btNdrWo9jQ/o.jpg", "is_closed": false, "url": "https://www.yelp.com/biz/walden-italian-kitchen-concord?adjust_creative=HdhkN5EEH6lAqE3kwhsHEQ&utm_campaign=yelp_api_v3&utm_medium=api_v3_business_search&utm_source=HdhkN5EEH6lAqE3kwhsHEQ", "review_count": 53, "categories": [{"alias": "italian", "title": "Italian"}, {"alias": "pizza", "title": "Pizza"}], "rating": 3.5, "coordinates": {"latitude": 42.4573899, "longitude": -71.39527}, "transactions": [], "price": "$$", "location": {"address1": "92 Commonwealth Ave", "address2": "", "address3": "", "city": "Concord", "zip_code": "01742", "country": "US", "state": "MA", "display_address": ["92 Commonwealth Ave", "Concord, MA 01742"]}, "phone": "+19783696655", "display_phone": "(978) 369-6655", "distance": 9134.50019411951}, {"id": "jJ7Hrfm8OkAQbXBfXotCiA", "alias": "99-restaurants-westford-westford-6", "name": "99 Restaurants - Westford", "image_url": "https://s3-media4.fl.yelpcdn.com/bphoto/OPyCcAO1G5QpJzzqfncAqw/o.jpg", "is_closed": false, "url": "https://www.yelp.com/biz/99-restaurants-westford-westford-6?adjust_creative=HdhkN5EEH6lAqE3kwhsHEQ&utm_campaign=yelp_api_v3&utm_medium=api_v3_business_search&utm_source=HdhkN5EEH6lAqE3kwhsHEQ", "review_count": 56, "categories": [{"alias": "pubs", "title": "Pubs"}, {"alias": "tradamerican", "title": "American (Traditional)"}, {"alias": "desserts", "title": "Desserts"}], "rating": 2.5, "coordinates": {"latitude": 42.55518, "longitude": -71.4482}, "transactions": [], "price": "$$", "location": {"address1": "333 Littleton Rd", "address2": "", "address3": "", "city": "Westford", "zip_code": "01886", "country": "US", "state": "MA", "display_address": ["333 Littleton Rd", "Westford, MA 01886"]}, "phone": "+19785899948", "display_phone": "(978) 589-9948", "distance": 8181.8159498072755}, {"id": "Aoxeoei1tmYS61yUVvbHfQ", "alias": "feel-good-cafe-north-billerica", "name": "Feel Good Cafe", "image_url": "https://s3-media2.fl.yelpcdn.com/bphoto/dg5IZOmrwV4ozjZ4s0V1MA/o.jpg", "is_closed": false, "url": "https://www.yelp.com/biz/feel-good-cafe-north-billerica?adjust_creative=HdhkN5EEH6lAqE3kwhsHEQ&utm_campaign=yelp_api_v3&utm_medium=api_v3_business_search&utm_source=HdhkN5EEH6lAqE3kwhsHEQ", "review_count": 26, "categories": [{"alias": "coffee", "title": "Coffee & Tea"}, {"alias": "breakfast_brunch", "title": "Breakfast & Brunch"}, {"alias": "juicebars", "title": "Juice Bars & Smoothies"}], "rating": 4.0, "coordinates": {"latitude": 42.588123, "longitude": -71.3065923750401}, "transactions": ["pickup", "delivery"], "price": "$", "location": {"address1": "99 Chelmsford Rd", "address2": "", "address3": null, "city": "North Billerica", "zip_code": "01862", "country": "US", "state": "MA", "display_address": ["99 Chelmsford Rd", "North Billerica, MA 01862"]}, "phone": "+19783621713", "display_phone": "(978) 362-1713", "distance": 7179.364195054259}, {"id": "qu1pHRdMInfrqAPP6vn0Bg", "alias": "kates-corner-chelmsford", "name": "Kate's Corner", "image_url": "", "is_closed": false, "url": "https://www.yelp.com/biz/kates-corner-chelmsford?adjust_creative=HdhkN5EEH6lAqE3kwhsHEQ&utm_campaign=yelp_api_v3&utm_medium=api_v3_business_search&utm_source=HdhkN5EEH6lAqE3kwhsHEQ", "review_count": 3, "categories": [{"alias": "sandwiches", "title": "Sandwiches"}, {"alias": "convenience", "title": "Convenience Stores"}, {"alias": "delis", "title": "Delis"}], "rating": 3.5, "coordinates": {"latitude": 42.571197, "longitude": -71.377516}, "transactions": [], "price": "$", "location": {"address1": "321 Acton Rd", "address2": "", "address3": "", "city": "Chelmsford", "zip_code": "01824", "country": "US", "state": "MA", "display_address": ["321 Acton Rd", "Chelmsford, MA 01824"]}, "phone": "+19782568378", "display_phone": "(978) 256-8378", "distance": 4706.702207189755}, {"id": "XbhM7IXOwY3uyv4vOW-c4w", "alias": "haute-coffee-concord", "name": "Haute Coffee", "image_url": "https://s3-media4.fl.yelpcdn.com/bphoto/UGwDHJBkUrZPnlwAgtrPVg/o.jpg", "is_closed": false, "url": "https://www.yelp.com/biz/haute-coffee-concord?adjust_creative=HdhkN5EEH6lAqE3kwhsHEQ&utm_campaign=yelp_api_v3&utm_medium=api_v3_business_search&utm_source=HdhkN5EEH6lAqE3kwhsHEQ", "review_count": 249, "categories": [{"alias": "coffee", "title": "Coffee & Tea"}, {"alias": "breakfast_brunch", "title": "Breakfast & Brunch"}, {"alias": "cafes", "title": "Cafes"}], "rating": 4.5, "coordinates": {"latitude": 42.4594449165887, "longitude": -71.3505581397343}, "transactions": [], "price": "$$", "location": {"address1": "12 Walden St", "address2": "", "address3": "", "city": "Concord", "zip_code": "01742", "country": "US", "state": "MA", "display_address": ["12 Walden St", "Concord, MA 01742"]}, "phone": "+19783699900", "display_phone": "(978) 369-9900", "distance": 8189.906983106973}, {"id": "EKgvGpDEBmBgRwl22dRrvg", "alias": "panera-bread-billerica", "name": "Panera Bread", "image_url": "https://s3-media2.fl.yelpcdn.com/bphoto/uLc0g5yyBlnyq1euvyFfXg/o.jpg", "is_closed": false, "url": "https://www.yelp.com/biz/panera-bread-billerica?adjust_creative=HdhkN5EEH6lAqE3kwhsHEQ&utm_campaign=yelp_api_v3&utm_medium=api_v3_business_search&utm_source=HdhkN5EEH6lAqE3kwhsHEQ", "review_count": 25, "categories": [{"alias": "soup", "title": "Soup"}, {"alias": "sandwiches", "title": "Sandwiches"}, {"alias": "salad", "title": "Salad"}], "rating": 1.5, "coordinates": {"latitude": 42.5830098, "longitude": -71.2895666}, "transactions": ["delivery"], "location": {"address1": "188 Boston Rd", "address2": "", "address3": null, "city": "Billerica", "zip_code": "01862", "country": "US", "state": "MA", "display_address": ["188 Boston Rd", "Billerica, MA 01862"]}, "phone": "+19783307386", "display_phone": "(978) 330-7386", "distance": 7571.190444183559}, {"id": "KJMRfFi68V2g05bgp8INeA", "alias": "zestys-pizza-chelmsford-3", "name": "Zesty's Pizza", "image_url": "https://s3-media2.fl.yelpcdn.com/bphoto/NEOQbe3AOHo3oWiAu9LYGg/o.jpg", "is_closed": false, "url": "https://www.yelp.com/biz/zestys-pizza-chelmsford-3?adjust_creative=HdhkN5EEH6lAqE3kwhsHEQ&utm_campaign=yelp_api_v3&utm_medium=api_v3_business_search&utm_source=HdhkN5EEH6lAqE3kwhsHEQ", "review_count": 76, "categories": [{"alias": "pizza", "title": "Pizza"}, {"alias": "sandwiches", "title": "Sandwiches"}, {"alias": "pastashops", "title": "Pasta Shops"}], "rating": 4.0, "coordinates": {"latitude": 42.60021, "longitude": -71.3493}, "transactions": ["delivery"], "price": "$", "location": {"address1": "14 Fletcher St", "address2": "", "address3": "", "city": "Chelmsford", "zip_code": "01824", "country": "US", "state": "MA", "display_address": ["14 Fletcher St", "Chelmsford, MA 01824"]}, "phone": "+19782568863", "display_phone": "(978) 256-8863", "distance": 7483.775816805401}, {"id": "2ZyGBeh3zhC1z-hj0ryy6w", "alias": "north-end-pizzeria-acton-2", "name": "North End Pizzeria", "image_url": "https://s3-media1.fl.yelpcdn.com/bphoto/BUSVuHEU--0f1mX29MKDvw/o.jpg", "is_closed": false, "url": "https://www.yelp.com/biz/north-end-pizzeria-acton-2?adjust_creative=HdhkN5EEH6lAqE3kwhsHEQ&utm_campaign=yelp_api_v3&utm_medium=api_v3_business_search&utm_source=HdhkN5EEH6lAqE3kwhsHEQ", "review_count": 5, "categories": [{"alias": "pizza", "title": "Pizza"}], "rating": 3.0, "coordinates": {"latitude": 42.4853973, "longitude": -71.4167099}, "transactions": [], "price": "$$", "location": {"address1": "168 Great Rd", "address2": "", "address3": "", "city": "Acton", "zip_code": "01720", "country": "US", "state": "MA", "display_address": ["168 Great Rd", "Acton, MA 01720"]}, "phone": "+19782639111", "display_phone": "(978) 263-9111", "distance": 7492.382701567815}, {"id": "seMaQ-_ZxBHzOdAHaiogMA", "alias": "riverview-restaurant-billerica", "name": "Riverview Restaurant", "image_url": "https://s3-media1.fl.yelpcdn.com/bphoto/aa2L-o0X9hcUCDvFzJCdmw/o.jpg", "is_closed": false, "url": "https://www.yelp.com/biz/riverview-restaurant-billerica?adjust_creative=HdhkN5EEH6lAqE3kwhsHEQ&utm_campaign=yelp_api_v3&utm_medium=api_v3_business_search&utm_source=HdhkN5EEH6lAqE3kwhsHEQ", "review_count": 43, "categories": [{"alias": "coffee", "title": "Coffee & Tea"}, {"alias": "breakfast_brunch", "title": "Breakfast & Brunch"}, {"alias": "burgers", "title": "Burgers"}], "rating": 3.5, "coordinates": {"latitude": 42.535186, "longitude": -71.300457}, "transactions": [], "price": "$", "location": {"address1": "263 Nashua Rd", "address2": "", "address3": "", "city": "Billerica", "zip_code": "01821", "country": "US", "state": "MA", "display_address": ["263 Nashua Rd", "Billerica, MA 01821"]}, "phone": "+19786632515", "display_phone": "(978) 663-2515", "distance": 4259.569953392915}, {"id": "pOXNtTJKmBVfkravtYsZCw", "alias": "b-good-bedford", "name": "B.GOOD", "image_url": "https://s3-media1.fl.yelpcdn.com/bphoto/QatHzOs-D94XO5QRMuBCFA/o.jpg", "is_closed": false, "url": "https://www.yelp.com/biz/b-good-bedford?adjust_creative=HdhkN5EEH6lAqE3kwhsHEQ&utm_campaign=yelp_api_v3&utm_medium=api_v3_business_search&utm_source=HdhkN5EEH6lAqE3kwhsHEQ", "review_count": 108, "categories": [{"alias": "salad", "title": "Salad"}, {"alias": "sandwiches", "title": "Sandwiches"}, {"alias": "breakfast_brunch", "title": "Breakfast & Brunch"}], "rating": 3.0, "coordinates": {"latitude": 42.49008, "longitude": -71.27432}, "transactions": ["pickup", "delivery"], "price": "$$", "location": {"address1": "168 Great Rd", "address2": "", "address3": "", "city": "Bedford", "zip_code": "01730", "country": "US", "state": "MA", "display_address": ["168 Great Rd", "Bedford, MA 01730"]}, "phone": "+17814576106", "display_phone": "(781) 457-6106", "distance": 7991.10592483764}, {"id": "CnOH_VP0QcbeBouOo_QnlA", "alias": "kjs-caffe-chelmsford", "name": "KJ's Caffe", "image_url": "https://s3-media3.fl.yelpcdn.com/bphoto/fdwtoA1m0Q3e6kWlg7GRgA/o.jpg", "is_closed": false, "url": "https://www.yelp.com/biz/kjs-caffe-chelmsford?adjust_creative=HdhkN5EEH6lAqE3kwhsHEQ&utm_campaign=yelp_api_v3&utm_medium=api_v3_business_search&utm_source=HdhkN5EEH6lAqE3kwhsHEQ", "review_count": 29, "categories": [{"alias": "sandwiches", "title": "Sandwiches"}, {"alias": "coffee", "title": "Coffee & Tea"}], "rating": 4.0, "coordinates": {"latitude": 42.60348, "longitude": -71.34637}, "transactions": ["pickup", "delivery"], "location": {"address1": "118 Chelmsford St", "address2": "", "address3": null, "city": "Chelmsford", "zip_code": "01824", "country": "US", "state": "MA", "display_address": ["118 Chelmsford St", "Chelmsford, MA 01824"]}, "phone": "+19784552534", "display_phone": "(978) 455-2534", "distance": 7834.613974972956}, {"id": "7S_YG0uldGzJ79MSWD9Bqw", "alias": "supreme-house-of-pizza-north-billerica", "name": "Supreme House of Pizza", "image_url": "https://s3-media3.fl.yelpcdn.com/bphoto/bH8R2xX7rfaU6HwTxsSnmg/o.jpg", "is_closed": false, "url": "https://www.yelp.com/biz/supreme-house-of-pizza-north-billerica?adjust_creative=HdhkN5EEH6lAqE3kwhsHEQ&utm_campaign=yelp_api_v3&utm_medium=api_v3_business_search&utm_source=HdhkN5EEH6lAqE3kwhsHEQ", "review_count": 27, "categories": [{"alias": "pizza", "title": "Pizza"}], "rating": 3.0, "coordinates": {"latitude": 42.59111, "longitude": -71.29707}, "transactions": ["pickup", "delivery"], "price": "$", "location": {"address1": "95 Boston Rd", "address2": "", "address3": "", "city": "North Billerica", "zip_code": "01862", "country": "US", "state": "MA", "display_address": ["95 Boston Rd", "North Billerica, MA 01862"]}, "phone": "+19786632211", "display_phone": "(978) 663-2211", "distance": 7889.658477901762}, {"id": "2PSo6Ia9jNq5e_9ybxZ6Hg", "alias": "independence-bar-and-grill-chelmsford", "name": "Independence Bar & Grill", "image_url": "https://s3-media4.fl.yelpcdn.com/bphoto/Wm-siZdE-8IA1iTz2gqpKQ/o.jpg", "is_closed": false, "url": "https://www.yelp.com/biz/independence-bar-and-grill-chelmsford?adjust_creative=HdhkN5EEH6lAqE3kwhsHEQ&utm_campaign=yelp_api_v3&utm_medium=api_v3_business_search&utm_source=HdhkN5EEH6lAqE3kwhsHEQ", "review_count": 10, "categories": [{"alias": "bars", "title": "Bars"}, {"alias": "tradamerican", "title": "American (Traditional)"}], "rating": 2.5, "coordinates": {"latitude": 42.603592, "longitude": -71.347653}, "transactions": ["delivery"], "location": {"address1": "10 Independence Dr", "address2": "", "address3": "", "city": "Chelmsford", "zip_code": "01824", "country": "US", "state": "MA", "display_address": ["10 Independence Dr", "Chelmsford, MA 01824"]}, "phone": "+19782440500", "display_phone": "(978) 244-0500", "distance": 7849.661315357819}, {"id": "Mbg0ffdui-UUkTanQrfzBg", "alias": "express-pizza-bedford-bedford", "name": "Express Pizza Bedford", "image_url": "https://s3-media1.fl.yelpcdn.com/bphoto/kp2izu_M1BCIMjY6GNs3MQ/o.jpg", "is_closed": false, "url": "https://www.yelp.com/biz/express-pizza-bedford-bedford?adjust_creative=HdhkN5EEH6lAqE3kwhsHEQ&utm_campaign=yelp_api_v3&utm_medium=api_v3_business_search&utm_source=HdhkN5EEH6lAqE3kwhsHEQ", "review_count": 46, "categories": [{"alias": "pizza", "title": "Pizza"}, {"alias": "cupcakes", "title": "Cupcakes"}, {"alias": "salad", "title": "Salad"}], "rating": 3.5, "coordinates": {"latitude": 42.486762, "longitude": -71.276602}, "transactions": ["pickup", "delivery"], "price": "$", "location": {"address1": "65 Loomis St", "address2": "", "address3": "", "city": "Bedford", "zip_code": "01730", "country": "US", "state": "MA", "display_address": ["65 Loomis St", "Bedford, MA 01730"]}, "phone": "+17812753858", "display_phone": "(781) 275-3858", "distance": 8074.336870496012}, {"id": "HCLMxvQtHAN9Nf6eHGNrzA", "alias": "sakura-japanese-cuisine-chelmsford", "name": "Sakura Japanese Cuisine", "image_url": "https://s3-media4.fl.yelpcdn.com/bphoto/xc9jRh4miX1m0QFNvcII1Q/o.jpg", "is_closed": false, "url": "https://www.yelp.com/biz/sakura-japanese-cuisine-chelmsford?adjust_creative=HdhkN5EEH6lAqE3kwhsHEQ&utm_campaign=yelp_api_v3&utm_medium=api_v3_business_search&utm_source=HdhkN5EEH6lAqE3kwhsHEQ", "review_count": 59, "categories": [{"alias": "japanese", "title": "Japanese"}, {"alias": "sushi", "title": "Sushi Bars"}], "rating": 3.5, "coordinates": {"latitude": 42.59392, "longitude": -71.34935}, "transactions": ["pickup", "delivery"], "price": "$$", "location": {"address1": "7 Summer St", "address2": "", "address3": "", "city": "Chelmsford", "zip_code": "01824", "country": "US", "state": "MA", "display_address": ["7 Summer St", "Chelmsford, MA 01824"]}, "phone": "+19782441228", "display_phone": "(978) 244-1228", "distance": 6748.615707113106}, {"id": "4PsubcSmfbwt6aNaiDIvlQ", "alias": "hong-and-kong-restaurant-and-lounge-chelmsford-3", "name": "Hong & Kong Restaurant & Lounge", "image_url": "https://s3-media4.fl.yelpcdn.com/bphoto/nNvfMtVPLmqbBu2kMUGV2w/o.jpg", "is_closed": false, "url": "https://www.yelp.com/biz/hong-and-kong-restaurant-and-lounge-chelmsford-3?adjust_creative=HdhkN5EEH6lAqE3kwhsHEQ&utm_campaign=yelp_api_v3&utm_medium=api_v3_business_search&utm_source=HdhkN5EEH6lAqE3kwhsHEQ", "review_count": 79, "categories": [{"alias": "chinese", "title": "Chinese"}], "rating": 2.5, "coordinates": {"latitude": 42.60255, "longitude": -71.3483}, "transactions": ["pickup", "delivery"], "price": "$", "location": {"address1": "32 Alpine Ln", "address2": "", "address3": "", "city": "Chelmsford", "zip_code": "01824", "country": "US", "state": "MA", "display_address": ["32 Alpine Ln", "Chelmsford, MA 01824"]}, "phone": "+19782566321", "display_phone": "(978) 256-6321", "distance": 7733.9359244012585}, {"id": "VZDBxROIfvir7XHGQQu-Wg", "alias": "cafe-at-lexington-crossing-lexington", "name": "Cafe At Lexington Crossing", "image_url": "https://s3-media2.fl.yelpcdn.com/bphoto/hObvVrs3fO9DQyMCeRYicw/o.jpg", "is_closed": false, "url": "https://www.yelp.com/biz/cafe-at-lexington-crossing-lexington?adjust_creative=HdhkN5EEH6lAqE3kwhsHEQ&utm_campaign=yelp_api_v3&utm_medium=api_v3_business_search&utm_source=HdhkN5EEH6lAqE3kwhsHEQ", "review_count": 3, "categories": [{"alias": "cafes", "title": "Cafes"}], "rating": 3.5, "coordinates": {"latitude": 42.4687309, "longitude": -71.2624969}, "transactions": ["delivery"], "price": "$", "location": {"address1": "81 Hartwell Ave", "address2": null, "address3": "", "city": "Lexington", "zip_code": "02421", "country": "US", "state": "MA", "display_address": ["81 Hartwell Ave", "Lexington, MA 02421"]}, "phone": "+17815386854", "display_phone": "(781) 538-6854", "distance": 10235.113249096217}, {"id": "47n16HJGImCJlwkx0bdkSA", "alias": "meat-again-north-billerica", "name": "Meat Again", "image_url": "https://s3-media4.fl.yelpcdn.com/bphoto/b-mikUZWETjy6D2Bo3zNnA/o.jpg", "is_closed": false, "url": "https://www.yelp.com/biz/meat-again-north-billerica?adjust_creative=HdhkN5EEH6lAqE3kwhsHEQ&utm_campaign=yelp_api_v3&utm_medium=api_v3_business_search&utm_source=HdhkN5EEH6lAqE3kwhsHEQ", "review_count": 30, "categories": [{"alias": "meats", "title": "Meat Shops"}, {"alias": "sandwiches", "title": "Sandwiches"}, {"alias": "delis", "title": "Delis"}], "rating": 4.0, "coordinates": {"latitude": 42.57345, "longitude": -71.27804}, "transactions": ["delivery"], "price": "$", "location": {"address1": "306 Boston Rd", "address2": "", "address3": "", "city": "North Billerica", "zip_code": "01862", "country": "US", "state": "MA", "display_address": ["306 Boston Rd", "North Billerica, MA 01862"]}, "phone": "+19786675556", "display_phone": "(978) 667-5556", "distance": 7544.229754288451}, {"id": "P190m513uDcrpujYnAAnzA", "alias": "cafe-12-chelmsford", "name": "Cafe 12", "image_url": "https://s3-media1.fl.yelpcdn.com/bphoto/pKjkWKObHlgHLwMggOEvPQ/o.jpg", "is_closed": false, "url": "https://www.yelp.com/biz/cafe-12-chelmsford?adjust_creative=HdhkN5EEH6lAqE3kwhsHEQ&utm_campaign=yelp_api_v3&utm_medium=api_v3_business_search&utm_source=HdhkN5EEH6lAqE3kwhsHEQ", "review_count": 81, "categories": [{"alias": "breakfast_brunch", "title": "Breakfast & Brunch"}, {"alias": "sandwiches", "title": "Sandwiches"}, {"alias": "cupcakes", "title": "Cupcakes"}], "rating": 4.0, "coordinates": {"latitude": 42.597459, "longitude": -71.351197}, "transactions": ["delivery"], "price": "$$", "location": {"address1": "12 Chelmsford St", "address2": "", "address3": "", "city": "Chelmsford", "zip_code": "01824", "country": "US", "state": "MA", "display_address": ["12 Chelmsford St", "Chelmsford, MA 01824"]}, "phone": "+19782565540", "display_phone": "(978) 256-5540", "distance": 7158.677632385179}, {"id": "_Q2daKk841rZX1ACbXkPUQ", "alias": "liberty-bell-roast-beef-billerica", "name": "Liberty Bell Roast Beef", "image_url": "https://s3-media1.fl.yelpcdn.com/bphoto/5vw6VgjvM26PimW3_vzICg/o.jpg", "is_closed": false, "url": "https://www.yelp.com/biz/liberty-bell-roast-beef-billerica?adjust_creative=HdhkN5EEH6lAqE3kwhsHEQ&utm_campaign=yelp_api_v3&utm_medium=api_v3_business_search&utm_source=HdhkN5EEH6lAqE3kwhsHEQ", "review_count": 70, "categories": [{"alias": "sandwiches", "title": "Sandwiches"}, {"alias": "seafood", "title": "Seafood"}, {"alias": "pizza", "title": "Pizza"}], "rating": 3.0, "coordinates": {"latitude": 42.559428, "longitude": -71.268411}, "transactions": [], "price": "$", "location": {"address1": "420 Boston Rd", "address2": "", "address3": "", "city": "Billerica", "zip_code": "01821", "country": "US", "state": "MA", "display_address": ["420 Boston Rd", "Billerica, MA 01821"]}, "phone": "+19786672355", "display_phone": "(978) 667-2355", "distance": 7453.004132417429}, {"id": "nN2pQGCoIiE-NoFjZOzVbg", "alias": "milano-house-of-pizza-north-billerica", "name": "Milano House of Pizza", "image_url": "https://s3-media2.fl.yelpcdn.com/bphoto/wjN1hXOVvjJgYKq0WPSeCA/o.jpg", "is_closed": false, "url": "https://www.yelp.com/biz/milano-house-of-pizza-north-billerica?adjust_creative=HdhkN5EEH6lAqE3kwhsHEQ&utm_campaign=yelp_api_v3&utm_medium=api_v3_business_search&utm_source=HdhkN5EEH6lAqE3kwhsHEQ", "review_count": 36, "categories": [{"alias": "pizza", "title": "Pizza"}], "rating": 3.0, "coordinates": {"latitude": 42.583019, "longitude": -71.290901}, "transactions": ["delivery"], "price": "$", "location": {"address1": "175 Boston Rd", "address2": "", "address3": "", "city": "North Billerica", "zip_code": "01862", "country": "US", "state": "MA", "display_address": ["175 Boston Rd", "North Billerica, MA 01862"]}, "phone": "+19786634339", "display_phone": "(978) 663-4339", "distance": 7510.045456866246}, {"id": "sHHBtSWOBU8ifxe0IzXEXw", "alias": "bella-pizzeria-north-billerica", "name": "Bella Pizzeria", "image_url": "https://s3-media2.fl.yelpcdn.com/bphoto/5lr885KV4CAwupU5PNmnHw/o.jpg", "is_closed": false, "url": "https://www.yelp.com/biz/bella-pizzeria-north-billerica?adjust_creative=HdhkN5EEH6lAqE3kwhsHEQ&utm_campaign=yelp_api_v3&utm_medium=api_v3_business_search&utm_source=HdhkN5EEH6lAqE3kwhsHEQ", "review_count": 58, "categories": [{"alias": "pizza", "title": "Pizza"}, {"alias": "italian", "title": "Italian"}, {"alias": "soup", "title": "Soup"}], "rating": 3.0, "coordinates": {"latitude": 42.5881415484587, "longitude": -71.2956484006005}, "transactions": ["pickup", "delivery"], "price": "$", "location": {"address1": "113 Boston Rd", "address2": "", "address3": "", "city": "North Billerica", "zip_code": "01862", "country": "US", "state": "MA", "display_address": ["113 Boston Rd", "North Billerica, MA 01862"]}, "phone": "+19786701118", "display_phone": "(978) 670-1118", "distance": 7687.726140611392}, {"id": "84UFpTr2y2iq0tWQMXNitg", "alias": "subway-acton-6", "name": "Subway", "image_url": "https://s3-media1.fl.yelpcdn.com/bphoto/-YXngGQWFU0CcLlsUL-78w/o.jpg", "is_closed": false, "url": "https://www.yelp.com/biz/subway-acton-6?adjust_creative=HdhkN5EEH6lAqE3kwhsHEQ&utm_campaign=yelp_api_v3&utm_medium=api_v3_business_search&utm_source=HdhkN5EEH6lAqE3kwhsHEQ", "review_count": 4, "categories": [{"alias": "sandwiches", "title": "Sandwiches"}], "rating": 4.0, "coordinates": {"latitude": 42.4804256055956, "longitude": -71.4152270489663}, "transactions": [], "price": "$", "location": {"address1": "134 Great Rd", "address2": "", "address3": "", "city": "Acton", "zip_code": "01720", "country": "US", "state": "MA", "display_address": ["134 Great Rd", "Acton, MA 01720"]}, "phone": "+19782638875", "display_phone": "(978) 263-8875", "distance": 7796.790633663878}, {"id": "2ljjKlzb_Ir0HsP-2wVuCA", "alias": "golden-crown-ii-billerica", "name": "Golden Crown II", "image_url": "https://s3-media4.fl.yelpcdn.com/bphoto/648g_lk3iENb8mBvP9bCWQ/o.jpg", "is_closed": false, "url": "https://www.yelp.com/biz/golden-crown-ii-billerica?adjust_creative=HdhkN5EEH6lAqE3kwhsHEQ&utm_campaign=yelp_api_v3&utm_medium=api_v3_business_search&utm_source=HdhkN5EEH6lAqE3kwhsHEQ", "review_count": 13, "categories": [{"alias": "chinese", "title": "Chinese"}], "rating": 3.0, "coordinates": {"latitude": 42.59111, "longitude": -71.29707}, "transactions": ["pickup", "delivery"], "price": "$$", "location": {"address1": "95 Boston Rd", "address2": "", "address3": "", "city": "Billerica", "zip_code": "01862", "country": "US", "state": "MA", "display_address": ["95 Boston Rd", "Billerica, MA 01862"]}, "phone": "+19786678108", "display_phone": "(978) 667-8108", "distance": 7889.658477901762}, {"id": "JCdIC9tTKoy6Exi9bpnGmw", "alias": "tc-landos-acton", "name": "TC Lando's", "image_url": "https://s3-media3.fl.yelpcdn.com/bphoto/V1he9hMTEm-JYEjtdjGWUw/o.jpg", "is_closed": false, "url": "https://www.yelp.com/biz/tc-landos-acton?adjust_creative=HdhkN5EEH6lAqE3kwhsHEQ&utm_campaign=yelp_api_v3&utm_medium=api_v3_business_search&utm_source=HdhkN5EEH6lAqE3kwhsHEQ", "review_count": 155, "categories": [{"alias": "pizza", "title": "Pizza"}, {"alias": "sandwiches", "title": "Sandwiches"}, {"alias": "italian", "title": "Italian"}], "rating": 3.5, "coordinates": {"latitude": 42.4761672, "longitude": -71.4515324}, "transactions": [], "price": "$", "location": {"address1": "297 Main St", "address2": "", "address3": "", "city": "Acton", "zip_code": "01720", "country": "US", "state": "MA", "display_address": ["297 Main St", "Acton, MA 01720"]}, "phone": "+19789299955", "display_phone": "(978) 929-9955", "distance": 10270.029770518508}, {"id": "DzR3SDSi5cWl6dfeyvjCvg", "alias": "epicurean-feast-chelmsford", "name": "Epicurean Feast", "image_url": "https://s3-media2.fl.yelpcdn.com/bphoto/asNgpWrkdB7qQ3QFpg8nWA/o.jpg", "is_closed": false, "url": "https://www.yelp.com/biz/epicurean-feast-chelmsford?adjust_creative=HdhkN5EEH6lAqE3kwhsHEQ&utm_campaign=yelp_api_v3&utm_medium=api_v3_business_search&utm_source=HdhkN5EEH6lAqE3kwhsHEQ", "review_count": 1, "categories": [{"alias": "breakfast_brunch", "title": "Breakfast & Brunch"}, {"alias": "coffee", "title": "Coffee & Tea"}], "rating": 3.0, "coordinates": {"latitude": 42.5845091098314, "longitude": -71.3126342809278}, "transactions": [], "location": {"address1": "271 Mill Rd", "address2": "", "address3": null, "city": "Chelmsford", "zip_code": "01824", "country": "US", "state": "MA", "display_address": ["271 Mill Rd", "Chelmsford, MA 01824"]}, "phone": "+19782441006", "display_phone": "(978) 244-1006", "distance": 6581.54411458512}, {"id": "AnQ9_QGN5OzCYt3_o1i0lg", "alias": "chipotle-mexican-grill-billerica", "name": "Chipotle Mexican Grill", "image_url": "https://s3-media2.fl.yelpcdn.com/bphoto/mHDdGVRHopTHSoqmrdG64g/o.jpg", "is_closed": false, "url": "https://www.yelp.com/biz/chipotle-mexican-grill-billerica?adjust_creative=HdhkN5EEH6lAqE3kwhsHEQ&utm_campaign=yelp_api_v3&utm_medium=api_v3_business_search&utm_source=HdhkN5EEH6lAqE3kwhsHEQ", "review_count": 22, "categories": [{"alias": "mexican", "title": "Mexican"}, {"alias": "hotdogs", "title": "Fast Food"}], "rating": 2.5, "coordinates": {"latitude": 42.5804513389818, "longitude": -71.2881531532862}, "transactions": ["delivery"], "price": "$", "location": {"address1": "199 Boston Rd", "address2": "", "address3": "", "city": "Billerica", "zip_code": "01862", "country": "US", "state": "MA", "display_address": ["199 Boston Rd", "Billerica, MA 01862"]}, "phone": "+19786671980", "display_phone": "(978) 667-1980", "distance": 7446.602945551614}, {"id": "PdQo0wFfXE3RTV8JbV7aaQ", "alias": "froots-bedford", "name": "Froots", "image_url": "https://s3-media1.fl.yelpcdn.com/bphoto/dKwoloLr5bunp094DHqRRg/o.jpg", "is_closed": false, "url": "https://www.yelp.com/biz/froots-bedford?adjust_creative=HdhkN5EEH6lAqE3kwhsHEQ&utm_campaign=yelp_api_v3&utm_medium=api_v3_business_search&utm_source=HdhkN5EEH6lAqE3kwhsHEQ", "review_count": 8, "categories": [{"alias": "juicebars", "title": "Juice Bars & Smoothies"}, {"alias": "sandwiches", "title": "Sandwiches"}, {"alias": "sushi", "title": "Sushi Bars"}], "rating": 3.5, "coordinates": {"latitude": 42.4635100364685, "longitude": -71.2840792536736}, "transactions": [], "price": "$$", "location": {"address1": "100 Eglin St", "address2": "Ste 1709B", "address3": "", "city": "Bedford", "zip_code": "01731", "country": "US", "state": "MA", "display_address": ["100 Eglin St", "Ste 1709B", "Bedford, MA 01731"]}, "phone": "+17818639900", "display_phone": "(781) 863-9900", "distance": 9411.091731763077}, {"id": "rkVtswrgylGp37n0JC6DuA", "alias": "a-and-p-pizza-and-sub-shop-hanscom-afb", "name": "A & P Pizza & Sub Shop", "image_url": "", "is_closed": false, "url": "https://www.yelp.com/biz/a-and-p-pizza-and-sub-shop-hanscom-afb?adjust_creative=HdhkN5EEH6lAqE3kwhsHEQ&utm_campaign=yelp_api_v3&utm_medium=api_v3_business_search&utm_source=HdhkN5EEH6lAqE3kwhsHEQ", "review_count": 2, "categories": [{"alias": "pizza", "title": "Pizza"}], "rating": 2.5, "coordinates": {"latitude": 42.46153, "longitude": -71.27786}, "transactions": [], "price": "$", "location": {"address1": "1534 Barksdale", "address2": "", "address3": "", "city": "Hanscom AFB", "zip_code": "01731", "country": "US", "state": "MA", "display_address": ["1534 Barksdale", "Hanscom AFB, MA 01731"]}, "phone": "+17812740133", "display_phone": "(781) 274-0133", "distance": 10052.131212625665}, {"id": "95VmyEI4IbRUvCr6A7cRiA", "alias": "sun-valley-subs-bedford", "name": "Sun Valley Subs", "image_url": "https://s3-media4.fl.yelpcdn.com/bphoto/NTOQOtX4154AkR_XnTyCPg/o.jpg", "is_closed": false, "url": "https://www.yelp.com/biz/sun-valley-subs-bedford?adjust_creative=HdhkN5EEH6lAqE3kwhsHEQ&utm_campaign=yelp_api_v3&utm_medium=api_v3_business_search&utm_source=HdhkN5EEH6lAqE3kwhsHEQ", "review_count": 26, "categories": [{"alias": "sandwiches", "title": "Sandwiches"}], "rating": 2.5, "coordinates": {"latitude": 42.47356, "longitude": -71.2647}, "transactions": ["delivery"], "price": "$", "location": {"address1": "57 Summer St", "address2": "", "address3": "", "city": "Bedford", "zip_code": "01730", "country": "US", "state": "MA", "display_address": ["57 Summer St", "Bedford, MA 01730"]}, "phone": "+17812758015", "display_phone": "(781) 275-8015", "distance": 9796.887624514098}, {"id": "eX-xZuu5dIjsRhmY04JKOg", "alias": "sals-pizza-billerica", "name": "Sal's Pizza", "image_url": "https://s3-media2.fl.yelpcdn.com/bphoto/Pqe9iPU9wFqHgHT1743V9Q/o.jpg", "is_closed": false, "url": "https://www.yelp.com/biz/sals-pizza-billerica?adjust_creative=HdhkN5EEH6lAqE3kwhsHEQ&utm_campaign=yelp_api_v3&utm_medium=api_v3_business_search&utm_source=HdhkN5EEH6lAqE3kwhsHEQ", "review_count": 52, "categories": [{"alias": "pizza", "title": "Pizza"}, {"alias": "desserts", "title": "Desserts"}, {"alias": "salad", "title": "Salad"}], "rating": 3.5, "coordinates": {"latitude": 42.56941, "longitude": -71.27533}, "transactions": ["pickup", "delivery"], "price": "$", "location": {"address1": "328 Boston Rd", "address2": "", "address3": "", "city": "Billerica", "zip_code": "01821", "country": "US", "state": "MA", "display_address": ["328 Boston Rd", "Billerica, MA 01821"]}, "phone": "+19786719393", "display_phone": "(978) 671-9393", "distance": 7495.694703471005}, {"id": "OhMgTXzxn_Xk2lnKZnMbzA", "alias": "stoney-brook-cafe-westford", "name": "Stoney Brook Cafe", "image_url": "", "is_closed": false, "url": "https://www.yelp.com/biz/stoney-brook-cafe-westford?adjust_creative=HdhkN5EEH6lAqE3kwhsHEQ&utm_campaign=yelp_api_v3&utm_medium=api_v3_business_search&utm_source=HdhkN5EEH6lAqE3kwhsHEQ", "review_count": 3, "categories": [{"alias": "breakfast_brunch", "title": "Breakfast & Brunch"}, {"alias": "cafes", "title": "Cafes"}], "rating": 3.5, "coordinates": {"latitude": 42.5631366670132, "longitude": -71.4293932914734}, "transactions": [], "price": "$$$", "location": {"address1": "219 Littleton Rd", "address2": "", "address3": "", "city": "Westford", "zip_code": "01886", "country": "US", "state": "MA", "display_address": ["219 Littleton Rd", "Westford, MA 01886"]}, "phone": "+19786928200", "display_phone": "(978) 692-8200", "distance": 7131.084525475998}, {"id": "X8wPkCpkpUs7pAmg4b88XA", "alias": "steves-house-of-pizza-bedford", "name": "Steve's House of Pizza", "image_url": "https://s3-media4.fl.yelpcdn.com/bphoto/7XZYi_LDL9Z_bB3EuSIpXg/o.jpg", "is_closed": false, "url": "https://www.yelp.com/biz/steves-house-of-pizza-bedford?adjust_creative=HdhkN5EEH6lAqE3kwhsHEQ&utm_campaign=yelp_api_v3&utm_medium=api_v3_business_search&utm_source=HdhkN5EEH6lAqE3kwhsHEQ", "review_count": 39, "categories": [{"alias": "pizza", "title": "Pizza"}, {"alias": "sandwiches", "title": "Sandwiches"}], "rating": 3.5, "coordinates": {"latitude": 42.486472, "longitude": -71.260797}, "transactions": ["delivery"], "price": "$", "location": {"address1": "30 Shawsheen Ave", "address2": "Ste 11", "address3": "", "city": "Bedford", "zip_code": "01730", "country": "US", "state": "MA", "display_address": ["30 Shawsheen Ave", "Ste 11", "Bedford, MA 01730"]}, "phone": "+17812752419", "display_phone": "(781) 275-2419", "distance": 9125.48731695397}, {"id": "aYdlDbUNw5ekyAOx2Y2IlQ", "alias": "belly-buster-diner-north-billerica", "name": "Belly Buster Diner", "image_url": "https://s3-media1.fl.yelpcdn.com/bphoto/KM9byPx8udg1C8q9dQ7yvA/o.jpg", "is_closed": false, "url": "https://www.yelp.com/biz/belly-buster-diner-north-billerica?adjust_creative=HdhkN5EEH6lAqE3kwhsHEQ&utm_campaign=yelp_api_v3&utm_medium=api_v3_business_search&utm_source=HdhkN5EEH6lAqE3kwhsHEQ", "review_count": 74, "categories": [{"alias": "diners", "title": "Diners"}], "rating": 3.5, "coordinates": {"latitude": 42.573528, "longitude": -71.278071}, "transactions": ["delivery"], "price": "$", "location": {"address1": "306 Boston Rd", "address2": "Ste 10", "address3": "", "city": "North Billerica", "zip_code": "01862", "country": "US", "state": "MA", "display_address": ["306 Boston Rd", "Ste 10", "North Billerica, MA 01862"]}, "phone": "+19786677072", "display_phone": "(978) 667-7072", "distance": 7570.725087157132}, {"id": "ZM9sfqn_VPbAOUbOvKdtPA", "alias": "nashoba-pizza-seafood-westford", "name": "Nashoba Pizza-Seafood", "image_url": "https://s3-media1.fl.yelpcdn.com/bphoto/mB40CJSVsjV7QxQ1wYCr6w/o.jpg", "is_closed": false, "url": "https://www.yelp.com/biz/nashoba-pizza-seafood-westford?adjust_creative=HdhkN5EEH6lAqE3kwhsHEQ&utm_campaign=yelp_api_v3&utm_medium=api_v3_business_search&utm_source=HdhkN5EEH6lAqE3kwhsHEQ", "review_count": 29, "categories": [{"alias": "pizza", "title": "Pizza"}, {"alias": "seafood", "title": "Seafood"}, {"alias": "greek", "title": "Greek"}], "rating": 3.0, "coordinates": {"latitude": 42.5737677376113, "longitude": -71.4057928696275}, "transactions": ["delivery"], "price": "$", "location": {"address1": "66 Littleton Rd", "address2": "", "address3": "", "city": "Westford", "zip_code": "01886", "country": "US", "state": "MA", "display_address": ["66 Littleton Rd", "Westford, MA 01886"]}, "phone": "+19786928984", "display_phone": "(978) 692-8984", "distance": 6290.698531765591}, {"id": "_m5u1BqWw501CrH7T-CnmQ", "alias": "acton-house-of-pizza-acton", "name": "Acton House of Pizza", "image_url": "https://s3-media1.fl.yelpcdn.com/bphoto/5XVa8PHOtZSyrFpmAlvtww/o.jpg", "is_closed": false, "url": "https://www.yelp.com/biz/acton-house-of-pizza-acton?adjust_creative=HdhkN5EEH6lAqE3kwhsHEQ&utm_campaign=yelp_api_v3&utm_medium=api_v3_business_search&utm_source=HdhkN5EEH6lAqE3kwhsHEQ", "review_count": 16, "categories": [{"alias": "pizza", "title": "Pizza"}], "rating": 3.5, "coordinates": {"latitude": 42.48658, "longitude": -71.43274}, "transactions": ["pickup", "delivery"], "price": "$", "location": {"address1": "494 Main St", "address2": "", "address3": "", "city": "Acton", "zip_code": "01720", "country": "US", "state": "MA", "display_address": ["494 Main St", "Acton, MA 01720"]}, "phone": "+19782637144", "display_phone": "(978) 263-7144", "distance": 8370.435055799153}, {"id": "H251uI2_rKVHlK4WcyJ_og", "alias": "expresso-pizza-north-billerica", "name": "Expresso Pizza", "image_url": "https://s3-media1.fl.yelpcdn.com/bphoto/coU1-SGrFW2lw5syIrfFYA/o.jpg", "is_closed": false, "url": "https://www.yelp.com/biz/expresso-pizza-north-billerica?adjust_creative=HdhkN5EEH6lAqE3kwhsHEQ&utm_campaign=yelp_api_v3&utm_medium=api_v3_business_search&utm_source=HdhkN5EEH6lAqE3kwhsHEQ", "review_count": 31, "categories": [{"alias": "pizza", "title": "Pizza"}], "rating": 3.0, "coordinates": {"latitude": 42.587532, "longitude": -71.295427}, "transactions": ["pickup", "delivery"], "price": "$$", "location": {"address1": "131 Boston Rd", "address2": "", "address3": "", "city": "North Billerica", "zip_code": "01862", "country": "US", "state": "MA", "display_address": ["131 Boston Rd", "North Billerica, MA 01862"]}, "phone": "+19786638099", "display_phone": "(978) 663-8099", "distance": 7644.935539204047}, {"id": "p0U7RIAZvR0MDt9oNRrRYA", "alias": "papa-ginos-pizzeria-chelmsford", "name": "Papa Gino's Pizzeria", "image_url": "https://s3-media3.fl.yelpcdn.com/bphoto/_JPA7PCLBYulc3EUuBgK7Q/o.jpg", "is_closed": false, "url": "https://www.yelp.com/biz/papa-ginos-pizzeria-chelmsford?adjust_creative=HdhkN5EEH6lAqE3kwhsHEQ&utm_campaign=yelp_api_v3&utm_medium=api_v3_business_search&utm_source=HdhkN5EEH6lAqE3kwhsHEQ", "review_count": 25, "categories": [{"alias": "pizza", "title": "Pizza"}, {"alias": "italian", "title": "Italian"}], "rating": 2.5, "coordinates": {"latitude": 42.59809, "longitude": -71.34995}, "transactions": ["delivery"], "price": "$$", "location": {"address1": "29 Chelmsford St", "address2": "", "address3": "", "city": "Chelmsford", "zip_code": "01824", "country": "US", "state": "MA", "display_address": ["29 Chelmsford St", "Chelmsford, MA 01824"]}, "phone": "+19782566999", "display_phone": "(978) 256-6999", "distance": 7228.296695039172}, {"id": "8qj3x3WSSiECpUqZkB0B_Q", "alias": "junior-pizza-acton", "name": "Junior Pizza", "image_url": "https://s3-media2.fl.yelpcdn.com/bphoto/om27t_E6WQDVkWtVudFSxQ/o.jpg", "is_closed": false, "url": "https://www.yelp.com/biz/junior-pizza-acton?adjust_creative=HdhkN5EEH6lAqE3kwhsHEQ&utm_campaign=yelp_api_v3&utm_medium=api_v3_business_search&utm_source=HdhkN5EEH6lAqE3kwhsHEQ", "review_count": 50, "categories": [{"alias": "pizza", "title": "Pizza"}, {"alias": "chicken_wings", "title": "Chicken Wings"}, {"alias": "sandwiches", "title": "Sandwiches"}], "rating": 3.0, "coordinates": {"latitude": 42.514754, "longitude": -71.426749}, "transactions": ["delivery"], "price": "$", "location": {"address1": "481 Great Rd", "address2": "", "address3": "", "city": "Acton", "zip_code": "01720", "country": "US", "state": "MA", "display_address": ["481 Great Rd", "Acton, MA 01720"]}, "phone": "+19782630267", "display_phone": "(978) 263-0267", "distance": 6422.922854246275}, {"id": "Mr05XLFALHFvxZaCzKfBhA", "alias": "bickfords-family-restaurant-acton", "name": "Bickford's Family Restaurant", "image_url": "https://s3-media3.fl.yelpcdn.com/bphoto/76JDUPMzeGz8VXFMI3YSHg/o.jpg", "is_closed": false, "url": "https://www.yelp.com/biz/bickfords-family-restaurant-acton?adjust_creative=HdhkN5EEH6lAqE3kwhsHEQ&utm_campaign=yelp_api_v3&utm_medium=api_v3_business_search&utm_source=HdhkN5EEH6lAqE3kwhsHEQ", "review_count": 35, "categories": [{"alias": "newamerican", "title": "American (New)"}, {"alias": "breakfast_brunch", "title": "Breakfast & Brunch"}, {"alias": "venues", "title": "Venues & Event Spaces"}], "rating": 3.0, "coordinates": {"latitude": 42.52437, "longitude": -71.43284}, "transactions": [], "price": "$", "location": {"address1": "20 Nagog Park", "address2": "", "address3": "", "city": "Acton", "zip_code": "01720", "country": "US", "state": "MA", "display_address": ["20 Nagog Park", "Acton, MA 01720"]}, "phone": "+19782630442", "display_phone": "(978) 263-0442", "distance": 6782.850533303496}, {"id": "vUebUzuXFHHNDRksITSEew", "alias": "big-apple-market-and-deli-westford", "name": "Big Apple Market and Deli", "image_url": "https://s3-media4.fl.yelpcdn.com/bphoto/d9jeqckseOl9a868mDL4Pw/o.jpg", "is_closed": false, "url": "https://www.yelp.com/biz/big-apple-market-and-deli-westford?adjust_creative=HdhkN5EEH6lAqE3kwhsHEQ&utm_campaign=yelp_api_v3&utm_medium=api_v3_business_search&utm_source=HdhkN5EEH6lAqE3kwhsHEQ", "review_count": 13, "categories": [{"alias": "delis", "title": "Delis"}, {"alias": "grocery", "title": "Grocery"}, {"alias": "sandwiches", "title": "Sandwiches"}], "rating": 3.0, "coordinates": {"latitude": 42.5549545288086, "longitude": -71.4403305053711}, "transactions": ["delivery"], "price": "$", "location": {"address1": "294 Littleton Rd", "address2": "", "address3": null, "city": "Westford", "zip_code": "01886", "country": "US", "state": "MA", "display_address": ["294 Littleton Rd", "Westford, MA 01886"]}, "phone": "+19788504124", "display_phone": "(978) 850-4124", "distance": 7617.371546010045}, {"id": "6t_EpYrm4NZwGSzTakY0Yg", "alias": "cumberland-farms-westford", "name": "Cumberland Farms", "image_url": "https://s3-media3.fl.yelpcdn.com/bphoto/nanVASHaSyL2A9pdRUAxjA/o.jpg", "is_closed": false, "url": "https://www.yelp.com/biz/cumberland-farms-westford?adjust_creative=HdhkN5EEH6lAqE3kwhsHEQ&utm_campaign=yelp_api_v3&utm_medium=api_v3_business_search&utm_source=HdhkN5EEH6lAqE3kwhsHEQ", "review_count": 4, "categories": [{"alias": "convenience", "title": "Convenience Stores"}, {"alias": "coffee", "title": "Coffee & Tea"}, {"alias": "hotdogs", "title": "Fast Food"}], "rating": 3.0, "coordinates": {"latitude": 42.5665614, "longitude": -71.4233513}, "transactions": [], "location": {"address1": "188 Littleton Rd", "address2": "", "address3": "Rt 110", "city": "Westford", "zip_code": "01886", "country": "US", "state": "MA", "display_address": ["188 Littleton Rd", "Rt 110", "Westford, MA 01886"]}, "phone": "+19786923091", "display_phone": "(978) 692-3091", "distance": 6869.340086843612}, {"id": "ToyFUYcR9bozUwmRBKOzkg", "alias": "dominos-pizza-chelmsford", "name": "Domino's Pizza", "image_url": "https://s3-media2.fl.yelpcdn.com/bphoto/dlP1TT79o62m_3nYKo8MRQ/o.jpg", "is_closed": false, "url": "https://www.yelp.com/biz/dominos-pizza-chelmsford?adjust_creative=HdhkN5EEH6lAqE3kwhsHEQ&utm_campaign=yelp_api_v3&utm_medium=api_v3_business_search&utm_source=HdhkN5EEH6lAqE3kwhsHEQ", "review_count": 15, "categories": [{"alias": "pizza", "title": "Pizza"}], "rating": 2.0, "coordinates": {"latitude": 42.603503, "longitude": -71.346319}, "transactions": [], "price": "$", "location": {"address1": "118 Chelmsford St", "address2": "", "address3": "", "city": "Chelmsford", "zip_code": "01824", "country": "US", "state": "MA", "display_address": ["118 Chelmsford St", "Chelmsford, MA 01824"]}, "phone": "+19782501555", "display_phone": "(978) 250-1555", "distance": 7835.290838009892}, {"id": "9UGPi1EQZGQmtayuyhbp_w", "alias": "kfc-billerica-2", "name": "KFC", "image_url": "https://s3-media1.fl.yelpcdn.com/bphoto/RtIjAojJRsHIwN4LPP9MNw/o.jpg", "is_closed": false, "url": "https://www.yelp.com/biz/kfc-billerica-2?adjust_creative=HdhkN5EEH6lAqE3kwhsHEQ&utm_campaign=yelp_api_v3&utm_medium=api_v3_business_search&utm_source=HdhkN5EEH6lAqE3kwhsHEQ", "review_count": 16, "categories": [{"alias": "hotdogs", "title": "Fast Food"}, {"alias": "chicken_wings", "title": "Chicken Wings"}, {"alias": "chickenshop", "title": "Chicken Shop"}], "rating": 2.0, "coordinates": {"latitude": 42.5509194762558, "longitude": -71.2638167932367}, "transactions": ["pickup", "delivery"], "price": "$", "location": {"address1": "485 Boston Rd", "address2": "", "address3": "", "city": "Billerica", "zip_code": "01821", "country": "US", "state": "MA", "display_address": ["485 Boston Rd", "Billerica, MA 01821"]}, "phone": "+19786633333", "display_phone": "(978) 663-3333", "distance": 7525.289346918902}, {"id": "A8_N5qr6tCqs6GlH8dyGSQ", "alias": "brothers-pizza-chelmsford", "name": "Brothers Pizza", "image_url": "https://s3-media2.fl.yelpcdn.com/bphoto/tWT3zJcTLqF2JVSZv5HHZw/o.jpg", "is_closed": false, "url": "https://www.yelp.com/biz/brothers-pizza-chelmsford?adjust_creative=HdhkN5EEH6lAqE3kwhsHEQ&utm_campaign=yelp_api_v3&utm_medium=api_v3_business_search&utm_source=HdhkN5EEH6lAqE3kwhsHEQ", "review_count": 19, "categories": [{"alias": "pizza", "title": "Pizza"}], "rating": 3.0, "coordinates": {"latitude": 42.594273813325, "longitude": -71.347275782265}, "transactions": ["delivery"], "price": "$$", "location": {"address1": "7 Summer St", "address2": "", "address3": "", "city": "Chelmsford", "zip_code": "01824", "country": "US", "state": "MA", "display_address": ["7 Summer St", "Chelmsford, MA 01824"]}, "phone": "+19782562552", "display_phone": "(978) 256-2552", "distance": 6816.8500904193}, {"id": "i7tb3bqd-JXlhTNiPsNO5g", "alias": "chipotle-mexican-grill-bedford-2", "name": "Chipotle Mexican Grill", "image_url": "https://s3-media2.fl.yelpcdn.com/bphoto/1_V1CIqORambYEB7aWR2Ew/o.jpg", "is_closed": false, "url": "https://www.yelp.com/biz/chipotle-mexican-grill-bedford-2?adjust_creative=HdhkN5EEH6lAqE3kwhsHEQ&utm_campaign=yelp_api_v3&utm_medium=api_v3_business_search&utm_source=HdhkN5EEH6lAqE3kwhsHEQ", "review_count": 35, "categories": [{"alias": "mexican", "title": "Mexican"}, {"alias": "hotdogs", "title": "Fast Food"}], "rating": 3.0, "coordinates": {"latitude": 42.4862612341098, "longitude": -71.2626348011586}, "transactions": ["delivery"], "price": "$", "location": {"address1": "301 Great Rd", "address2": "", "address3": "", "city": "Bedford", "zip_code": "01730", "country": "US", "state": "MA", "display_address": ["301 Great Rd", "Bedford, MA 01730"]}, "phone": "+17812710219", "display_phone": "(781) 271-0219", "distance": 9015.435287451817}, {"id": "m40vuw6ZXNPJBDQs8ZcgVQ", "alias": "panera-bread-westford", "name": "Panera Bread", "image_url": "https://s3-media4.fl.yelpcdn.com/bphoto/gngu1Nztt7h0fBPqig3Vnw/o.jpg", "is_closed": false, "url": "https://www.yelp.com/biz/panera-bread-westford?adjust_creative=HdhkN5EEH6lAqE3kwhsHEQ&utm_campaign=yelp_api_v3&utm_medium=api_v3_business_search&utm_source=HdhkN5EEH6lAqE3kwhsHEQ", "review_count": 43, "categories": [{"alias": "sandwiches", "title": "Sandwiches"}, {"alias": "salad", "title": "Salad"}, {"alias": "soup", "title": "Soup"}], "rating": 2.5, "coordinates": {"latitude": 42.566839, "longitude": -71.4250481128693}, "transactions": ["delivery"], "price": "$", "location": {"address1": "2 Cornerstone Sq", "address2": "", "address3": "", "city": "Westford", "zip_code": "01886", "country": "US", "state": "MA", "display_address": ["2 Cornerstone Sq", "Westford, MA 01886"]}, "phone": "+19786922863", "display_phone": "(978) 692-2863", "distance": 7034.003279023124}, {"id": "mVkleKlvkNyhiK794Numxw", "alias": "wendys-n-billerica-2", "name": "Wendy's", "image_url": "https://s3-media1.fl.yelpcdn.com/bphoto/uQYV_9cPANP5cSJV6TVOhw/o.jpg", "is_closed": false, "url": "https://www.yelp.com/biz/wendys-n-billerica-2?adjust_creative=HdhkN5EEH6lAqE3kwhsHEQ&utm_campaign=yelp_api_v3&utm_medium=api_v3_business_search&utm_source=HdhkN5EEH6lAqE3kwhsHEQ", "review_count": 25, "categories": [{"alias": "burgers", "title": "Burgers"}, {"alias": "hotdogs", "title": "Fast Food"}], "rating": 2.0, "coordinates": {"latitude": 42.571995, "longitude": -71.27698}, "transactions": ["delivery"], "price": "$", "location": {"address1": "312 Boston Rd", "address2": "", "address3": "", "city": "N.Billerica", "zip_code": "01862", "country": "US", "state": "MA", "display_address": ["312 Boston Rd", "N.Billerica, MA 01862"]}, "phone": "+19786634550", "display_phone": "(978) 663-4550", "distance": 7543.560891626173}, {"id": "ftgYAfpzGiGuCOIG0W6PqQ", "alias": "five-guys-westford", "name": "Five Guys", "image_url": "https://s3-media1.fl.yelpcdn.com/bphoto/gaHP6QLJtOKciSce6TxuSg/o.jpg", "is_closed": false, "url": "https://www.yelp.com/biz/five-guys-westford?adjust_creative=HdhkN5EEH6lAqE3kwhsHEQ&utm_campaign=yelp_api_v3&utm_medium=api_v3_business_search&utm_source=HdhkN5EEH6lAqE3kwhsHEQ", "review_count": 45, "categories": [{"alias": "burgers", "title": "Burgers"}, {"alias": "hotdogs", "title": "Fast Food"}], "rating": 3.0, "coordinates": {"latitude": 42.5649170301972, "longitude": -71.4279166618407}, "transactions": ["delivery"], "price": "$", "location": {"address1": "10 Cornerstone Square", "address2": "", "address3": "", "city": "Westford", "zip_code": "01886", "country": "US", "state": "MA", "display_address": ["10 Cornerstone Square", "Westford, MA 01886"]}, "phone": "+19786926008", "display_phone": "(978) 692-6008", "distance": 7097.325523020382}, {"id": "cx4QKEzhymlVLsLezHba7Q", "alias": "subway-hanscom-air-force-base", "name": "Subway", "image_url": "", "is_closed": false, "url": "https://www.yelp.com/biz/subway-hanscom-air-force-base?adjust_creative=HdhkN5EEH6lAqE3kwhsHEQ&utm_campaign=yelp_api_v3&utm_medium=api_v3_business_search&utm_source=HdhkN5EEH6lAqE3kwhsHEQ", "review_count": 5, "categories": [{"alias": "sandwiches", "title": "Sandwiches"}], "rating": 1.5, "coordinates": {"latitude": 42.4630798331113, "longitude": -71.2876417619324}, "transactions": [], "price": "$", "location": {"address1": "151575 Grenier St", "address2": "", "address3": "", "city": "Hanscom Air Force Base", "zip_code": "01731", "country": "US", "state": "MA", "display_address": ["151575 Grenier St", "Hanscom Air Force Base, MA 01731"]}, "phone": "+17812747970", "display_phone": "(781) 274-7970", "distance": 9423.563843130532}, {"id": "wQfXaR4FcmA5MiJNAWFN-g", "alias": "acton-great-road-pizzeria-acton", "name": "Acton Great Road Pizzeria", "image_url": "", "is_closed": false, "url": "https://www.yelp.com/biz/acton-great-road-pizzeria-acton?adjust_creative=HdhkN5EEH6lAqE3kwhsHEQ&utm_campaign=yelp_api_v3&utm_medium=api_v3_business_search&utm_source=HdhkN5EEH6lAqE3kwhsHEQ", "review_count": 9, "categories": [{"alias": "pizza", "title": "Pizza"}, {"alias": "italian", "title": "Italian"}, {"alias": "sandwiches", "title": "Sandwiches"}], "rating": 2.5, "coordinates": {"latitude": 42.4853973, "longitude": -71.4167135}, "transactions": [], "price": "$$", "location": {"address1": "168 Great Rd", "address2": "", "address3": "", "city": "Acton", "zip_code": "01720", "country": "US", "state": "MA", "display_address": ["168 Great Rd", "Acton, MA 01720"]}, "phone": "+19782639111", "display_phone": "(978) 263-9111", "distance": 7491.5962663619375}, {"id": "DN_GtUrFboam4vo6yHmAPw", "alias": "taco-bell-billerica", "name": "Taco Bell", "image_url": "https://s3-media1.fl.yelpcdn.com/bphoto/IdnNb3LvJ2BsOXz0oNSoMw/o.jpg", "is_closed": false, "url": "https://www.yelp.com/biz/taco-bell-billerica?adjust_creative=HdhkN5EEH6lAqE3kwhsHEQ&utm_campaign=yelp_api_v3&utm_medium=api_v3_business_search&utm_source=HdhkN5EEH6lAqE3kwhsHEQ", "review_count": 15, "categories": [{"alias": "hotdogs", "title": "Fast Food"}, {"alias": "tacos", "title": "Tacos"}], "rating": 2.0, "coordinates": {"latitude": 42.5604, "longitude": -71.2691}, "transactions": [], "price": "$", "location": {"address1": "485 Boston Road", "address2": "", "address3": "", "city": "Billerica", "zip_code": "01821", "country": "US", "state": "MA", "display_address": ["485 Boston Road", "Billerica, MA 01821"]}, "phone": "+19786633333", "display_phone": "(978) 663-3333", "distance": 7471.167272193315}, {"id": "1SCunsXwKfiJgvbO4WAEmg", "alias": "subway-billerica-6", "name": "Subway", "image_url": "https://s3-media3.fl.yelpcdn.com/bphoto/sKNeqQOf4Bl_6fO_FmmUYQ/o.jpg", "is_closed": false, "url": "https://www.yelp.com/biz/subway-billerica-6?adjust_creative=HdhkN5EEH6lAqE3kwhsHEQ&utm_campaign=yelp_api_v3&utm_medium=api_v3_business_search&utm_source=HdhkN5EEH6lAqE3kwhsHEQ", "review_count": 4, "categories": [{"alias": "sandwiches", "title": "Sandwiches"}], "rating": 3.0, "coordinates": {"latitude": 42.5559484281717, "longitude": -71.2643154354635}, "transactions": [], "price": "$", "location": {"address1": "480 Boston Rd", "address2": "Unit 110", "address3": "", "city": "Billerica", "zip_code": "01821", "country": "US", "state": "MA", "display_address": ["480 Boston Rd", "Unit 110", "Billerica, MA 01821"]}, "phone": "+19783628507", "display_phone": "(978) 362-8507", "distance": 7652.765223128961}, {"id": "1qRhZCpunK_DqVDQzOm5DQ", "alias": "dominos-pizza-bedford-3", "name": "Domino's Pizza", "image_url": "https://s3-media3.fl.yelpcdn.com/bphoto/BxJCmco-RVQALdgmjo3RlQ/o.jpg", "is_closed": false, "url": "https://www.yelp.com/biz/dominos-pizza-bedford-3?adjust_creative=HdhkN5EEH6lAqE3kwhsHEQ&utm_campaign=yelp_api_v3&utm_medium=api_v3_business_search&utm_source=HdhkN5EEH6lAqE3kwhsHEQ", "review_count": 23, "categories": [{"alias": "pizza", "title": "Pizza"}, {"alias": "chicken_wings", "title": "Chicken Wings"}, {"alias": "sandwiches", "title": "Sandwiches"}], "rating": 2.0, "coordinates": {"latitude": 42.4897689819336, "longitude": -71.272575378418}, "transactions": ["pickup", "delivery"], "price": "$", "location": {"address1": "186 Great Rd", "address2": "Ste 4", "address3": null, "city": "Bedford", "zip_code": "01730", "country": "US", "state": "MA", "display_address": ["186 Great Rd", "Ste 4", "Bedford, MA 01730"]}, "phone": "+17812802929", "display_phone": "(781) 280-2929", "distance": 8115.433210977036}, {"id": "cuFag7ajx7NIrWoN6HKeHA", "alias": "subway-westford-3", "name": "Subway", "image_url": "https://s3-media4.fl.yelpcdn.com/bphoto/tdxHpR4NqNHJPI0oks33RA/o.jpg", "is_closed": false, "url": "https://www.yelp.com/biz/subway-westford-3?adjust_creative=HdhkN5EEH6lAqE3kwhsHEQ&utm_campaign=yelp_api_v3&utm_medium=api_v3_business_search&utm_source=HdhkN5EEH6lAqE3kwhsHEQ", "review_count": 19, "categories": [{"alias": "sandwiches", "title": "Sandwiches"}], "rating": 4.0, "coordinates": {"latitude": 42.5664604459643, "longitude": -71.4226941451407}, "transactions": [], "price": "$", "location": {"address1": "174 Littleton Rd", "address2": "", "address3": "Westford Valley Marketplace", "city": "Westford", "zip_code": "01886", "country": "US", "state": "MA", "display_address": ["174 Littleton Rd", "Westford Valley Marketplace", "Westford, MA 01886"]}, "phone": "+19785776439", "display_phone": "(978) 577-6439", "distance": 6848.8046054003535}, {"id": "kRpvSVJYXVuBRGakgVxxHQ", "alias": "chelmsford-diner-chelmsford", "name": "Chelmsford Diner", "image_url": "https://s3-media3.fl.yelpcdn.com/bphoto/V0UnWihJ-dUvJzUTeiKWbA/o.jpg", "is_closed": false, "url": "https://www.yelp.com/biz/chelmsford-diner-chelmsford?adjust_creative=HdhkN5EEH6lAqE3kwhsHEQ&utm_campaign=yelp_api_v3&utm_medium=api_v3_business_search&utm_source=HdhkN5EEH6lAqE3kwhsHEQ", "review_count": 83, "categories": [{"alias": "diners", "title": "Diners"}, {"alias": "breakfast_brunch", "title": "Breakfast & Brunch"}, {"alias": "sandwiches", "title": "Sandwiches"}], "rating": 3.5, "coordinates": {"latitude": 42.593894, "longitude": -71.347993}, "transactions": ["delivery"], "price": "$", "location": {"address1": "7 Summer St", "address2": "Ste 25", "address3": "", "city": "Chelmsford", "zip_code": "01824", "country": "US", "state": "MA", "display_address": ["7 Summer St", "Ste 25", "Chelmsford, MA 01824"]}, "phone": "+19784550648", "display_phone": "(978) 455-0648", "distance": 6771.295972829784}, {"id": "R3d2raqNownVCMPCROesyQ", "alias": "honey-dew-donuts-chelmsford", "name": "Honey Dew Donuts", "image_url": "", "is_closed": false, "url": "https://www.yelp.com/biz/honey-dew-donuts-chelmsford?adjust_creative=HdhkN5EEH6lAqE3kwhsHEQ&utm_campaign=yelp_api_v3&utm_medium=api_v3_business_search&utm_source=HdhkN5EEH6lAqE3kwhsHEQ", "review_count": 4, "categories": [{"alias": "donuts", "title": "Donuts"}, {"alias": "bakeries", "title": "Bakeries"}, {"alias": "sandwiches", "title": "Sandwiches"}], "rating": 2.5, "coordinates": {"latitude": 42.5849266036022, "longitude": -71.3837122544646}, "transactions": ["delivery"], "location": {"address1": "273 Littleton Rd", "address2": "", "address3": null, "city": "Chelmsford", "zip_code": "01824", "country": "US", "state": "MA", "display_address": ["273 Littleton Rd", "Chelmsford, MA 01824"]}, "phone": "", "display_phone": "", "distance": 6308.369743102048}, {"id": "zcqz54AipZw2VTxcE1rsoQ", "alias": "subway-acton-5", "name": "Subway", "image_url": "https://s3-media3.fl.yelpcdn.com/bphoto/qkFX0qRwgHwc4M9UggtB2g/o.jpg", "is_closed": false, "url": "https://www.yelp.com/biz/subway-acton-5?adjust_creative=HdhkN5EEH6lAqE3kwhsHEQ&utm_campaign=yelp_api_v3&utm_medium=api_v3_business_search&utm_source=HdhkN5EEH6lAqE3kwhsHEQ", "review_count": 8, "categories": [{"alias": "sandwiches", "title": "Sandwiches"}], "rating": 3.5, "coordinates": {"latitude": 42.473875714206, "longitude": -71.4537559629772}, "transactions": [], "price": "$", "location": {"address1": "255 Main St", "address2": "Unit B", "address3": "", "city": "Acton", "zip_code": "01720", "country": "US", "state": "MA", "display_address": ["255 Main St", "Unit B", "Acton, MA 01720"]}, "phone": "+19782633800", "display_phone": "(978) 263-3800", "distance": 10599.544204167}, {"id": "GVYXV8mrgy4C3cNBAghGeA", "alias": "giovannis-roast-beef-and-pizza-north-billerica", "name": "Giovanni's Roast Beef and Pizza", "image_url": "https://s3-media3.fl.yelpcdn.com/bphoto/SyBfNX72mvDJvRWpsttBvQ/o.jpg", "is_closed": false, "url": "https://www.yelp.com/biz/giovannis-roast-beef-and-pizza-north-billerica?adjust_creative=HdhkN5EEH6lAqE3kwhsHEQ&utm_campaign=yelp_api_v3&utm_medium=api_v3_business_search&utm_source=HdhkN5EEH6lAqE3kwhsHEQ", "review_count": 35, "categories": [{"alias": "pizza", "title": "Pizza"}, {"alias": "sandwiches", "title": "Sandwiches"}], "rating": 2.5, "coordinates": {"latitude": 42.56711, "longitude": -71.2740199}, "transactions": ["delivery"], "price": "$", "location": {"address1": "331 Boston Rd", "address2": "", "address3": "", "city": "North Billerica", "zip_code": "01862", "country": "US", "state": "MA", "display_address": ["331 Boston Rd", "North Billerica, MA 01862"]}, "phone": "+19786675600", "display_phone": "(978) 667-5600", "distance": 7411.726365932295}, {"id": "TxWmdiqCB5E_qzJE8oD9qw", "alias": "chipotle-mexican-grill-westford", "name": "Chipotle Mexican Grill", "image_url": "https://s3-media2.fl.yelpcdn.com/bphoto/qri2zC80aYXBndmMBShKAA/o.jpg", "is_closed": false, "url": "https://www.yelp.com/biz/chipotle-mexican-grill-westford?adjust_creative=HdhkN5EEH6lAqE3kwhsHEQ&utm_campaign=yelp_api_v3&utm_medium=api_v3_business_search&utm_source=HdhkN5EEH6lAqE3kwhsHEQ", "review_count": 63, "categories": [{"alias": "mexican", "title": "Mexican"}, {"alias": "hotdogs", "title": "Fast Food"}], "rating": 2.5, "coordinates": {"latitude": 42.566508, "longitude": -71.422754}, "transactions": ["delivery"], "price": "$", "location": {"address1": "174 Littleton Rd", "address2": "Ste 1", "address3": "", "city": "Westford", "zip_code": "01886", "country": "US", "state": "MA", "display_address": ["174 Littleton Rd", "Ste 1", "Westford, MA 01886"]}, "phone": "+19785774776", "display_phone": "(978) 577-4776", "distance": 6855.789103284729}, {"id": "qUjtK1TNrm6kwnxUmFETuA", "alias": "dominos-pizza-acton", "name": "Domino's Pizza", "image_url": "https://s3-media1.fl.yelpcdn.com/bphoto/LrkfOoZk0Yy4ZAMr7zvF6w/o.jpg", "is_closed": false, "url": "https://www.yelp.com/biz/dominos-pizza-acton?adjust_creative=HdhkN5EEH6lAqE3kwhsHEQ&utm_campaign=yelp_api_v3&utm_medium=api_v3_business_search&utm_source=HdhkN5EEH6lAqE3kwhsHEQ", "review_count": 21, "categories": [{"alias": "pizza", "title": "Pizza"}, {"alias": "chicken_wings", "title": "Chicken Wings"}, {"alias": "sandwiches", "title": "Sandwiches"}], "rating": 2.0, "coordinates": {"latitude": 42.477275, "longitude": -71.411422}, "transactions": [], "price": "$", "location": {"address1": "75 Great Rd", "address2": "", "address3": "", "city": "Acton", "zip_code": "01720", "country": "US", "state": "MA", "display_address": ["75 Great Rd", "Acton, MA 01720"]}, "phone": "+19782644141", "display_phone": "(978) 264-4141", "distance": 7867.809378787616}, {"id": "zOmwOIBPkCsQiB5h0jzTig", "alias": "subway-bedford-37", "name": "Subway", "image_url": "https://s3-media1.fl.yelpcdn.com/bphoto/O9V2P3jQc1DHDTrec7MgSw/o.jpg", "is_closed": false, "url": "https://www.yelp.com/biz/subway-bedford-37?adjust_creative=HdhkN5EEH6lAqE3kwhsHEQ&utm_campaign=yelp_api_v3&utm_medium=api_v3_business_search&utm_source=HdhkN5EEH6lAqE3kwhsHEQ", "review_count": 5, "categories": [{"alias": "sandwiches", "title": "Sandwiches"}], "rating": 2.0, "coordinates": {"latitude": 42.490562304958, "longitude": -71.2751037184194}, "transactions": ["pickup", "delivery"], "price": "$", "location": {"address1": "158 Great Rd", "address2": "Unit E", "address3": null, "city": "Bedford", "zip_code": "01730", "country": "US", "state": "MA", "display_address": ["158 Great Rd", "Unit E", "Bedford, MA 01730"]}, "phone": "+17816763111", "display_phone": "(781) 676-3111", "distance": 7907.197839412817}, {"id": "qPWL2ycccDEBNsmfkX5ZQA", "alias": "brueggers-bagels-and-jamba-juice-bedford", "name": "Bruegger's Bagels and Jamba Juice", "image_url": "https://s3-media2.fl.yelpcdn.com/bphoto/8nPy00EflH9uoo4TS_eeAA/o.jpg", "is_closed": false, "url": "https://www.yelp.com/biz/brueggers-bagels-and-jamba-juice-bedford?adjust_creative=HdhkN5EEH6lAqE3kwhsHEQ&utm_campaign=yelp_api_v3&utm_medium=api_v3_business_search&utm_source=HdhkN5EEH6lAqE3kwhsHEQ", "review_count": 70, "categories": [{"alias": "bagels", "title": "Bagels"}, {"alias": "breakfast_brunch", "title": "Breakfast & Brunch"}, {"alias": "sandwiches", "title": "Sandwiches"}], "rating": 2.0, "coordinates": {"latitude": 42.4908306946463, "longitude": -71.274828272866}, "transactions": [], "price": "$", "location": {"address1": "158-K Great Rd", "address2": "", "address3": "", "city": "Bedford", "zip_code": "01730", "country": "US", "state": "MA", "display_address": ["158-K Great Rd", "Bedford, MA 01730"]}, "phone": "+17817782927", "display_phone": "(781) 778-2927", "distance": 7907.525159105673}, {"id": "OZLp3_29pPFJ2iAk8WRqPw", "alias": "mcdonalds-acton", "name": "McDonald's", "image_url": "https://s3-media1.fl.yelpcdn.com/bphoto/6kbjgUE4wNhfShGXrzxqDg/o.jpg", "is_closed": false, "url": "https://www.yelp.com/biz/mcdonalds-acton?adjust_creative=HdhkN5EEH6lAqE3kwhsHEQ&utm_campaign=yelp_api_v3&utm_medium=api_v3_business_search&utm_source=HdhkN5EEH6lAqE3kwhsHEQ", "review_count": 28, "categories": [{"alias": "hotdogs", "title": "Fast Food"}, {"alias": "burgers", "title": "Burgers"}, {"alias": "coffee", "title": "Coffee & Tea"}], "rating": 2.0, "coordinates": {"latitude": 42.47599, "longitude": -71.40928}, "transactions": [], "price": "$", "location": {"address1": "55 Great Rd", "address2": "", "address3": "", "city": "Acton", "zip_code": "01720", "country": "US", "state": "MA", "display_address": ["55 Great Rd", "Acton, MA 01720"]}, "phone": "+19782642062", "display_phone": "(978) 264-2062", "distance": 7887.1979119034895}, {"id": "slc9S2XJDVR7iw3W9V_E4Q", "alias": "mcdonalds-westford", "name": "McDonald's", "image_url": "https://s3-media4.fl.yelpcdn.com/bphoto/sRNjJWFA-HPtwp5g2Pl8Yg/o.jpg", "is_closed": false, "url": "https://www.yelp.com/biz/mcdonalds-westford?adjust_creative=HdhkN5EEH6lAqE3kwhsHEQ&utm_campaign=yelp_api_v3&utm_medium=api_v3_business_search&utm_source=HdhkN5EEH6lAqE3kwhsHEQ", "review_count": 23, "categories": [{"alias": "hotdogs", "title": "Fast Food"}, {"alias": "burgers", "title": "Burgers"}, {"alias": "coffee", "title": "Coffee & Tea"}], "rating": 2.5, "coordinates": {"latitude": 42.5693868431458, "longitude": -71.4209684729576}, "transactions": ["delivery"], "price": "$", "location": {"address1": "151 Littleton Rd", "address2": "", "address3": "", "city": "Westford", "zip_code": "01886", "country": "US", "state": "MA", "display_address": ["151 Littleton Rd", "Westford, MA 01886"]}, "phone": "+19786927105", "display_phone": "(978) 692-7105", "distance": 6915.0774467146575}, {"id": "g6mlwTxavyFWJfT8ccCpBg", "alias": "mcdonalds-bedford-6", "name": "McDonald's", "image_url": "https://s3-media2.fl.yelpcdn.com/bphoto/EzmZT8lVQv3TL9k04WJSvA/o.jpg", "is_closed": false, "url": "https://www.yelp.com/biz/mcdonalds-bedford-6?adjust_creative=HdhkN5EEH6lAqE3kwhsHEQ&utm_campaign=yelp_api_v3&utm_medium=api_v3_business_search&utm_source=HdhkN5EEH6lAqE3kwhsHEQ", "review_count": 22, "categories": [{"alias": "hotdogs", "title": "Fast Food"}, {"alias": "burgers", "title": "Burgers"}, {"alias": "coffee", "title": "Coffee & Tea"}], "rating": 2.5, "coordinates": {"latitude": 42.485175, "longitude": -71.260135}, "transactions": ["delivery"], "price": "$", "location": {"address1": "346 Great Rd", "address2": "", "address3": "", "city": "Bedford", "zip_code": "01730", "country": "US", "state": "MA", "display_address": ["346 Great Rd", "Bedford, MA 01730"]}, "phone": "+17812758746", "display_phone": "(781) 275-8746", "distance": 9252.544865509497}, {"id": "b00KPirrJDcDOcFjwSTXig", "alias": "mcdonalds-billerica-2", "name": "McDonald's", "image_url": "https://s3-media2.fl.yelpcdn.com/bphoto/Z4glDK6JZMiR1ZikRXIjRQ/o.jpg", "is_closed": false, "url": "https://www.yelp.com/biz/mcdonalds-billerica-2?adjust_creative=HdhkN5EEH6lAqE3kwhsHEQ&utm_campaign=yelp_api_v3&utm_medium=api_v3_business_search&utm_source=HdhkN5EEH6lAqE3kwhsHEQ", "review_count": 24, "categories": [{"alias": "hotdogs", "title": "Fast Food"}, {"alias": "burgers", "title": "Burgers"}, {"alias": "coffee", "title": "Coffee & Tea"}], "rating": 1.5, "coordinates": {"latitude": 42.5747051776998, "longitude": -71.2821029580664}, "transactions": ["delivery"], "price": "$", "location": {"address1": "273 Boston Rd", "address2": "", "address3": "", "city": "Billerica", "zip_code": "01821", "country": "US", "state": "MA", "display_address": ["273 Boston Rd", "Billerica, MA 01821"]}, "phone": "+19786679174", "display_phone": "(978) 667-9174", "distance": 7388.900213573431}]