[{"id": "9CB1T3OCrceK3JRmagcoMA", "alias": "308-lakeside-east-brookfield", "name": "308 Lakeside", "image_url": "https://s3-media1.fl.yelpcdn.com/bphoto/u8Fqwre_2Owsm6MLE7bvIA/o.jpg", "is_closed": false, "url": "https://www.yelp.com/biz/308-lakeside-east-brookfield?adjust_creative=ywY5UnLZrNrRl2b93Ruy_g&utm_campaign=yelp_api_v3&utm_medium=api_v3_business_search&utm_source=ywY5UnLZrNrRl2b93Ruy_g", "review_count": 103, "categories": [{"alias": "newamerican", "title": "American (New)"}, {"alias": "beer_and_wine", "title": "Beer, Wine & Spirits"}], "rating": 3.0, "coordinates": {"latitude": 42.2270431518555, "longitude": -72.0465240478516}, "transactions": ["pickup", "delivery"], "price": "$$", "location": {"address1": "308 E Main St", "address2": "", "address3": "Rt 9", "city": "East Brookfield", "zip_code": "01515", "country": "US", "state": "MA", "display_address": ["308 E Main St", "Rt 9", "East Brookfield, MA 01515"]}, "phone": "+17744498333", "display_phone": "(774) 449-8333", "distance": 2216.402257105385}, {"id": "BR-rauP8Dl8iRI1xEOJLlw", "alias": "thai-house-restaurant-east-brookfield", "name": "Thai House Restaurant", "image_url": "https://s3-media3.fl.yelpcdn.com/bphoto/Xk332iy5p35LkQyZbVl6-Q/o.jpg", "is_closed": false, "url": "https://www.yelp.com/biz/thai-house-restaurant-east-brookfield?adjust_creative=ywY5UnLZrNrRl2b93Ruy_g&utm_campaign=yelp_api_v3&utm_medium=api_v3_business_search&utm_source=ywY5UnLZrNrRl2b93Ruy_g", "review_count": 38, "categories": [{"alias": "thai", "title": "Thai"}], "rating": 4.0, "coordinates": {"latitude": 42.2274131, "longitude": -72.0419256}, "transactions": [], "price": "$$", "location": {"address1": "355 E Main St", "address2": "", "address3": "", "city": "East Brookfield", "zip_code": "01515", "country": "US", "state": "MA", "display_address": ["355 E Main St", "East Brookfield, MA 01515"]}, "phone": "+15088674900", "display_phone": "(508) 867-4900", "distance": 2322.1234681103974}, {"id": "sv1DM6SpMcc2IdMCnqYZBg", "alias": "brookies-east-brookfield", "name": "Brookies", "image_url": "https://s3-media4.fl.yelpcdn.com/bphoto/2FfwT0DTSC7L6bNbZUIeKQ/o.jpg", "is_closed": false, "url": "https://www.yelp.com/biz/brookies-east-brookfield?adjust_creative=ywY5UnLZrNrRl2b93Ruy_g&utm_campaign=yelp_api_v3&utm_medium=api_v3_business_search&utm_source=ywY5UnLZrNrRl2b93Ruy_g", "review_count": 9, "categories": [{"alias": "burgers", "title": "Burgers"}], "rating": 5.0, "coordinates": {"latitude": 42.21592, "longitude": -72.07718}, "transactions": [], "price": "$$", "location": {"address1": "285 W Main St", "address2": "", "address3": "", "city": "East Brookfield", "zip_code": "01515", "country": "US", "state": "MA", "display_address": ["285 W Main St", "East Brookfield, MA 01515"]}, "phone": "+17742000537", "display_phone": "(774) 200-0537", "distance": 2541.644648198732}, {"id": "Nb5fL0yMe1YUGQhMwEVsnA", "alias": "rise-n-shine-diner-east-brookfield", "name": "Rise N' Shine Diner", "image_url": "https://s3-media3.fl.yelpcdn.com/bphoto/pRz0fJ8uPJ4CgXUH9Wl-0w/o.jpg", "is_closed": false, "url": "https://www.yelp.com/biz/rise-n-shine-diner-east-brookfield?adjust_creative=ywY5UnLZrNrRl2b93Ruy_g&utm_campaign=yelp_api_v3&utm_medium=api_v3_business_search&utm_source=ywY5UnLZrNrRl2b93Ruy_g", "review_count": 6, "categories": [{"alias": "diners", "title": "Diners"}], "rating": 4.0, "coordinates": {"latitude": 42.219766, "longitude": -72.069581}, "transactions": [], "price": "$", "location": {"address1": "237 W Main St", "address2": null, "address3": null, "city": "East Brookfield", "zip_code": "01515", "country": "US", "state": "MA", "display_address": ["237 W Main St", "East Brookfield, MA 01515"]}, "phone": "+15088670034", "display_phone": "(508) 867-0034", "distance": 2220.520574934689}, {"id": "LMDM5k-YkN_rxeKHAFhXyQ", "alias": "e-b-flatts-east-brookfield", "name": "E.B. Flatts", "image_url": "https://s3-media2.fl.yelpcdn.com/bphoto/7dwd-U0nCvf74XXhwFKY2Q/o.jpg", "is_closed": false, "url": "https://www.yelp.com/biz/e-b-flatts-east-brookfield?adjust_creative=ywY5UnLZrNrRl2b93Ruy_g&utm_campaign=yelp_api_v3&utm_medium=api_v3_business_search&utm_source=ywY5UnLZrNrRl2b93Ruy_g", "review_count": 57, "categories": [{"alias": "tradamerican", "title": "American (Traditional)"}, {"alias": "breakfast_brunch", "title": "Breakfast & Brunch"}], "rating": 3.5, "coordinates": {"latitude": 42.2192947517887, "longitude": -72.0708427230705}, "transactions": [], "price": "$$", "location": {"address1": "245 W Main St Rte 9", "address2": "", "address3": "", "city": "East Brookfield", "zip_code": "01515", "country": "US", "state": "MA", "display_address": ["245 W Main St Rte 9", "East Brookfield, MA 01515"]}, "phone": "+15088676643", "display_phone": "(508) 867-6643", "distance": 2270.4423747806595}, {"id": "ydG7dmQFYzlPBzQuyTprXA", "alias": "the-clam-box-brookfield", "name": "The Clam Box", "image_url": "https://s3-media2.fl.yelpcdn.com/bphoto/Pqk2Fslfyhnap4IagwfaWA/o.jpg", "is_closed": false, "url": "https://www.yelp.com/biz/the-clam-box-brookfield?adjust_creative=ywY5UnLZrNrRl2b93Ruy_g&utm_campaign=yelp_api_v3&utm_medium=api_v3_business_search&utm_source=ywY5UnLZrNrRl2b93Ruy_g", "review_count": 55, "categories": [{"alias": "tradamerican", "title": "American (Traditional)"}, {"alias": "seafood", "title": "Seafood"}, {"alias": "burgers", "title": "Burgers"}], "rating": 3.0, "coordinates": {"latitude": 42.2111, "longitude": -72.085135}, "transactions": [], "price": "$$", "location": {"address1": "53 S Maple St", "address2": "", "address3": "", "city": "Brookfield", "zip_code": "01506", "country": "US", "state": "MA", "display_address": ["53 S Maple St", "Brookfield, MA 01506"]}, "phone": "+15086371790", "display_phone": "(508) 637-1790", "distance": 3037.9564594546746}, {"id": "ASqs5IuqWyJLaWwaup9O9A", "alias": "ronnies-seafood-charlton", "name": "Ronnie's Seafood", "image_url": "https://s3-media3.fl.yelpcdn.com/bphoto/ygwuQVkT925ZrZe9DXdPcg/o.jpg", "is_closed": false, "url": "https://www.yelp.com/biz/ronnies-seafood-charlton?adjust_creative=ywY5UnLZrNrRl2b93Ruy_g&utm_campaign=yelp_api_v3&utm_medium=api_v3_business_search&utm_source=ywY5UnLZrNrRl2b93Ruy_g", "review_count": 40, "categories": [{"alias": "seafood", "title": "Seafood"}], "rating": 4.0, "coordinates": {"latitude": 42.171999, "longitude": -71.977685}, "transactions": ["delivery"], "price": "$$", "location": {"address1": "208 City Depot Rd", "address2": "", "address3": "", "city": "Charlton", "zip_code": "01507", "country": "US", "state": "MA", "display_address": ["208 City Depot Rd", "Charlton, MA 01507"]}, "phone": "+15082485024", "display_phone": "(508) 248-5024", "distance": 7034.914952328348}, {"id": "kRWGiUKxF_14PzZAgAo89A", "alias": "mexicali-cantina-grill-spencer", "name": "Mexicali Cantina Grill", "image_url": "https://s3-media1.fl.yelpcdn.com/bphoto/x0mEHm-y5XbQaW49354aIQ/o.jpg", "is_closed": false, "url": "https://www.yelp.com/biz/mexicali-cantina-grill-spencer?adjust_creative=ywY5UnLZrNrRl2b93Ruy_g&utm_campaign=yelp_api_v3&utm_medium=api_v3_business_search&utm_source=ywY5UnLZrNrRl2b93Ruy_g", "review_count": 103, "categories": [{"alias": "mexican", "title": "Mexican"}], "rating": 4.0, "coordinates": {"latitude": 42.244031, "longitude": -71.99444}, "transactions": ["pickup", "delivery"], "price": "$$", "location": {"address1": "117 Main St", "address2": "", "address3": "", "city": "Spencer", "zip_code": "01562", "country": "US", "state": "MA", "display_address": ["117 Main St", "Spencer, MA 01562"]}, "phone": "+17747458200", "display_phone": "(774) 745-8200", "distance": 6063.725431134798}, {"id": "t2YP9KwOFbufQ5CdDnGspw", "alias": "howards-drive-in-west-brookfield", "name": "Howards Drive In", "image_url": "https://s3-media1.fl.yelpcdn.com/bphoto/J29KRUefCK0T3bxmW4xEvw/o.jpg", "is_closed": false, "url": "https://www.yelp.com/biz/howards-drive-in-west-brookfield?adjust_creative=ywY5UnLZrNrRl2b93Ruy_g&utm_campaign=yelp_api_v3&utm_medium=api_v3_business_search&utm_source=ywY5UnLZrNrRl2b93Ruy_g", "review_count": 52, "categories": [{"alias": "tradamerican", "title": "American (Traditional)"}], "rating": 4.0, "coordinates": {"latitude": 42.2305, "longitude": -72.13282}, "transactions": [], "price": "$", "location": {"address1": "121 E Main St", "address2": "", "address3": "", "city": "West Brookfield", "zip_code": "01585", "country": "US", "state": "MA", "display_address": ["121 E Main St", "West Brookfield, MA 01585"]}, "phone": "+15088676504", "display_phone": "(508) 867-6504", "distance": 7400.348808421477}, {"id": "rNGs_-Ef-MWjnyQxMjarMw", "alias": "haymakers-grille-spencer", "name": "Haymakers Grille", "image_url": "https://s3-media4.fl.yelpcdn.com/bphoto/E72MqmerZQ4x1owwHKkuKQ/o.jpg", "is_closed": false, "url": "https://www.yelp.com/biz/haymakers-grille-spencer?adjust_creative=ywY5UnLZrNrRl2b93Ruy_g&utm_campaign=yelp_api_v3&utm_medium=api_v3_business_search&utm_source=ywY5UnLZrNrRl2b93Ruy_g", "review_count": 2, "categories": [{"alias": "tradamerican", "title": "American (Traditional)"}, {"alias": "breakfast_brunch", "title": "Breakfast & Brunch"}], "rating": 5.0, "coordinates": {"latitude": 42.243512, "longitude": -71.993321}, "transactions": [], "location": {"address1": "152 Main St", "address2": "", "address3": null, "city": "Spencer", "zip_code": "01562", "country": "US", "state": "MA", "display_address": ["152 Main St", "Spencer, MA 01562"]}, "phone": "+17747458095", "display_phone": "(774) 745-8095", "distance": 6098.6667043387915}, {"id": "yPx4L-3zWVT4bhD9wofJ0Q", "alias": "the-dashboard-diner-spencer", "name": "The Dashboard Diner", "image_url": "https://s3-media2.fl.yelpcdn.com/bphoto/eUHqsO9dzowr6TZxXLuwGg/o.jpg", "is_closed": false, "url": "https://www.yelp.com/biz/the-dashboard-diner-spencer?adjust_creative=ywY5UnLZrNrRl2b93Ruy_g&utm_campaign=yelp_api_v3&utm_medium=api_v3_business_search&utm_source=ywY5UnLZrNrRl2b93Ruy_g", "review_count": 7, "categories": [{"alias": "hotdog", "title": "Hot Dogs"}, {"alias": "burgers", "title": "Burgers"}, {"alias": "fishnchips", "title": "Fish & Chips"}], "rating": 5.0, "coordinates": {"latitude": 42.2376279610392, "longitude": -72.0048223919266}, "transactions": [], "price": "$", "location": {"address1": "6 W Main St", "address2": null, "address3": "", "city": "Spencer", "zip_code": "01562", "country": "US", "state": "MA", "display_address": ["6 W Main St", "Spencer, MA 01562"]}, "phone": "+15088645472", "display_phone": "(508) 864-5472", "distance": 4952.906239338606}, {"id": "pMAyOdSf-r0M2Z2bdlpVQw", "alias": "yamato-asian-bistro-spencer", "name": "Yamato Asian Bistro", "image_url": "https://s3-media3.fl.yelpcdn.com/bphoto/-EGCOg_xmnRyvXecFXLq4g/o.jpg", "is_closed": false, "url": "https://www.yelp.com/biz/yamato-asian-bistro-spencer?adjust_creative=ywY5UnLZrNrRl2b93Ruy_g&utm_campaign=yelp_api_v3&utm_medium=api_v3_business_search&utm_source=ywY5UnLZrNrRl2b93Ruy_g", "review_count": 41, "categories": [{"alias": "asianfusion", "title": "Asian Fusion"}, {"alias": "sushi", "title": "Sushi Bars"}], "rating": 3.5, "coordinates": {"latitude": 42.23375, "longitude": -72.01408}, "transactions": [], "price": "$$", "location": {"address1": "62 West Main St", "address2": null, "address3": "", "city": "Spencer", "zip_code": "01562", "country": "US", "state": "MA", "display_address": ["62 West Main St", "Spencer, MA 01562"]}, "phone": "+15088855288", "display_phone": "(508) 885-5288", "distance": 4100.813778601018}, {"id": "0u096yYEmPF_74mcDYKFOQ", "alias": "panda-garden-2-east-brookfield", "name": "Panda Garden 2", "image_url": "https://s3-media1.fl.yelpcdn.com/bphoto/F8G-Hgio3ROhaSmbX4d81w/o.jpg", "is_closed": false, "url": "https://www.yelp.com/biz/panda-garden-2-east-brookfield?adjust_creative=ywY5UnLZrNrRl2b93Ruy_g&utm_campaign=yelp_api_v3&utm_medium=api_v3_business_search&utm_source=ywY5UnLZrNrRl2b93Ruy_g", "review_count": 13, "categories": [{"alias": "chinese", "title": "Chinese"}], "rating": 3.0, "coordinates": {"latitude": 42.219459, "longitude": -72.070868}, "transactions": [], "location": {"address1": "237 W Main St", "address2": "", "address3": "", "city": "East Brookfield", "zip_code": "01515", "country": "US", "state": "MA", "display_address": ["237 W Main St", "East Brookfield, MA 01515"]}, "phone": "+15088673799", "display_phone": "(508) 867-3799", "distance": 2208.583787121266}, {"id": "Yom8r1dLF2HMO5aSwII0Lw", "alias": "charlies-diner-spencer", "name": "Charlies Diner", "image_url": "https://s3-media4.fl.yelpcdn.com/bphoto/Luprqfrv0Q_XSTQkE10zqQ/o.jpg", "is_closed": false, "url": "https://www.yelp.com/biz/charlies-diner-spencer?adjust_creative=ywY5UnLZrNrRl2b93Ruy_g&utm_campaign=yelp_api_v3&utm_medium=api_v3_business_search&utm_source=ywY5UnLZrNrRl2b93Ruy_g", "review_count": 99, "categories": [{"alias": "diners", "title": "Diners"}], "rating": 3.0, "coordinates": {"latitude": 42.237049280598, "longitude": -72.010635589954}, "transactions": [], "price": "$$", "location": {"address1": "5 Meadow Rd", "address2": null, "address3": null, "city": "Spencer", "zip_code": "01562", "country": "US", "state": "MA", "display_address": ["5 Meadow Rd", "Spencer, MA 01562"]}, "phone": "+15088854033", "display_phone": "(508) 885-4033", "distance": 4568.452606877432}, {"id": "muaz7D4kw9jGxtkkO297mg", "alias": "five-loaves-bakery-spencer", "name": "Five Loaves Bakery", "image_url": "https://s3-media2.fl.yelpcdn.com/bphoto/ZmhW-JBIdDp6h0bQ9a6iTA/o.jpg", "is_closed": false, "url": "https://www.yelp.com/biz/five-loaves-bakery-spencer?adjust_creative=ywY5UnLZrNrRl2b93Ruy_g&utm_campaign=yelp_api_v3&utm_medium=api_v3_business_search&utm_source=ywY5UnLZrNrRl2b93Ruy_g", "review_count": 34, "categories": [{"alias": "bakeries", "title": "Bakeries"}, {"alias": "cafes", "title": "Cafes"}, {"alias": "tradamerican", "title": "American (Traditional)"}], "rating": 4.5, "coordinates": {"latitude": 42.2433319091797, "longitude": -71.9930953979492}, "transactions": [], "price": "$$", "location": {"address1": "13 Mechanic St", "address2": null, "address3": null, "city": "Spencer", "zip_code": "01562", "country": "US", "state": "MA", "display_address": ["13 Mechanic St", "Spencer, MA 01562"]}, "phone": "+15088853760", "display_phone": "(508) 885-3760", "distance": 6082.096173134587}, {"id": "yIhVtwTmftVIpNYcxf9yMA", "alias": "statz-sports-pub-and-grill-north-brookfield", "name": "Statz Sports Pub & Grill", "image_url": "https://s3-media3.fl.yelpcdn.com/bphoto/iOISgzMcfKXM9LCMMpr-xw/o.jpg", "is_closed": false, "url": "https://www.yelp.com/biz/statz-sports-pub-and-grill-north-brookfield?adjust_creative=ywY5UnLZrNrRl2b93Ruy_g&utm_campaign=yelp_api_v3&utm_medium=api_v3_business_search&utm_source=ywY5UnLZrNrRl2b93Ruy_g", "review_count": 5, "categories": [{"alias": "breakfast_brunch", "title": "Breakfast & Brunch"}, {"alias": "pubs", "title": "Pubs"}], "rating": 5.0, "coordinates": {"latitude": 42.275866, "longitude": -72.083283}, "transactions": [], "price": "$", "location": {"address1": "341 N Main St", "address2": "", "address3": null, "city": "North Brookfield", "zip_code": "01535", "country": "US", "state": "MA", "display_address": ["341 N Main St", "North Brookfield, MA 01535"]}, "phone": "+15088677204", "display_phone": "(508) 867-7204", "distance": 8142.049990143153}, {"id": "qZ2mUZB1EFz2-Was9kft2Q", "alias": "ye-olde-tavern-west-brookfield-3", "name": "Ye Olde Tavern", "image_url": "https://s3-media2.fl.yelpcdn.com/bphoto/feqtvkBcHvmzmclvTYA-WQ/o.jpg", "is_closed": false, "url": "https://www.yelp.com/biz/ye-olde-tavern-west-brookfield-3?adjust_creative=ywY5UnLZrNrRl2b93Ruy_g&utm_campaign=yelp_api_v3&utm_medium=api_v3_business_search&utm_source=ywY5UnLZrNrRl2b93Ruy_g", "review_count": 31, "categories": [{"alias": "pizza", "title": "Pizza"}], "rating": 3.5, "coordinates": {"latitude": 42.2349328, "longitude": -72.1419567}, "transactions": [], "price": "$$", "location": {"address1": "7 E Main St", "address2": "", "address3": "", "city": "West Brookfield", "zip_code": "01585", "country": "US", "state": "MA", "display_address": ["7 E Main St", "West Brookfield, MA 01585"]}, "phone": "+15088679709", "display_phone": "(508) 867-9709", "distance": 8278.816541396134}, {"id": "nO0WHyU8hH-fZox4vFx_Tw", "alias": "trolley-stop-restaurant-east-brookfield", "name": "Trolley Stop Restaurant", "image_url": "https://s3-media3.fl.yelpcdn.com/bphoto/ssiKoGUtgz6GULs3biiPxw/o.jpg", "is_closed": false, "url": "https://www.yelp.com/biz/trolley-stop-restaurant-east-brookfield?adjust_creative=ywY5UnLZrNrRl2b93Ruy_g&utm_campaign=yelp_api_v3&utm_medium=api_v3_business_search&utm_source=ywY5UnLZrNrRl2b93Ruy_g", "review_count": 7, "categories": [{"alias": "breakfast_brunch", "title": "Breakfast & Brunch"}], "rating": 3.5, "coordinates": {"latitude": 42.226512, "longitude": -72.047706}, "transactions": [], "price": "$", "location": {"address1": "294 E Main St", "address2": "", "address3": "", "city": "East Brookfield", "zip_code": "01515", "country": "US", "state": "MA", "display_address": ["294 E Main St", "East Brookfield, MA 01515"]}, "phone": "+15088675995", "display_phone": "(508) 867-5995", "distance": 2158.5541771520316}, {"id": "LHU-3f0kpPrG8cB7lkDhpw", "alias": "depot-square-deli-and-package-store-east-brookfield", "name": "Depot Square Deli &Package Store", "image_url": "https://s3-media3.fl.yelpcdn.com/bphoto/w5mkcnXJy8KCBx3a3AMLxw/o.jpg", "is_closed": false, "url": "https://www.yelp.com/biz/depot-square-deli-and-package-store-east-brookfield?adjust_creative=ywY5UnLZrNrRl2b93Ruy_g&utm_campaign=yelp_api_v3&utm_medium=api_v3_business_search&utm_source=ywY5UnLZrNrRl2b93Ruy_g", "review_count": 3, "categories": [{"alias": "desserts", "title": "Desserts"}, {"alias": "delis", "title": "Delis"}, {"alias": "sandwiches", "title": "Sandwiches"}], "rating": 5.0, "coordinates": {"latitude": 42.2256833290215, "longitude": -72.04646605713}, "transactions": [], "price": "$", "location": {"address1": "104 Pleasant St", "address2": "", "address3": "", "city": "East Brookfield", "zip_code": "01515", "country": "US", "state": "MA", "display_address": ["104 Pleasant St", "East Brookfield, MA 01515"]}, "phone": "+15088673412", "display_phone": "(508) 867-3412", "distance": 2069.1342786723703}, {"id": "77l6FoUUyafxTM1-c3SbJg", "alias": "chef-sau-restaurant-spencer", "name": "Chef Sau Restaurant", "image_url": "https://s3-media4.fl.yelpcdn.com/bphoto/bAZ4EsoOPNyBKn_Ex0UC4Q/o.jpg", "is_closed": false, "url": "https://www.yelp.com/biz/chef-sau-restaurant-spencer?adjust_creative=ywY5UnLZrNrRl2b93Ruy_g&utm_campaign=yelp_api_v3&utm_medium=api_v3_business_search&utm_source=ywY5UnLZrNrRl2b93Ruy_g", "review_count": 16, "categories": [{"alias": "chinese", "title": "Chinese"}], "rating": 4.0, "coordinates": {"latitude": 42.24369, "longitude": -71.99381}, "transactions": [], "price": "$$", "location": {"address1": "148 Main St", "address2": "", "address3": "", "city": "Spencer", "zip_code": "01562", "country": "US", "state": "MA", "display_address": ["148 Main St", "Spencer, MA 01562"]}, "phone": "+15088853995", "display_phone": "(508) 885-3995", "distance": 6075.789820655856}, {"id": "tvP1MXfXcaJKD8pGyO31Mw", "alias": "matts-breakfast-nook-west-brookfield", "name": "Matt's Breakfast Nook", "image_url": "https://s3-media3.fl.yelpcdn.com/bphoto/BBidKu4IzxWx95_oclff3w/o.jpg", "is_closed": false, "url": "https://www.yelp.com/biz/matts-breakfast-nook-west-brookfield?adjust_creative=ywY5UnLZrNrRl2b93Ruy_g&utm_campaign=yelp_api_v3&utm_medium=api_v3_business_search&utm_source=ywY5UnLZrNrRl2b93Ruy_g", "review_count": 1, "categories": [{"alias": "breakfast_brunch", "title": "Breakfast & Brunch"}], "rating": 5.0, "coordinates": {"latitude": 42.2351378, "longitude": -72.1417457}, "transactions": [], "location": {"address1": "8 E Main St", "address2": "", "address3": null, "city": "West Brookfield", "zip_code": "01585", "country": "US", "state": "MA", "display_address": ["8 E Main St", "West Brookfield, MA 01585"]}, "phone": "+15086371166", "display_phone": "(508) 637-1166", "distance": 8272.8890909986}, {"id": "A14Eypr5kImN1lKqXeiMKQ", "alias": "charlton-house-of-pizza-and-seafood-charlton", "name": "Charlton House Of Pizza & Seafood", "image_url": "https://s3-media4.fl.yelpcdn.com/bphoto/JDkb410WWA3TZIPJ_DegqQ/o.jpg", "is_closed": false, "url": "https://www.yelp.com/biz/charlton-house-of-pizza-and-seafood-charlton?adjust_creative=ywY5UnLZrNrRl2b93Ruy_g&utm_campaign=yelp_api_v3&utm_medium=api_v3_business_search&utm_source=ywY5UnLZrNrRl2b93Ruy_g", "review_count": 6, "categories": [{"alias": "pizza", "title": "Pizza"}, {"alias": "seafood", "title": "Seafood"}], "rating": 3.5, "coordinates": {"latitude": 42.13713, "longitude": -71.97024}, "transactions": ["delivery"], "location": {"address1": "109 Masonic Home Rd", "address2": null, "address3": "", "city": "Charlton", "zip_code": "01507", "country": "US", "state": "MA", "display_address": ["109 Masonic Home Rd", "Charlton, MA 01507"]}, "phone": "+15084341666", "display_phone": "(508) 434-1666", "distance": 10083.656961705894}, {"id": "0GF5VFxjfJZqJ3lb69RZbQ", "alias": "uncle-sams-pizza-east-brookfield", "name": "Uncle Sam's Pizza", "image_url": "https://s3-media3.fl.yelpcdn.com/bphoto/rJTXt0bkE5p4q83tG5v0cw/o.jpg", "is_closed": false, "url": "https://www.yelp.com/biz/uncle-sams-pizza-east-brookfield?adjust_creative=ywY5UnLZrNrRl2b93Ruy_g&utm_campaign=yelp_api_v3&utm_medium=api_v3_business_search&utm_source=ywY5UnLZrNrRl2b93Ruy_g", "review_count": 11, "categories": [{"alias": "pizza", "title": "Pizza"}], "rating": 3.0, "coordinates": {"latitude": 42.22993, "longitude": -72.0374}, "transactions": [], "price": "$", "location": {"address1": "400 E Main St", "address2": "", "address3": "", "city": "East Brookfield", "zip_code": "01515", "country": "US", "state": "MA", "display_address": ["400 E Main St", "East Brookfield, MA 01515"]}, "phone": "+15088855019", "display_phone": "(508) 885-5019", "distance": 2656.81338081757}, {"id": "8RnBXTS9l6P_J3YBFGP8tA", "alias": "milk-and-sugar-cafe-charlton", "name": "Milk & Sugar Cafe", "image_url": "https://s3-media4.fl.yelpcdn.com/bphoto/TvkLIvAFdqogjIYUSY2SiQ/o.jpg", "is_closed": false, "url": "https://www.yelp.com/biz/milk-and-sugar-cafe-charlton?adjust_creative=ywY5UnLZrNrRl2b93Ruy_g&utm_campaign=yelp_api_v3&utm_medium=api_v3_business_search&utm_source=ywY5UnLZrNrRl2b93Ruy_g", "review_count": 1, "categories": [{"alias": "cafes", "title": "Cafes"}, {"alias": "coffee", "title": "Coffee & Tea"}, {"alias": "breakfast_brunch", "title": "Breakfast & Brunch"}], "rating": 5.0, "coordinates": {"latitude": 42.146816, "longitude": -71.98802}, "transactions": [], "location": {"address1": "7 Brookfield Rd", "address2": "", "address3": null, "city": "Charlton", "zip_code": "01507", "country": "US", "state": "MA", "display_address": ["7 Brookfield Rd", "Charlton, MA 01507"]}, "phone": "+15084340727", "display_phone": "(508) 434-0727", "distance": 8366.218280467376}, {"id": "UDJ3fIh3TjsVrKBFDLzLKg", "alias": "spencer-pizza-house-spencer", "name": "Spencer Pizza House", "image_url": "https://s3-media1.fl.yelpcdn.com/bphoto/GiQku7izwr1tz1zuQliGOw/o.jpg", "is_closed": false, "url": "https://www.yelp.com/biz/spencer-pizza-house-spencer?adjust_creative=ywY5UnLZrNrRl2b93Ruy_g&utm_campaign=yelp_api_v3&utm_medium=api_v3_business_search&utm_source=ywY5UnLZrNrRl2b93Ruy_g", "review_count": 16, "categories": [{"alias": "pizza", "title": "Pizza"}, {"alias": "seafood", "title": "Seafood"}, {"alias": "sandwiches", "title": "Sandwiches"}], "rating": 4.5, "coordinates": {"latitude": 42.24288, "longitude": -71.99309}, "transactions": [], "price": "$", "location": {"address1": "19 Mechanic St", "address2": "", "address3": "", "city": "Spencer", "zip_code": "01562", "country": "US", "state": "MA", "display_address": ["19 Mechanic St", "Spencer, MA 01562"]}, "phone": "+15088850000", "display_phone": "(508) 885-0000", "distance": 6056.234228450405}, {"id": "5Reotu9GfyMCaMcAC4ET0w", "alias": "east-brookfield-pizza-east-brookfield", "name": "East Brookfield Pizza", "image_url": "https://s3-media1.fl.yelpcdn.com/bphoto/basBKLvUpIDlq39TVjad6w/o.jpg", "is_closed": false, "url": "https://www.yelp.com/biz/east-brookfield-pizza-east-brookfield?adjust_creative=ywY5UnLZrNrRl2b93Ruy_g&utm_campaign=yelp_api_v3&utm_medium=api_v3_business_search&utm_source=ywY5UnLZrNrRl2b93Ruy_g", "review_count": 8, "categories": [{"alias": "pizza", "title": "Pizza"}], "rating": 3.5, "coordinates": {"latitude": 42.226144, "longitude": -72.047749}, "transactions": [], "price": "$$", "location": {"address1": "289 East Main St", "address2": null, "address3": null, "city": "East Brookfield", "zip_code": "01515", "country": "US", "state": "MA", "display_address": ["289 East Main St", "East Brookfield, MA 01515"]}, "phone": "+15088678777", "display_phone": "(508) 867-8777", "distance": 2113.6874560924766}, {"id": "NMEGYN2drL_VPAUqu5fIbg", "alias": "spencer-country-inn-spencer", "name": "Spencer Country Inn", "image_url": "https://s3-media2.fl.yelpcdn.com/bphoto/3BGO0Zr2EpA4f7TvhONu9g/o.jpg", "is_closed": false, "url": "https://www.yelp.com/biz/spencer-country-inn-spencer?adjust_creative=ywY5UnLZrNrRl2b93Ruy_g&utm_campaign=yelp_api_v3&utm_medium=api_v3_business_search&utm_source=ywY5UnLZrNrRl2b93Ruy_g", "review_count": 20, "categories": [{"alias": "tradamerican", "title": "American (Traditional)"}, {"alias": "bedbreakfast", "title": "Bed & Breakfast"}], "rating": 3.5, "coordinates": {"latitude": 42.25504, "longitude": -71.95723}, "transactions": [], "price": "$$", "location": {"address1": "500 Main St", "address2": "", "address3": "", "city": "Spencer", "zip_code": "01562", "country": "US", "state": "MA", "display_address": ["500 Main St", "Spencer, MA 01562"]}, "phone": "+15088859036", "display_phone": "(508) 885-9036", "distance": 9278.756736646861}, {"id": "Ta3RtU27BULz8gypO2tz1g", "alias": "kostas-cafe-spencer", "name": "Kosta's Cafe", "image_url": "https://s3-media2.fl.yelpcdn.com/bphoto/dkpRMEOYS-1GgEgkVplqwA/o.jpg", "is_closed": false, "url": "https://www.yelp.com/biz/kostas-cafe-spencer?adjust_creative=ywY5UnLZrNrRl2b93Ruy_g&utm_campaign=yelp_api_v3&utm_medium=api_v3_business_search&utm_source=ywY5UnLZrNrRl2b93Ruy_g", "review_count": 40, "categories": [{"alias": "breakfast_brunch", "title": "Breakfast & Brunch"}, {"alias": "coffee", "title": "Coffee & Tea"}], "rating": 4.0, "coordinates": {"latitude": 42.246032, "longitude": -71.995498}, "transactions": [], "price": "$", "location": {"address1": "31 Pleasant St", "address2": "", "address3": "", "city": "Spencer", "zip_code": "01562", "country": "US", "state": "MA", "display_address": ["31 Pleasant St", "Spencer, MA 01562"]}, "phone": "+15088857705", "display_phone": "(508) 885-7705", "distance": 6154.0326722058535}, {"id": "5LnJZPd5i8WaQaZSyBzxlw", "alias": "georges-pizza-and-subs-charlton-2", "name": "George's Pizza & Subs", "image_url": "https://s3-media4.fl.yelpcdn.com/bphoto/yakVXZqs_knjbkKEe3wAcA/o.jpg", "is_closed": false, "url": "https://www.yelp.com/biz/georges-pizza-and-subs-charlton-2?adjust_creative=ywY5UnLZrNrRl2b93Ruy_g&utm_campaign=yelp_api_v3&utm_medium=api_v3_business_search&utm_source=ywY5UnLZrNrRl2b93Ruy_g", "review_count": 10, "categories": [{"alias": "pizza", "title": "Pizza"}, {"alias": "seafood", "title": "Seafood"}, {"alias": "chicken_wings", "title": "Chicken Wings"}], "rating": 2.5, "coordinates": {"latitude": 42.14948, "longitude": -71.98911}, "transactions": ["delivery"], "location": {"address1": "9 City Depot Rd", "address2": "", "address3": null, "city": "Charlton", "zip_code": "01507", "country": "US", "state": "MA", "display_address": ["9 City Depot Rd", "Charlton, MA 01507"]}, "phone": "+15082482048", "display_phone": "(508) 248-2048", "distance": 8074.874071000552}, {"id": "PWkP3vd_SJxEyh5xbYfJ-A", "alias": "pizza-hut-spencer-7", "name": "Pizza Hut", "image_url": "https://s3-media3.fl.yelpcdn.com/bphoto/hTGz8wP4UAjVvGJneraX9w/o.jpg", "is_closed": false, "url": "https://www.yelp.com/biz/pizza-hut-spencer-7?adjust_creative=ywY5UnLZrNrRl2b93Ruy_g&utm_campaign=yelp_api_v3&utm_medium=api_v3_business_search&utm_source=ywY5UnLZrNrRl2b93Ruy_g", "review_count": 3, "categories": [{"alias": "pizza", "title": "Pizza"}, {"alias": "italian", "title": "Italian"}], "rating": 4.0, "coordinates": {"latitude": 42.2333170257464, "longitude": -72.0150576948935}, "transactions": [], "price": "$", "location": {"address1": "62 W Main St", "address2": "", "address3": "", "city": "Spencer", "zip_code": "01562", "country": "US", "state": "MA", "display_address": ["62 W Main St", "Spencer, MA 01562"]}, "phone": "+15088855345", "display_phone": "(508) 885-5345", "distance": 4016.7930590629753}, {"id": "korFZpunosGkNq5HYJkuhg", "alias": "johns-pizza-spencer", "name": "John's Pizza", "image_url": "https://s3-media2.fl.yelpcdn.com/bphoto/WK44ri8DaBsfonFXQwUrdg/o.jpg", "is_closed": false, "url": "https://www.yelp.com/biz/johns-pizza-spencer?adjust_creative=ywY5UnLZrNrRl2b93Ruy_g&utm_campaign=yelp_api_v3&utm_medium=api_v3_business_search&utm_source=ywY5UnLZrNrRl2b93Ruy_g", "review_count": 23, "categories": [{"alias": "pizza", "title": "Pizza"}], "rating": 3.0, "coordinates": {"latitude": 42.24354, "longitude": -71.99274}, "transactions": [], "price": "$$", "location": {"address1": "158 Main St", "address2": "Ste 3", "address3": "", "city": "Spencer", "zip_code": "01562", "country": "US", "state": "MA", "display_address": ["158 Main St", "Ste 3", "Spencer, MA 01562"]}, "phone": "+15088856936", "display_phone": "(508) 885-6936", "distance": 6131.008517576065}, {"id": "s8ifd_imgK2jH0m0eZDntQ", "alias": "georges-pizza-and-subs-west-brookfield", "name": "George's Pizza and Subs", "image_url": "https://s3-media4.fl.yelpcdn.com/bphoto/Ch0ooY7hZwaElbMHeHk4Yw/o.jpg", "is_closed": false, "url": "https://www.yelp.com/biz/georges-pizza-and-subs-west-brookfield?adjust_creative=ywY5UnLZrNrRl2b93Ruy_g&utm_campaign=yelp_api_v3&utm_medium=api_v3_business_search&utm_source=ywY5UnLZrNrRl2b93Ruy_g", "review_count": 27, "categories": [{"alias": "salad", "title": "Salad"}, {"alias": "pizza", "title": "Pizza"}, {"alias": "sandwiches", "title": "Sandwiches"}], "rating": 3.5, "coordinates": {"latitude": 42.2348093, "longitude": -72.1424106}, "transactions": [], "price": "$", "location": {"address1": "4 East Main St", "address2": "", "address3": "", "city": "West Brookfield", "zip_code": "01585", "country": "US", "state": "MA", "display_address": ["4 East Main St", "West Brookfield, MA 01585"]}, "phone": "+15088678100", "display_phone": "(508) 867-8100", "distance": 8308.41825206507}, {"id": "JuRhlHEW3hF8kQgy4U5ScQ", "alias": "village-pizza-spencer", "name": "Village Pizza", "image_url": "https://s3-media2.fl.yelpcdn.com/bphoto/rJGgd3rsr_-bWlKI3W4Fsg/o.jpg", "is_closed": false, "url": "https://www.yelp.com/biz/village-pizza-spencer?adjust_creative=ywY5UnLZrNrRl2b93Ruy_g&utm_campaign=yelp_api_v3&utm_medium=api_v3_business_search&utm_source=ywY5UnLZrNrRl2b93Ruy_g", "review_count": 7, "categories": [{"alias": "pizza", "title": "Pizza"}], "rating": 3.0, "coordinates": {"latitude": 42.2514224052429, "longitude": -71.9771010428667}, "transactions": [], "location": {"address1": "320 Main St", "address2": "Ste 2", "address3": "", "city": "Spencer", "zip_code": "01562", "country": "US", "state": "MA", "display_address": ["320 Main St", "Ste 2", "Spencer, MA 01562"]}, "phone": "+15088851114", "display_phone": "(508) 885-1114", "distance": 7694.7276679326515}, {"id": "0uZi3bproBbPbYdli72dSg", "alias": "north-brookfield-pizza-palace-north-brookfield-2", "name": "North Brookfield Pizza Palace", "image_url": "", "is_closed": false, "url": "https://www.yelp.com/biz/north-brookfield-pizza-palace-north-brookfield-2?adjust_creative=ywY5UnLZrNrRl2b93Ruy_g&utm_campaign=yelp_api_v3&utm_medium=api_v3_business_search&utm_source=ywY5UnLZrNrRl2b93Ruy_g", "review_count": 10, "categories": [{"alias": "pizza", "title": "Pizza"}], "rating": 3.5, "coordinates": {"latitude": 42.2685891, "longitude": -72.0822442}, "transactions": [], "price": "$", "location": {"address1": "60 School St", "address2": "", "address3": "", "city": "North Brookfield", "zip_code": "01535", "country": "US", "state": "MA", "display_address": ["60 School St", "North Brookfield, MA 01535"]}, "phone": "+15088670060", "display_phone": "(508) 867-0060", "distance": 7369.480151487217}, {"id": "EFpZHYF6TjVrXTXaWzjQ7A", "alias": "family-house-of-pizza-and-seafood-charlton", "name": "Family House of Pizza & Seafood", "image_url": "https://s3-media3.fl.yelpcdn.com/bphoto/Iz30Dowh5etAodvEKZrpdQ/o.jpg", "is_closed": false, "url": "https://www.yelp.com/biz/family-house-of-pizza-and-seafood-charlton?adjust_creative=ywY5UnLZrNrRl2b93Ruy_g&utm_campaign=yelp_api_v3&utm_medium=api_v3_business_search&utm_source=ywY5UnLZrNrRl2b93Ruy_g", "review_count": 10, "categories": [{"alias": "seafood", "title": "Seafood"}], "rating": 2.5, "coordinates": {"latitude": 42.1375465393066, "longitude": -71.9712905883789}, "transactions": ["delivery"], "price": "$$", "location": {"address1": "105 Masonic Home Rd", "address2": "", "address3": "", "city": "Charlton", "zip_code": "01507", "country": "US", "state": "MA", "display_address": ["105 Masonic Home Rd", "Charlton, MA 01507"]}, "phone": "+15082480666", "display_phone": "(508) 248-0666", "distance": 10030.800329197606}, {"id": "JNRdBxmhf3BaiWwQX8VJmw", "alias": "jims-pizza-north-brookfield", "name": "Jim's Pizza", "image_url": "", "is_closed": false, "url": "https://www.yelp.com/biz/jims-pizza-north-brookfield?adjust_creative=ywY5UnLZrNrRl2b93Ruy_g&utm_campaign=yelp_api_v3&utm_medium=api_v3_business_search&utm_source=ywY5UnLZrNrRl2b93Ruy_g", "review_count": 14, "categories": [{"alias": "pizza", "title": "Pizza"}], "rating": 3.0, "coordinates": {"latitude": 42.269747, "longitude": -72.085661}, "transactions": [], "price": "$", "location": {"address1": "219 N Main St", "address2": "", "address3": "", "city": "North Brookfield", "zip_code": "01535", "country": "US", "state": "MA", "display_address": ["219 N Main St", "North Brookfield, MA 01535"]}, "phone": "+15088678373", "display_phone": "(508) 867-8373", "distance": 7597.259306688871}, {"id": "eZe_SqA9OCE_UxBfnpIwAA", "alias": "d-angelo-sandwich-shop-charlton", "name": "D'Angelo Sandwich Shop", "image_url": "https://s3-media4.fl.yelpcdn.com/bphoto/UqpzoHw-svV_S_rdsgjLmQ/o.jpg", "is_closed": false, "url": "https://www.yelp.com/biz/d-angelo-sandwich-shop-charlton?adjust_creative=ywY5UnLZrNrRl2b93Ruy_g&utm_campaign=yelp_api_v3&utm_medium=api_v3_business_search&utm_source=ywY5UnLZrNrRl2b93Ruy_g", "review_count": 7, "categories": [{"alias": "sandwiches", "title": "Sandwiches"}], "rating": 2.0, "coordinates": {"latitude": 42.138691842556, "longitude": -72.0235615968704}, "transactions": ["delivery"], "location": {"address1": "166 Sturbridge Rd", "address2": "", "address3": "", "city": "Charlton", "zip_code": "01507", "country": "US", "state": "MA", "display_address": ["166 Sturbridge Rd", "Charlton, MA 01507"]}, "phone": "+15082481061", "display_phone": "(508) 248-1061", "distance": 7743.328140202321}, {"id": "vmneGdXXMuwZ9lHfDAvtZg", "alias": "subway-north-brookfield-3", "name": "Subway", "image_url": "https://s3-media4.fl.yelpcdn.com/bphoto/9KjpYjzDWKMP1NWSCBnLYw/o.jpg", "is_closed": false, "url": "https://www.yelp.com/biz/subway-north-brookfield-3?adjust_creative=ywY5UnLZrNrRl2b93Ruy_g&utm_campaign=yelp_api_v3&utm_medium=api_v3_business_search&utm_source=ywY5UnLZrNrRl2b93Ruy_g", "review_count": 1, "categories": [{"alias": "sandwiches", "title": "Sandwiches"}], "rating": 5.0, "coordinates": {"latitude": 42.268020271248, "longitude": -72.0853124141208}, "transactions": [], "price": "$", "location": {"address1": "163 N Main St", "address2": "", "address3": "", "city": "North Brookfield", "zip_code": "01535", "country": "US", "state": "MA", "display_address": ["163 N Main St", "North Brookfield, MA 01535"]}, "phone": "+15088678800", "display_phone": "(508) 867-8800", "distance": 7410.034599098803}, {"id": "a337zkmoaGIJGUApn46wGA", "alias": "d-angelo-natick-2", "name": "D'Angelo", "image_url": "https://s3-media1.fl.yelpcdn.com/bphoto/uS3563JIhI5YPG4UJJNZHw/o.jpg", "is_closed": false, "url": "https://www.yelp.com/biz/d-angelo-natick-2?adjust_creative=ywY5UnLZrNrRl2b93Ruy_g&utm_campaign=yelp_api_v3&utm_medium=api_v3_business_search&utm_source=ywY5UnLZrNrRl2b93Ruy_g", "review_count": 2, "categories": [{"alias": "sandwiches", "title": "Sandwiches"}], "rating": 3.0, "coordinates": {"latitude": 42.1565304953665, "longitude": -71.9640567173507}, "transactions": [], "location": {"address1": "117 Mass Turnpike W", "address2": "", "address3": "", "city": "Natick", "zip_code": "02062", "country": "US", "state": "MA", "display_address": ["117 Mass Turnpike W", "Natick, MA 02062"]}, "phone": "+15086552958", "display_phone": "(508) 655-2958", "distance": 8961.091464129819}, {"id": "tvRhb4dXverm3watzDLtGw", "alias": "fresh-city-charlton-2", "name": "Fresh City", "image_url": "https://s3-media1.fl.yelpcdn.com/bphoto/qwDfueXdJ_j9rEKdRCaAVQ/o.jpg", "is_closed": false, "url": "https://www.yelp.com/biz/fresh-city-charlton-2?adjust_creative=ywY5UnLZrNrRl2b93Ruy_g&utm_campaign=yelp_api_v3&utm_medium=api_v3_business_search&utm_source=ywY5UnLZrNrRl2b93Ruy_g", "review_count": 14, "categories": [{"alias": "delis", "title": "Delis"}, {"alias": "sandwiches", "title": "Sandwiches"}], "rating": 1.5, "coordinates": {"latitude": 42.156434463791, "longitude": -71.9642174128566}, "transactions": [], "price": "$", "location": {"address1": "Massachusetts Turnpike", "address2": "", "address3": "", "city": "Charlton", "zip_code": "01508", "country": "US", "state": "MA", "display_address": ["Massachusetts Turnpike", "Charlton, MA 01508"]}, "phone": "+15082480663", "display_phone": "(508) 248-0663", "distance": 8957.514617023346}, {"id": "Z0-OVloiiicUx54Q_NlXeg", "alias": "papa-ginos-charlton-2", "name": "Papa Gino's", "image_url": "https://s3-media1.fl.yelpcdn.com/bphoto/XMfmh_v23h5Tf8FRb7jx4g/o.jpg", "is_closed": false, "url": "https://www.yelp.com/biz/papa-ginos-charlton-2?adjust_creative=ywY5UnLZrNrRl2b93Ruy_g&utm_campaign=yelp_api_v3&utm_medium=api_v3_business_search&utm_source=ywY5UnLZrNrRl2b93Ruy_g", "review_count": 5, "categories": [{"alias": "pizza", "title": "Pizza"}], "rating": 3.0, "coordinates": {"latitude": 42.1565865558527, "longitude": -71.9640472644289}, "transactions": ["delivery"], "location": {"address1": "Massachusetts Tpke", "address2": "", "address3": "", "city": "Charlton", "zip_code": "", "country": "US", "state": "MA", "display_address": ["Massachusetts Tpke", "Charlton, MA"]}, "phone": "", "display_phone": "", "distance": 8957.781455688715}, {"id": "l5EE7aSMsfHiXSu2f9l9Vw", "alias": "fresh-city-charlton", "name": "Fresh City", "image_url": "https://s3-media4.fl.yelpcdn.com/bphoto/nNL4HZRNF-wqCvZI5czxNw/o.jpg", "is_closed": false, "url": "https://www.yelp.com/biz/fresh-city-charlton?adjust_creative=ywY5UnLZrNrRl2b93Ruy_g&utm_campaign=yelp_api_v3&utm_medium=api_v3_business_search&utm_source=ywY5UnLZrNrRl2b93Ruy_g", "review_count": 31, "categories": [{"alias": "newamerican", "title": "American (New)"}], "rating": 2.0, "coordinates": {"latitude": 42.156628, "longitude": -71.964096}, "transactions": [], "price": "$", "location": {"address1": "1-90 Massachusetts Turnpike", "address2": "Charlton Mass Pike E", "address3": "", "city": "Charlton", "zip_code": "01507", "country": "US", "state": "MA", "display_address": ["1-90 Massachusetts Turnpike", "Charlton Mass Pike E", "Charlton, MA 01507"]}, "phone": "+15082480663", "display_phone": "(508) 248-0663", "distance": 8951.76114192816}, {"id": "xuNN23A2qEoy3AkH7M6ytQ", "alias": "dairy-queen-grill-and-chill-spencer", "name": "Dairy Queen Grill & Chill", "image_url": "https://s3-media4.fl.yelpcdn.com/bphoto/jzL6q6MxKOihP9Yv4L5K_Q/o.jpg", "is_closed": false, "url": "https://www.yelp.com/biz/dairy-queen-grill-and-chill-spencer?adjust_creative=ywY5UnLZrNrRl2b93Ruy_g&utm_campaign=yelp_api_v3&utm_medium=api_v3_business_search&utm_source=ywY5UnLZrNrRl2b93Ruy_g", "review_count": 15, "categories": [{"alias": "icecream", "title": "Ice Cream & Frozen Yogurt"}, {"alias": "hotdogs", "title": "Fast Food"}, {"alias": "burgers", "title": "Burgers"}], "rating": 3.5, "coordinates": {"latitude": 42.2501839275466, "longitude": -71.9803109765053}, "transactions": [], "price": "$", "location": {"address1": "291 Main St", "address2": "", "address3": "", "city": "Spencer", "zip_code": "01562", "country": "US", "state": "MA", "display_address": ["291 Main St", "Spencer, MA 01562"]}, "phone": "+15088852748", "display_phone": "(508) 885-2748", "distance": 7388.601967889616}, {"id": "GevCzGJJNY7wggXDp-bdkg", "alias": "d-angelo-sandwich-shops-charlton", "name": "D'Angelo Sandwich Shops", "image_url": "https://s3-media2.fl.yelpcdn.com/bphoto/DOv0KrDMhZbPlp_qQIypuw/o.jpg", "is_closed": false, "url": "https://www.yelp.com/biz/d-angelo-sandwich-shops-charlton?adjust_creative=ywY5UnLZrNrRl2b93Ruy_g&utm_campaign=yelp_api_v3&utm_medium=api_v3_business_search&utm_source=ywY5UnLZrNrRl2b93Ruy_g", "review_count": 4, "categories": [{"alias": "sandwiches", "title": "Sandwiches"}], "rating": 2.0, "coordinates": {"latitude": 42.158604, "longitude": -71.965294}, "transactions": [], "location": {"address1": "Mass Pike Westbound", "address2": "", "address3": "", "city": "Charlton", "zip_code": "01507", "country": "US", "state": "MA", "display_address": ["Mass Pike Westbound", "Charlton, MA 01507"]}, "phone": "+15082485216", "display_phone": "(508) 248-5216", "distance": 8737.619964208574}, {"id": "FTTTC5zRb6Ze6E2ImSaCVA", "alias": "papa-ginos-pizzeria-charlton", "name": "Papa Gino's Pizzeria", "image_url": "https://s3-media2.fl.yelpcdn.com/bphoto/JEfWFgP1aeUg44dr3GvOEg/o.jpg", "is_closed": false, "url": "https://www.yelp.com/biz/papa-ginos-pizzeria-charlton?adjust_creative=ywY5UnLZrNrRl2b93Ruy_g&utm_campaign=yelp_api_v3&utm_medium=api_v3_business_search&utm_source=ywY5UnLZrNrRl2b93Ruy_g", "review_count": 6, "categories": [{"alias": "pizza", "title": "Pizza"}], "rating": 2.0, "coordinates": {"latitude": 42.138411, "longitude": -72.028237}, "transactions": ["delivery"], "location": {"address1": "166 Sturbridge Rd", "address2": null, "address3": null, "city": "Charlton", "zip_code": "01507", "country": "US", "state": "MA", "display_address": ["166 Sturbridge Rd", "Charlton, MA 01507"]}, "phone": "+15082481061", "display_phone": "(508) 248-1061", "distance": 7743.328140202321}, {"id": "LtCwcvjmjXvEYnjnPtkNoA", "alias": "mcdonalds-charlton-8", "name": "McDonald's", "image_url": "https://s3-media1.fl.yelpcdn.com/bphoto/_kT0RkE8Ml38lP5xNfSOxA/o.jpg", "is_closed": false, "url": "https://www.yelp.com/biz/mcdonalds-charlton-8?adjust_creative=ywY5UnLZrNrRl2b93Ruy_g&utm_campaign=yelp_api_v3&utm_medium=api_v3_business_search&utm_source=ywY5UnLZrNrRl2b93Ruy_g", "review_count": 24, "categories": [{"alias": "hotdogs", "title": "Fast Food"}, {"alias": "burgers", "title": "Burgers"}, {"alias": "coffee", "title": "Coffee & Tea"}], "rating": 1.5, "coordinates": {"latitude": 42.15299, "longitude": -71.97941}, "transactions": [], "price": "$", "location": {"address1": "Mass Pike I-90 Service Area Milepost 89", "address2": null, "address3": null, "city": "Charlton", "zip_code": "01507", "country": "US", "state": "MA", "display_address": ["Mass Pike I-90 Service Area Milepost 89", "Charlton, MA 01507"]}, "phone": "+15082486788", "display_phone": "(508) 248-6788", "distance": 8953.866726297698}, {"id": "a4BtLxq7zyevP_ceyFTTMA", "alias": "mcdonalds-spencer-2", "name": "McDonald's", "image_url": "https://s3-media1.fl.yelpcdn.com/bphoto/AkOAfQAISQcyF_nS7Rx2sw/o.jpg", "is_closed": false, "url": "https://www.yelp.com/biz/mcdonalds-spencer-2?adjust_creative=ywY5UnLZrNrRl2b93Ruy_g&utm_campaign=yelp_api_v3&utm_medium=api_v3_business_search&utm_source=ywY5UnLZrNrRl2b93Ruy_g", "review_count": 13, "categories": [{"alias": "hotdogs", "title": "Fast Food"}, {"alias": "burgers", "title": "Burgers"}, {"alias": "coffee", "title": "Coffee & Tea"}], "rating": 2.5, "coordinates": {"latitude": 42.233007, "longitude": -72.012469}, "transactions": [], "price": "$", "location": {"address1": "59 W Main St", "address2": "", "address3": "", "city": "Spencer", "zip_code": "01562", "country": "US", "state": "MA", "display_address": ["59 W Main St", "Spencer, MA 01562"]}, "phone": "+15088853355", "display_phone": "(508) 885-3355", "distance": 4142.608457307595}, {"id": "W84Be-TGzND8-MIfmwT8ow", "alias": "mcdonalds-charlton-2", "name": "McDonald's", "image_url": "https://s3-media4.fl.yelpcdn.com/bphoto/Pffw3GCKc7MDT7_30eHitA/o.jpg", "is_closed": false, "url": "https://www.yelp.com/biz/mcdonalds-charlton-2?adjust_creative=ywY5UnLZrNrRl2b93Ruy_g&utm_campaign=yelp_api_v3&utm_medium=api_v3_business_search&utm_source=ywY5UnLZrNrRl2b93Ruy_g", "review_count": 11, "categories": [{"alias": "hotdogs", "title": "Fast Food"}, {"alias": "burgers", "title": "Burgers"}, {"alias": "coffee", "title": "Coffee & Tea"}], "rating": 2.0, "coordinates": {"latitude": 42.145532, "longitude": -71.9873243}, "transactions": [], "price": "$", "location": {"address1": "38 Worcester Rd", "address2": "", "address3": "", "city": "Charlton", "zip_code": "01507", "country": "US", "state": "MA", "display_address": ["38 Worcester Rd", "Charlton, MA 01507"]}, "phone": "+15082487040", "display_phone": "(508) 248-7040", "distance": 8536.901579366699}, {"id": "QRYb653_lWE9Hf1KlzykNg", "alias": "mcdonalds-charlton-7", "name": "McDonald's", "image_url": "https://s3-media4.fl.yelpcdn.com/bphoto/KuCRqa0z50L4TM1QrE6L8A/o.jpg", "is_closed": false, "url": "https://www.yelp.com/biz/mcdonalds-charlton-7?adjust_creative=ywY5UnLZrNrRl2b93Ruy_g&utm_campaign=yelp_api_v3&utm_medium=api_v3_business_search&utm_source=ywY5UnLZrNrRl2b93Ruy_g", "review_count": 9, "categories": [{"alias": "hotdogs", "title": "Fast Food"}, {"alias": "burgers", "title": "Burgers"}, {"alias": "coffee", "title": "Coffee & Tea"}], "rating": 1.5, "coordinates": {"latitude": 42.15299, "longitude": -71.97941}, "transactions": [], "price": "$", "location": {"address1": "Mass Pike I-90 Service Area Eastbound", "address2": "", "address3": "", "city": "Charlton", "zip_code": "01508", "country": "US", "state": "MA", "display_address": ["Mass Pike I-90 Service Area Eastbound", "Charlton, MA 01508"]}, "phone": "+15082480517", "display_phone": "(508) 248-0517", "distance": 8546.681340658839}]