[{"id": "vuakpKxCBDz6kezGY2Os8Q", "alias": "hope-and-olive-greenfield", "name": "Hope & Olive", "image_url": "https://s3-media1.fl.yelpcdn.com/bphoto/JXgp6DSGLyNQUmPdvjgbDA/o.jpg", "is_closed": false, "url": "https://www.yelp.com/biz/hope-and-olive-greenfield?adjust_creative=ywY5UnLZrNrRl2b93Ruy_g&utm_campaign=yelp_api_v3&utm_medium=api_v3_business_search&utm_source=ywY5UnLZrNrRl2b93Ruy_g", "review_count": 261, "categories": [{"alias": "tradamerican", "title": "American (Traditional)"}, {"alias": "bars", "title": "Bars"}], "rating": 4.0, "coordinates": {"latitude": 42.5862655639648, "longitude": -72.5992050170898}, "transactions": ["delivery"], "price": "$$", "location": {"address1": "44 Hope St", "address2": "", "address3": "", "city": "Greenfield", "zip_code": "01301", "country": "US", "state": "MA", "display_address": ["44 Hope St", "Greenfield, MA 01301"]}, "phone": "+14137743150", "display_phone": "(413) 774-3150", "distance": 179.38326120286314}, {"id": "ExPrawZiMKFCtz9HV-Hw3Q", "alias": "the-peoples-pint-greenfield", "name": "The People's Pint", "image_url": "https://s3-media4.fl.yelpcdn.com/bphoto/tXW4H4plAEoPzXDNviVIGg/o.jpg", "is_closed": false, "url": "https://www.yelp.com/biz/the-peoples-pint-greenfield?adjust_creative=ywY5UnLZrNrRl2b93Ruy_g&utm_campaign=yelp_api_v3&utm_medium=api_v3_business_search&utm_source=ywY5UnLZrNrRl2b93Ruy_g", "review_count": 290, "categories": [{"alias": "tradamerican", "title": "American (Traditional)"}, {"alias": "breweries", "title": "Breweries"}], "rating": 4.0, "coordinates": {"latitude": 42.58858, "longitude": -72.60011}, "transactions": ["delivery"], "price": "$$", "location": {"address1": "24 Federal St", "address2": "", "address3": "", "city": "Greenfield", "zip_code": "01301", "country": "US", "state": "MA", "display_address": ["24 Federal St", "Greenfield, MA 01301"]}, "phone": "+14137730333", "display_phone": "(413) 773-0333", "distance": 244.8905058548954}, {"id": "SvMeNEEWcJw0w6lmjgxdew", "alias": "titos-taqueria-greenfield", "name": "Tito's Taqueria", "image_url": "https://s3-media3.fl.yelpcdn.com/bphoto/wZBeQpxZsgDEmwK5EswnXQ/o.jpg", "is_closed": false, "url": "https://www.yelp.com/biz/titos-taqueria-greenfield?adjust_creative=ywY5UnLZrNrRl2b93Ruy_g&utm_campaign=yelp_api_v3&utm_medium=api_v3_business_search&utm_source=ywY5UnLZrNrRl2b93Ruy_g", "review_count": 3, "categories": [{"alias": "foodstands", "title": "Food Stands"}, {"alias": "mexican", "title": "Mexican"}], "rating": 4.5, "coordinates": {"latitude": 42.5927892, "longitude": -72.5978838}, "transactions": ["pickup", "delivery"], "location": {"address1": "145 Federal St", "address2": null, "address3": "", "city": "Greenfield", "zip_code": "01301", "country": "US", "state": "MA", "display_address": ["145 Federal St", "Greenfield, MA 01301"]}, "phone": "", "display_phone": "", "distance": 592.4758346864537}, {"id": "aqxqBtpWLmyEwWvgfLTxZA", "alias": "magpie-greenfield", "name": "Magpie", "image_url": "https://s3-media1.fl.yelpcdn.com/bphoto/L2HxqLlx7n0XbbsWFddCaQ/o.jpg", "is_closed": false, "url": "https://www.yelp.com/biz/magpie-greenfield?adjust_creative=ywY5UnLZrNrRl2b93Ruy_g&utm_campaign=yelp_api_v3&utm_medium=api_v3_business_search&utm_source=ywY5UnLZrNrRl2b93Ruy_g", "review_count": 99, "categories": [{"alias": "pizza", "title": "Pizza"}], "rating": 4.0, "coordinates": {"latitude": 42.5869828462601, "longitude": -72.6005423069}, "transactions": ["delivery"], "price": "$$", "location": {"address1": "21 Bank Row", "address2": "", "address3": "", "city": "Greenfield", "zip_code": "01301", "country": "US", "state": "MA", "display_address": ["21 Bank Row", "Greenfield, MA 01301"]}, "phone": "+14134753570", "display_phone": "(413) 475-3570", "distance": 225.44473223343397}, {"id": "OQvVnrwhOvA69-X7jIAnPg", "alias": "manna-house-greenfield", "name": "Manna House", "image_url": "https://s3-media2.fl.yelpcdn.com/bphoto/micyK8VUFzhW9_BmqmVSSA/o.jpg", "is_closed": false, "url": "https://www.yelp.com/biz/manna-house-greenfield?adjust_creative=ywY5UnLZrNrRl2b93Ruy_g&utm_campaign=yelp_api_v3&utm_medium=api_v3_business_search&utm_source=ywY5UnLZrNrRl2b93Ruy_g", "review_count": 45, "categories": [{"alias": "korean", "title": "Korean"}], "rating": 4.0, "coordinates": {"latitude": 42.5870285, "longitude": -72.6003113}, "transactions": ["delivery"], "price": "$$", "location": {"address1": "27 Bank Row", "address2": null, "address3": null, "city": "Greenfield", "zip_code": "01301", "country": "US", "state": "MA", "display_address": ["27 Bank Row", "Greenfield, MA 01301"]}, "phone": "+14137745955", "display_phone": "(413) 774-5955", "distance": 225.3912204207813}, {"id": "f7RXJjnUe_mTm-B0wEOshw", "alias": "petes-seafood-restaurant-greenfield", "name": "Pete's Seafood Restaurant", "image_url": "https://s3-media4.fl.yelpcdn.com/bphoto/jxzmJc-NN4wG9QarQEQvHg/o.jpg", "is_closed": false, "url": "https://www.yelp.com/biz/petes-seafood-restaurant-greenfield?adjust_creative=ywY5UnLZrNrRl2b93Ruy_g&utm_campaign=yelp_api_v3&utm_medium=api_v3_business_search&utm_source=ywY5UnLZrNrRl2b93Ruy_g", "review_count": 35, "categories": [{"alias": "seafood", "title": "Seafood"}], "rating": 4.5, "coordinates": {"latitude": 42.5895936, "longitude": -72.600997}, "transactions": ["delivery"], "price": "$$", "location": {"address1": "54 School St", "address2": "", "address3": "", "city": "Greenfield", "zip_code": "01301", "country": "US", "state": "MA", "display_address": ["54 School St", "Greenfield, MA 01301"]}, "phone": "+14137722153", "display_phone": "(413) 772-2153", "distance": 361.7939285637073}, {"id": "gntEo3k4A_B1BkdGnJI3Pw", "alias": "namaste-indian-nepalese-restaurant-greenfield", "name": "Namaste Indian/Nepalese Restaurant", "image_url": "https://s3-media4.fl.yelpcdn.com/bphoto/s1NNDn1n3dA345Qf_IDT9A/o.jpg", "is_closed": false, "url": "https://www.yelp.com/biz/namaste-indian-nepalese-restaurant-greenfield?adjust_creative=ywY5UnLZrNrRl2b93Ruy_g&utm_campaign=yelp_api_v3&utm_medium=api_v3_business_search&utm_source=ywY5UnLZrNrRl2b93Ruy_g", "review_count": 36, "categories": [{"alias": "indpak", "title": "Indian"}, {"alias": "himalayan", "title": "Himalayan/Nepalese"}], "rating": 4.0, "coordinates": {"latitude": 42.58832, "longitude": -72.60112}, "transactions": ["pickup", "delivery"], "price": "$$", "location": {"address1": "286 Main St", "address2": null, "address3": "", "city": "Greenfield", "zip_code": "01301", "country": "US", "state": "MA", "display_address": ["286 Main St", "Greenfield, MA 01301"]}, "phone": "+14133258232", "display_phone": "(413) 325-8232", "distance": 301.7938564597537}, {"id": "SAvy9WokbPywn-Q6bO9xaw", "alias": "thai-blue-ginger-greenfield", "name": "Thai Blue Ginger", "image_url": "https://s3-media2.fl.yelpcdn.com/bphoto/8OSPpAICVUhAW-ZcYhCo_w/o.jpg", "is_closed": false, "url": "https://www.yelp.com/biz/thai-blue-ginger-greenfield?adjust_creative=ywY5UnLZrNrRl2b93Ruy_g&utm_campaign=yelp_api_v3&utm_medium=api_v3_business_search&utm_source=ywY5UnLZrNrRl2b93Ruy_g", "review_count": 69, "categories": [{"alias": "thai", "title": "Thai"}], "rating": 4.0, "coordinates": {"latitude": 42.5881226929282, "longitude": -72.6008848324572}, "transactions": ["pickup", "delivery"], "price": "$$", "location": {"address1": "298 Main St", "address2": "", "address3": "", "city": "Greenfield", "zip_code": "01301", "country": "US", "state": "MA", "display_address": ["298 Main St", "Greenfield, MA 01301"]}, "phone": "+14137720921", "display_phone": "(413) 772-0921", "distance": 274.28521537747463}, {"id": "EWCyLEMETdIUFOmwMSRxTQ", "alias": "mesa-verde-greenfield", "name": "Mesa Verde", "image_url": "https://s3-media4.fl.yelpcdn.com/bphoto/ok7I_ZBW8l4NdmeyyBtLBw/o.jpg", "is_closed": false, "url": "https://www.yelp.com/biz/mesa-verde-greenfield?adjust_creative=ywY5UnLZrNrRl2b93Ruy_g&utm_campaign=yelp_api_v3&utm_medium=api_v3_business_search&utm_source=ywY5UnLZrNrRl2b93Ruy_g", "review_count": 141, "categories": [{"alias": "mexican", "title": "Mexican"}], "rating": 4.0, "coordinates": {"latitude": 42.587334, "longitude": -72.602582}, "transactions": ["delivery"], "price": "$", "location": {"address1": "10 Fiske Ave", "address2": "", "address3": "", "city": "Greenfield", "zip_code": "01301", "country": "US", "state": "MA", "display_address": ["10 Fiske Ave", "Greenfield, MA 01301"]}, "phone": "+14137722531", "display_phone": "(413) 772-2531", "distance": 404.61685356428427}, {"id": "ZYW34OE1yuNuSaPgXbK98g", "alias": "hangar-greenfield-greenfield", "name": "Hangar - Greenfield", "image_url": "https://s3-media3.fl.yelpcdn.com/bphoto/LshdcwdmAZYSse8fbuOqqw/o.jpg", "is_closed": false, "url": "https://www.yelp.com/biz/hangar-greenfield-greenfield?adjust_creative=ywY5UnLZrNrRl2b93Ruy_g&utm_campaign=yelp_api_v3&utm_medium=api_v3_business_search&utm_source=ywY5UnLZrNrRl2b93Ruy_g", "review_count": 28, "categories": [{"alias": "chicken_wings", "title": "Chicken Wings"}, {"alias": "pubs", "title": "Pubs"}], "rating": 3.5, "coordinates": {"latitude": 42.5889892578125, "longitude": -72.5999526977539}, "transactions": ["pickup", "delivery"], "price": "$$", "location": {"address1": "30 Federal St", "address2": "", "address3": null, "city": "Greenfield", "zip_code": "01301", "country": "US", "state": "MA", "display_address": ["30 Federal St", "Greenfield, MA 01301"]}, "phone": "+14137739464", "display_phone": "(413) 773-9464", "distance": 254.4861510850944}, {"id": "l0NWu0BZldXF3jHhk9SDgQ", "alias": "el-greco-cafe-greenfield", "name": "El Greco Cafe", "image_url": "https://s3-media2.fl.yelpcdn.com/bphoto/FPblzw5Gsz41dTeeA7r32A/o.jpg", "is_closed": false, "url": "https://www.yelp.com/biz/el-greco-cafe-greenfield?adjust_creative=ywY5UnLZrNrRl2b93Ruy_g&utm_campaign=yelp_api_v3&utm_medium=api_v3_business_search&utm_source=ywY5UnLZrNrRl2b93Ruy_g", "review_count": 50, "categories": [{"alias": "greek", "title": "Greek"}, {"alias": "mediterranean", "title": "Mediterranean"}], "rating": 4.0, "coordinates": {"latitude": 42.587867, "longitude": -72.602179}, "transactions": ["delivery"], "price": "$", "location": {"address1": "233 Main St", "address2": "", "address3": "", "city": "Greenfield", "zip_code": "01301", "country": "US", "state": "MA", "display_address": ["233 Main St", "Greenfield, MA 01301"]}, "phone": "+14137742844", "display_phone": "(413) 774-2844", "distance": 372.96878534040667}, {"id": "o9QX_uCqOVdwk3Gvy34Bng", "alias": "great-falls-harvest-turners-falls", "name": "Great Falls Harvest", "image_url": "https://s3-media4.fl.yelpcdn.com/bphoto/OkD_KkZ6Kve21zBRzA_kKg/o.jpg", "is_closed": false, "url": "https://www.yelp.com/biz/great-falls-harvest-turners-falls?adjust_creative=ywY5UnLZrNrRl2b93Ruy_g&utm_campaign=yelp_api_v3&utm_medium=api_v3_business_search&utm_source=ywY5UnLZrNrRl2b93Ruy_g", "review_count": 46, "categories": [{"alias": "diners", "title": "Diners"}, {"alias": "salad", "title": "Salad"}], "rating": 4.5, "coordinates": {"latitude": 42.6080433, "longitude": -72.5566357}, "transactions": [], "price": "$$", "location": {"address1": "50 3rd St", "address2": "", "address3": "", "city": "Turners Falls", "zip_code": "01376", "country": "US", "state": "MA", "display_address": ["50 3rd St", "Turners Falls, MA 01376"]}, "phone": "+14138630023", "display_phone": "(413) 863-0023", "distance": 4063.3077772881147}, {"id": "2QTT7kY9qMp88GbkAi2kRQ", "alias": "terrazza-greenfield-2", "name": "Terrazza", "image_url": "https://s3-media4.fl.yelpcdn.com/bphoto/GJYRmIwN23NA33b_qnYcoQ/o.jpg", "is_closed": false, "url": "https://www.yelp.com/biz/terrazza-greenfield-2?adjust_creative=ywY5UnLZrNrRl2b93Ruy_g&utm_campaign=yelp_api_v3&utm_medium=api_v3_business_search&utm_source=ywY5UnLZrNrRl2b93Ruy_g", "review_count": 29, "categories": [{"alias": "italian", "title": "Italian"}, {"alias": "lounges", "title": "Lounges"}, {"alias": "eventplanning", "title": "Party & Event Planning"}], "rating": 4.5, "coordinates": {"latitude": 42.618689, "longitude": -72.595328}, "transactions": ["pickup", "delivery"], "price": "$$", "location": {"address1": "244 Country Club Rd", "address2": null, "address3": null, "city": "Greenfield", "zip_code": "01301", "country": "US", "state": "MA", "display_address": ["244 Country Club Rd", "Greenfield, MA 01301"]}, "phone": "+14137720970", "display_phone": "(413) 772-0970", "distance": 3479.6271113564867}, {"id": "kMygiwbWBt1mq_6iHHmu4A", "alias": "bonnie-bs-greenfield", "name": "Bonnie B's", "image_url": "https://s3-media3.fl.yelpcdn.com/bphoto/oX_Z6yc17Tq26UVSo4o4Ig/o.jpg", "is_closed": false, "url": "https://www.yelp.com/biz/bonnie-bs-greenfield?adjust_creative=ywY5UnLZrNrRl2b93Ruy_g&utm_campaign=yelp_api_v3&utm_medium=api_v3_business_search&utm_source=ywY5UnLZrNrRl2b93Ruy_g", "review_count": 19, "categories": [{"alias": "breakfast_brunch", "title": "Breakfast & Brunch"}, {"alias": "tradamerican", "title": "American (Traditional)"}], "rating": 4.5, "coordinates": {"latitude": 42.588116, "longitude": -72.602802}, "transactions": ["pickup", "delivery"], "location": {"address1": "204 Main St", "address2": "", "address3": null, "city": "Greenfield", "zip_code": "01301", "country": "US", "state": "MA", "display_address": ["204 Main St", "Greenfield, MA 01301"]}, "phone": "+14134753758", "display_phone": "(413) 475-3758", "distance": 427.49891524019733}, {"id": "Pi1vuMna90sAsd9KUnI-kQ", "alias": "riffs-north-turners-falls", "name": "Riff's North", "image_url": "https://s3-media3.fl.yelpcdn.com/bphoto/-P1r6baoRAmWRz18K-pwvA/o.jpg", "is_closed": false, "url": "https://www.yelp.com/biz/riffs-north-turners-falls?adjust_creative=ywY5UnLZrNrRl2b93Ruy_g&utm_campaign=yelp_api_v3&utm_medium=api_v3_business_search&utm_source=ywY5UnLZrNrRl2b93Ruy_g", "review_count": 71, "categories": [{"alias": "burgers", "title": "Burgers"}, {"alias": "tradamerican", "title": "American (Traditional)"}, {"alias": "sandwiches", "title": "Sandwiches"}], "rating": 4.5, "coordinates": {"latitude": 42.6060869184616, "longitude": -72.5584889575839}, "transactions": ["delivery"], "price": "$$", "location": {"address1": "166 Ave A", "address2": "", "address3": "", "city": "Turners Falls", "zip_code": "01376", "country": "US", "state": "MA", "display_address": ["166 Ave A", "Turners Falls, MA 01376"]}, "phone": "+14138633700", "display_phone": "(413) 863-3700", "distance": 3816.651770282923}, {"id": "lNVB5KVLp9rGBOchtlPewQ", "alias": "village-pizza-shop-greenfield", "name": "Village Pizza Shop", "image_url": "https://s3-media4.fl.yelpcdn.com/bphoto/Y-OXKHBaMYwMyxx7hz5VLg/o.jpg", "is_closed": false, "url": "https://www.yelp.com/biz/village-pizza-shop-greenfield?adjust_creative=ywY5UnLZrNrRl2b93Ruy_g&utm_campaign=yelp_api_v3&utm_medium=api_v3_business_search&utm_source=ywY5UnLZrNrRl2b93Ruy_g", "review_count": 55, "categories": [{"alias": "pizza", "title": "Pizza"}], "rating": 4.0, "coordinates": {"latitude": 42.586783, "longitude": -72.600916}, "transactions": ["delivery"], "price": "$$", "location": {"address1": "42 Bank Row St", "address2": "", "address3": "", "city": "Greenfield", "zip_code": "01301", "country": "US", "state": "MA", "display_address": ["42 Bank Row St", "Greenfield, MA 01301"]}, "phone": "+14137726209", "display_phone": "(413) 772-6209", "distance": 277.38841862615783}, {"id": "sZQnBWW8IPZUA1IVRLWjPg", "alias": "taylors-tavern-greenfield", "name": "Taylor's Tavern", "image_url": "https://s3-media1.fl.yelpcdn.com/bphoto/m7ro5xz5NB5--a5tW-7QtA/o.jpg", "is_closed": false, "url": "https://www.yelp.com/biz/taylors-tavern-greenfield?adjust_creative=ywY5UnLZrNrRl2b93Ruy_g&utm_campaign=yelp_api_v3&utm_medium=api_v3_business_search&utm_source=ywY5UnLZrNrRl2b93Ruy_g", "review_count": 51, "categories": [{"alias": "tradamerican", "title": "American (Traditional)"}, {"alias": "burgers", "title": "Burgers"}, {"alias": "sandwiches", "title": "Sandwiches"}], "rating": 3.5, "coordinates": {"latitude": 42.588072, "longitude": -72.6022799}, "transactions": ["delivery"], "price": "$$", "location": {"address1": "238 Main St", "address2": "", "address3": "", "city": "Greenfield", "zip_code": "01301", "country": "US", "state": "MA", "display_address": ["238 Main St", "Greenfield, MA 01301"]}, "phone": "+14137738313", "display_phone": "(413) 773-8313", "distance": 384.51942656512097}, {"id": "F60ZshsheJZSuxb3fpeFtw", "alias": "china-gourmet-greenfield-2", "name": "China Gourmet", "image_url": "https://s3-media2.fl.yelpcdn.com/bphoto/dX3zEIx-W2C6hWmklUr6hA/o.jpg", "is_closed": false, "url": "https://www.yelp.com/biz/china-gourmet-greenfield-2?adjust_creative=ywY5UnLZrNrRl2b93Ruy_g&utm_campaign=yelp_api_v3&utm_medium=api_v3_business_search&utm_source=ywY5UnLZrNrRl2b93Ruy_g", "review_count": 68, "categories": [{"alias": "chinese", "title": "Chinese"}, {"alias": "japanese", "title": "Japanese"}], "rating": 3.0, "coordinates": {"latitude": 42.5846366882324, "longitude": -72.6142959594727}, "transactions": ["delivery"], "price": "$$", "location": {"address1": "78 Mohawk Trl", "address2": null, "address3": "", "city": "Greenfield", "zip_code": "01301", "country": "US", "state": "MA", "display_address": ["78 Mohawk Trl", "Greenfield, MA 01301"]}, "phone": "+14137742299", "display_phone": "(413) 774-2299", "distance": 1400.3532681603408}, {"id": "6Our5yg2Ihzg4qrwbOuwEQ", "alias": "hattapons-thai-kitchen-greenfield", "name": "Hattapon's Thai Kitchen", "image_url": "https://s3-media1.fl.yelpcdn.com/bphoto/OpC4EP9sMq0DlHgDHmrxyA/o.jpg", "is_closed": false, "url": "https://www.yelp.com/biz/hattapons-thai-kitchen-greenfield?adjust_creative=ywY5UnLZrNrRl2b93Ruy_g&utm_campaign=yelp_api_v3&utm_medium=api_v3_business_search&utm_source=ywY5UnLZrNrRl2b93Ruy_g", "review_count": 34, "categories": [{"alias": "thai", "title": "Thai"}], "rating": 3.5, "coordinates": {"latitude": 42.587759, "longitude": -72.601574}, "transactions": ["delivery"], "price": "$", "location": {"address1": "265 Main St", "address2": "", "address3": "", "city": "Greenfield", "zip_code": "01301", "country": "US", "state": "MA", "display_address": ["265 Main St", "Greenfield, MA 01301"]}, "phone": "+14137745304", "display_phone": "(413) 774-5304", "distance": 317.85853094136144}, {"id": "ESGUgUn3t-v1O4K5crrl6w", "alias": "black-cow-burger-bar-turners-falls", "name": "Black Cow Burger Bar", "image_url": "https://s3-media3.fl.yelpcdn.com/bphoto/NrX9m8XL7VxDQ4UvZvAccw/o.jpg", "is_closed": false, "url": "https://www.yelp.com/biz/black-cow-burger-bar-turners-falls?adjust_creative=ywY5UnLZrNrRl2b93Ruy_g&utm_campaign=yelp_api_v3&utm_medium=api_v3_business_search&utm_source=ywY5UnLZrNrRl2b93Ruy_g", "review_count": 97, "categories": [{"alias": "newamerican", "title": "American (New)"}, {"alias": "burgers", "title": "Burgers"}, {"alias": "hotdog", "title": "Hot Dogs"}], "rating": 4.0, "coordinates": {"latitude": 42.60748, "longitude": -72.55704}, "transactions": ["pickup", "delivery"], "price": "$$", "location": {"address1": "125 Ave A", "address2": "", "address3": "", "city": "Turners Falls", "zip_code": "01376", "country": "US", "state": "MA", "display_address": ["125 Ave A", "Turners Falls, MA 01376"]}, "phone": "+14138635183", "display_phone": "(413) 863-5183", "distance": 3937.78347611588}, {"id": "2ykfTFuQMBNreBEvDEkBGg", "alias": "robertos-pizzeria-greenfield", "name": "Roberto's Pizzeria", "image_url": "https://s3-media4.fl.yelpcdn.com/bphoto/RC3SdRAazT2BstJZNw67yw/o.jpg", "is_closed": false, "url": "https://www.yelp.com/biz/robertos-pizzeria-greenfield?adjust_creative=ywY5UnLZrNrRl2b93Ruy_g&utm_campaign=yelp_api_v3&utm_medium=api_v3_business_search&utm_source=ywY5UnLZrNrRl2b93Ruy_g", "review_count": 14, "categories": [{"alias": "pizza", "title": "Pizza"}], "rating": 4.5, "coordinates": {"latitude": 42.59002, "longitude": -72.59941}, "transactions": ["delivery"], "price": "$", "location": {"address1": "80 Federal St", "address2": "", "address3": "", "city": "Greenfield", "zip_code": "01301", "country": "US", "state": "MA", "display_address": ["80 Federal St", "Greenfield, MA 01301"]}, "phone": "+14137750155", "display_phone": "(413) 775-0155", "distance": 312.76423939409597}, {"id": "W4sLmaC91ain7-EIW6rJhg", "alias": "99-restaurants-greenfield", "name": "99 Restaurants", "image_url": "https://s3-media1.fl.yelpcdn.com/bphoto/O1tqImdbBB0XmapA_c5vUQ/o.jpg", "is_closed": false, "url": "https://www.yelp.com/biz/99-restaurants-greenfield?adjust_creative=ywY5UnLZrNrRl2b93Ruy_g&utm_campaign=yelp_api_v3&utm_medium=api_v3_business_search&utm_source=ywY5UnLZrNrRl2b93Ruy_g", "review_count": 38, "categories": [{"alias": "pubs", "title": "Pubs"}, {"alias": "tradamerican", "title": "American (Traditional)"}], "rating": 4.0, "coordinates": {"latitude": 42.586313, "longitude": -72.623546}, "transactions": [], "price": "$$", "location": {"address1": "17 Colrain Rd", "address2": null, "address3": null, "city": "Greenfield", "zip_code": "01301", "country": "US", "state": "MA", "display_address": ["17 Colrain Rd", "Greenfield, MA 01301"]}, "phone": "+14137759997", "display_phone": "(413) 775-9997", "distance": 2123.384009634411}, {"id": "M-DCwXS6_O-rOVJAxr3ofw", "alias": "kobe-hibachi-sushi-and-bar-greenfield-2", "name": "Kobe Hibachi Sushi and Bar", "image_url": "https://s3-media1.fl.yelpcdn.com/bphoto/zBcLhfB-95e9l01Zykb7Cg/o.jpg", "is_closed": false, "url": "https://www.yelp.com/biz/kobe-hibachi-sushi-and-bar-greenfield-2?adjust_creative=ywY5UnLZrNrRl2b93Ruy_g&utm_campaign=yelp_api_v3&utm_medium=api_v3_business_search&utm_source=ywY5UnLZrNrRl2b93Ruy_g", "review_count": 54, "categories": [{"alias": "japanese", "title": "Japanese"}, {"alias": "sushi", "title": "Sushi Bars"}, {"alias": "cocktailbars", "title": "Cocktail Bars"}], "rating": 3.5, "coordinates": {"latitude": 42.5863135, "longitude": -72.6271816}, "transactions": ["pickup"], "price": "$$", "location": {"address1": "254 Mohawk Trl", "address2": null, "address3": "", "city": "Greenfield", "zip_code": "01301", "country": "US", "state": "MA", "display_address": ["254 Mohawk Trl", "Greenfield, MA 01301"]}, "phone": "+14137728888", "display_phone": "(413) 772-8888", "distance": 2417.172993613153}, {"id": "bOvwjTfloZG0w4gqldRbxw", "alias": "the-rendezvous-turners-falls", "name": "The Rendezvous", "image_url": "https://s3-media1.fl.yelpcdn.com/bphoto/XHPigS2CPvkGi04kfh1tbQ/o.jpg", "is_closed": false, "url": "https://www.yelp.com/biz/the-rendezvous-turners-falls?adjust_creative=ywY5UnLZrNrRl2b93Ruy_g&utm_campaign=yelp_api_v3&utm_medium=api_v3_business_search&utm_source=ywY5UnLZrNrRl2b93Ruy_g", "review_count": 98, "categories": [{"alias": "newamerican", "title": "American (New)"}, {"alias": "musicvenues", "title": "Music Venues"}, {"alias": "burgers", "title": "Burgers"}], "rating": 4.0, "coordinates": {"latitude": 42.60748, "longitude": -72.55612}, "transactions": ["pickup", "delivery"], "price": "$$", "location": {"address1": "78 3rd St", "address2": "", "address3": "", "city": "Turners Falls", "zip_code": "01376", "country": "US", "state": "MA", "display_address": ["78 3rd St", "Turners Falls, MA 01376"]}, "phone": "+14138632866", "display_phone": "(413) 863-2866", "distance": 4063.267613387749}, {"id": "VRA3aRN2BEb6O9rVEQ3gOg", "alias": "le-petit-cafe-greenfield", "name": "Le Petit Cafe", "image_url": "https://s3-media2.fl.yelpcdn.com/bphoto/MpWCzx2bkUihqHBPnIog_w/o.jpg", "is_closed": false, "url": "https://www.yelp.com/biz/le-petit-cafe-greenfield?adjust_creative=ywY5UnLZrNrRl2b93Ruy_g&utm_campaign=yelp_api_v3&utm_medium=api_v3_business_search&utm_source=ywY5UnLZrNrRl2b93Ruy_g", "review_count": 4, "categories": [{"alias": "cafes", "title": "Cafes"}, {"alias": "breakfast_brunch", "title": "Breakfast & Brunch"}], "rating": 4.0, "coordinates": {"latitude": 42.5876774, "longitude": -72.5981727}, "transactions": [], "price": "$", "location": {"address1": "426 Main St", "address2": null, "address3": null, "city": "Greenfield", "zip_code": "01301", "country": "US", "state": "MA", "display_address": ["426 Main St", "Greenfield, MA 01301"]}, "phone": "+14137687190", "display_phone": "(413) 768-7190", "distance": 59.114270861037625}, {"id": "CI0drVFkwHgp5QMbS_NIcw", "alias": "shelburne-falls-coffee-roasters-greenfield", "name": "Shelburne Falls Coffee Roasters", "image_url": "https://s3-media3.fl.yelpcdn.com/bphoto/CqKHLzvK1qUoxC-SsqPv4A/o.jpg", "is_closed": false, "url": "https://www.yelp.com/biz/shelburne-falls-coffee-roasters-greenfield?adjust_creative=ywY5UnLZrNrRl2b93Ruy_g&utm_campaign=yelp_api_v3&utm_medium=api_v3_business_search&utm_source=ywY5UnLZrNrRl2b93Ruy_g", "review_count": 51, "categories": [{"alias": "coffee", "title": "Coffee & Tea"}, {"alias": "bagels", "title": "Bagels"}, {"alias": "sandwiches", "title": "Sandwiches"}], "rating": 3.5, "coordinates": {"latitude": 42.59049, "longitude": -72.5992799}, "transactions": ["delivery"], "price": "$$", "location": {"address1": "100 Federal St", "address2": "", "address3": "", "city": "Greenfield", "zip_code": "01301", "country": "US", "state": "MA", "display_address": ["100 Federal St", "Greenfield, MA 01301"]}, "phone": "+14137738028", "display_phone": "(413) 773-8028", "distance": 356.17031671544197}, {"id": "DMv1r_XMkNj7G0n0X0bodA", "alias": "main-street-bar-and-grille-greenfield", "name": "Main Street Bar and Grille", "image_url": "https://s3-media1.fl.yelpcdn.com/bphoto/_y80dYCee_tMYms2n3dWWg/o.jpg", "is_closed": false, "url": "https://www.yelp.com/biz/main-street-bar-and-grille-greenfield?adjust_creative=ywY5UnLZrNrRl2b93Ruy_g&utm_campaign=yelp_api_v3&utm_medium=api_v3_business_search&utm_source=ywY5UnLZrNrRl2b93Ruy_g", "review_count": 7, "categories": [{"alias": "tradamerican", "title": "American (Traditional)"}, {"alias": "bars", "title": "Bars"}, {"alias": "burgers", "title": "Burgers"}], "rating": 3.5, "coordinates": {"latitude": 42.58773, "longitude": -72.60579}, "transactions": ["delivery"], "price": "$$", "location": {"address1": "94 Main St", "address2": "", "address3": "", "city": "Greenfield", "zip_code": "01301", "country": "US", "state": "MA", "display_address": ["94 Main St", "Greenfield, MA 01301"]}, "phone": "+14137746388", "display_phone": "(413) 774-6388", "distance": 669.7783495393893}, {"id": "52Valo93JOiqpVPScUWEBg", "alias": "the-upper-bend-turners-falls-2", "name": "The Upper Bend", "image_url": "https://s3-media1.fl.yelpcdn.com/bphoto/7nJl1Sy_PZ5n5aK8w1eWcw/o.jpg", "is_closed": false, "url": "https://www.yelp.com/biz/the-upper-bend-turners-falls-2?adjust_creative=ywY5UnLZrNrRl2b93Ruy_g&utm_campaign=yelp_api_v3&utm_medium=api_v3_business_search&utm_source=ywY5UnLZrNrRl2b93Ruy_g", "review_count": 7, "categories": [{"alias": "breakfast_brunch", "title": "Breakfast & Brunch"}, {"alias": "coffee", "title": "Coffee & Tea"}, {"alias": "sandwiches", "title": "Sandwiches"}], "rating": 4.5, "coordinates": {"latitude": 42.6079845, "longitude": -72.55725217}, "transactions": [], "location": {"address1": "112 Avenue A", "address2": null, "address3": "", "city": "Turners Falls", "zip_code": "01376", "country": "US", "state": "MA", "display_address": ["112 Avenue A", "Turners Falls, MA 01376"]}, "phone": "+14138635270", "display_phone": "(413) 863-5270", "distance": 4016.3424766910625}, {"id": "Xw5Gz7kiqxN34K8vjslNAQ", "alias": "new-fortune-chinese-restaurant-greenfield", "name": "New Fortune Chinese Restaurant", "image_url": "https://s3-media2.fl.yelpcdn.com/bphoto/ftAnKqMowdiOo9CXaIgZAg/o.jpg", "is_closed": false, "url": "https://www.yelp.com/biz/new-fortune-chinese-restaurant-greenfield?adjust_creative=ywY5UnLZrNrRl2b93Ruy_g&utm_campaign=yelp_api_v3&utm_medium=api_v3_business_search&utm_source=ywY5UnLZrNrRl2b93Ruy_g", "review_count": 37, "categories": [{"alias": "chinese", "title": "Chinese"}, {"alias": "sushi", "title": "Sushi Bars"}, {"alias": "japanese", "title": "Japanese"}], "rating": 3.5, "coordinates": {"latitude": 42.587352, "longitude": -72.626241}, "transactions": ["delivery"], "price": "$$", "location": {"address1": "249 Mohawk Trl", "address2": "", "address3": "", "city": "Greenfield", "zip_code": "01301", "country": "US", "state": "MA", "display_address": ["249 Mohawk Trl", "Greenfield, MA 01301"]}, "phone": "+14137720838", "display_phone": "(413) 772-0838", "distance": 2340.172317106939}, {"id": "6a3mUieRgCSGXCJ4lmzvFA", "alias": "ce-ces-chinese-restaurant-turners-falls", "name": "Ce Ce's Chinese Restaurant", "image_url": "https://s3-media2.fl.yelpcdn.com/bphoto/iKuaw65YUP_av-lB2p37kA/o.jpg", "is_closed": false, "url": "https://www.yelp.com/biz/ce-ces-chinese-restaurant-turners-falls?adjust_creative=ywY5UnLZrNrRl2b93Ruy_g&utm_campaign=yelp_api_v3&utm_medium=api_v3_business_search&utm_source=ywY5UnLZrNrRl2b93Ruy_g", "review_count": 10, "categories": [{"alias": "chinese", "title": "Chinese"}], "rating": 4.0, "coordinates": {"latitude": 42.6078868144459, "longitude": -72.55670151079}, "transactions": ["delivery"], "price": "$$", "location": {"address1": "53 Avenue A", "address2": "", "address3": "", "city": "Turners Falls", "zip_code": "01376", "country": "US", "state": "MA", "display_address": ["53 Avenue A", "Turners Falls, MA 01376"]}, "phone": "+14138638988", "display_phone": "(413) 863-8988", "distance": 4049.076345087974}, {"id": "dDA3YpteWaTXQ63z6REGeg", "alias": "the-wok-deerfield", "name": "The Wok", "image_url": "https://s3-media1.fl.yelpcdn.com/bphoto/vbZOmgKk-TYSndB9Oa5tQw/o.jpg", "is_closed": false, "url": "https://www.yelp.com/biz/the-wok-deerfield?adjust_creative=ywY5UnLZrNrRl2b93Ruy_g&utm_campaign=yelp_api_v3&utm_medium=api_v3_business_search&utm_source=ywY5UnLZrNrRl2b93Ruy_g", "review_count": 22, "categories": [{"alias": "chinese", "title": "Chinese"}, {"alias": "seafood", "title": "Seafood"}, {"alias": "soup", "title": "Soup"}], "rating": 3.0, "coordinates": {"latitude": 42.56664, "longitude": -72.593}, "transactions": ["delivery"], "price": "$$", "location": {"address1": "723 Greenfield Rd", "address2": "", "address3": "", "city": "Deerfield", "zip_code": "01342", "country": "US", "state": "MA", "display_address": ["723 Greenfield Rd", "Deerfield, MA 01342"]}, "phone": "+14137743606", "display_phone": "(413) 774-3606", "distance": 2351.384733140918}, {"id": "uvI_sThbGPccd-NHZRBnQg", "alias": "bei-jing-house-greenfield", "name": "Bei Jing House", "image_url": "https://s3-media2.fl.yelpcdn.com/bphoto/8ORL1RDkXxxEgLrcS0ps9Q/o.jpg", "is_closed": false, "url": "https://www.yelp.com/biz/bei-jing-house-greenfield?adjust_creative=ywY5UnLZrNrRl2b93Ruy_g&utm_campaign=yelp_api_v3&utm_medium=api_v3_business_search&utm_source=ywY5UnLZrNrRl2b93Ruy_g", "review_count": 18, "categories": [{"alias": "chinese", "title": "Chinese"}], "rating": 3.0, "coordinates": {"latitude": 42.58685, "longitude": -72.60736}, "transactions": ["delivery"], "price": "$", "location": {"address1": "45 Main St", "address2": "", "address3": "", "city": "Greenfield", "zip_code": "01301", "country": "US", "state": "MA", "display_address": ["45 Main St", "Greenfield, MA 01301"]}, "phone": "+14137737885", "display_phone": "(413) 773-7885", "distance": 790.930358348285}, {"id": "JNqJUAR9is7ejRYW2c01FA", "alias": "sofias-pizza-greenfield", "name": "Sofia's Pizza", "image_url": "https://s3-media1.fl.yelpcdn.com/bphoto/ZP6DJjR_fmH9uZMJVOJvhQ/o.jpg", "is_closed": false, "url": "https://www.yelp.com/biz/sofias-pizza-greenfield?adjust_creative=ywY5UnLZrNrRl2b93Ruy_g&utm_campaign=yelp_api_v3&utm_medium=api_v3_business_search&utm_source=ywY5UnLZrNrRl2b93Ruy_g", "review_count": 31, "categories": [{"alias": "pizza", "title": "Pizza"}], "rating": 3.5, "coordinates": {"latitude": 42.5969467, "longitude": -72.5971298}, "transactions": ["delivery"], "price": "$$", "location": {"address1": "228 Federal St", "address2": "", "address3": "", "city": "Greenfield", "zip_code": "01301", "country": "US", "state": "MA", "display_address": ["228 Federal St", "Greenfield, MA 01301"]}, "phone": "+14137749900", "display_phone": "(413) 774-9900", "distance": 1093.798621137004}, {"id": "c2gucBE9DwnLOr9_Xk754A", "alias": "brads-place-greenfield", "name": "Brad's Place", "image_url": "https://s3-media2.fl.yelpcdn.com/bphoto/UniO9JMw-de02Xqojnx28g/o.jpg", "is_closed": false, "url": "https://www.yelp.com/biz/brads-place-greenfield?adjust_creative=ywY5UnLZrNrRl2b93Ruy_g&utm_campaign=yelp_api_v3&utm_medium=api_v3_business_search&utm_source=ywY5UnLZrNrRl2b93Ruy_g", "review_count": 27, "categories": [{"alias": "newamerican", "title": "American (New)"}, {"alias": "breakfast_brunch", "title": "Breakfast & Brunch"}], "rating": 3.5, "coordinates": {"latitude": 42.5876259014004, "longitude": -72.5999116420645}, "transactions": ["pickup", "delivery"], "price": "$", "location": {"address1": "353 Main St", "address2": "", "address3": "", "city": "Greenfield", "zip_code": "01301", "country": "US", "state": "MA", "display_address": ["353 Main St", "Greenfield, MA 01301"]}, "phone": "+14137738460", "display_phone": "(413) 773-8460", "distance": 185.52137649195026}, {"id": "b-LHyJufYxVTDZZYgsC5zg", "alias": "applebees-grill-bar-greenfield-2", "name": "Applebee's Grill + Bar", "image_url": "https://s3-media3.fl.yelpcdn.com/bphoto/uspV9fyAGPPDasqqxw9JuQ/o.jpg", "is_closed": false, "url": "https://www.yelp.com/biz/applebees-grill-bar-greenfield-2?adjust_creative=ywY5UnLZrNrRl2b93Ruy_g&utm_campaign=yelp_api_v3&utm_medium=api_v3_business_search&utm_source=ywY5UnLZrNrRl2b93Ruy_g", "review_count": 31, "categories": [{"alias": "tradamerican", "title": "American (Traditional)"}, {"alias": "sportsbars", "title": "Sports Bars"}, {"alias": "burgers", "title": "Burgers"}], "rating": 3.5, "coordinates": {"latitude": 42.585115, "longitude": -72.618677}, "transactions": [], "price": "$$", "location": {"address1": "141 Mohawk Trl", "address2": "", "address3": "", "city": "Greenfield", "zip_code": "01301", "country": "US", "state": "MA", "display_address": ["141 Mohawk Trl", "Greenfield, MA 01301"]}, "phone": "+14137720079", "display_phone": "(413) 772-0079", "distance": 1740.6321458663426}, {"id": "viFpmTD5zT19tizBXRrKFw", "alias": "antonios-pizza-shop-greenfield", "name": "Antonio's Pizza Shop", "image_url": "https://s3-media2.fl.yelpcdn.com/bphoto/VuMGXTShN9oxzIHMdXZ7kg/o.jpg", "is_closed": false, "url": "https://www.yelp.com/biz/antonios-pizza-shop-greenfield?adjust_creative=ywY5UnLZrNrRl2b93Ruy_g&utm_campaign=yelp_api_v3&utm_medium=api_v3_business_search&utm_source=ywY5UnLZrNrRl2b93Ruy_g", "review_count": 20, "categories": [{"alias": "pizza", "title": "Pizza"}, {"alias": "italian", "title": "Italian"}, {"alias": "sandwiches", "title": "Sandwiches"}], "rating": 3.5, "coordinates": {"latitude": 42.5876694, "longitude": -72.6027374}, "transactions": ["delivery"], "price": "$", "location": {"address1": "201 Main St", "address2": "", "address3": "", "city": "Greenfield", "zip_code": "01301", "country": "US", "state": "MA", "display_address": ["201 Main St", "Greenfield, MA 01301"]}, "phone": "+14137737517", "display_phone": "(413) 773-7517", "distance": 418.4893062616746}, {"id": "5rkJ61I9GICBsEp2__7fXQ", "alias": "wings-over-greenfield-greenfield", "name": "Wings Over Greenfield", "image_url": "https://s3-media2.fl.yelpcdn.com/bphoto/Bmik4JsNWr2mPR6p0xu4aQ/o.jpg", "is_closed": false, "url": "https://www.yelp.com/biz/wings-over-greenfield-greenfield?adjust_creative=ywY5UnLZrNrRl2b93Ruy_g&utm_campaign=yelp_api_v3&utm_medium=api_v3_business_search&utm_source=ywY5UnLZrNrRl2b93Ruy_g", "review_count": 12, "categories": [{"alias": "chicken_wings", "title": "Chicken Wings"}, {"alias": "hotdogs", "title": "Fast Food"}, {"alias": "sandwiches", "title": "Sandwiches"}], "rating": 3.5, "coordinates": {"latitude": 42.5889892578125, "longitude": -72.5999526977539}, "transactions": [], "price": "$", "location": {"address1": "30 Federal St", "address2": "", "address3": null, "city": "Greenfield", "zip_code": "01301", "country": "US", "state": "MA", "display_address": ["30 Federal St", "Greenfield, MA 01301"]}, "phone": "+14137739464", "display_phone": "(413) 773-9464", "distance": 254.4861510850944}, {"id": "oh2hgHxtHrGCkzGHqK4quA", "alias": "goodies-restaurant-greenfield", "name": "Goodies Restaurant", "image_url": "https://s3-media3.fl.yelpcdn.com/bphoto/-bwBadmNTAtzswYG2Hh3Ig/o.jpg", "is_closed": false, "url": "https://www.yelp.com/biz/goodies-restaurant-greenfield?adjust_creative=ywY5UnLZrNrRl2b93Ruy_g&utm_campaign=yelp_api_v3&utm_medium=api_v3_business_search&utm_source=ywY5UnLZrNrRl2b93Ruy_g", "review_count": 31, "categories": [{"alias": "pizza", "title": "Pizza"}, {"alias": "italian", "title": "Italian"}], "rating": 3.0, "coordinates": {"latitude": 42.5986328125, "longitude": -72.596435546875}, "transactions": ["delivery"], "price": "$$", "location": {"address1": "256 Federal St", "address2": "", "address3": "", "city": "Greenfield", "zip_code": "01301", "country": "US", "state": "MA", "display_address": ["256 Federal St", "Greenfield, MA 01301"]}, "phone": "+14137722586", "display_phone": "(413) 772-2586", "distance": 1254.210535414171}, {"id": "gCdtxabLxonlb7CtJK-Z-w", "alias": "d-angelo-greenfield-2", "name": "D'Angelo", "image_url": "https://s3-media2.fl.yelpcdn.com/bphoto/HHatphW_HpX1SDsDCrngDw/o.jpg", "is_closed": false, "url": "https://www.yelp.com/biz/d-angelo-greenfield-2?adjust_creative=ywY5UnLZrNrRl2b93Ruy_g&utm_campaign=yelp_api_v3&utm_medium=api_v3_business_search&utm_source=ywY5UnLZrNrRl2b93Ruy_g", "review_count": 10, "categories": [{"alias": "sandwiches", "title": "Sandwiches"}], "rating": 4.0, "coordinates": {"latitude": 42.5848445086586, "longitude": -72.6141382441874}, "transactions": [], "price": "$$", "location": {"address1": "68 Mohawk Trl", "address2": "", "address3": "", "city": "Greenfield", "zip_code": "01301", "country": "US", "state": "MA", "display_address": ["68 Mohawk Trl", "Greenfield, MA 01301"]}, "phone": "+14137742106", "display_phone": "(413) 774-2106", "distance": 1380.4230849807218}, {"id": "FrJpcCrHNe0zdZCkw9IEyw", "alias": "hubies-tavern-montague", "name": "Hubie's Tavern", "image_url": "https://s3-media4.fl.yelpcdn.com/bphoto/3gWQzRgsBTzOX445tOvReA/o.jpg", "is_closed": false, "url": "https://www.yelp.com/biz/hubies-tavern-montague?adjust_creative=ywY5UnLZrNrRl2b93Ruy_g&utm_campaign=yelp_api_v3&utm_medium=api_v3_business_search&utm_source=ywY5UnLZrNrRl2b93Ruy_g", "review_count": 14, "categories": [{"alias": "diners", "title": "Diners"}, {"alias": "bars", "title": "Bars"}], "rating": 3.5, "coordinates": {"latitude": 42.6085548, "longitude": -72.5566254}, "transactions": [], "price": "$", "location": {"address1": "66 Ave A", "address2": "", "address3": "", "city": "Montague", "zip_code": "01376", "country": "US", "state": "MA", "display_address": ["66 Ave A", "Montague, MA 01376"]}, "phone": "+14138638938", "display_phone": "(413) 863-8938", "distance": 4089.89281600582}, {"id": "HQstHLLH3MCV-VIvkEJ8Zw", "alias": "athens-pizza-greenfield", "name": "Athens Pizza", "image_url": "https://s3-media1.fl.yelpcdn.com/bphoto/Ui-xwzsHZrIndLoKz8KLHA/o.jpg", "is_closed": false, "url": "https://www.yelp.com/biz/athens-pizza-greenfield?adjust_creative=ywY5UnLZrNrRl2b93Ruy_g&utm_campaign=yelp_api_v3&utm_medium=api_v3_business_search&utm_source=ywY5UnLZrNrRl2b93Ruy_g", "review_count": 18, "categories": [{"alias": "pizza", "title": "Pizza"}], "rating": 2.5, "coordinates": {"latitude": 42.5869255065918, "longitude": -72.6082229614258}, "transactions": ["delivery"], "price": "$$", "location": {"address1": "25 Main St", "address2": "", "address3": "", "city": "Greenfield", "zip_code": "01301", "country": "US", "state": "MA", "display_address": ["25 Main St", "Greenfield, MA 01301"]}, "phone": "+14137743722", "display_phone": "(413) 774-3722", "distance": 869.3400481292164}, {"id": "4Zzu0W5N2O6-ATv7vOMnog", "alias": "wendys-greenfield-2", "name": "Wendy's", "image_url": "https://s3-media1.fl.yelpcdn.com/bphoto/VjepJeSj81EQxIrHcl7H_A/o.jpg", "is_closed": false, "url": "https://www.yelp.com/biz/wendys-greenfield-2?adjust_creative=ywY5UnLZrNrRl2b93Ruy_g&utm_campaign=yelp_api_v3&utm_medium=api_v3_business_search&utm_source=ywY5UnLZrNrRl2b93Ruy_g", "review_count": 16, "categories": [{"alias": "hotdogs", "title": "Fast Food"}, {"alias": "burgers", "title": "Burgers"}], "rating": 2.0, "coordinates": {"latitude": 42.592495, "longitude": -72.598592}, "transactions": ["delivery"], "price": "$", "location": {"address1": "138 Federal Street", "address2": "", "address3": "", "city": "Greenfield", "zip_code": "01301", "country": "US", "state": "MA", "display_address": ["138 Federal Street", "Greenfield, MA 01301"]}, "phone": "+14137745201", "display_phone": "(413) 774-5201", "distance": 566.5300579888225}, {"id": "-cTZN8UAmWz98p492Y_OMw", "alias": "friendlys-greenfield-2", "name": "Friendly's", "image_url": "https://s3-media3.fl.yelpcdn.com/bphoto/R8N4TORIBSgbhC1_DRsLZg/o.jpg", "is_closed": false, "url": "https://www.yelp.com/biz/friendlys-greenfield-2?adjust_creative=ywY5UnLZrNrRl2b93Ruy_g&utm_campaign=yelp_api_v3&utm_medium=api_v3_business_search&utm_source=ywY5UnLZrNrRl2b93Ruy_g", "review_count": 54, "categories": [{"alias": "icecream", "title": "Ice Cream & Frozen Yogurt"}, {"alias": "tradamerican", "title": "American (Traditional)"}, {"alias": "burgers", "title": "Burgers"}], "rating": 2.0, "coordinates": {"latitude": 42.5852699, "longitude": -72.6235962}, "transactions": [], "price": "$$", "location": {"address1": "200 Mohawk Trl", "address2": null, "address3": null, "city": "Greenfield", "zip_code": "01301", "country": "US", "state": "MA", "display_address": ["200 Mohawk Trl", "Greenfield, MA 01301"]}, "phone": "+14137745435", "display_phone": "(413) 774-5435", "distance": 2134.978299661341}, {"id": "dEp2L6B4tFTHtK4NxWd83w", "alias": "turners-falls-pizza-house-turners-falls", "name": "Turners Falls Pizza House", "image_url": "https://s3-media2.fl.yelpcdn.com/bphoto/_xhngASvQO04GYK_oUGkMw/o.jpg", "is_closed": false, "url": "https://www.yelp.com/biz/turners-falls-pizza-house-turners-falls?adjust_creative=ywY5UnLZrNrRl2b93Ruy_g&utm_campaign=yelp_api_v3&utm_medium=api_v3_business_search&utm_source=ywY5UnLZrNrRl2b93Ruy_g", "review_count": 31, "categories": [{"alias": "pizza", "title": "Pizza"}, {"alias": "salad", "title": "Salad"}], "rating": 4.0, "coordinates": {"latitude": 42.60762, "longitude": -72.5569}, "transactions": ["delivery"], "price": "$", "location": {"address1": "119 Avenue A", "address2": "", "address3": "", "city": "Turners Falls", "zip_code": "01376", "country": "US", "state": "MA", "display_address": ["119 Avenue A", "Turners Falls, MA 01376"]}, "phone": "+14138638000", "display_phone": "(413) 863-8000", "distance": 4005.523130011222}, {"id": "QzmmXJvK8cw7-BICO_gigQ", "alias": "shady-glen-turners-falls", "name": "Shady Glen", "image_url": "https://s3-media1.fl.yelpcdn.com/bphoto/WDilrIiLQWIs6l8y7XQbdA/o.jpg", "is_closed": false, "url": "https://www.yelp.com/biz/shady-glen-turners-falls?adjust_creative=ywY5UnLZrNrRl2b93Ruy_g&utm_campaign=yelp_api_v3&utm_medium=api_v3_business_search&utm_source=ywY5UnLZrNrRl2b93Ruy_g", "review_count": 35, "categories": [{"alias": "diners", "title": "Diners"}, {"alias": "breakfast_brunch", "title": "Breakfast & Brunch"}, {"alias": "tradamerican", "title": "American (Traditional)"}], "rating": 4.0, "coordinates": {"latitude": 42.6091117858887, "longitude": -72.5553665161133}, "transactions": ["delivery"], "price": "$", "location": {"address1": "7 Ave A", "address2": "", "address3": "", "city": "Turners Falls", "zip_code": "01376", "country": "US", "state": "MA", "display_address": ["7 Ave A", "Turners Falls, MA 01376"]}, "phone": "+14138639636", "display_phone": "(413) 863-9636", "distance": 4214.846180694003}, {"id": "BEFXrXW9BIo96TA4yOlanA", "alias": "subway-greenfield-29", "name": "Subway", "image_url": "https://s3-media3.fl.yelpcdn.com/bphoto/KhBvbd8eR5pSD5juuoh8Gw/o.jpg", "is_closed": false, "url": "https://www.yelp.com/biz/subway-greenfield-29?adjust_creative=ywY5UnLZrNrRl2b93Ruy_g&utm_campaign=yelp_api_v3&utm_medium=api_v3_business_search&utm_source=ywY5UnLZrNrRl2b93Ruy_g", "review_count": 7, "categories": [{"alias": "sandwiches", "title": "Sandwiches"}], "rating": 3.5, "coordinates": {"latitude": 42.6023944623179, "longitude": -72.592163430718}, "transactions": [], "price": "$", "location": {"address1": "343 Federal St", "address2": "", "address3": "", "city": "Greenfield", "zip_code": "01301", "country": "US", "state": "MA", "display_address": ["343 Federal St", "Greenfield, MA 01301"]}, "phone": "+14137745999", "display_phone": "(413) 774-5999", "distance": 1720.0445479094544}, {"id": "OOTU0zYwg5QVhTB_1MFjBQ", "alias": "dennys-pantry-greenfield", "name": "Denny's Pantry", "image_url": "https://s3-media3.fl.yelpcdn.com/bphoto/aJ4KdrwNtjBdKr75LY9dng/o.jpg", "is_closed": false, "url": "https://www.yelp.com/biz/dennys-pantry-greenfield?adjust_creative=ywY5UnLZrNrRl2b93Ruy_g&utm_campaign=yelp_api_v3&utm_medium=api_v3_business_search&utm_source=ywY5UnLZrNrRl2b93Ruy_g", "review_count": 36, "categories": [{"alias": "tradamerican", "title": "American (Traditional)"}, {"alias": "breakfast_brunch", "title": "Breakfast & Brunch"}], "rating": 3.5, "coordinates": {"latitude": 42.60826, "longitude": -72.58705}, "transactions": [], "price": "$", "location": {"address1": "469 Bernardston Rd", "address2": "", "address3": "", "city": "Greenfield", "zip_code": "01301", "country": "US", "state": "MA", "display_address": ["469 Bernardston Rd", "Greenfield, MA 01301"]}, "phone": "+14137733345", "display_phone": "(413) 773-3345", "distance": 2465.924984616592}, {"id": "9gUZ2bgnsPRtihya9yvzVg", "alias": "taco-bell-greenfield", "name": "Taco Bell", "image_url": "https://s3-media1.fl.yelpcdn.com/bphoto/ogHV-spWv4efdk7MthVOLw/o.jpg", "is_closed": false, "url": "https://www.yelp.com/biz/taco-bell-greenfield?adjust_creative=ywY5UnLZrNrRl2b93Ruy_g&utm_campaign=yelp_api_v3&utm_medium=api_v3_business_search&utm_source=ywY5UnLZrNrRl2b93Ruy_g", "review_count": 14, "categories": [{"alias": "hotdogs", "title": "Fast Food"}, {"alias": "tacos", "title": "Tacos"}], "rating": 1.0, "coordinates": {"latitude": 42.586462, "longitude": -72.627696}, "transactions": [], "price": "$", "location": {"address1": "242 Mohawk Trail", "address2": "", "address3": "", "city": "Greenfield", "zip_code": "01301", "country": "US", "state": "MA", "display_address": ["242 Mohawk Trail", "Greenfield, MA 01301"]}, "phone": "+14137747869", "display_phone": "(413) 774-7869", "distance": 2461.793445297988}, {"id": "VcKnHfkBxXSqPd_a1TJa2Q", "alias": "kfc-greenfield-4", "name": "KFC", "image_url": "https://s3-media4.fl.yelpcdn.com/bphoto/zRrjKWbYcRMZx7xjAgBC5g/o.jpg", "is_closed": false, "url": "https://www.yelp.com/biz/kfc-greenfield-4?adjust_creative=ywY5UnLZrNrRl2b93Ruy_g&utm_campaign=yelp_api_v3&utm_medium=api_v3_business_search&utm_source=ywY5UnLZrNrRl2b93Ruy_g", "review_count": 6, "categories": [{"alias": "hotdogs", "title": "Fast Food"}, {"alias": "chicken_wings", "title": "Chicken Wings"}, {"alias": "chickenshop", "title": "Chicken Shop"}], "rating": 1.5, "coordinates": {"latitude": 42.5857303098406, "longitude": -72.626232}, "transactions": ["pickup", "delivery"], "price": "$", "location": {"address1": "242 Mohawk Trl", "address2": null, "address3": null, "city": "Greenfield", "zip_code": "01301", "country": "US", "state": "MA", "display_address": ["242 Mohawk Trl", "Greenfield, MA 01301"]}, "phone": "+14137747869", "display_phone": "(413) 774-7869", "distance": 2347.3584141226265}, {"id": "lGTaMLtrvNzg8kJqm93KTA", "alias": "mcdonalds-greenfield-5", "name": "McDonald's", "image_url": "https://s3-media4.fl.yelpcdn.com/bphoto/k0TRfvZBOqKHdWPr7vZsnA/o.jpg", "is_closed": false, "url": "https://www.yelp.com/biz/mcdonalds-greenfield-5?adjust_creative=ywY5UnLZrNrRl2b93Ruy_g&utm_campaign=yelp_api_v3&utm_medium=api_v3_business_search&utm_source=ywY5UnLZrNrRl2b93Ruy_g", "review_count": 9, "categories": [{"alias": "hotdogs", "title": "Fast Food"}, {"alias": "burgers", "title": "Burgers"}, {"alias": "coffee", "title": "Coffee & Tea"}], "rating": 2.0, "coordinates": {"latitude": 42.5998173687393, "longitude": -72.5944671034812}, "transactions": [], "price": "$", "location": {"address1": "285 Federal St", "address2": "", "address3": "", "city": "Greenfield", "zip_code": "01301", "country": "US", "state": "MA", "display_address": ["285 Federal St", "Greenfield, MA 01301"]}, "phone": "+14137743618", "display_phone": "(413) 774-3618", "distance": 1398.265016190492}, {"id": "mlDZf-GdNIaW5ToE3AR9CA", "alias": "subway-greenfield-20", "name": "Subway", "image_url": "https://s3-media2.fl.yelpcdn.com/bphoto/J25dG23zDO2UgNa3-tc9fw/o.jpg", "is_closed": false, "url": "https://www.yelp.com/biz/subway-greenfield-20?adjust_creative=ywY5UnLZrNrRl2b93Ruy_g&utm_campaign=yelp_api_v3&utm_medium=api_v3_business_search&utm_source=ywY5UnLZrNrRl2b93Ruy_g", "review_count": 3, "categories": [{"alias": "sandwiches", "title": "Sandwiches"}], "rating": 2.0, "coordinates": {"latitude": 42.5873648, "longitude": -72.626196}, "transactions": [], "price": "$", "location": {"address1": "251 Mohawk Trail", "address2": "", "address3": "Greenfield Plz S C", "city": "Greenfield", "zip_code": "01301", "country": "US", "state": "MA", "display_address": ["251 Mohawk Trail", "Greenfield Plz S C", "Greenfield, MA 01301"]}, "phone": "+14137743636", "display_phone": "(413) 774-3636", "distance": 2336.4810037563507}, {"id": "9f8jUaPQOlu8Q-3W_t61fg", "alias": "subway-turners-falls-3", "name": "Subway", "image_url": "https://s3-media4.fl.yelpcdn.com/bphoto/BQKiqilNmE7skga-CDDUOg/o.jpg", "is_closed": false, "url": "https://www.yelp.com/biz/subway-turners-falls-3?adjust_creative=ywY5UnLZrNrRl2b93Ruy_g&utm_campaign=yelp_api_v3&utm_medium=api_v3_business_search&utm_source=ywY5UnLZrNrRl2b93Ruy_g", "review_count": 3, "categories": [{"alias": "sandwiches", "title": "Sandwiches"}], "rating": 3.5, "coordinates": {"latitude": 42.6085179, "longitude": -72.5561029998867}, "transactions": [], "price": "$", "location": {"address1": "57 Avenue A", "address2": "", "address3": "", "city": "Turners Falls", "zip_code": "01376", "country": "US", "state": "MA", "display_address": ["57 Avenue A", "Turners Falls, MA 01376"]}, "phone": "+14138632363", "display_phone": "(413) 863-2363", "distance": 4129.092496457875}, {"id": "lAHlJinahtGJQkd25QJrRw", "alias": "dominos-pizza-greenfield-4", "name": "Domino's Pizza", "image_url": "https://s3-media3.fl.yelpcdn.com/bphoto/ZFcc_blzn6KVp9PDfMX_0Q/o.jpg", "is_closed": false, "url": "https://www.yelp.com/biz/dominos-pizza-greenfield-4?adjust_creative=ywY5UnLZrNrRl2b93Ruy_g&utm_campaign=yelp_api_v3&utm_medium=api_v3_business_search&utm_source=ywY5UnLZrNrRl2b93Ruy_g", "review_count": 10, "categories": [{"alias": "pizza", "title": "Pizza"}, {"alias": "chicken_wings", "title": "Chicken Wings"}, {"alias": "sandwiches", "title": "Sandwiches"}], "rating": 1.5, "coordinates": {"latitude": 42.603973, "longitude": -72.591673}, "transactions": [], "price": "$", "location": {"address1": "368 Federal St", "address2": "", "address3": "", "city": "Greenfield", "zip_code": "01301", "country": "US", "state": "MA", "display_address": ["368 Federal St", "Greenfield, MA 01301"]}, "phone": "+14137747291", "display_phone": "(413) 774-7291", "distance": 1899.972523799721}, {"id": "7IOS0bILt7y2-6eiiXxJRg", "alias": "mcdonalds-greenfield", "name": "McDonald's", "image_url": "https://s3-media4.fl.yelpcdn.com/bphoto/RUa3FiH2Cx7jHuH740Rw8Q/o.jpg", "is_closed": false, "url": "https://www.yelp.com/biz/mcdonalds-greenfield?adjust_creative=ywY5UnLZrNrRl2b93Ruy_g&utm_campaign=yelp_api_v3&utm_medium=api_v3_business_search&utm_source=ywY5UnLZrNrRl2b93Ruy_g", "review_count": 19, "categories": [{"alias": "hotdogs", "title": "Fast Food"}, {"alias": "burgers", "title": "Burgers"}, {"alias": "coffee", "title": "Coffee & Tea"}], "rating": 2.5, "coordinates": {"latitude": 42.5854669, "longitude": -72.6247290475385}, "transactions": [], "price": "$", "location": {"address1": "208 Mohawk Trl", "address2": "", "address3": "", "city": "Greenfield", "zip_code": "01301", "country": "US", "state": "MA", "display_address": ["208 Mohawk Trl", "Greenfield, MA 01301"]}, "phone": "+14137745311", "display_phone": "(413) 774-5311", "distance": 2227.486557977826}, {"id": "qqA8YX58xnmEXLyanHfdUg", "alias": "stufd-food-truck-brooklyn", "name": "Stuf'd Food Truck", "image_url": "https://s3-media2.fl.yelpcdn.com/bphoto/_Wn0i-tLIOFinw8BPAqxPA/o.jpg", "is_closed": false, "url": "https://www.yelp.com/biz/stufd-food-truck-brooklyn?adjust_creative=ywY5UnLZrNrRl2b93Ruy_g&utm_campaign=yelp_api_v3&utm_medium=api_v3_business_search&utm_source=ywY5UnLZrNrRl2b93Ruy_g", "review_count": 4, "categories": [{"alias": "sandwiches", "title": "Sandwiches"}, {"alias": "foodtrucks", "title": "Food Trucks"}], "rating": 4.0, "coordinates": {"latitude": 40.7124539, "longitude": -73.9287374}, "transactions": [], "location": {"address1": "178 Varick Ave", "address2": "", "address3": null, "city": "Brooklyn", "zip_code": "11237", "country": "US", "state": "NY", "display_address": ["178 Varick Ave", "Brooklyn, NY 11237"]}, "phone": "+18457091808", "display_phone": "(845) 709-1808", "distance": 236000.08806739785}]