[{"id": "1rI6pNcpm187YIP4Q1kIkw", "alias": "51-park-restaurant-and-tavern-lee", "name": "51 Park Restaurant & Tavern", "image_url": "https://s3-media4.fl.yelpcdn.com/bphoto/i8pfpWfkKcDreIreT5F80Q/o.jpg", "is_closed": false, "url": "https://www.yelp.com/biz/51-park-restaurant-and-tavern-lee?adjust_creative=ywY5UnLZrNrRl2b93Ruy_g&utm_campaign=yelp_api_v3&utm_medium=api_v3_business_search&utm_source=ywY5UnLZrNrRl2b93Ruy_g", "review_count": 293, "categories": [{"alias": "pizza", "title": "Pizza"}, {"alias": "bars", "title": "Bars"}, {"alias": "tradamerican", "title": "American (Traditional)"}], "rating": 4.0, "coordinates": {"latitude": 42.3041968750153, "longitude": -73.2482657867333}, "transactions": ["delivery"], "price": "$$", "location": {"address1": "51 Park St", "address2": "", "address3": "", "city": "Lee", "zip_code": "01238", "country": "US", "state": "MA", "display_address": ["51 Park St", "Lee, MA 01238"]}, "phone": "+14132432153", "display_phone": "(413) 243-2153", "distance": 9011.983337381382}, {"id": "zYfLzClfWhxKE9wWRaDXfA", "alias": "roadside-store-and-cafe-monterey", "name": "Roadside Store & Cafe", "image_url": "https://s3-media4.fl.yelpcdn.com/bphoto/74glu4fj8UUTK6suaeBTBg/o.jpg", "is_closed": false, "url": "https://www.yelp.com/biz/roadside-store-and-cafe-monterey?adjust_creative=ywY5UnLZrNrRl2b93Ruy_g&utm_campaign=yelp_api_v3&utm_medium=api_v3_business_search&utm_source=ywY5UnLZrNrRl2b93Ruy_g", "review_count": 16, "categories": [{"alias": "breakfast_brunch", "title": "Breakfast & Brunch"}], "rating": 4.5, "coordinates": {"latitude": 42.18406, "longitude": -73.24207}, "transactions": [], "price": "$", "location": {"address1": "275 Main Rd", "address2": null, "address3": "", "city": "Monterey", "zip_code": "01245", "country": "US", "state": "MA", "display_address": ["275 Main Rd", "Monterey, MA 01245"]}, "phone": "+14135282633", "display_phone": "(413) 528-2633", "distance": 5661.162410967238}, {"id": "EXUaFzhvXNjCRNmylmOhxw", "alias": "the-old-inn-on-the-green-at-the-pillow-becket", "name": "The Old Inn on the Green at the Pillow", "image_url": "https://s3-media2.fl.yelpcdn.com/bphoto/xeUMF_3ZHQOd0piGgU83RA/o.jpg", "is_closed": false, "url": "https://www.yelp.com/biz/the-old-inn-on-the-green-at-the-pillow-becket?adjust_creative=ywY5UnLZrNrRl2b93Ruy_g&utm_campaign=yelp_api_v3&utm_medium=api_v3_business_search&utm_source=ywY5UnLZrNrRl2b93Ruy_g", "review_count": 13, "categories": [{"alias": "newamerican", "title": "American (New)"}], "rating": 3.0, "coordinates": {"latitude": 42.26658, "longitude": -73.11659}, "transactions": [], "location": {"address1": "358 George Carter Rd", "address2": "", "address3": null, "city": "Becket", "zip_code": "01223", "country": "US", "state": "MA", "display_address": ["358 George Carter Rd", "Becket, MA 01223"]}, "phone": "+14132120303", "display_phone": "(413) 212-0303", "distance": 8545.126540614709}, {"id": "wv-iymLQsllwM_YRAkTQvA", "alias": "michaels-stockbridge", "name": "Michael's", "image_url": "https://s3-media1.fl.yelpcdn.com/bphoto/UvG1sX_h5e4Th0UV3yQSqQ/o.jpg", "is_closed": false, "url": "https://www.yelp.com/biz/michaels-stockbridge?adjust_creative=ywY5UnLZrNrRl2b93Ruy_g&utm_campaign=yelp_api_v3&utm_medium=api_v3_business_search&utm_source=ywY5UnLZrNrRl2b93Ruy_g", "review_count": 52, "categories": [{"alias": "tradamerican", "title": "American (Traditional)"}, {"alias": "newamerican", "title": "American (New)"}], "rating": 3.0, "coordinates": {"latitude": 42.28076, "longitude": -73.31001}, "transactions": ["delivery"], "price": "$$", "location": {"address1": "5 Elm St", "address2": "", "address3": "", "city": "Stockbridge", "zip_code": "01262", "country": "US", "state": "MA", "display_address": ["5 Elm St", "Stockbridge, MA 01262"]}, "phone": "+14132983530", "display_phone": "(413) 298-3530", "distance": 10161.683299185202}, {"id": "ix1WhyVc9cWYQExuGrlQDQ", "alias": "vivaldis-pizzeria-lee", "name": "Vivaldi's Pizzeria", "image_url": "https://s3-media1.fl.yelpcdn.com/bphoto/BSFVi2zKRZfkvT4GkrgZzw/o.jpg", "is_closed": false, "url": "https://www.yelp.com/biz/vivaldis-pizzeria-lee?adjust_creative=ywY5UnLZrNrRl2b93Ruy_g&utm_campaign=yelp_api_v3&utm_medium=api_v3_business_search&utm_source=ywY5UnLZrNrRl2b93Ruy_g", "review_count": 27, "categories": [{"alias": "pizza", "title": "Pizza"}], "rating": 3.5, "coordinates": {"latitude": 42.303386, "longitude": -73.247599}, "transactions": ["delivery"], "price": "$$", "location": {"address1": "33 Park Plz", "address2": "", "address3": "", "city": "Lee", "zip_code": "01238", "country": "US", "state": "MA", "display_address": ["33 Park Plz", "Lee, MA 01238"]}, "phone": "+14132434041", "display_phone": "(413) 243-4041", "distance": 8908.189464884745}, {"id": "7eYkLZ4rnX_Fs-de-R5VnA", "alias": "athenas-pizza-house-lee", "name": "Athena's Pizza House", "image_url": "https://s3-media2.fl.yelpcdn.com/bphoto/ej1eFj3hU3ZUFKJBue3MvA/o.jpg", "is_closed": false, "url": "https://www.yelp.com/biz/athenas-pizza-house-lee?adjust_creative=ywY5UnLZrNrRl2b93Ruy_g&utm_campaign=yelp_api_v3&utm_medium=api_v3_business_search&utm_source=ywY5UnLZrNrRl2b93Ruy_g", "review_count": 3, "categories": [{"alias": "pizza", "title": "Pizza"}], "rating": 3.5, "coordinates": {"latitude": 42.303669, "longitude": -73.245622}, "transactions": ["delivery"], "location": {"address1": "30 Housatonic St", "address2": "", "address3": "", "city": "Lee", "zip_code": "01238", "country": "US", "state": "MA", "display_address": ["30 Housatonic St", "Lee, MA 01238"]}, "phone": "+14132431223", "display_phone": "(413) 243-1223", "distance": 8881.267013533854}, {"id": "6VWXDm7k3-iPfm0cArdRdA", "alias": "athenas-restaurant-and-pizzeria-lee", "name": "Athena's Restaurant & Pizzeria", "image_url": "https://s3-media1.fl.yelpcdn.com/bphoto/CAFnvS_aLKojUvTSKoM3RQ/o.jpg", "is_closed": false, "url": "https://www.yelp.com/biz/athenas-restaurant-and-pizzeria-lee?adjust_creative=ywY5UnLZrNrRl2b93Ruy_g&utm_campaign=yelp_api_v3&utm_medium=api_v3_business_search&utm_source=ywY5UnLZrNrRl2b93Ruy_g", "review_count": 40, "categories": [{"alias": "italian", "title": "Italian"}, {"alias": "burgers", "title": "Burgers"}, {"alias": "mediterranean", "title": "Mediterranean"}], "rating": 2.5, "coordinates": {"latitude": 42.303675, "longitude": -73.245625}, "transactions": [], "price": "$", "location": {"address1": "30 Housatonic St", "address2": "", "address3": "", "city": "Lee", "zip_code": "01238", "country": "US", "state": "MA", "display_address": ["30 Housatonic St", "Lee, MA 01238"]}, "phone": "+14132431215", "display_phone": "(413) 243-1215", "distance": 8881.978309721015}, {"id": "8nhaIMcLJMrfsiic0hSoOg", "alias": "roses-restaurant-lee", "name": "Roses Restaurant", "image_url": "https://s3-media1.fl.yelpcdn.com/bphoto/SoMhXPFohMvzs8eTUHG14w/o.jpg", "is_closed": false, "url": "https://www.yelp.com/biz/roses-restaurant-lee?adjust_creative=ywY5UnLZrNrRl2b93Ruy_g&utm_campaign=yelp_api_v3&utm_medium=api_v3_business_search&utm_source=ywY5UnLZrNrRl2b93Ruy_g", "review_count": 83, "categories": [{"alias": "breakfast_brunch", "title": "Breakfast & Brunch"}], "rating": 3.5, "coordinates": {"latitude": 42.300715, "longitude": -73.243111}, "transactions": ["delivery"], "price": "$", "location": {"address1": "160 Housatonic St", "address2": "", "address3": "", "city": "Lee", "zip_code": "01238", "country": "US", "state": "MA", "display_address": ["160 Housatonic St", "Lee, MA 01238"]}, "phone": "+14132433333", "display_phone": "(413) 243-3333", "distance": 8502.697792773353}, {"id": "1abRo8so6LKnAwAouIzOtQ", "alias": "simply-grillicious-lee", "name": "Simply Grillicious", "image_url": "https://s3-media3.fl.yelpcdn.com/bphoto/iW-mbQ3JwkTXSnfpbVXXYQ/o.jpg", "is_closed": false, "url": "https://www.yelp.com/biz/simply-grillicious-lee?adjust_creative=ywY5UnLZrNrRl2b93Ruy_g&utm_campaign=yelp_api_v3&utm_medium=api_v3_business_search&utm_source=ywY5UnLZrNrRl2b93Ruy_g", "review_count": 3, "categories": [{"alias": "newamerican", "title": "American (New)"}], "rating": 2.5, "coordinates": {"latitude": 42.294388, "longitude": -73.234434}, "transactions": [], "price": "$", "location": {"address1": "50 Water St", "address2": "", "address3": "", "city": "Lee", "zip_code": "01238", "country": "US", "state": "MA", "display_address": ["50 Water St", "Lee, MA 01238"]}, "phone": "+14132431345", "display_phone": "(413) 243-1345", "distance": 7616.3198363496385}, {"id": "lpeKmfeaYaNmdoPGWFBGIA", "alias": "d-angelo-lee", "name": "D'angelo", "image_url": "https://s3-media4.fl.yelpcdn.com/bphoto/cb5yh3PsNyDNz3AKGm-qPQ/o.jpg", "is_closed": false, "url": "https://www.yelp.com/biz/d-angelo-lee?adjust_creative=ywY5UnLZrNrRl2b93Ruy_g&utm_campaign=yelp_api_v3&utm_medium=api_v3_business_search&utm_source=ywY5UnLZrNrRl2b93Ruy_g", "review_count": 4, "categories": [{"alias": "delis", "title": "Delis"}], "rating": 2.0, "coordinates": {"latitude": 42.297125533502, "longitude": -73.275692678397}, "transactions": [], "price": "$$", "location": {"address1": "370 Stockbridge Rd", "address2": "", "address3": "", "city": "Lee", "zip_code": "01238", "country": "US", "state": "MA", "display_address": ["370 Stockbridge Rd", "Lee, MA 01238"]}, "phone": "+14132431380", "display_phone": "(413) 243-1380", "distance": 9393.465538139686}, {"id": "u3vTda2vtkOdRqya20iSyg", "alias": "red-apple-lee", "name": "Red Apple", "image_url": "https://s3-media4.fl.yelpcdn.com/bphoto/SzCdSb27YWsrutpUqmmzFg/o.jpg", "is_closed": false, "url": "https://www.yelp.com/biz/red-apple-lee?adjust_creative=ywY5UnLZrNrRl2b93Ruy_g&utm_campaign=yelp_api_v3&utm_medium=api_v3_business_search&utm_source=ywY5UnLZrNrRl2b93Ruy_g", "review_count": 15, "categories": [{"alias": "chinese", "title": "Chinese"}], "rating": 3.5, "coordinates": {"latitude": 42.3042413144758, "longitude": -73.246378730496}, "transactions": ["delivery"], "price": "$", "location": {"address1": "23 Park Plz", "address2": "Ste A", "address3": "", "city": "Lee", "zip_code": "01238", "country": "US", "state": "MA", "display_address": ["23 Park Plz", "Ste A", "Lee, MA 01238"]}, "phone": "+14132434027", "display_phone": "(413) 243-4027", "distance": 8901.888116524438}, {"id": "oP6MxD_tKqBF_hCgk9dOmg", "alias": "east-lee-package-store-lee", "name": "East Lee Package Store", "image_url": "https://s3-media4.fl.yelpcdn.com/bphoto/ZFn3i5E5fflh0nviMpXBgw/o.jpg", "is_closed": false, "url": "https://www.yelp.com/biz/east-lee-package-store-lee?adjust_creative=ywY5UnLZrNrRl2b93Ruy_g&utm_campaign=yelp_api_v3&utm_medium=api_v3_business_search&utm_source=ywY5UnLZrNrRl2b93Ruy_g", "review_count": 11, "categories": [{"alias": "beer_and_wine", "title": "Beer, Wine & Spirits"}, {"alias": "delis", "title": "Delis"}], "rating": 3.5, "coordinates": {"latitude": 42.2972074, "longitude": -73.2314694}, "transactions": [], "price": "$", "location": {"address1": "185 Water St", "address2": "", "address3": "", "city": "Lee", "zip_code": "01238", "country": "US", "state": "MA", "display_address": ["185 Water St", "Lee, MA 01238"]}, "phone": "+14132439768", "display_phone": "(413) 243-9768", "distance": 7875.083207014811}, {"id": "Ag_IxQNO_Ta9EXkMYiwyxA", "alias": "elm-street-market-stockbridge-2", "name": "Elm Street Market", "image_url": "https://s3-media3.fl.yelpcdn.com/bphoto/zi4IDgWR2QOuvqvUiUFbfQ/o.jpg", "is_closed": false, "url": "https://www.yelp.com/biz/elm-street-market-stockbridge-2?adjust_creative=ywY5UnLZrNrRl2b93Ruy_g&utm_campaign=yelp_api_v3&utm_medium=api_v3_business_search&utm_source=ywY5UnLZrNrRl2b93Ruy_g", "review_count": 18, "categories": [{"alias": "grocery", "title": "Grocery"}, {"alias": "breakfast_brunch", "title": "Breakfast & Brunch"}, {"alias": "delis", "title": "Delis"}], "rating": 3.5, "coordinates": {"latitude": 42.2812543, "longitude": -73.3107069}, "transactions": [], "price": "$", "location": {"address1": "4 Elm St", "address2": null, "address3": null, "city": "Stockbridge", "zip_code": "01262", "country": "US", "state": "MA", "display_address": ["4 Elm St", "Stockbridge, MA 01262"]}, "phone": "+14132983634", "display_phone": "(413) 298-3634", "distance": 10213.405254725865}, {"id": "2-qHSKRWlFMEBRiRbRSrzg", "alias": "villa-pizza-lee", "name": "Villa Pizza", "image_url": "https://s3-media4.fl.yelpcdn.com/bphoto/_OxZVubHLEvolZjZD3P9yg/o.jpg", "is_closed": false, "url": "https://www.yelp.com/biz/villa-pizza-lee?adjust_creative=ywY5UnLZrNrRl2b93Ruy_g&utm_campaign=yelp_api_v3&utm_medium=api_v3_business_search&utm_source=ywY5UnLZrNrRl2b93Ruy_g", "review_count": 1, "categories": [{"alias": "pizza", "title": "Pizza"}], "rating": 2.0, "coordinates": {"latitude": 42.294695, "longitude": -73.23371}, "transactions": [], "location": {"address1": "50 Water St", "address2": "", "address3": "", "city": "Lee", "zip_code": "01238", "country": "US", "state": "MA", "display_address": ["50 Water St", "Lee, MA 01238"]}, "phone": "+14133949940", "display_phone": "(413) 394-9940", "distance": 7633.144002898744}, {"id": "dEt-yktUtzEXyyspQfm_fQ", "alias": "orient-taste-lee", "name": "Orient Taste", "image_url": "https://s3-media2.fl.yelpcdn.com/bphoto/ieopyNkFT4bVtLzNmz3CZw/o.jpg", "is_closed": false, "url": "https://www.yelp.com/biz/orient-taste-lee?adjust_creative=ywY5UnLZrNrRl2b93Ruy_g&utm_campaign=yelp_api_v3&utm_medium=api_v3_business_search&utm_source=ywY5UnLZrNrRl2b93Ruy_g", "review_count": 2, "categories": [{"alias": "chinese", "title": "Chinese"}], "rating": 1.0, "coordinates": {"latitude": 42.294122, "longitude": -73.233635}, "transactions": [], "price": "$$", "location": {"address1": "50 Water St", "address2": "", "address3": "", "city": "Lee", "zip_code": "01238", "country": "US", "state": "MA", "display_address": ["50 Water St", "Lee, MA 01238"]}, "phone": "+14132436028", "display_phone": "(413) 243-6028", "distance": 7570.083983565597}, {"id": "sw_fMcE7mDh9UgDAinEh4A", "alias": "papa-ginos-lee-3", "name": "Papa Gino's", "image_url": "https://s3-media2.fl.yelpcdn.com/bphoto/UtAfL7Ion7B70KTnpMkkjA/o.jpg", "is_closed": false, "url": "https://www.yelp.com/biz/papa-ginos-lee-3?adjust_creative=ywY5UnLZrNrRl2b93Ruy_g&utm_campaign=yelp_api_v3&utm_medium=api_v3_business_search&utm_source=ywY5UnLZrNrRl2b93Ruy_g", "review_count": 1, "categories": [{"alias": "pizza", "title": "Pizza"}], "rating": 2.0, "coordinates": {"latitude": 42.2956547, "longitude": -73.2708765}, "transactions": ["delivery"], "location": {"address1": "370 Stockbridge Rd", "address2": "", "address3": null, "city": "Lee", "zip_code": "01238", "country": "US", "state": "MA", "display_address": ["370 Stockbridge Rd", "Lee, MA 01238"]}, "phone": "+14132431380", "display_phone": "(413) 243-1380", "distance": 9324.99162151495}, {"id": "1KvLXb2nhGIUXwFUmfYolw", "alias": "subway-lee-6", "name": "Subway", "image_url": "https://s3-media2.fl.yelpcdn.com/bphoto/S_313jZ8G7Mzgzlegnia4Q/o.jpg", "is_closed": false, "url": "https://www.yelp.com/biz/subway-lee-6?adjust_creative=ywY5UnLZrNrRl2b93Ruy_g&utm_campaign=yelp_api_v3&utm_medium=api_v3_business_search&utm_source=ywY5UnLZrNrRl2b93Ruy_g", "review_count": 3, "categories": [{"alias": "sandwiches", "title": "Sandwiches"}], "rating": 1.5, "coordinates": {"latitude": 42.294582, "longitude": -73.233724}, "transactions": [], "price": "$", "location": {"address1": "50 Water St", "address2": "Unit H380D", "address3": "", "city": "Lee", "zip_code": "01238", "country": "US", "state": "MA", "display_address": ["50 Water St", "Unit H380D", "Lee, MA 01238"]}, "phone": "+14132438292", "display_phone": "(413) 243-8292", "distance": 7632.846188170988}, {"id": "OKFMX6hUhzA2MfnyrSRnFg", "alias": "mcdonalds-lee-6", "name": "McDonald's", "image_url": "https://s3-media1.fl.yelpcdn.com/bphoto/CAKblQXDMWh4Zy881GXPFg/o.jpg", "is_closed": false, "url": "https://www.yelp.com/biz/mcdonalds-lee-6?adjust_creative=ywY5UnLZrNrRl2b93Ruy_g&utm_campaign=yelp_api_v3&utm_medium=api_v3_business_search&utm_source=ywY5UnLZrNrRl2b93Ruy_g", "review_count": 5, "categories": [{"alias": "burgers", "title": "Burgers"}, {"alias": "hotdogs", "title": "Fast Food"}, {"alias": "coffee", "title": "Coffee & Tea"}], "rating": 2.0, "coordinates": {"latitude": 42.298505, "longitude": -73.27465333}, "transactions": [], "price": "$", "location": {"address1": "240 West Rd", "address2": "", "address3": "", "city": "Lee", "zip_code": "01238", "country": "US", "state": "MA", "display_address": ["240 West Rd", "Lee, MA 01238"]}, "phone": "+14132436695", "display_phone": "(413) 243-6695", "distance": 9456.140031447481}, {"id": "1T67DQkg_Guyvlkqhqu7Mw", "alias": "mcdonalds-lee", "name": "McDonald's", "image_url": "https://s3-media3.fl.yelpcdn.com/bphoto/wQLfIJNysnYKaJsoDropJg/o.jpg", "is_closed": false, "url": "https://www.yelp.com/biz/mcdonalds-lee?adjust_creative=ywY5UnLZrNrRl2b93Ruy_g&utm_campaign=yelp_api_v3&utm_medium=api_v3_business_search&utm_source=ywY5UnLZrNrRl2b93Ruy_g", "review_count": 7, "categories": [{"alias": "burgers", "title": "Burgers"}, {"alias": "hotdogs", "title": "Fast Food"}, {"alias": "coffee", "title": "Coffee & Tea"}], "rating": 2.5, "coordinates": {"latitude": 42.2969521, "longitude": -73.274561}, "transactions": [], "price": "$", "location": {"address1": "370 W Stockbridge Rd", "address2": "", "address3": "", "city": "Lee", "zip_code": "01238", "country": "US", "state": "MA", "display_address": ["370 W Stockbridge Rd", "Lee, MA 01238"]}, "phone": "+14132434666", "display_phone": "(413) 243-4666", "distance": 9323.70944447592}, {"id": "y-WH9WEyQNpsAWCoffxn1A", "alias": "mcdonalds-lee-4", "name": "McDonald's", "image_url": "https://s3-media2.fl.yelpcdn.com/bphoto/wjob_R0ECBWIvqTEItS3pw/o.jpg", "is_closed": false, "url": "https://www.yelp.com/biz/mcdonalds-lee-4?adjust_creative=ywY5UnLZrNrRl2b93Ruy_g&utm_campaign=yelp_api_v3&utm_medium=api_v3_business_search&utm_source=ywY5UnLZrNrRl2b93Ruy_g", "review_count": 9, "categories": [{"alias": "burgers", "title": "Burgers"}, {"alias": "hotdogs", "title": "Fast Food"}, {"alias": "coffee", "title": "Coffee & Tea"}], "rating": 2.0, "coordinates": {"latitude": 42.2991668943395, "longitude": -73.240801692009}, "transactions": [], "price": "$", "location": {"address1": "245 Housatonic St", "address2": "", "address3": "", "city": "Lee", "zip_code": "01238", "country": "US", "state": "MA", "display_address": ["245 Housatonic St", "Lee, MA 01238"]}, "phone": "+14132432253", "display_phone": "(413) 243-2253", "distance": 8278.537383755802}, {"id": "qqA8YX58xnmEXLyanHfdUg", "alias": "stufd-food-truck-brooklyn", "name": "Stuf'd Food Truck", "image_url": "https://s3-media2.fl.yelpcdn.com/bphoto/_Wn0i-tLIOFinw8BPAqxPA/o.jpg", "is_closed": false, "url": "https://www.yelp.com/biz/stufd-food-truck-brooklyn?adjust_creative=ywY5UnLZrNrRl2b93Ruy_g&utm_campaign=yelp_api_v3&utm_medium=api_v3_business_search&utm_source=ywY5UnLZrNrRl2b93Ruy_g", "review_count": 4, "categories": [{"alias": "sandwiches", "title": "Sandwiches"}, {"alias": "foodtrucks", "title": "Food Trucks"}], "rating": 4.0, "coordinates": {"latitude": 40.7124539, "longitude": -73.9287374}, "transactions": [], "location": {"address1": "178 Varick Ave", "address2": "", "address3": null, "city": "Brooklyn", "zip_code": "11237", "country": "US", "state": "NY", "display_address": ["178 Varick Ave", "Brooklyn, NY 11237"]}, "phone": "+18457091808", "display_phone": "(845) 709-1808", "distance": 178920.15250729435}]