[{"id": "qoPzeBjIoLcfn573en7YBQ", "alias": "clintons-bar-and-grille-clinton", "name": "Clintons Bar & Grille", "image_url": "https://s3-media3.fl.yelpcdn.com/bphoto/V_aVgskGjBmwYUCeztOmAw/o.jpg", "is_closed": false, "url": "https://www.yelp.com/biz/clintons-bar-and-grille-clinton?adjust_creative=asslzE1UV0XuKI953B1vtw&utm_campaign=yelp_api_v3&utm_medium=api_v3_business_search&utm_source=asslzE1UV0XuKI953B1vtw", "review_count": 248, "categories": [{"alias": "newamerican", "title": "American (New)"}, {"alias": "bars", "title": "Bars"}], "rating": 4.0, "coordinates": {"latitude": 42.416574337148, "longitude": -71.6845641865082}, "transactions": ["delivery"], "price": "$$", "location": {"address1": "27 High St", "address2": "", "address3": "", "city": "Clinton", "zip_code": "01510", "country": "US", "state": "MA", "display_address": ["27 High St", "Clinton, MA 01510"]}, "phone": "+19785987002", "display_phone": "(978) 598-7002", "distance": 3040.676411540499}, {"id": "PxdW-SgIRK8kBzvZhtlliw", "alias": "zaytoon-clinton", "name": "Zaytoon", "image_url": "https://s3-media3.fl.yelpcdn.com/bphoto/nTh60be1jP2J6GNPtmS4QA/o.jpg", "is_closed": false, "url": "https://www.yelp.com/biz/zaytoon-clinton?adjust_creative=asslzE1UV0XuKI953B1vtw&utm_campaign=yelp_api_v3&utm_medium=api_v3_business_search&utm_source=asslzE1UV0XuKI953B1vtw", "review_count": 162, "categories": [{"alias": "mediterranean", "title": "Mediterranean"}, {"alias": "buffets", "title": "Buffets"}], "rating": 4.5, "coordinates": {"latitude": 42.4173321237602, "longitude": -71.6849050981938}, "transactions": ["delivery"], "price": "$$", "location": {"address1": "72B High St", "address2": "", "address3": "", "city": "Clinton", "zip_code": "01510", "country": "US", "state": "MA", "display_address": ["72B High St", "Clinton, MA 01510"]}, "phone": "+19787334258", "display_phone": "(978) 733-4258", "distance": 2956.200473695285}, {"id": "x5MlYCGVlUYcXdmn0ZRPRw", "alias": "the-old-timer-restaurant-clinton", "name": "The Old Timer Restaurant", "image_url": "https://s3-media2.fl.yelpcdn.com/bphoto/B5pShh8DBHPXf3rHqBh9gw/o.jpg", "is_closed": false, "url": "https://www.yelp.com/biz/the-old-timer-restaurant-clinton?adjust_creative=asslzE1UV0XuKI953B1vtw&utm_campaign=yelp_api_v3&utm_medium=api_v3_business_search&utm_source=asslzE1UV0XuKI953B1vtw", "review_count": 27, "categories": [{"alias": "irish", "title": "Irish"}], "rating": 3.5, "coordinates": {"latitude": 42.4174700542928, "longitude": -71.6850590245157}, "transactions": [], "location": {"address1": "155 Church St", "address2": "", "address3": null, "city": "Clinton", "zip_code": "01510", "country": "US", "state": "MA", "display_address": ["155 Church St", "Clinton, MA 01510"]}, "phone": "+19787334373", "display_phone": "(978) 733-4373", "distance": 2940.8505310218898}, {"id": "YC76TzBkLLD7A57lK3vVUA", "alias": "clinton-gourmet-clinton", "name": "Clinton Gourmet", "image_url": "https://s3-media1.fl.yelpcdn.com/bphoto/tgaG1-2gfMyYlFZXahbBJg/o.jpg", "is_closed": false, "url": "https://www.yelp.com/biz/clinton-gourmet-clinton?adjust_creative=asslzE1UV0XuKI953B1vtw&utm_campaign=yelp_api_v3&utm_medium=api_v3_business_search&utm_source=asslzE1UV0XuKI953B1vtw", "review_count": 49, "categories": [{"alias": "chinese", "title": "Chinese"}], "rating": 3.0, "coordinates": {"latitude": 42.43286, "longitude": -71.68429}, "transactions": ["delivery"], "price": "$$", "location": {"address1": "1075 Main St", "address2": "", "address3": "", "city": "Clinton", "zip_code": "01510", "country": "US", "state": "MA", "display_address": ["1075 Main St", "Clinton, MA 01510"]}, "phone": "+19783658020", "display_phone": "(978) 365-8020", "distance": 1236.5696598019683}, {"id": "cXg5NE3RNA6Fj8zg4LYWlw", "alias": "taqueria-el-amigo-iii-clinton", "name": "Taqueria El Amigo III", "image_url": "https://s3-media2.fl.yelpcdn.com/bphoto/B_lU1_s13sYo_UHaZrT67A/o.jpg", "is_closed": false, "url": "https://www.yelp.com/biz/taqueria-el-amigo-iii-clinton?adjust_creative=asslzE1UV0XuKI953B1vtw&utm_campaign=yelp_api_v3&utm_medium=api_v3_business_search&utm_source=asslzE1UV0XuKI953B1vtw", "review_count": 27, "categories": [{"alias": "mexican", "title": "Mexican"}], "rating": 4.0, "coordinates": {"latitude": 42.416107, "longitude": -71.68471}, "transactions": ["delivery"], "location": {"address1": "1 High St", "address2": "", "address3": null, "city": "Clinton", "zip_code": "01510", "country": "US", "state": "MA", "display_address": ["1 High St", "Clinton, MA 01510"]}, "phone": "+19783688000", "display_phone": "(978) 368-8000", "distance": 3092.5168863582935}, {"id": "56cyF3yM4-Z2yxbWjLu4rQ", "alias": "the-trolley-stop-pizzaria-plus-south-lancaster", "name": "The Trolley Stop Pizzaria Plus", "image_url": "https://s3-media1.fl.yelpcdn.com/bphoto/GzTYFbz6PBabXLjFgXcpbg/o.jpg", "is_closed": false, "url": "https://www.yelp.com/biz/the-trolley-stop-pizzaria-plus-south-lancaster?adjust_creative=asslzE1UV0XuKI953B1vtw&utm_campaign=yelp_api_v3&utm_medium=api_v3_business_search&utm_source=asslzE1UV0XuKI953B1vtw", "review_count": 23, "categories": [{"alias": "pizza", "title": "Pizza"}], "rating": 3.5, "coordinates": {"latitude": 42.443111, "longitude": -71.686279}, "transactions": ["delivery"], "price": "$", "location": {"address1": "18 Prescott St", "address2": "", "address3": "", "city": "South Lancaster", "zip_code": "01561", "country": "US", "state": "MA", "display_address": ["18 Prescott St", "South Lancaster, MA 01561"]}, "phone": "+19783688331", "display_phone": "(978) 368-8331", "distance": 135.71399453399405}, {"id": "0GBldD0POkqNMR5KxPIJ0w", "alias": "thai-time-clinton", "name": "Thai Time", "image_url": "https://s3-media3.fl.yelpcdn.com/bphoto/jRlTnS3nM7FBHYyjuCXUUw/o.jpg", "is_closed": false, "url": "https://www.yelp.com/biz/thai-time-clinton?adjust_creative=asslzE1UV0XuKI953B1vtw&utm_campaign=yelp_api_v3&utm_medium=api_v3_business_search&utm_source=asslzE1UV0XuKI953B1vtw", "review_count": 101, "categories": [{"alias": "thai", "title": "Thai"}], "rating": 4.0, "coordinates": {"latitude": 42.4174778, "longitude": -71.6844005}, "transactions": ["delivery"], "price": "$$", "location": {"address1": "180 Church St", "address2": null, "address3": "", "city": "Clinton", "zip_code": "01510", "country": "US", "state": "MA", "display_address": ["180 Church St", "Clinton, MA 01510"]}, "phone": "+19783656368", "display_phone": "(978) 365-6368", "distance": 2910.4993432913407}, {"id": "3H6DENqAjfR7JErVXTXsjA", "alias": "fotinis-restaurant-and-bar-bolton", "name": "Fotini's Restaurant & Bar", "image_url": "https://s3-media2.fl.yelpcdn.com/bphoto/mjRrwSdTYU_9-vTEgGy8qQ/o.jpg", "is_closed": false, "url": "https://www.yelp.com/biz/fotinis-restaurant-and-bar-bolton?adjust_creative=asslzE1UV0XuKI953B1vtw&utm_campaign=yelp_api_v3&utm_medium=api_v3_business_search&utm_source=asslzE1UV0XuKI953B1vtw", "review_count": 47, "categories": [{"alias": "bars", "title": "Bars"}, {"alias": "pizza", "title": "Pizza"}, {"alias": "tradamerican", "title": "American (Traditional)"}], "rating": 3.5, "coordinates": {"latitude": 42.417453761746, "longitude": -71.6530995815992}, "transactions": ["delivery"], "price": "$$", "location": {"address1": "544 Wattaquadock Hill Rd", "address2": "", "address3": "", "city": "Bolton", "zip_code": "01740", "country": "US", "state": "MA", "display_address": ["544 Wattaquadock Hill Rd", "Bolton, MA 01740"]}, "phone": "+19783655757", "display_phone": "(978) 365-5757", "distance": 3939.7801487090346}, {"id": "iMEK6CbOyr5lEgXUvNdeJQ", "alias": "similan-thai-bistro-clinton", "name": "Similan Thai Bistro", "image_url": "https://s3-media2.fl.yelpcdn.com/bphoto/Kcvsfiq_y4lsvmH_wyknnw/o.jpg", "is_closed": false, "url": "https://www.yelp.com/biz/similan-thai-bistro-clinton?adjust_creative=asslzE1UV0XuKI953B1vtw&utm_campaign=yelp_api_v3&utm_medium=api_v3_business_search&utm_source=asslzE1UV0XuKI953B1vtw", "review_count": 84, "categories": [{"alias": "thai", "title": "Thai"}, {"alias": "vietnamese", "title": "Vietnamese"}, {"alias": "sushi", "title": "Sushi Bars"}], "rating": 4.0, "coordinates": {"latitude": 42.429174, "longitude": -71.6722346}, "transactions": ["delivery"], "price": "$$", "location": {"address1": "1175 Main St", "address2": "", "address3": "", "city": "Clinton", "zip_code": "01510", "country": "US", "state": "MA", "display_address": ["1175 Main St", "Clinton, MA 01510"]}, "phone": "+19783653003", "display_phone": "(978) 365-3003", "distance": 1946.3713047366725}, {"id": "cfRUfb1Kd0jUtQ0YCcRWyw", "alias": "michaels-bridge-diner-lancaster", "name": "Michael's Bridge Diner", "image_url": "https://s3-media2.fl.yelpcdn.com/bphoto/EyHNDNGFcK4xgMepkIBYXA/o.jpg", "is_closed": false, "url": "https://www.yelp.com/biz/michaels-bridge-diner-lancaster?adjust_creative=asslzE1UV0XuKI953B1vtw&utm_campaign=yelp_api_v3&utm_medium=api_v3_business_search&utm_source=asslzE1UV0XuKI953B1vtw", "review_count": 107, "categories": [{"alias": "diners", "title": "Diners"}], "rating": 3.5, "coordinates": {"latitude": 42.4375419616699, "longitude": -71.6871566772461}, "transactions": [], "price": "$", "location": {"address1": "56 Main St", "address2": "", "address3": "", "city": "Lancaster", "zip_code": "01523", "country": "US", "state": "MA", "display_address": ["56 Main St", "Lancaster, MA 01523"]}, "phone": "+19783680630", "display_phone": "(978) 368-0630", "distance": 725.8981101298695}, {"id": "JPMD2SP18wA0P9lOqJxm-w", "alias": "sports-bar-and-cafe-bolton", "name": "Sports Bar and Cafe", "image_url": "https://s3-media3.fl.yelpcdn.com/bphoto/kVVHQSv6AkQwlAJ2Y7PBSQ/o.jpg", "is_closed": false, "url": "https://www.yelp.com/biz/sports-bar-and-cafe-bolton?adjust_creative=asslzE1UV0XuKI953B1vtw&utm_campaign=yelp_api_v3&utm_medium=api_v3_business_search&utm_source=asslzE1UV0XuKI953B1vtw", "review_count": 2, "categories": [{"alias": "sportsbars", "title": "Sports Bars"}, {"alias": "cafes", "title": "Cafes"}], "rating": 3.5, "coordinates": {"latitude": 42.4396095, "longitude": -71.6438293}, "transactions": [], "location": {"address1": "295 Wilder Rd", "address2": "", "address3": "", "city": "Bolton", "zip_code": "01740", "country": "US", "state": "MA", "display_address": ["295 Wilder Rd", "Bolton, MA 01740"]}, "phone": "+19787795020", "display_phone": "(978) 779-5020", "distance": 3125.5127933442354}, {"id": "YUpRg3X8ydhVzyw2UAHAeQ", "alias": "spruce-street-tavern-clinton", "name": "Spruce Street Tavern", "image_url": "https://s3-media2.fl.yelpcdn.com/bphoto/Dl5qsmzuK3a6OQHGn5zHVw/o.jpg", "is_closed": false, "url": "https://www.yelp.com/biz/spruce-street-tavern-clinton?adjust_creative=asslzE1UV0XuKI953B1vtw&utm_campaign=yelp_api_v3&utm_medium=api_v3_business_search&utm_source=asslzE1UV0XuKI953B1vtw", "review_count": 18, "categories": [{"alias": "pizza", "title": "Pizza"}, {"alias": "sportsbars", "title": "Sports Bars"}], "rating": 3.5, "coordinates": {"latitude": 42.4167016407114, "longitude": -71.6711352071381}, "transactions": ["delivery"], "price": "$$", "location": {"address1": "68 Spruce St", "address2": null, "address3": null, "city": "Clinton", "zip_code": "01510", "country": "US", "state": "MA", "display_address": ["68 Spruce St", "Clinton, MA 01510"]}, "phone": "+19783659071", "display_phone": "(978) 365-9071", "distance": 3233.6936646322893}, {"id": "O1bLnelazRY6K2S7xy3U5A", "alias": "p-and-s-pizza-house-clinton", "name": "P & S Pizza House", "image_url": "https://s3-media2.fl.yelpcdn.com/bphoto/hm0-OF85q-1yWyjgRcnWtA/o.jpg", "is_closed": false, "url": "https://www.yelp.com/biz/p-and-s-pizza-house-clinton?adjust_creative=asslzE1UV0XuKI953B1vtw&utm_campaign=yelp_api_v3&utm_medium=api_v3_business_search&utm_source=asslzE1UV0XuKI953B1vtw", "review_count": 42, "categories": [{"alias": "pizza", "title": "Pizza"}], "rating": 3.5, "coordinates": {"latitude": 42.4207713, "longitude": -71.6840026}, "transactions": ["delivery"], "price": "$", "location": {"address1": "319 High St", "address2": "", "address3": "", "city": "Clinton", "zip_code": "01510", "country": "US", "state": "MA", "display_address": ["319 High St", "Clinton, MA 01510"]}, "phone": "+19783652221", "display_phone": "(978) 365-2221", "distance": 2594.4487123322842}, {"id": "sUrMzIFtP_NnpjKnbBEIqA", "alias": "wrong-way-cafe-clinton", "name": "Wrong Way Cafe", "image_url": "https://s3-media1.fl.yelpcdn.com/bphoto/7WrJyv-swy1Cu2hQeh-JxA/o.jpg", "is_closed": false, "url": "https://www.yelp.com/biz/wrong-way-cafe-clinton?adjust_creative=asslzE1UV0XuKI953B1vtw&utm_campaign=yelp_api_v3&utm_medium=api_v3_business_search&utm_source=asslzE1UV0XuKI953B1vtw", "review_count": 50, "categories": [{"alias": "cafes", "title": "Cafes"}, {"alias": "breakfast_brunch", "title": "Breakfast & Brunch"}, {"alias": "burgers", "title": "Burgers"}], "rating": 3.5, "coordinates": {"latitude": 42.4200782775879, "longitude": -71.6875686645508}, "transactions": [], "price": "$$", "location": {"address1": "610 Main St", "address2": "", "address3": "", "city": "Clinton", "zip_code": "01510", "country": "US", "state": "MA", "display_address": ["610 Main St", "Clinton, MA 01510"]}, "phone": "+19783654444", "display_phone": "(978) 365-4444", "distance": 2663.0198083541163}, {"id": "13NrQAiR9eAE_R5OvltiHQ", "alias": "the-simple-man-saloon-clinton", "name": "The Simple Man Saloon", "image_url": "https://s3-media2.fl.yelpcdn.com/bphoto/8YuAw5nqjSMEUOdyN4S16Q/o.jpg", "is_closed": false, "url": "https://www.yelp.com/biz/the-simple-man-saloon-clinton?adjust_creative=asslzE1UV0XuKI953B1vtw&utm_campaign=yelp_api_v3&utm_medium=api_v3_business_search&utm_source=asslzE1UV0XuKI953B1vtw", "review_count": 32, "categories": [{"alias": "bars", "title": "Bars"}, {"alias": "chicken_wings", "title": "Chicken Wings"}, {"alias": "sandwiches", "title": "Sandwiches"}], "rating": 3.5, "coordinates": {"latitude": 42.4178823083639, "longitude": -71.6845813393593}, "transactions": [], "price": "$$", "location": {"address1": "119 High St", "address2": "", "address3": "", "city": "Clinton", "zip_code": "01510", "country": "US", "state": "MA", "display_address": ["119 High St", "Clinton, MA 01510"]}, "phone": "+19783651949", "display_phone": "(978) 365-1949", "distance": 2943.797471802074}, {"id": "aFqEKhuNW8Jy1PQ1YeRfAA", "alias": "strand-theatre-clinton", "name": "Strand Theatre", "image_url": "https://s3-media4.fl.yelpcdn.com/bphoto/Ufy_Uxd9tSG4MQaB7gpUjw/o.jpg", "is_closed": false, "url": "https://www.yelp.com/biz/strand-theatre-clinton?adjust_creative=asslzE1UV0XuKI953B1vtw&utm_campaign=yelp_api_v3&utm_medium=api_v3_business_search&utm_source=asslzE1UV0XuKI953B1vtw", "review_count": 49, "categories": [{"alias": "movietheaters", "title": "Cinema"}, {"alias": "dinnertheater", "title": "Dinner Theater"}], "rating": 4.5, "coordinates": {"latitude": 42.4170796, "longitude": -71.6849379}, "transactions": [], "price": "$$", "location": {"address1": "58 High St", "address2": "", "address3": "", "city": "Clinton", "zip_code": "01510", "country": "US", "state": "MA", "display_address": ["58 High St", "Clinton, MA 01510"]}, "phone": "+19783655500", "display_phone": "(978) 365-5500", "distance": 2985.2358791218185}, {"id": "mUTiQTmT_57Jk89m6UctIw", "alias": "lous-diner-clinton", "name": "Lou's Diner", "image_url": "https://s3-media2.fl.yelpcdn.com/bphoto/1KIZViqFdA9kYoJe9XX8Cg/o.jpg", "is_closed": false, "url": "https://www.yelp.com/biz/lous-diner-clinton?adjust_creative=asslzE1UV0XuKI953B1vtw&utm_campaign=yelp_api_v3&utm_medium=api_v3_business_search&utm_source=asslzE1UV0XuKI953B1vtw", "review_count": 15, "categories": [{"alias": "diners", "title": "Diners"}, {"alias": "catering", "title": "Caterers"}], "rating": 4.0, "coordinates": {"latitude": 42.413331, "longitude": -71.682325}, "transactions": ["delivery"], "price": "$", "location": {"address1": "100 Chestnut St", "address2": "", "address3": "", "city": "Clinton", "zip_code": "01510", "country": "US", "state": "MA", "display_address": ["100 Chestnut St", "Clinton, MA 01510"]}, "phone": "+19783659808", "display_phone": "(978) 365-9808", "distance": 3409.731034418124}, {"id": "4m7vcJcBJoJLXKSfwp-aDQ", "alias": "mr-zs-pizza-clinton", "name": "Mr Z's Pizza", "image_url": "https://s3-media2.fl.yelpcdn.com/bphoto/v0YciY1fTfeMsxNH_qwWfg/o.jpg", "is_closed": false, "url": "https://www.yelp.com/biz/mr-zs-pizza-clinton?adjust_creative=asslzE1UV0XuKI953B1vtw&utm_campaign=yelp_api_v3&utm_medium=api_v3_business_search&utm_source=asslzE1UV0XuKI953B1vtw", "review_count": 44, "categories": [{"alias": "pizza", "title": "Pizza"}, {"alias": "italian", "title": "Italian"}], "rating": 3.0, "coordinates": {"latitude": 42.41975, "longitude": -71.68401}, "transactions": ["delivery"], "price": "$", "location": {"address1": "267 High St", "address2": "", "address3": "", "city": "Clinton", "zip_code": "01510", "country": "US", "state": "MA", "display_address": ["267 High St", "Clinton, MA 01510"]}, "phone": "+19783688210", "display_phone": "(978) 368-8210", "distance": 2691.181902430507}, {"id": "0A4VQx_avf84ZkWQUnrNUw", "alias": "the-pressedo-clinton", "name": "The Pressed'O", "image_url": "https://s3-media1.fl.yelpcdn.com/bphoto/cfkU0QmXCHP6S86IlWu5jw/o.jpg", "is_closed": false, "url": "https://www.yelp.com/biz/the-pressedo-clinton?adjust_creative=asslzE1UV0XuKI953B1vtw&utm_campaign=yelp_api_v3&utm_medium=api_v3_business_search&utm_source=asslzE1UV0XuKI953B1vtw", "review_count": 11, "categories": [{"alias": "juicebars", "title": "Juice Bars & Smoothies"}, {"alias": "cafes", "title": "Cafes"}], "rating": 4.5, "coordinates": {"latitude": 42.4181576, "longitude": -71.6847691}, "transactions": [], "price": "$$", "location": {"address1": "138 High St", "address2": null, "address3": "", "city": "Clinton", "zip_code": "01510", "country": "US", "state": "MA", "display_address": ["138 High St", "Clinton, MA 01510"]}, "phone": "+15088344036", "display_phone": "(508) 834-4036", "distance": 2821.4475452074043}, {"id": "KPa9Kz1Q7pEAzx5-eLxqWQ", "alias": "sandees-restaurant-lancaster", "name": "Sandee's Restaurant", "image_url": "https://s3-media4.fl.yelpcdn.com/bphoto/V6NrzbLT9iN0EGRHRsiW2A/o.jpg", "is_closed": false, "url": "https://www.yelp.com/biz/sandees-restaurant-lancaster?adjust_creative=asslzE1UV0XuKI953B1vtw&utm_campaign=yelp_api_v3&utm_medium=api_v3_business_search&utm_source=asslzE1UV0XuKI953B1vtw", "review_count": 34, "categories": [{"alias": "breakfast_brunch", "title": "Breakfast & Brunch"}, {"alias": "diners", "title": "Diners"}, {"alias": "burgers", "title": "Burgers"}], "rating": 3.5, "coordinates": {"latitude": 42.4408645629883, "longitude": -71.687141418457}, "transactions": [], "price": "$", "location": {"address1": "162 Main St", "address2": "", "address3": "", "city": "Lancaster", "zip_code": "01523", "country": "US", "state": "MA", "display_address": ["162 Main St", "Lancaster, MA 01523"]}, "phone": "+19783651950", "display_phone": "(978) 365-1950", "distance": 391.2326980961998}, {"id": "wvegTS6N3Bo2_UIa22Vh2g", "alias": "bushel-n-peck-clinton", "name": "Bushel 'N Peck", "image_url": "https://s3-media2.fl.yelpcdn.com/bphoto/Q6ndePJXZH7FCLf6WWqpuA/o.jpg", "is_closed": false, "url": "https://www.yelp.com/biz/bushel-n-peck-clinton?adjust_creative=asslzE1UV0XuKI953B1vtw&utm_campaign=yelp_api_v3&utm_medium=api_v3_business_search&utm_source=asslzE1UV0XuKI953B1vtw", "review_count": 17, "categories": [{"alias": "delis", "title": "Delis"}], "rating": 3.0, "coordinates": {"latitude": 42.4161768056218, "longitude": -71.6851211339235}, "transactions": ["delivery", "pickup"], "price": "$", "location": {"address1": "120 Union St", "address2": "", "address3": "", "city": "Clinton", "zip_code": "01510", "country": "US", "state": "MA", "display_address": ["120 Union St", "Clinton, MA 01510"]}, "phone": "+19783689012", "display_phone": "(978) 368-9012", "distance": 3084.6626780150655}, {"id": "dGHoyOtPpVXRuZ2_bINAQA", "alias": "sunshine-cafe-clinton-2", "name": "Sunshine Cafe", "image_url": "https://s3-media2.fl.yelpcdn.com/bphoto/HVozkZfVIYKqJuru8RJp-g/o.jpg", "is_closed": false, "url": "https://www.yelp.com/biz/sunshine-cafe-clinton-2?adjust_creative=asslzE1UV0XuKI953B1vtw&utm_campaign=yelp_api_v3&utm_medium=api_v3_business_search&utm_source=asslzE1UV0XuKI953B1vtw", "review_count": 27, "categories": [{"alias": "breakfast_brunch", "title": "Breakfast & Brunch"}, {"alias": "tradamerican", "title": "American (Traditional)"}, {"alias": "bakeries", "title": "Bakeries"}], "rating": 4.0, "coordinates": {"latitude": 42.4206156, "longitude": -71.6843925}, "transactions": ["pickup"], "price": "$", "location": {"address1": "310 High St", "address2": null, "address3": "", "city": "Clinton", "zip_code": "01510", "country": "US", "state": "MA", "display_address": ["310 High St", "Clinton, MA 01510"]}, "phone": "+19783681828", "display_phone": "(978) 368-1828", "distance": 2627.0633152820255}, {"id": "UE1QsF82-PoOK0XfLFQ-jw", "alias": "coffeelands-clinton", "name": "Coffeelands", "image_url": "https://s3-media4.fl.yelpcdn.com/bphoto/f4kYWP4ZuXTgnNIV8H62vg/o.jpg", "is_closed": false, "url": "https://www.yelp.com/biz/coffeelands-clinton?adjust_creative=asslzE1UV0XuKI953B1vtw&utm_campaign=yelp_api_v3&utm_medium=api_v3_business_search&utm_source=asslzE1UV0XuKI953B1vtw", "review_count": 44, "categories": [{"alias": "coffee", "title": "Coffee & Tea"}, {"alias": "breakfast_brunch", "title": "Breakfast & Brunch"}], "rating": 4.5, "coordinates": {"latitude": 42.416834, "longitude": -71.684993}, "transactions": [], "price": "$$", "location": {"address1": "50 High St", "address2": "", "address3": "", "city": "Clinton", "zip_code": "01510", "country": "US", "state": "MA", "display_address": ["50 High St", "Clinton, MA 01510"]}, "phone": "+19787334277", "display_phone": "(978) 733-4277", "distance": 3011.575315392321}, {"id": "MHaomA7z9GWjj8xYbqS5eQ", "alias": "meadowbrook-orchards-sterling", "name": "Meadowbrook Orchards", "image_url": "https://s3-media2.fl.yelpcdn.com/bphoto/xU9PXUqvplv5qXsWPSu0YQ/o.jpg", "is_closed": false, "url": "https://www.yelp.com/biz/meadowbrook-orchards-sterling?adjust_creative=asslzE1UV0XuKI953B1vtw&utm_campaign=yelp_api_v3&utm_medium=api_v3_business_search&utm_source=asslzE1UV0XuKI953B1vtw", "review_count": 103, "categories": [{"alias": "sandwiches", "title": "Sandwiches"}, {"alias": "breakfast_brunch", "title": "Breakfast & Brunch"}], "rating": 4.0, "coordinates": {"latitude": 42.4239403046721, "longitude": -71.7209667983594}, "transactions": [], "price": "$", "location": {"address1": "209 Chace Hill Rd", "address2": "", "address3": "", "city": "Sterling", "zip_code": "01564", "country": "US", "state": "MA", "display_address": ["209 Chace Hill Rd", "Sterling, MA 01564"]}, "phone": "+19783657617", "display_phone": "(978) 365-7617", "distance": 3693.0016577976767}, {"id": "RGe5kxCInNhbpgiFFagAXA", "alias": "lucky-house-clinton", "name": "Lucky House", "image_url": "https://s3-media1.fl.yelpcdn.com/bphoto/klaFm8vwUQWOSwOEhizZdg/o.jpg", "is_closed": false, "url": "https://www.yelp.com/biz/lucky-house-clinton?adjust_creative=asslzE1UV0XuKI953B1vtw&utm_campaign=yelp_api_v3&utm_medium=api_v3_business_search&utm_source=asslzE1UV0XuKI953B1vtw", "review_count": 22, "categories": [{"alias": "chinese", "title": "Chinese"}], "rating": 2.5, "coordinates": {"latitude": 42.418588, "longitude": -71.6842918}, "transactions": ["delivery", "pickup"], "price": "$$", "location": {"address1": "165 High St", "address2": "", "address3": "", "city": "Clinton", "zip_code": "01510", "country": "US", "state": "MA", "display_address": ["165 High St", "Clinton, MA 01510"]}, "phone": "+19783688882", "display_phone": "(978) 368-8882", "distance": 2817.170363446584}, {"id": "CcxR_V2MHebD3FEYu6OUSw", "alias": "brothers-pizza-clinton", "name": "Brothers Pizza", "image_url": "https://s3-media2.fl.yelpcdn.com/bphoto/xIWkq9-h9m6nG1EeDDTzAA/o.jpg", "is_closed": false, "url": "https://www.yelp.com/biz/brothers-pizza-clinton?adjust_creative=asslzE1UV0XuKI953B1vtw&utm_campaign=yelp_api_v3&utm_medium=api_v3_business_search&utm_source=asslzE1UV0XuKI953B1vtw", "review_count": 25, "categories": [{"alias": "pizza", "title": "Pizza"}], "rating": 3.5, "coordinates": {"latitude": 42.418583, "longitude": -71.684242}, "transactions": ["delivery"], "price": "$", "location": {"address1": "165 High St", "address2": null, "address3": null, "city": "Clinton", "zip_code": "01510", "country": "US", "state": "MA", "display_address": ["165 High St", "Clinton, MA 01510"]}, "phone": "+19783657700", "display_phone": "(978) 365-7700", "distance": 2817.815691236063}, {"id": "1c-Ew-6M0v6tLPgWszXeiw", "alias": "tc-landos-sub-and-pizzeria-clinton", "name": "TC Lando's Sub & Pizzeria", "image_url": "https://s3-media4.fl.yelpcdn.com/bphoto/VtABjt81aWmd8UPuYnURkQ/o.jpg", "is_closed": false, "url": "https://www.yelp.com/biz/tc-landos-sub-and-pizzeria-clinton?adjust_creative=asslzE1UV0XuKI953B1vtw&utm_campaign=yelp_api_v3&utm_medium=api_v3_business_search&utm_source=asslzE1UV0XuKI953B1vtw", "review_count": 59, "categories": [{"alias": "pizza", "title": "Pizza"}, {"alias": "sandwiches", "title": "Sandwiches"}], "rating": 3.0, "coordinates": {"latitude": 42.421571, "longitude": -71.692508}, "transactions": ["delivery"], "price": "$$", "location": {"address1": "104 Sterling St", "address2": "", "address3": "", "city": "Clinton", "zip_code": "01510", "country": "US", "state": "MA", "display_address": ["104 Sterling St", "Clinton, MA 01510"]}, "phone": "+19783657492", "display_phone": "(978) 365-7492", "distance": 2579.177199432301}, {"id": "-cpT3RUWmbjXm6r9XVM0Og", "alias": "dairy-queen-clinton", "name": "Dairy Queen", "image_url": "https://s3-media4.fl.yelpcdn.com/bphoto/D-ypuqRhGhvJh3E04LVoNQ/o.jpg", "is_closed": false, "url": "https://www.yelp.com/biz/dairy-queen-clinton?adjust_creative=asslzE1UV0XuKI953B1vtw&utm_campaign=yelp_api_v3&utm_medium=api_v3_business_search&utm_source=asslzE1UV0XuKI953B1vtw", "review_count": 3, "categories": [{"alias": "icecream", "title": "Ice Cream & Frozen Yogurt"}, {"alias": "hotdogs", "title": "Fast Food"}], "rating": 3.5, "coordinates": {"latitude": 42.430102, "longitude": -71.680913}, "transactions": [], "price": "$", "location": {"address1": "655 High St", "address2": "", "address3": "", "city": "Clinton", "zip_code": "01510", "country": "US", "state": "MA", "display_address": ["655 High St", "Clinton, MA 01510"]}, "phone": "+19783655750", "display_phone": "(978) 365-5750", "distance": 1567.9116403149303}, {"id": "egwkiOPy-JojbFdXL4Z-CA", "alias": "bolton-orchards-bolton", "name": "Bolton Orchards", "image_url": "https://s3-media4.fl.yelpcdn.com/bphoto/bVitnhAdBjcwNRZBgJU6Uw/o.jpg", "is_closed": false, "url": "https://www.yelp.com/biz/bolton-orchards-bolton?adjust_creative=asslzE1UV0XuKI953B1vtw&utm_campaign=yelp_api_v3&utm_medium=api_v3_business_search&utm_source=asslzE1UV0XuKI953B1vtw", "review_count": 52, "categories": [{"alias": "delis", "title": "Delis"}, {"alias": "bakeries", "title": "Bakeries"}, {"alias": "grocery", "title": "Grocery"}], "rating": 3.5, "coordinates": {"latitude": 42.4543058646799, "longitude": -71.6431814849075}, "transactions": [], "price": "$$", "location": {"address1": "125 Still River Rd", "address2": "", "address3": "", "city": "Bolton", "zip_code": "01740", "country": "US", "state": "MA", "display_address": ["125 Still River Rd", "Bolton, MA 01740"]}, "phone": "+19787792733", "display_phone": "(978) 779-2733", "distance": 3621.7884061866334}, {"id": "6Rb1cZiuhBPILcHxfbInig", "alias": "primo-pizza-clinton", "name": "Primo Pizza", "image_url": "https://s3-media3.fl.yelpcdn.com/bphoto/kj98GjsK_Khsx-nE2FtE4A/o.jpg", "is_closed": false, "url": "https://www.yelp.com/biz/primo-pizza-clinton?adjust_creative=asslzE1UV0XuKI953B1vtw&utm_campaign=yelp_api_v3&utm_medium=api_v3_business_search&utm_source=asslzE1UV0XuKI953B1vtw", "review_count": 16, "categories": [{"alias": "pizza", "title": "Pizza"}], "rating": 2.5, "coordinates": {"latitude": 42.434662, "longitude": -71.684218}, "transactions": ["delivery"], "price": "$", "location": {"address1": "1175 Main St", "address2": "Ste 18", "address3": "", "city": "Clinton", "zip_code": "01510", "country": "US", "state": "MA", "display_address": ["1175 Main St", "Ste 18", "Clinton, MA 01510"]}, "phone": "+19783655585", "display_phone": "(978) 365-5585", "distance": 1031.2880818437166}, {"id": "uvWmAD9vUTMTeInixmXjAg", "alias": "cafe-fresh-bagel-sterling", "name": "Cafe Fresh Bagel", "image_url": "https://s3-media2.fl.yelpcdn.com/bphoto/VQ9EcCkoi86bmSCuGbbA5w/o.jpg", "is_closed": false, "url": "https://www.yelp.com/biz/cafe-fresh-bagel-sterling?adjust_creative=asslzE1UV0XuKI953B1vtw&utm_campaign=yelp_api_v3&utm_medium=api_v3_business_search&utm_source=asslzE1UV0XuKI953B1vtw", "review_count": 52, "categories": [{"alias": "breakfast_brunch", "title": "Breakfast & Brunch"}, {"alias": "bagels", "title": "Bagels"}], "rating": 4.0, "coordinates": {"latitude": 42.4449632316828, "longitude": -71.7221798747778}, "transactions": [], "price": "$", "location": {"address1": "167 Clinton Rd", "address2": "", "address3": "", "city": "Sterling", "zip_code": "01564", "country": "US", "state": "MA", "display_address": ["167 Clinton Rd", "Sterling, MA 01564"]}, "phone": "", "display_phone": "", "distance": 2982.847964756054}, {"id": "mC8OlNPwNOStBS1q_lsd5w", "alias": "classic-pizza-restaurant-iii-bolton", "name": "Classic Pizza Restaurant III", "image_url": "https://s3-media3.fl.yelpcdn.com/bphoto/yGH313pdLyHwlrkpPPe9VA/o.jpg", "is_closed": false, "url": "https://www.yelp.com/biz/classic-pizza-restaurant-iii-bolton?adjust_creative=asslzE1UV0XuKI953B1vtw&utm_campaign=yelp_api_v3&utm_medium=api_v3_business_search&utm_source=asslzE1UV0XuKI953B1vtw", "review_count": 30, "categories": [{"alias": "pizza", "title": "Pizza"}], "rating": 3.0, "coordinates": {"latitude": 42.44892, "longitude": -71.63441}, "transactions": ["delivery"], "price": "$$", "location": {"address1": "1076 Main St", "address2": "", "address3": "", "city": "Bolton", "zip_code": "01740", "country": "US", "state": "MA", "display_address": ["1076 Main St", "Bolton, MA 01740"]}, "phone": "+19787790200", "display_phone": "(978) 779-0200", "distance": 4158.782164605286}, {"id": "wPpAR3cN45Bt7sxbaJf8ZQ", "alias": "mcdonalds-clinton-20", "name": "McDonald's", "image_url": "https://s3-media2.fl.yelpcdn.com/bphoto/X16zfqwOetDoDp403Z1uag/o.jpg", "is_closed": false, "url": "https://www.yelp.com/biz/mcdonalds-clinton-20?adjust_creative=asslzE1UV0XuKI953B1vtw&utm_campaign=yelp_api_v3&utm_medium=api_v3_business_search&utm_source=asslzE1UV0XuKI953B1vtw", "review_count": 17, "categories": [{"alias": "hotdogs", "title": "Fast Food"}, {"alias": "burgers", "title": "Burgers"}, {"alias": "coffee", "title": "Coffee & Tea"}], "rating": 1.5, "coordinates": {"latitude": 42.4324091207016, "longitude": -71.6871465649592}, "transactions": ["delivery"], "price": "$", "location": {"address1": "1040 Main St", "address2": "", "address3": "", "city": "Clinton", "zip_code": "01510", "country": "US", "state": "MA", "display_address": ["1040 Main St", "Clinton, MA 01510"]}, "phone": "+19783659894", "display_phone": "(978) 365-9894", "distance": 1291.5624041451597}, {"id": "lwN11ANz2k1ihdFbAm5-1Q", "alias": "johns-sandwich-shop-clinton", "name": "John's Sandwich Shop", "image_url": "", "is_closed": false, "url": "https://www.yelp.com/biz/johns-sandwich-shop-clinton?adjust_creative=asslzE1UV0XuKI953B1vtw&utm_campaign=yelp_api_v3&utm_medium=api_v3_business_search&utm_source=asslzE1UV0XuKI953B1vtw", "review_count": 3, "categories": [{"alias": "sandwiches", "title": "Sandwiches"}], "rating": 2.5, "coordinates": {"latitude": 42.42366, "longitude": -71.68716}, "transactions": ["delivery"], "price": "$", "location": {"address1": "727 Main St", "address2": "", "address3": "", "city": "Clinton", "zip_code": "01510", "country": "US", "state": "MA", "display_address": ["727 Main St", "Clinton, MA 01510"]}, "phone": "+19783680388", "display_phone": "(978) 368-0388", "distance": 2260.688050549314}, {"id": "HV3akc1IaHARvIcOy4AD2g", "alias": "subway-clinton-60", "name": "Subway", "image_url": "https://s3-media3.fl.yelpcdn.com/bphoto/n5GQOdbju3siwAgCNcxOdg/o.jpg", "is_closed": false, "url": "https://www.yelp.com/biz/subway-clinton-60?adjust_creative=asslzE1UV0XuKI953B1vtw&utm_campaign=yelp_api_v3&utm_medium=api_v3_business_search&utm_source=asslzE1UV0XuKI953B1vtw", "review_count": 4, "categories": [{"alias": "sandwiches", "title": "Sandwiches"}], "rating": 2.5, "coordinates": {"latitude": 42.409043, "longitude": -71.697736}, "transactions": [], "price": "$", "location": {"address1": "1175 Main St", "address2": "", "address3": "Woodruff Plaza", "city": "Clinton", "zip_code": "01510", "country": "US", "state": "MA", "display_address": ["1175 Main St", "Woodruff Plaza", "Clinton, MA 01510"]}, "phone": "+19787334343", "display_phone": "(978) 733-4343", "distance": 4015.920473011283}]