[{"id": "cdlN_aSJOn0EDVexGo0v5g", "alias": "comfort-kitchen-and-bar-huntington-2", "name": "Comfort Kitchen and Bar", "image_url": "https://s3-media2.fl.yelpcdn.com/bphoto/iKDnV5pwo5kA3mJBjTyPeQ/o.jpg", "is_closed": false, "url": "https://www.yelp.com/biz/comfort-kitchen-and-bar-huntington-2?adjust_creative=wVJJqwOt_3apsoGmwgRWnw&utm_campaign=yelp_api_v3&utm_medium=api_v3_business_search&utm_source=wVJJqwOt_3apsoGmwgRWnw", "review_count": 36, "categories": [{"alias": "bars", "title": "Bars"}, {"alias": "tradamerican", "title": "American (Traditional)"}], "rating": 4.5, "coordinates": {"latitude": 42.2348748399165, "longitude": -72.8799170197082}, "transactions": [], "price": "$$", "location": {"address1": "4 Main St", "address2": "", "address3": null, "city": "Huntington", "zip_code": "01050", "country": "US", "state": "MA", "display_address": ["4 Main St", "Huntington, MA 01050"]}, "phone": "+14132073011", "display_phone": "(413) 207-3011", "distance": 7440.317661043028}, {"id": "EjmoByvU0tm0QJaFe6EA6Q", "alias": "bread-basket-russell", "name": "Bread Basket", "image_url": "https://s3-media3.fl.yelpcdn.com/bphoto/ocWZQw9hDfydLXdpIv6d6Q/o.jpg", "is_closed": false, "url": "https://www.yelp.com/biz/bread-basket-russell?adjust_creative=wVJJqwOt_3apsoGmwgRWnw&utm_campaign=yelp_api_v3&utm_medium=api_v3_business_search&utm_source=wVJJqwOt_3apsoGmwgRWnw", "review_count": 11, "categories": [{"alias": "bakeries", "title": "Bakeries"}, {"alias": "sandwiches", "title": "Sandwiches"}, {"alias": "desserts", "title": "Desserts"}], "rating": 5.0, "coordinates": {"latitude": 42.16665, "longitude": -72.860528}, "transactions": [], "price": "$", "location": {"address1": "815 Blandford Rd", "address2": null, "address3": null, "city": "Russell", "zip_code": "01071", "country": "US", "state": "MA", "display_address": ["815 Blandford Rd", "Russell, MA 01071"]}, "phone": "+14138620044", "display_phone": "(413) 862-0044", "distance": 2728.93091185646}, {"id": "8w4W6zR1PESowk4u_aLYIg", "alias": "russell-inn-russell", "name": "Russell Inn", "image_url": "https://s3-media3.fl.yelpcdn.com/bphoto/KL8hMD_bTwenuL1D9cYS1w/o.jpg", "is_closed": false, "url": "https://www.yelp.com/biz/russell-inn-russell?adjust_creative=wVJJqwOt_3apsoGmwgRWnw&utm_campaign=yelp_api_v3&utm_medium=api_v3_business_search&utm_source=wVJJqwOt_3apsoGmwgRWnw", "review_count": 39, "categories": [{"alias": "hotels", "title": "Hotels"}, {"alias": "newamerican", "title": "American (New)"}, {"alias": "lounges", "title": "Lounges"}], "rating": 3.5, "coordinates": {"latitude": 42.163813860793, "longitude": -72.8284650158691}, "transactions": [], "price": "$$", "location": {"address1": "65 Westfield Rd", "address2": "", "address3": "", "city": "Russell", "zip_code": "01071", "country": "US", "state": "MA", "display_address": ["65 Westfield Rd", "Russell, MA 01071"]}, "phone": "+14138623608", "display_phone": "(413) 862-3608", "distance": 1641.0679855400672}, {"id": "PtDrRhB6DJDwua5LdVWKNQ", "alias": "emmas-everyday-gourmet-westfield", "name": "Emma's Everyday Gourmet", "image_url": "https://s3-media2.fl.yelpcdn.com/bphoto/K75RtAGP4uS4ASBVjzPCRQ/o.jpg", "is_closed": false, "url": "https://www.yelp.com/biz/emmas-everyday-gourmet-westfield?adjust_creative=wVJJqwOt_3apsoGmwgRWnw&utm_campaign=yelp_api_v3&utm_medium=api_v3_business_search&utm_source=wVJJqwOt_3apsoGmwgRWnw", "review_count": 83, "categories": [{"alias": "italian", "title": "Italian"}], "rating": 4.5, "coordinates": {"latitude": 42.12351, "longitude": -72.75134}, "transactions": ["delivery"], "price": "$$", "location": {"address1": "45 Washington St", "address2": "", "address3": "", "city": "Westfield", "zip_code": "01085", "country": "US", "state": "MA", "display_address": ["45 Washington St", "Westfield, MA 01085"]}, "phone": "+14136423221", "display_phone": "(413) 642-3221", "distance": 8981.65095317399}, {"id": "QVEN-pSCAMvJr9K-ikBYZQ", "alias": "westwood-restaurant-and-pub-westfield", "name": "Westwood Restaurant and Pub", "image_url": "https://s3-media4.fl.yelpcdn.com/bphoto/Fb7BFmRjkg-d9gTaa6jRKg/o.jpg", "is_closed": false, "url": "https://www.yelp.com/biz/westwood-restaurant-and-pub-westfield?adjust_creative=wVJJqwOt_3apsoGmwgRWnw&utm_campaign=yelp_api_v3&utm_medium=api_v3_business_search&utm_source=wVJJqwOt_3apsoGmwgRWnw", "review_count": 87, "categories": [{"alias": "newamerican", "title": "American (New)"}, {"alias": "pubs", "title": "Pubs"}], "rating": 4.0, "coordinates": {"latitude": 42.1316153, "longitude": -72.7440194}, "transactions": ["delivery"], "price": "$$", "location": {"address1": "94 N Elm St", "address2": "", "address3": "", "city": "Westfield", "zip_code": "01085", "country": "US", "state": "MA", "display_address": ["94 N Elm St", "Westfield, MA 01085"]}, "phone": "+14135646963", "display_phone": "(413) 564-6963", "distance": 8889.397293776934}, {"id": "ZiHnY5W-l_08UP9XuLkjQQ", "alias": "santiago-family-restaurant-westfield", "name": "Santiago Family Restaurant", "image_url": "https://s3-media2.fl.yelpcdn.com/bphoto/dQvWCSS7lXhGE8e2KwTsLQ/o.jpg", "is_closed": false, "url": "https://www.yelp.com/biz/santiago-family-restaurant-westfield?adjust_creative=wVJJqwOt_3apsoGmwgRWnw&utm_campaign=yelp_api_v3&utm_medium=api_v3_business_search&utm_source=wVJJqwOt_3apsoGmwgRWnw", "review_count": 130, "categories": [{"alias": "spanish", "title": "Spanish"}, {"alias": "latin", "title": "Latin American"}], "rating": 5.0, "coordinates": {"latitude": 42.1244010925293, "longitude": -72.7496871948242}, "transactions": ["delivery"], "price": "$$", "location": {"address1": "34 Franklin St", "address2": "", "address3": "", "city": "Westfield", "zip_code": "01085", "country": "US", "state": "MA", "display_address": ["34 Franklin St", "Westfield, MA 01085"]}, "phone": "+14135620210", "display_phone": "(413) 562-0210", "distance": 9013.012241578535}, {"id": "tKqf75fMPHTj85dyeSIZxQ", "alias": "blandford-country-store-and-cafe-blandford", "name": "Blandford Country Store & Cafe", "image_url": "", "is_closed": false, "url": "https://www.yelp.com/biz/blandford-country-store-and-cafe-blandford?adjust_creative=wVJJqwOt_3apsoGmwgRWnw&utm_campaign=yelp_api_v3&utm_medium=api_v3_business_search&utm_source=wVJJqwOt_3apsoGmwgRWnw", "review_count": 3, "categories": [{"alias": "restaurants", "title": "Restaurants"}], "rating": 4.5, "coordinates": {"latitude": 42.17962, "longitude": -72.92412}, "transactions": [], "location": {"address1": "98 Main St", "address2": "", "address3": "", "city": "Blandford", "zip_code": "01008", "country": "US", "state": "MA", "display_address": ["98 Main St", "Blandford, MA 01008"]}, "phone": "+14138482600", "display_phone": "(413) 848-2600", "distance": 7640.197791187904}, {"id": "AuMVaEI5r5iP4I5Vs_iM6g", "alias": "skyline-beer-company-westfield", "name": "Skyline Beer Company", "image_url": "https://s3-media1.fl.yelpcdn.com/bphoto/i1CTaxwUqFsqQw4XnhOs8w/o.jpg", "is_closed": false, "url": "https://www.yelp.com/biz/skyline-beer-company-westfield?adjust_creative=wVJJqwOt_3apsoGmwgRWnw&utm_campaign=yelp_api_v3&utm_medium=api_v3_business_search&utm_source=wVJJqwOt_3apsoGmwgRWnw", "review_count": 5, "categories": [{"alias": "beerbar", "title": "Beer Bar"}, {"alias": "breweries", "title": "Breweries"}, {"alias": "wraps", "title": "Wraps"}], "rating": 3.5, "coordinates": {"latitude": 42.10701483, "longitude": -72.764182}, "transactions": [], "location": {"address1": "98 Southwick Rd", "address2": "", "address3": null, "city": "Westfield", "zip_code": "01085", "country": "US", "state": "MA", "display_address": ["98 Southwick Rd", "Westfield, MA 01085"]}, "phone": "+14133783333", "display_phone": "(413) 378-3333", "distance": 9629.438200591769}, {"id": "Tsn4XujhdnJodhxQ6XPEZg", "alias": "alessios-pizza-westfield", "name": "Alessio's Pizza", "image_url": "https://s3-media3.fl.yelpcdn.com/bphoto/TIi_e7HhPv2GTkFuUfvZsQ/o.jpg", "is_closed": false, "url": "https://www.yelp.com/biz/alessios-pizza-westfield?adjust_creative=wVJJqwOt_3apsoGmwgRWnw&utm_campaign=yelp_api_v3&utm_medium=api_v3_business_search&utm_source=wVJJqwOt_3apsoGmwgRWnw", "review_count": 39, "categories": [{"alias": "pizza", "title": "Pizza"}, {"alias": "italian", "title": "Italian"}], "rating": 4.0, "coordinates": {"latitude": 42.14824, "longitude": -72.72926}, "transactions": ["delivery", "pickup"], "price": "$$", "location": {"address1": "280 Southampton Rd", "address2": "", "address3": "", "city": "Westfield", "zip_code": "01085", "country": "US", "state": "MA", "display_address": ["280 Southampton Rd", "Westfield, MA 01085"]}, "phone": "+14135624600", "display_phone": "(413) 562-4600", "distance": 9068.033978851128}, {"id": "KoovhR9aNO7ZNjIpAmR2Ag", "alias": "two-rivers-burrito-co-westfield", "name": "Two Rivers Burrito Co", "image_url": "https://s3-media3.fl.yelpcdn.com/bphoto/q_3xxv8ojNOUuaVOMJWYaA/o.jpg", "is_closed": false, "url": "https://www.yelp.com/biz/two-rivers-burrito-co-westfield?adjust_creative=wVJJqwOt_3apsoGmwgRWnw&utm_campaign=yelp_api_v3&utm_medium=api_v3_business_search&utm_source=wVJJqwOt_3apsoGmwgRWnw", "review_count": 161, "categories": [{"alias": "mexican", "title": "Mexican"}, {"alias": "newamerican", "title": "American (New)"}, {"alias": "tex-mex", "title": "Tex-Mex"}], "rating": 4.5, "coordinates": {"latitude": 42.1219372299061, "longitude": -72.7491059463501}, "transactions": ["delivery"], "price": "$", "location": {"address1": "36 Elm St", "address2": "", "address3": "", "city": "Westfield", "zip_code": "01085", "country": "US", "state": "MA", "display_address": ["36 Elm St", "Westfield, MA 01085"]}, "phone": "+14135795469", "display_phone": "(413) 579-5469", "distance": 9247.472201190676}, {"id": "E0JSl9ZF_hJgQ1c-Uw1CaA", "alias": "the-good-table-westfield-2", "name": "The Good Table", "image_url": "https://s3-media2.fl.yelpcdn.com/bphoto/1nVJ4_GHMQQ1QxpCfPEkhw/o.jpg", "is_closed": false, "url": "https://www.yelp.com/biz/the-good-table-westfield-2?adjust_creative=wVJJqwOt_3apsoGmwgRWnw&utm_campaign=yelp_api_v3&utm_medium=api_v3_business_search&utm_source=wVJJqwOt_3apsoGmwgRWnw", "review_count": 69, "categories": [{"alias": "breakfast_brunch", "title": "Breakfast & Brunch"}], "rating": 4.5, "coordinates": {"latitude": 42.121251, "longitude": -72.749693}, "transactions": ["delivery"], "price": "$", "location": {"address1": "12 School St", "address2": "", "address3": "", "city": "Westfield", "zip_code": "01085", "country": "US", "state": "MA", "display_address": ["12 School St", "Westfield, MA 01085"]}, "phone": "+14136425527", "display_phone": "(413) 642-5527", "distance": 9264.205065761531}, {"id": "625FRIW_XeYQDooSanOH4w", "alias": "montgomery-grille-montgomery", "name": "Montgomery Grille", "image_url": "https://s3-media2.fl.yelpcdn.com/bphoto/6BeBWORyJKlyOFhaCubisg/o.jpg", "is_closed": false, "url": "https://www.yelp.com/biz/montgomery-grille-montgomery?adjust_creative=wVJJqwOt_3apsoGmwgRWnw&utm_campaign=yelp_api_v3&utm_medium=api_v3_business_search&utm_source=wVJJqwOt_3apsoGmwgRWnw", "review_count": 6, "categories": [{"alias": "tradamerican", "title": "American (Traditional)"}, {"alias": "mexican", "title": "Mexican"}, {"alias": "breakfast_brunch", "title": "Breakfast & Brunch"}], "rating": 5.0, "coordinates": {"latitude": 42.206230173471, "longitude": -72.8008604049683}, "transactions": [], "location": {"address1": "46 Main Rd", "address2": "", "address3": "", "city": "Montgomery", "zip_code": "01085", "country": "US", "state": "MA", "display_address": ["46 Main Rd", "Montgomery, MA 01085"]}, "phone": "+14138623663", "display_phone": "(413) 862-3663", "distance": 3990.9626289024623}, {"id": "9liFsX4ASC-aulosutlblQ", "alias": "mi-ranchito-tex-mex-westfield", "name": "Mi Ranchito Tex Mex", "image_url": "https://s3-media3.fl.yelpcdn.com/bphoto/oA1NsN_d4acQuw1Yrh6VSw/o.jpg", "is_closed": false, "url": "https://www.yelp.com/biz/mi-ranchito-tex-mex-westfield?adjust_creative=wVJJqwOt_3apsoGmwgRWnw&utm_campaign=yelp_api_v3&utm_medium=api_v3_business_search&utm_source=wVJJqwOt_3apsoGmwgRWnw", "review_count": 20, "categories": [{"alias": "mexican", "title": "Mexican"}, {"alias": "tex-mex", "title": "Tex-Mex"}], "rating": 4.0, "coordinates": {"latitude": 42.12576, "longitude": -72.75269}, "transactions": ["delivery"], "price": "$", "location": {"address1": "69 Franklin St", "address2": "", "address3": "", "city": "Westfield", "zip_code": "01085", "country": "US", "state": "MA", "display_address": ["69 Franklin St", "Westfield, MA 01085"]}, "phone": "+14135681150", "display_phone": "(413) 568-1150", "distance": 8741.513115283538}, {"id": "xs-qCnj3jge-jZO_ynZEqA", "alias": "yummi-noodle-westfield", "name": "Yummi Noodle", "image_url": "https://s3-media3.fl.yelpcdn.com/bphoto/NBU1J1KEreZlmTtF1kRlvQ/o.jpg", "is_closed": false, "url": "https://www.yelp.com/biz/yummi-noodle-westfield?adjust_creative=wVJJqwOt_3apsoGmwgRWnw&utm_campaign=yelp_api_v3&utm_medium=api_v3_business_search&utm_source=wVJJqwOt_3apsoGmwgRWnw", "review_count": 20, "categories": [{"alias": "chinese", "title": "Chinese"}, {"alias": "soup", "title": "Soup"}, {"alias": "noodles", "title": "Noodles"}], "rating": 4.0, "coordinates": {"latitude": 42.123887, "longitude": -72.748365}, "transactions": ["delivery", "pickup"], "location": {"address1": "160 Elm St", "address2": null, "address3": "", "city": "Westfield", "zip_code": "01085", "country": "US", "state": "MA", "display_address": ["160 Elm St", "Westfield, MA 01085"]}, "phone": "+14135795935", "display_phone": "(413) 579-5935", "distance": 9147.231543684054}, {"id": "Hu57Hg5qRwIsmZyNPz8WDA", "alias": "alo-saigon-westfield", "name": "Alo Saigon", "image_url": "https://s3-media4.fl.yelpcdn.com/bphoto/87CBbfIp-NCajpjymxHoFA/o.jpg", "is_closed": false, "url": "https://www.yelp.com/biz/alo-saigon-westfield?adjust_creative=wVJJqwOt_3apsoGmwgRWnw&utm_campaign=yelp_api_v3&utm_medium=api_v3_business_search&utm_source=wVJJqwOt_3apsoGmwgRWnw", "review_count": 96, "categories": [{"alias": "vietnamese", "title": "Vietnamese"}, {"alias": "bubbletea", "title": "Bubble Tea"}, {"alias": "soup", "title": "Soup"}], "rating": 4.5, "coordinates": {"latitude": 42.123119354248, "longitude": -72.7487716674805}, "transactions": ["delivery"], "price": "$$", "location": {"address1": "116 Elm St", "address2": "", "address3": "", "city": "Westfield", "zip_code": "01085", "country": "US", "state": "MA", "display_address": ["116 Elm St", "Westfield, MA 01085"]}, "phone": "+14136426515", "display_phone": "(413) 642-6515", "distance": 9179.995410541156}, {"id": "GRyFsI7kzp6LCXF5-aXrkA", "alias": "tavern-restaurant-westfield-westfield", "name": "Tavern Restaurant Westfield", "image_url": "https://s3-media3.fl.yelpcdn.com/bphoto/HmokDBWdfHXvAKPNFlt3tg/o.jpg", "is_closed": false, "url": "https://www.yelp.com/biz/tavern-restaurant-westfield-westfield?adjust_creative=wVJJqwOt_3apsoGmwgRWnw&utm_campaign=yelp_api_v3&utm_medium=api_v3_business_search&utm_source=wVJJqwOt_3apsoGmwgRWnw", "review_count": 70, "categories": [{"alias": "tradamerican", "title": "American (Traditional)"}], "rating": 3.5, "coordinates": {"latitude": 42.1207075712155, "longitude": -72.7482569217682}, "transactions": ["delivery"], "price": "$$", "location": {"address1": "2 Broad St", "address2": "", "address3": "", "city": "Westfield", "zip_code": "01085", "country": "US", "state": "MA", "display_address": ["2 Broad St", "Westfield, MA 01085"]}, "phone": "+14135620335", "display_phone": "(413) 562-0335", "distance": 9391.893196912597}, {"id": "vF5dqRU3uWLeCgklux66aw", "alias": "pancake-sundaes-diner-and-bakery-westfield", "name": "Pancake Sundaes Diner & Bakery", "image_url": "https://s3-media2.fl.yelpcdn.com/bphoto/ksIciYrHNind0aZDpLu7Gw/o.jpg", "is_closed": false, "url": "https://www.yelp.com/biz/pancake-sundaes-diner-and-bakery-westfield?adjust_creative=wVJJqwOt_3apsoGmwgRWnw&utm_campaign=yelp_api_v3&utm_medium=api_v3_business_search&utm_source=wVJJqwOt_3apsoGmwgRWnw", "review_count": 47, "categories": [{"alias": "breakfast_brunch", "title": "Breakfast & Brunch"}, {"alias": "diners", "title": "Diners"}, {"alias": "bakeries", "title": "Bakeries"}], "rating": 4.0, "coordinates": {"latitude": 42.12615, "longitude": -72.74787}, "transactions": ["delivery"], "price": "$$", "location": {"address1": "266 Elm St", "address2": null, "address3": "", "city": "Westfield", "zip_code": "01085", "country": "US", "state": "MA", "display_address": ["266 Elm St", "Westfield, MA 01085"]}, "phone": "+14135726832", "display_phone": "(413) 572-6832", "distance": 9022.212285587311}, {"id": "2jPTv_JPiUoJy2sYrUw-4w", "alias": "hutghi-s-at-the-nook-westfield", "name": "Hutghi\u2019s at the Nook", "image_url": "https://s3-media4.fl.yelpcdn.com/bphoto/G74Vom8_J9q7dQ1vT5iFpw/o.jpg", "is_closed": false, "url": "https://www.yelp.com/biz/hutghi-s-at-the-nook-westfield?adjust_creative=wVJJqwOt_3apsoGmwgRWnw&utm_campaign=yelp_api_v3&utm_medium=api_v3_business_search&utm_source=wVJJqwOt_3apsoGmwgRWnw", "review_count": 7, "categories": [{"alias": "lounges", "title": "Lounges"}, {"alias": "tapasmallplates", "title": "Tapas/Small Plates"}, {"alias": "cocktailbars", "title": "Cocktail Bars"}], "rating": 4.5, "coordinates": {"latitude": 42.1242563457667, "longitude": -72.7484419359153}, "transactions": [], "location": {"address1": "8 Franklin St", "address2": "", "address3": null, "city": "Westfield", "zip_code": "01085", "country": "US", "state": "MA", "display_address": ["8 Franklin St", "Westfield, MA 01085"]}, "phone": "+14136263774", "display_phone": "(413) 626-3774", "distance": 9115.288089699075}, {"id": "zve1Aq9cbhXNcFZFH4Afmg", "alias": "pasquales-italian-family-restaurant-and-pizza-westfield", "name": "Pasquale's Italian Family Restaurant & Pizza", "image_url": "https://s3-media2.fl.yelpcdn.com/bphoto/E-8AWmL1rLjU_wz1q32cZg/o.jpg", "is_closed": false, "url": "https://www.yelp.com/biz/pasquales-italian-family-restaurant-and-pizza-westfield?adjust_creative=wVJJqwOt_3apsoGmwgRWnw&utm_campaign=yelp_api_v3&utm_medium=api_v3_business_search&utm_source=wVJJqwOt_3apsoGmwgRWnw", "review_count": 40, "categories": [{"alias": "pizza", "title": "Pizza"}, {"alias": "italian", "title": "Italian"}], "rating": 3.5, "coordinates": {"latitude": 42.1268186820568, "longitude": -72.7477997280986}, "transactions": [], "price": "$$", "location": {"address1": "288 Elm St", "address2": "", "address3": "", "city": "Westfield", "zip_code": "01085", "country": "US", "state": "MA", "display_address": ["288 Elm St", "Westfield, MA 01085"]}, "phone": "+14135625009", "display_phone": "(413) 562-5009", "distance": 8970.18263868839}, {"id": "GUft10qbwpxzThU3l_yQ5g", "alias": "the-hangar-pub-and-grill-westfield-westfield", "name": "The Hangar Pub and Grill - Westfield", "image_url": "https://s3-media2.fl.yelpcdn.com/bphoto/OqDAl40mPSOI45pYQGKRAA/o.jpg", "is_closed": false, "url": "https://www.yelp.com/biz/the-hangar-pub-and-grill-westfield-westfield?adjust_creative=wVJJqwOt_3apsoGmwgRWnw&utm_campaign=yelp_api_v3&utm_medium=api_v3_business_search&utm_source=wVJJqwOt_3apsoGmwgRWnw", "review_count": 92, "categories": [{"alias": "pubs", "title": "Pubs"}, {"alias": "sportsbars", "title": "Sports Bars"}, {"alias": "tradamerican", "title": "American (Traditional)"}], "rating": 3.5, "coordinates": {"latitude": 42.12166, "longitude": -72.75006}, "transactions": ["delivery", "pickup"], "price": "$$", "location": {"address1": "29 School St", "address2": "", "address3": "", "city": "Westfield", "zip_code": "01085", "country": "US", "state": "MA", "display_address": ["29 School St", "Westfield, MA 01085"]}, "phone": "+14135629464", "display_phone": "(413) 562-9464", "distance": 9205.753812096698}, {"id": "xI-cP_d_HDTf2PutrKFWTg", "alias": "yankee-village-restaurant-westfield", "name": "Yankee Village Restaurant", "image_url": "https://s3-media4.fl.yelpcdn.com/bphoto/2HbClrnsRqu_h46mb7TN_w/o.jpg", "is_closed": false, "url": "https://www.yelp.com/biz/yankee-village-restaurant-westfield?adjust_creative=wVJJqwOt_3apsoGmwgRWnw&utm_campaign=yelp_api_v3&utm_medium=api_v3_business_search&utm_source=wVJJqwOt_3apsoGmwgRWnw", "review_count": 11, "categories": [{"alias": "newamerican", "title": "American (New)"}], "rating": 3.5, "coordinates": {"latitude": 42.1085356, "longitude": -72.7648185}, "transactions": ["delivery"], "price": "$", "location": {"address1": "63 Southwick Rd", "address2": "", "address3": "", "city": "Westfield", "zip_code": "01085", "country": "US", "state": "MA", "display_address": ["63 Southwick Rd", "Westfield, MA 01085"]}, "phone": "+14135721224", "display_phone": "(413) 572-1224", "distance": 9486.261847503545}, {"id": "PEnqmmNhzHEMrLHBT-wauA", "alias": "soups-on-westfield", "name": "Soups On", "image_url": "https://s3-media1.fl.yelpcdn.com/bphoto/_iKA-Os77wbW_iRZJpfF1g/o.jpg", "is_closed": false, "url": "https://www.yelp.com/biz/soups-on-westfield?adjust_creative=wVJJqwOt_3apsoGmwgRWnw&utm_campaign=yelp_api_v3&utm_medium=api_v3_business_search&utm_source=wVJJqwOt_3apsoGmwgRWnw", "review_count": 58, "categories": [{"alias": "soup", "title": "Soup"}, {"alias": "cafes", "title": "Cafes"}, {"alias": "sandwiches", "title": "Sandwiches"}], "rating": 4.0, "coordinates": {"latitude": 42.12997, "longitude": -72.74391}, "transactions": ["delivery"], "price": "$", "location": {"address1": "16 Union Ave", "address2": "", "address3": "", "city": "Westfield", "zip_code": "01085", "country": "US", "state": "MA", "display_address": ["16 Union Ave", "Westfield, MA 01085"]}, "phone": "+14135620648", "display_phone": "(413) 562-0648", "distance": 8985.633533914797}, {"id": "nrLxUbJiQd6De_8yx7_jIQ", "alias": "crazy-arepas-springfield", "name": "Crazy Arepas", "image_url": "https://s3-media2.fl.yelpcdn.com/bphoto/xBRYNve2vxH1M1iG5Gm4lQ/o.jpg", "is_closed": false, "url": "https://www.yelp.com/biz/crazy-arepas-springfield?adjust_creative=wVJJqwOt_3apsoGmwgRWnw&utm_campaign=yelp_api_v3&utm_medium=api_v3_business_search&utm_source=wVJJqwOt_3apsoGmwgRWnw", "review_count": 3, "categories": [{"alias": "foodtrucks", "title": "Food Trucks"}, {"alias": "spanish", "title": "Spanish"}, {"alias": "tradamerican", "title": "American (Traditional)"}], "rating": 5.0, "coordinates": {"latitude": 42.1191, "longitude": -72.55044}, "transactions": [], "location": {"address1": null, "address2": null, "address3": null, "city": "Springfield", "zip_code": "01109", "country": "US", "state": "MA", "display_address": ["Springfield, MA 01109"]}, "phone": "+14138888083", "display_phone": "(413) 888-8083", "distance": 23981.6667320962}, {"id": "WA6tAaFTexpzcwiFPxjwtw", "alias": "feng-ye-westfield", "name": "Feng Ye", "image_url": "https://s3-media2.fl.yelpcdn.com/bphoto/w94V6fbisnRUzstKPNKc_A/o.jpg", "is_closed": false, "url": "https://www.yelp.com/biz/feng-ye-westfield?adjust_creative=wVJJqwOt_3apsoGmwgRWnw&utm_campaign=yelp_api_v3&utm_medium=api_v3_business_search&utm_source=wVJJqwOt_3apsoGmwgRWnw", "review_count": 9, "categories": [{"alias": "chinese", "title": "Chinese"}, {"alias": "japanese", "title": "Japanese"}], "rating": 4.0, "coordinates": {"latitude": 42.12494, "longitude": -72.74769}, "transactions": ["delivery", "pickup"], "location": {"address1": "205 Elm St", "address2": null, "address3": "", "city": "Westfield", "zip_code": "01085", "country": "US", "state": "MA", "display_address": ["205 Elm St", "Westfield, MA 01085"]}, "phone": "+14135795351", "display_phone": "(413) 579-5351", "distance": 9113.551126873377}, {"id": "sKOPB6eJ5ARyJB6KoTAy6A", "alias": "family-pizza-and-grinder-westfield", "name": "Family Pizza & Grinder", "image_url": "https://s3-media1.fl.yelpcdn.com/bphoto/W7zhISY_LjlHxo8f-pdddg/o.jpg", "is_closed": false, "url": "https://www.yelp.com/biz/family-pizza-and-grinder-westfield?adjust_creative=wVJJqwOt_3apsoGmwgRWnw&utm_campaign=yelp_api_v3&utm_medium=api_v3_business_search&utm_source=wVJJqwOt_3apsoGmwgRWnw", "review_count": 28, "categories": [{"alias": "sandwiches", "title": "Sandwiches"}, {"alias": "pizza", "title": "Pizza"}], "rating": 4.5, "coordinates": {"latitude": 42.1265477, "longitude": -72.7470919}, "transactions": [], "price": "$", "location": {"address1": "281 Elm St", "address2": "", "address3": "", "city": "Westfield", "zip_code": "01085", "country": "US", "state": "MA", "display_address": ["281 Elm St", "Westfield, MA 01085"]}, "phone": "+14135627434", "display_phone": "(413) 562-7434", "distance": 9038.190813832774}, {"id": "GPgKneOO10H82T-2r4Yxng", "alias": "new-corner-variety-store-westfield", "name": "New Corner Variety Store", "image_url": "https://s3-media2.fl.yelpcdn.com/bphoto/U-_wJRXlwBjwV9mGENzExA/o.jpg", "is_closed": false, "url": "https://www.yelp.com/biz/new-corner-variety-store-westfield?adjust_creative=wVJJqwOt_3apsoGmwgRWnw&utm_campaign=yelp_api_v3&utm_medium=api_v3_business_search&utm_source=wVJJqwOt_3apsoGmwgRWnw", "review_count": 3, "categories": [{"alias": "delis", "title": "Delis"}, {"alias": "meats", "title": "Meat Shops"}], "rating": 4.5, "coordinates": {"latitude": 42.13439, "longitude": -72.74617}, "transactions": [], "location": {"address1": "2 Crown St", "address2": "", "address3": "", "city": "Westfield", "zip_code": "01085", "country": "US", "state": "MA", "display_address": ["2 Crown St", "Westfield, MA 01085"]}, "phone": "+14135682294", "display_phone": "(413) 568-2294", "distance": 8563.724315505375}, {"id": "MTzTTIUF_uMQp2P0WaZgpg", "alias": "tung-shing-dragon-westfield", "name": "Tung Shing Dragon", "image_url": "https://s3-media4.fl.yelpcdn.com/bphoto/VFJA7H-_qkWlRcc5JcyCjA/o.jpg", "is_closed": false, "url": "https://www.yelp.com/biz/tung-shing-dragon-westfield?adjust_creative=wVJJqwOt_3apsoGmwgRWnw&utm_campaign=yelp_api_v3&utm_medium=api_v3_business_search&utm_source=wVJJqwOt_3apsoGmwgRWnw", "review_count": 20, "categories": [{"alias": "chinese", "title": "Chinese"}], "rating": 3.5, "coordinates": {"latitude": 42.125347, "longitude": -72.753719}, "transactions": ["delivery"], "price": "$$", "location": {"address1": "76 Franklin St", "address2": "", "address3": "", "city": "Westfield", "zip_code": "01085", "country": "US", "state": "MA", "display_address": ["76 Franklin St", "Westfield, MA 01085"]}, "phone": "+14135724522", "display_phone": "(413) 572-4522", "distance": 8710.739152168031}, {"id": "3_3dq9Xv89QSsbyL9W3f7Q", "alias": "whip-city-brew-westfield", "name": "Whip City Brew", "image_url": "https://s3-media1.fl.yelpcdn.com/bphoto/qjHot0PunT2EAW0oqK64TQ/o.jpg", "is_closed": false, "url": "https://www.yelp.com/biz/whip-city-brew-westfield?adjust_creative=wVJJqwOt_3apsoGmwgRWnw&utm_campaign=yelp_api_v3&utm_medium=api_v3_business_search&utm_source=wVJJqwOt_3apsoGmwgRWnw", "review_count": 21, "categories": [{"alias": "bars", "title": "Bars"}, {"alias": "tradamerican", "title": "American (Traditional)"}], "rating": 3.0, "coordinates": {"latitude": 42.1370964050293, "longitude": -72.7386932373047}, "transactions": [], "price": "$", "location": {"address1": "287 N Elm St", "address2": "", "address3": "", "city": "Westfield", "zip_code": "01085", "country": "US", "state": "MA", "display_address": ["287 N Elm St", "Westfield, MA 01085"]}, "phone": "+14135640149", "display_phone": "(413) 564-0149", "distance": 8925.310281529015}, {"id": "NekS6dj2Oaz0MSRDsaUt2Q", "alias": "janiks-pierogi-cafe-and-juice-bar-westfield", "name": "Janik's Pierogi Cafe & Juice Bar", "image_url": "https://s3-media3.fl.yelpcdn.com/bphoto/7GeDUCwrBFh3VBV8NcWK2g/o.jpg", "is_closed": false, "url": "https://www.yelp.com/biz/janiks-pierogi-cafe-and-juice-bar-westfield?adjust_creative=wVJJqwOt_3apsoGmwgRWnw&utm_campaign=yelp_api_v3&utm_medium=api_v3_business_search&utm_source=wVJJqwOt_3apsoGmwgRWnw", "review_count": 37, "categories": [{"alias": "juicebars", "title": "Juice Bars & Smoothies"}, {"alias": "polish", "title": "Polish"}, {"alias": "breakfast_brunch", "title": "Breakfast & Brunch"}], "rating": 4.5, "coordinates": {"latitude": 42.1209283, "longitude": -72.7473749}, "transactions": ["delivery"], "price": "$$", "location": {"address1": "38-40 Main St", "address2": "", "address3": "", "city": "Westfield", "zip_code": "01085", "country": "US", "state": "MA", "display_address": ["38-40 Main St", "Westfield, MA 01085"]}, "phone": "+14135795620", "display_phone": "(413) 579-5620", "distance": 9417.573931942525}, {"id": "4vwW9_fI6hktjy8KkhYr1Q", "alias": "boston-bay-pizza-westfield", "name": "Boston Bay Pizza", "image_url": "https://s3-media4.fl.yelpcdn.com/bphoto/nFUZ6UJP80RHJoGDl7BPyw/o.jpg", "is_closed": false, "url": "https://www.yelp.com/biz/boston-bay-pizza-westfield?adjust_creative=wVJJqwOt_3apsoGmwgRWnw&utm_campaign=yelp_api_v3&utm_medium=api_v3_business_search&utm_source=wVJJqwOt_3apsoGmwgRWnw", "review_count": 8, "categories": [{"alias": "pizza", "title": "Pizza"}], "rating": 4.0, "coordinates": {"latitude": 42.122183, "longitude": -72.748415}, "transactions": ["delivery"], "price": "$", "location": {"address1": "73 Elm St", "address2": null, "address3": null, "city": "Westfield", "zip_code": "01085", "country": "US", "state": "MA", "display_address": ["73 Elm St", "Westfield, MA 01085"]}, "phone": "+14135720099", "display_phone": "(413) 572-0099", "distance": 9270.91083432098}, {"id": "98NOrHpP8oM6MDcIbgM02g", "alias": "maple-leaf-bar-and-grill-westfield", "name": "Maple Leaf Bar & Grill", "image_url": "https://s3-media2.fl.yelpcdn.com/bphoto/xmBIe0wvLF2wBespwchHWw/o.jpg", "is_closed": false, "url": "https://www.yelp.com/biz/maple-leaf-bar-and-grill-westfield?adjust_creative=wVJJqwOt_3apsoGmwgRWnw&utm_campaign=yelp_api_v3&utm_medium=api_v3_business_search&utm_source=wVJJqwOt_3apsoGmwgRWnw", "review_count": 14, "categories": [{"alias": "bars", "title": "Bars"}, {"alias": "burgers", "title": "Burgers"}], "rating": 3.0, "coordinates": {"latitude": 42.1230392456055, "longitude": -72.7492218017578}, "transactions": [], "price": "$$", "location": {"address1": "11 Arnold St", "address2": "", "address3": "", "city": "Westfield", "zip_code": "01085", "country": "US", "state": "MA", "display_address": ["11 Arnold St", "Westfield, MA 01085"]}, "phone": "+14135625068", "display_phone": "(413) 562-5068", "distance": 9161.02967151774}, {"id": "1mCxwfmgVggWataJ7UtyuQ", "alias": "elm-pizza-westfield", "name": "Elm Pizza", "image_url": "https://s3-media3.fl.yelpcdn.com/bphoto/67wmtlGmlAVNPctejI1_3Q/o.jpg", "is_closed": false, "url": "https://www.yelp.com/biz/elm-pizza-westfield?adjust_creative=wVJJqwOt_3apsoGmwgRWnw&utm_campaign=yelp_api_v3&utm_medium=api_v3_business_search&utm_source=wVJJqwOt_3apsoGmwgRWnw", "review_count": 13, "categories": [{"alias": "pizza", "title": "Pizza"}, {"alias": "sandwiches", "title": "Sandwiches"}], "rating": 3.5, "coordinates": {"latitude": 42.13082, "longitude": -72.74529}, "transactions": ["delivery"], "price": "$$", "location": {"address1": "38 N Elm St", "address2": "", "address3": "", "city": "Westfield", "zip_code": "01085", "country": "US", "state": "MA", "display_address": ["38 N Elm St", "Westfield, MA 01085"]}, "phone": "+14135682020", "display_phone": "(413) 568-2020", "distance": 8860.470885369019}, {"id": "Q5GWdipUWMJomzgGx8SYoA", "alias": "leos-gallery-deli-westfield", "name": "Leo's Gallery Deli", "image_url": "https://s3-media4.fl.yelpcdn.com/bphoto/Sh1dpI6E6ZHqAgr9oLZOdw/o.jpg", "is_closed": false, "url": "https://www.yelp.com/biz/leos-gallery-deli-westfield?adjust_creative=wVJJqwOt_3apsoGmwgRWnw&utm_campaign=yelp_api_v3&utm_medium=api_v3_business_search&utm_source=wVJJqwOt_3apsoGmwgRWnw", "review_count": 8, "categories": [{"alias": "delis", "title": "Delis"}, {"alias": "tradamerican", "title": "American (Traditional)"}, {"alias": "sandwiches", "title": "Sandwiches"}], "rating": 3.5, "coordinates": {"latitude": 42.121242, "longitude": -72.7489103}, "transactions": ["delivery"], "price": "$", "location": {"address1": "3 Main St", "address2": "", "address3": "", "city": "Westfield", "zip_code": "01085", "country": "US", "state": "MA", "display_address": ["3 Main St", "Westfield, MA 01085"]}, "phone": "+14135682586", "display_phone": "(413) 568-2586", "distance": 9311.94259200212}, {"id": "KKtvGPtMcIizZwV-HTfewQ", "alias": "valley-pizza-westfield", "name": "Valley Pizza", "image_url": "https://s3-media3.fl.yelpcdn.com/bphoto/0crtrmBB8OcTkgt5HOjyhA/o.jpg", "is_closed": false, "url": "https://www.yelp.com/biz/valley-pizza-westfield?adjust_creative=wVJJqwOt_3apsoGmwgRWnw&utm_campaign=yelp_api_v3&utm_medium=api_v3_business_search&utm_source=wVJJqwOt_3apsoGmwgRWnw", "review_count": 14, "categories": [{"alias": "pizza", "title": "Pizza"}], "rating": 3.0, "coordinates": {"latitude": 42.12474, "longitude": -72.7491}, "transactions": ["delivery"], "location": {"address1": "31B Franklin St", "address2": null, "address3": null, "city": "Westfield", "zip_code": "01085", "country": "US", "state": "MA", "display_address": ["31B Franklin St", "Westfield, MA 01085"]}, "phone": "+14134850066", "display_phone": "(413) 485-0066", "distance": 9039.793604820392}, {"id": "7WcO9LZyhcQcQo_qWKrm2w", "alias": "china-star-westfield", "name": "China Star", "image_url": "https://s3-media1.fl.yelpcdn.com/bphoto/50_daF0KIVehPHv7KUYa-A/o.jpg", "is_closed": false, "url": "https://www.yelp.com/biz/china-star-westfield?adjust_creative=wVJJqwOt_3apsoGmwgRWnw&utm_campaign=yelp_api_v3&utm_medium=api_v3_business_search&utm_source=wVJJqwOt_3apsoGmwgRWnw", "review_count": 15, "categories": [{"alias": "chinese", "title": "Chinese"}, {"alias": "buffets", "title": "Buffets"}], "rating": 3.0, "coordinates": {"latitude": 42.1093406677246, "longitude": -72.7643814086914}, "transactions": ["delivery"], "price": "$", "location": {"address1": "36 Southwick Rd", "address2": "", "address3": "", "city": "Westfield", "zip_code": "01085", "country": "US", "state": "MA", "display_address": ["36 Southwick Rd", "Westfield, MA 01085"]}, "phone": "+14135689698", "display_phone": "(413) 568-9698", "distance": 9462.06452421329}, {"id": "wGMb0UHJg7OtJSZ0dD7qvg", "alias": "mcdonalds-blandford-4", "name": "McDonald's", "image_url": "https://s3-media4.fl.yelpcdn.com/bphoto/pjUOJQaJPKc12XOIG90l6g/o.jpg", "is_closed": false, "url": "https://www.yelp.com/biz/mcdonalds-blandford-4?adjust_creative=wVJJqwOt_3apsoGmwgRWnw&utm_campaign=yelp_api_v3&utm_medium=api_v3_business_search&utm_source=wVJJqwOt_3apsoGmwgRWnw", "review_count": 3, "categories": [{"alias": "coffee", "title": "Coffee & Tea"}, {"alias": "burgers", "title": "Burgers"}, {"alias": "hotdogs", "title": "Fast Food"}], "rating": 1.5, "coordinates": {"latitude": 42.1954836, "longitude": -72.9326521}, "transactions": [], "price": "$", "location": {"address1": "50 Massachusetts Tpke", "address2": null, "address3": null, "city": "Blandford", "zip_code": "01008", "country": "US", "state": "MA", "display_address": ["50 Massachusetts Tpke", "Blandford, MA 01008"]}, "phone": "+14138482284", "display_phone": "(413) 848-2284", "distance": 8550.91467914937}, {"id": "zCRfZ1u5nHIHwqzE2X5Pdg", "alias": "dominos-pizza-westfield-3", "name": "Domino's Pizza", "image_url": "https://s3-media3.fl.yelpcdn.com/bphoto/NRgiA9Ke_aj2zpv6zltJNg/o.jpg", "is_closed": false, "url": "https://www.yelp.com/biz/dominos-pizza-westfield-3?adjust_creative=wVJJqwOt_3apsoGmwgRWnw&utm_campaign=yelp_api_v3&utm_medium=api_v3_business_search&utm_source=wVJJqwOt_3apsoGmwgRWnw", "review_count": 5, "categories": [{"alias": "pizza", "title": "Pizza"}], "rating": 2.5, "coordinates": {"latitude": 42.1210152, "longitude": -72.7477829}, "transactions": [], "price": "$", "location": {"address1": "26 Main St", "address2": "", "address3": "", "city": "Westfield", "zip_code": "01085", "country": "US", "state": "MA", "display_address": ["26 Main St", "Westfield, MA 01085"]}, "phone": "+14135624411", "display_phone": "(413) 562-4411", "distance": 9388.663567244186}, {"id": "VwNxlo2shUPyewUj9oKw4A", "alias": "subway-westfield-23", "name": "Subway", "image_url": "https://s3-media1.fl.yelpcdn.com/bphoto/_SoRVl7urOE_0MQB2Sou9g/o.jpg", "is_closed": false, "url": "https://www.yelp.com/biz/subway-westfield-23?adjust_creative=wVJJqwOt_3apsoGmwgRWnw&utm_campaign=yelp_api_v3&utm_medium=api_v3_business_search&utm_source=wVJJqwOt_3apsoGmwgRWnw", "review_count": 2, "categories": [{"alias": "sandwiches", "title": "Sandwiches"}], "rating": 3.0, "coordinates": {"latitude": 42.1401703394751, "longitude": -72.7334066}, "transactions": [], "price": "$", "location": {"address1": "439 N Elm St", "address2": "", "address3": "", "city": "Westfield", "zip_code": "01085", "country": "US", "state": "MA", "display_address": ["439 N Elm St", "Westfield, MA 01085"]}, "phone": "+14135628438", "display_phone": "(413) 562-8438", "distance": 9132.127002674199}, {"id": "R2JCabKs7-Fvhw184b_LPA", "alias": "wings-over-westfield-westfield", "name": "Wings Over Westfield", "image_url": "https://s3-media2.fl.yelpcdn.com/bphoto/DwMIsLSFSipaJ__B9cUhsw/o.jpg", "is_closed": false, "url": "https://www.yelp.com/biz/wings-over-westfield-westfield?adjust_creative=wVJJqwOt_3apsoGmwgRWnw&utm_campaign=yelp_api_v3&utm_medium=api_v3_business_search&utm_source=wVJJqwOt_3apsoGmwgRWnw", "review_count": 2, "categories": [{"alias": "chicken_wings", "title": "Chicken Wings"}, {"alias": "hotdogs", "title": "Fast Food"}, {"alias": "sandwiches", "title": "Sandwiches"}], "rating": 1.5, "coordinates": {"latitude": 42.121638, "longitude": -72.750222}, "transactions": [], "location": {"address1": "29 School St", "address2": null, "address3": null, "city": "Westfield", "zip_code": "01085", "country": "US", "state": "MA", "display_address": ["29 School St", "Westfield, MA 01085"]}, "phone": "+14135629464", "display_phone": "(413) 562-9464", "distance": 9205.753812096698}, {"id": "RZhvmr8VR7OK4rcm4FTJFQ", "alias": "pizza-towne-westfield", "name": "Pizza Towne", "image_url": "https://s3-media2.fl.yelpcdn.com/bphoto/86GPZTO97Ga7gAy8zoGtZg/o.jpg", "is_closed": false, "url": "https://www.yelp.com/biz/pizza-towne-westfield?adjust_creative=wVJJqwOt_3apsoGmwgRWnw&utm_campaign=yelp_api_v3&utm_medium=api_v3_business_search&utm_source=wVJJqwOt_3apsoGmwgRWnw", "review_count": 13, "categories": [{"alias": "pizza", "title": "Pizza"}, {"alias": "salad", "title": "Salad"}, {"alias": "soup", "title": "Soup"}], "rating": 3.5, "coordinates": {"latitude": 42.1202062, "longitude": -72.7442932}, "transactions": ["delivery", "pickup"], "price": "$$", "location": {"address1": "80 Main St", "address2": "", "address3": "", "city": "Westfield", "zip_code": "01085", "country": "US", "state": "MA", "display_address": ["80 Main St", "Westfield, MA 01085"]}, "phone": "+14135683940", "display_phone": "(413) 568-3940", "distance": 9649.879791239313}, {"id": "kL-FqrnTERfQUpzlsKIrgw", "alias": "bella-roma-pizza-westfield-2", "name": "Bella Roma Pizza", "image_url": "https://s3-media3.fl.yelpcdn.com/bphoto/ZvcRpI_uNTQv0hJNEzityg/o.jpg", "is_closed": false, "url": "https://www.yelp.com/biz/bella-roma-pizza-westfield-2?adjust_creative=wVJJqwOt_3apsoGmwgRWnw&utm_campaign=yelp_api_v3&utm_medium=api_v3_business_search&utm_source=wVJJqwOt_3apsoGmwgRWnw", "review_count": 32, "categories": [{"alias": "newamerican", "title": "American (New)"}, {"alias": "pizza", "title": "Pizza"}], "rating": 3.0, "coordinates": {"latitude": 42.1088089, "longitude": -72.7648151}, "transactions": ["delivery", "pickup"], "price": "$", "location": {"address1": "57 Southwick Rd", "address2": null, "address3": "", "city": "Westfield", "zip_code": "01085", "country": "US", "state": "MA", "display_address": ["57 Southwick Rd", "Westfield, MA 01085"]}, "phone": "+14136425656", "display_phone": "(413) 642-5656", "distance": 9466.107707502686}, {"id": "U7r7Jppujp-R9E5M_ufUWw", "alias": "friendlys-westfield", "name": "Friendly's", "image_url": "https://s3-media4.fl.yelpcdn.com/bphoto/3XO3gGLXpYj0qXXqMmtdqQ/o.jpg", "is_closed": false, "url": "https://www.yelp.com/biz/friendlys-westfield?adjust_creative=wVJJqwOt_3apsoGmwgRWnw&utm_campaign=yelp_api_v3&utm_medium=api_v3_business_search&utm_source=wVJJqwOt_3apsoGmwgRWnw", "review_count": 33, "categories": [{"alias": "icecream", "title": "Ice Cream & Frozen Yogurt"}, {"alias": "burgers", "title": "Burgers"}, {"alias": "tradamerican", "title": "American (Traditional)"}], "rating": 2.0, "coordinates": {"latitude": 42.14184, "longitude": -72.7323399}, "transactions": ["delivery"], "price": "$", "location": {"address1": "21 Southampton Rd", "address2": null, "address3": null, "city": "Westfield", "zip_code": "01085", "country": "US", "state": "MA", "display_address": ["21 Southampton Rd", "Westfield, MA 01085"]}, "phone": "+14135620625", "display_phone": "(413) 562-0625", "distance": 9103.408214992905}, {"id": "ON0INzwLTAeckQNNGr6WQg", "alias": "real-china-westfield", "name": "Real China", "image_url": "", "is_closed": false, "url": "https://www.yelp.com/biz/real-china-westfield?adjust_creative=wVJJqwOt_3apsoGmwgRWnw&utm_campaign=yelp_api_v3&utm_medium=api_v3_business_search&utm_source=wVJJqwOt_3apsoGmwgRWnw", "review_count": 3, "categories": [{"alias": "chinese", "title": "Chinese"}], "rating": 1.5, "coordinates": {"latitude": 42.123119354248, "longitude": -72.7487716674805}, "transactions": [], "location": {"address1": "116 Elm St", "address2": "", "address3": "", "city": "Westfield", "zip_code": "01085", "country": "US", "state": "MA", "display_address": ["116 Elm St", "Westfield, MA 01085"]}, "phone": "+14135689991", "display_phone": "(413) 568-9991", "distance": 9179.995410541156}, {"id": "WDxcXM1Q15ARre45VzrcJA", "alias": "taco-bell-westfield-2", "name": "Taco Bell", "image_url": "https://s3-media3.fl.yelpcdn.com/bphoto/gmCu_RCVKVqzEuxyovDM_g/o.jpg", "is_closed": false, "url": "https://www.yelp.com/biz/taco-bell-westfield-2?adjust_creative=wVJJqwOt_3apsoGmwgRWnw&utm_campaign=yelp_api_v3&utm_medium=api_v3_business_search&utm_source=wVJJqwOt_3apsoGmwgRWnw", "review_count": 7, "categories": [{"alias": "hotdogs", "title": "Fast Food"}, {"alias": "tacos", "title": "Tacos"}], "rating": 2.5, "coordinates": {"latitude": 42.114715, "longitude": -72.730921}, "transactions": ["delivery"], "price": "$", "location": {"address1": "231 E. Main St.", "address2": null, "address3": null, "city": "Westfield", "zip_code": "01085", "country": "US", "state": "MA", "display_address": ["231 E. Main St.", "Westfield, MA 01085"]}, "phone": "+14135680153", "display_phone": "(413) 568-0153", "distance": 10902.122067808043}, {"id": "8jBw_nCso9mbHzPRBtleOQ", "alias": "subway-westfield-24", "name": "Subway", "image_url": "https://s3-media2.fl.yelpcdn.com/bphoto/JfqHmox_64puDeJUi97Txg/o.jpg", "is_closed": false, "url": "https://www.yelp.com/biz/subway-westfield-24?adjust_creative=wVJJqwOt_3apsoGmwgRWnw&utm_campaign=yelp_api_v3&utm_medium=api_v3_business_search&utm_source=wVJJqwOt_3apsoGmwgRWnw", "review_count": 3, "categories": [{"alias": "sandwiches", "title": "Sandwiches"}], "rating": 2.5, "coordinates": {"latitude": 42.121195, "longitude": -72.74789}, "transactions": ["delivery", "pickup"], "price": "$", "location": {"address1": "24 Main St", "address2": "", "address3": "", "city": "Westfield", "zip_code": "01085", "country": "US", "state": "MA", "display_address": ["24 Main St", "Westfield, MA 01085"]}, "phone": "+14135686130", "display_phone": "(413) 568-6130", "distance": 9379.650478631525}, {"id": "Q7uRpKfGZKHeAwqKfrAEWQ", "alias": "burger-king-westfield-3", "name": "Burger King", "image_url": "https://s3-media3.fl.yelpcdn.com/bphoto/QATQHHXtiQVJFVCoA6oSYQ/o.jpg", "is_closed": false, "url": "https://www.yelp.com/biz/burger-king-westfield-3?adjust_creative=wVJJqwOt_3apsoGmwgRWnw&utm_campaign=yelp_api_v3&utm_medium=api_v3_business_search&utm_source=wVJJqwOt_3apsoGmwgRWnw", "review_count": 7, "categories": [{"alias": "hotdogs", "title": "Fast Food"}, {"alias": "burgers", "title": "Burgers"}], "rating": 1.5, "coordinates": {"latitude": 42.120805, "longitude": -72.74555}, "transactions": [], "price": "$", "location": {"address1": "72 Main Street", "address2": "", "address3": "", "city": "Westfield", "zip_code": "01085", "country": "US", "state": "MA", "display_address": ["72 Main Street", "Westfield, MA 01085"]}, "phone": "", "display_phone": "", "distance": 9548.812027236434}, {"id": "_xZJINoydCk_h6waCMP2iQ", "alias": "wendys-westfield-5", "name": "Wendy's", "image_url": "https://s3-media3.fl.yelpcdn.com/bphoto/RsDvUqOOYIFYF4c9QS5dMA/o.jpg", "is_closed": false, "url": "https://www.yelp.com/biz/wendys-westfield-5?adjust_creative=wVJJqwOt_3apsoGmwgRWnw&utm_campaign=yelp_api_v3&utm_medium=api_v3_business_search&utm_source=wVJJqwOt_3apsoGmwgRWnw", "review_count": 4, "categories": [{"alias": "burgers", "title": "Burgers"}, {"alias": "hotdogs", "title": "Fast Food"}], "rating": 2.0, "coordinates": {"latitude": 42.14155, "longitude": -72.734026}, "transactions": [], "price": "$", "location": {"address1": "2-6 South Hampton Road", "address2": "", "address3": "", "city": "Westfield", "zip_code": "01085", "country": "US", "state": "MA", "display_address": ["2-6 South Hampton Road", "Westfield, MA 01085"]}, "phone": "+14135624953", "display_phone": "(413) 562-4953", "distance": 9016.139561942486}, {"id": "R-MH3-C5PPjimeODmZZlgg", "alias": "wendys-westfield-4", "name": "Wendy's", "image_url": "https://s3-media1.fl.yelpcdn.com/bphoto/zf9K2FlcMn2ml-EmwHWY6w/o.jpg", "is_closed": false, "url": "https://www.yelp.com/biz/wendys-westfield-4?adjust_creative=wVJJqwOt_3apsoGmwgRWnw&utm_campaign=yelp_api_v3&utm_medium=api_v3_business_search&utm_source=wVJJqwOt_3apsoGmwgRWnw", "review_count": 8, "categories": [{"alias": "burgers", "title": "Burgers"}, {"alias": "hotdogs", "title": "Fast Food"}], "rating": 1.5, "coordinates": {"latitude": 42.14164, "longitude": -72.73406}, "transactions": [], "price": "$", "location": {"address1": "6 Southampton Rd", "address2": "", "address3": "", "city": "Westfield", "zip_code": "01085", "country": "US", "state": "MA", "display_address": ["6 Southampton Rd", "Westfield, MA 01085"]}, "phone": "+14135624903", "display_phone": "(413) 562-4903", "distance": 9013.241462325197}, {"id": "JqmMQsuIH913f-CzdxEA0g", "alias": "wendys-westfield", "name": "Wendy's", "image_url": "https://s3-media1.fl.yelpcdn.com/bphoto/uuKab8GqENEmm4ldPRVKwg/o.jpg", "is_closed": false, "url": "https://www.yelp.com/biz/wendys-westfield?adjust_creative=wVJJqwOt_3apsoGmwgRWnw&utm_campaign=yelp_api_v3&utm_medium=api_v3_business_search&utm_source=wVJJqwOt_3apsoGmwgRWnw", "review_count": 5, "categories": [{"alias": "burgers", "title": "Burgers"}, {"alias": "hotdogs", "title": "Fast Food"}], "rating": 1.5, "coordinates": {"latitude": 42.141613, "longitude": -72.734779}, "transactions": ["delivery"], "price": "$", "location": {"address1": "2 Southampton Rd", "address2": "", "address3": "", "city": "Westfield", "zip_code": "01085", "country": "US", "state": "MA", "display_address": ["2 Southampton Rd", "Westfield, MA 01085"]}, "phone": "+14135620860", "display_phone": "(413) 562-0860", "distance": 8957.72237401933}, {"id": "DlPnnZEEgJGPpeOJ4ykORw", "alias": "mcdonalds-westfield-9", "name": "McDonald's", "image_url": "https://s3-media3.fl.yelpcdn.com/bphoto/YIP3yQvUG_APFCzW8UJDgQ/o.jpg", "is_closed": false, "url": "https://www.yelp.com/biz/mcdonalds-westfield-9?adjust_creative=wVJJqwOt_3apsoGmwgRWnw&utm_campaign=yelp_api_v3&utm_medium=api_v3_business_search&utm_source=wVJJqwOt_3apsoGmwgRWnw", "review_count": 5, "categories": [{"alias": "coffee", "title": "Coffee & Tea"}, {"alias": "burgers", "title": "Burgers"}, {"alias": "hotdogs", "title": "Fast Food"}], "rating": 2.0, "coordinates": {"latitude": 42.13425, "longitude": -72.74169}, "transactions": ["delivery"], "price": "$", "location": {"address1": "182 N Elm St", "address2": null, "address3": null, "city": "Westfield", "zip_code": "01085", "country": "US", "state": "MA", "display_address": ["182 N Elm St", "Westfield, MA 01085"]}, "phone": "+14135683595", "display_phone": "(413) 568-3595", "distance": 8888.477352555155}, {"id": "qqA8YX58xnmEXLyanHfdUg", "alias": "stufd-food-truck-brooklyn", "name": "Stuf'd Food Truck", "image_url": "https://s3-media2.fl.yelpcdn.com/bphoto/_Wn0i-tLIOFinw8BPAqxPA/o.jpg", "is_closed": false, "url": "https://www.yelp.com/biz/stufd-food-truck-brooklyn?adjust_creative=wVJJqwOt_3apsoGmwgRWnw&utm_campaign=yelp_api_v3&utm_medium=api_v3_business_search&utm_source=wVJJqwOt_3apsoGmwgRWnw", "review_count": 4, "categories": [{"alias": "sandwiches", "title": "Sandwiches"}, {"alias": "foodtrucks", "title": "Food Trucks"}], "rating": 4.0, "coordinates": {"latitude": 40.7124539, "longitude": -73.9287374}, "transactions": [], "location": {"address1": "178 Varick Ave", "address2": "", "address3": null, "city": "Brooklyn", "zip_code": "11237", "country": "US", "state": "NY", "display_address": ["178 Varick Ave", "Brooklyn, NY 11237"]}, "phone": "+18457091808", "display_phone": "(845) 709-1808", "distance": 186906.31349224027}]