[{"id": "sgXbW9b7crlHrFkyTMyBXA", "alias": "fernandez-family-restaurant-holyoke", "name": "Fernandez Family Restaurant", "image_url": "https://s3-media3.fl.yelpcdn.com/bphoto/1GUqKjAEXmgqqerrsQ95TA/o.jpg", "is_closed": false, "url": "https://www.yelp.com/biz/fernandez-family-restaurant-holyoke?adjust_creative=HdhkN5EEH6lAqE3kwhsHEQ&utm_campaign=yelp_api_v3&utm_medium=api_v3_business_search&utm_source=HdhkN5EEH6lAqE3kwhsHEQ", "review_count": 32, "categories": [{"alias": "spanish", "title": "Spanish"}, {"alias": "puertorican", "title": "Puerto Rican"}], "rating": 4.5, "coordinates": {"latitude": 42.2081898, "longitude": -72.6067373}, "transactions": [], "price": "$", "location": {"address1": "161 High St", "address2": "", "address3": "", "city": "Holyoke", "zip_code": "01040", "country": "US", "state": "MA", "display_address": ["161 High St", "Holyoke, MA 01040"]}, "phone": "+14135321139", "display_phone": "(413) 532-1139", "distance": 240.70487650700258}, {"id": "P5YvMzMj-8qXg6yyVRad1A", "alias": "the-bistro-at-gateway-city-arts-holyoke-5", "name": "The Bistro At Gateway City Arts", "image_url": "https://s3-media3.fl.yelpcdn.com/bphoto/OPbfKVIdx_DCMJ3WXcop1w/o.jpg", "is_closed": false, "url": "https://www.yelp.com/biz/the-bistro-at-gateway-city-arts-holyoke-5?adjust_creative=HdhkN5EEH6lAqE3kwhsHEQ&utm_campaign=yelp_api_v3&utm_medium=api_v3_business_search&utm_source=HdhkN5EEH6lAqE3kwhsHEQ", "review_count": 31, "categories": [{"alias": "bars", "title": "Bars"}, {"alias": "newamerican", "title": "American (New)"}, {"alias": "breakfast_brunch", "title": "Breakfast & Brunch"}], "rating": 4.5, "coordinates": {"latitude": 42.20409, "longitude": -72.60377}, "transactions": ["delivery"], "price": "$$", "location": {"address1": "92 Race St", "address2": "", "address3": "Gateway City Arts", "city": "Holyoke", "zip_code": "01040", "country": "US", "state": "MA", "display_address": ["92 Race St", "Gateway City Arts", "Holyoke, MA 01040"]}, "phone": "+14136500786", "display_phone": "(413) 650-0786", "distance": 673.252426129986}, {"id": "35oOug6kJJvhWDOGGpbiPQ", "alias": "judd-s-bar-and-restaurant-holyoke", "name": "Judd\u2019s Bar & Restaurant", "image_url": "https://s3-media3.fl.yelpcdn.com/bphoto/6k-tLFpuayJPDNx7xsnPsA/o.jpg", "is_closed": false, "url": "https://www.yelp.com/biz/judd-s-bar-and-restaurant-holyoke?adjust_creative=HdhkN5EEH6lAqE3kwhsHEQ&utm_campaign=yelp_api_v3&utm_medium=api_v3_business_search&utm_source=HdhkN5EEH6lAqE3kwhsHEQ", "review_count": 1, "categories": [{"alias": "cocktailbars", "title": "Cocktail Bars"}, {"alias": "czech", "title": "Czech"}, {"alias": "tradamerican", "title": "American (Traditional)"}], "rating": 5.0, "coordinates": {"latitude": 42.20409, "longitude": -72.60377}, "transactions": [], "location": {"address1": "92 Race St", "address2": null, "address3": "", "city": "Holyoke", "zip_code": "01040", "country": "US", "state": "MA", "display_address": ["92 Race St", "Holyoke, MA 01040"]}, "phone": "+14136500786", "display_phone": "(413) 650-0786", "distance": 673.252426129986}, {"id": "f74CcLLNZXeENtgrURXdrg", "alias": "el-rincon-boricua-restaurant-holyoke", "name": "El Rincon Boricua Restaurant", "image_url": "https://s3-media4.fl.yelpcdn.com/bphoto/mRMWber8ja2jjC4vF_Pcbw/o.jpg", "is_closed": false, "url": "https://www.yelp.com/biz/el-rincon-boricua-restaurant-holyoke?adjust_creative=HdhkN5EEH6lAqE3kwhsHEQ&utm_campaign=yelp_api_v3&utm_medium=api_v3_business_search&utm_source=HdhkN5EEH6lAqE3kwhsHEQ", "review_count": 28, "categories": [{"alias": "puertorican", "title": "Puerto Rican"}, {"alias": "spanish", "title": "Spanish"}], "rating": 4.0, "coordinates": {"latitude": 42.2106638033867, "longitude": -72.6081275939941}, "transactions": ["delivery"], "price": "$$", "location": {"address1": "216 Lyman St", "address2": "", "address3": "", "city": "Holyoke", "zip_code": "01040", "country": "US", "state": "MA", "display_address": ["216 Lyman St", "Holyoke, MA 01040"]}, "phone": "+14135341011", "display_phone": "(413) 534-1011", "distance": 304.7370566172634}, {"id": "YPztktLDmMZR3I0B5zKaGQ", "alias": "pizza-d-action-holyoke-2", "name": "Pizza D'Action", "image_url": "https://s3-media3.fl.yelpcdn.com/bphoto/VzNTQX3r5NDbJgqEmG3lyA/o.jpg", "is_closed": false, "url": "https://www.yelp.com/biz/pizza-d-action-holyoke-2?adjust_creative=HdhkN5EEH6lAqE3kwhsHEQ&utm_campaign=yelp_api_v3&utm_medium=api_v3_business_search&utm_source=HdhkN5EEH6lAqE3kwhsHEQ", "review_count": 67, "categories": [{"alias": "pizza", "title": "Pizza"}, {"alias": "vegan", "title": "Vegan"}, {"alias": "gluten_free", "title": "Gluten-Free"}], "rating": 4.0, "coordinates": {"latitude": 42.2112553, "longitude": -72.6092554}, "transactions": ["delivery", "pickup"], "price": "$", "location": {"address1": "232 Lyman St", "address2": "", "address3": "", "city": "Holyoke", "zip_code": "01040", "country": "US", "state": "MA", "display_address": ["232 Lyman St", "Holyoke, MA 01040"]}, "phone": "+14135325860", "display_phone": "(413) 532-5860", "distance": 333.17779685164567}, {"id": "E-GBzX-_puSiAIQBHf5XTA", "alias": "holyoke-hummus-company-holyoke", "name": "Holyoke Hummus Company", "image_url": "https://s3-media2.fl.yelpcdn.com/bphoto/K-RvwwHMrU-8EFC9r_j1bw/o.jpg", "is_closed": false, "url": "https://www.yelp.com/biz/holyoke-hummus-company-holyoke?adjust_creative=HdhkN5EEH6lAqE3kwhsHEQ&utm_campaign=yelp_api_v3&utm_medium=api_v3_business_search&utm_source=HdhkN5EEH6lAqE3kwhsHEQ", "review_count": 65, "categories": [{"alias": "mideastern", "title": "Middle Eastern"}, {"alias": "foodtrucks", "title": "Food Trucks"}, {"alias": "breakfast_brunch", "title": "Breakfast & Brunch"}], "rating": 4.5, "coordinates": {"latitude": 42.206426, "longitude": -72.6086119}, "transactions": ["delivery", "pickup"], "price": "$", "location": {"address1": "285 High St", "address2": null, "address3": "", "city": "Holyoke", "zip_code": "01040", "country": "US", "state": "MA", "display_address": ["285 High St", "Holyoke, MA 01040"]}, "phone": "+14132251755", "display_phone": "(413) 225-1755", "distance": 213.05539132581518}, {"id": "Avu1eyQA2cvPSR9_8t7eTA", "alias": "mykonos-gr-chicopee", "name": "Mykonos GR", "image_url": "https://s3-media1.fl.yelpcdn.com/bphoto/mzgJdTNOlK8lehT74nVRuQ/o.jpg", "is_closed": false, "url": "https://www.yelp.com/biz/mykonos-gr-chicopee?adjust_creative=HdhkN5EEH6lAqE3kwhsHEQ&utm_campaign=yelp_api_v3&utm_medium=api_v3_business_search&utm_source=HdhkN5EEH6lAqE3kwhsHEQ", "review_count": 24, "categories": [{"alias": "greek", "title": "Greek"}], "rating": 4.5, "coordinates": {"latitude": 42.19997, "longitude": -72.56742}, "transactions": ["delivery", "pickup"], "location": {"address1": "687 James St", "address2": null, "address3": "", "city": "Chicopee", "zip_code": "01020", "country": "US", "state": "MA", "display_address": ["687 James St", "Chicopee, MA 01020"]}, "phone": "+14134378256", "display_phone": "(413) 437-8256", "distance": 3591.100214346059}, {"id": "x6opfqMO35lx_yIg33PimA", "alias": "capri-pizza-holyoke", "name": "Capri Pizza", "image_url": "https://s3-media3.fl.yelpcdn.com/bphoto/QOxb1zSTaLmEv3dVNBCpew/o.jpg", "is_closed": false, "url": "https://www.yelp.com/biz/capri-pizza-holyoke?adjust_creative=HdhkN5EEH6lAqE3kwhsHEQ&utm_campaign=yelp_api_v3&utm_medium=api_v3_business_search&utm_source=HdhkN5EEH6lAqE3kwhsHEQ", "review_count": 50, "categories": [{"alias": "pizza", "title": "Pizza"}], "rating": 4.0, "coordinates": {"latitude": 42.19774, "longitude": -72.60444}, "transactions": ["delivery"], "price": "$", "location": {"address1": "18 Cabot St", "address2": "", "address3": "", "city": "Holyoke", "zip_code": "01040", "country": "US", "state": "MA", "display_address": ["18 Cabot St", "Holyoke, MA 01040"]}, "phone": "+14135323460", "display_phone": "(413) 532-3460", "distance": 1228.1525751288755}, {"id": "rwaW3WMVQJGmARlLs0mJ5Q", "alias": "silk-deli-and-bistro-holyoke", "name": "Silk Deli & Bistro", "image_url": "https://s3-media3.fl.yelpcdn.com/bphoto/ukMjdAaeXvbe_AHuHYddjw/o.jpg", "is_closed": false, "url": "https://www.yelp.com/biz/silk-deli-and-bistro-holyoke?adjust_creative=HdhkN5EEH6lAqE3kwhsHEQ&utm_campaign=yelp_api_v3&utm_medium=api_v3_business_search&utm_source=HdhkN5EEH6lAqE3kwhsHEQ", "review_count": 51, "categories": [{"alias": "delis", "title": "Delis"}, {"alias": "thai", "title": "Thai"}, {"alias": "sandwiches", "title": "Sandwiches"}], "rating": 4.5, "coordinates": {"latitude": 42.206197888014, "longitude": -72.630953527987}, "transactions": ["delivery"], "price": "$", "location": {"address1": "1693 Northampton St", "address2": "", "address3": "", "city": "Holyoke", "zip_code": "01040", "country": "US", "state": "MA", "display_address": ["1693 Northampton St", "Holyoke, MA 01040"]}, "phone": "+14133156504", "display_phone": "(413) 315-6504", "distance": 1766.5057534153252}, {"id": "h8HAUXNhycwZ2rOl58Hkcg", "alias": "ebenezers-bar-and-grill-south-hadley", "name": "Ebenezer's Bar & Grill", "image_url": "https://s3-media1.fl.yelpcdn.com/bphoto/sKj_vCj1Tmrv6yjQYsP_zg/o.jpg", "is_closed": false, "url": "https://www.yelp.com/biz/ebenezers-bar-and-grill-south-hadley?adjust_creative=HdhkN5EEH6lAqE3kwhsHEQ&utm_campaign=yelp_api_v3&utm_medium=api_v3_business_search&utm_source=HdhkN5EEH6lAqE3kwhsHEQ", "review_count": 10, "categories": [{"alias": "pubs", "title": "Pubs"}, {"alias": "tradamerican", "title": "American (Traditional)"}], "rating": 4.0, "coordinates": {"latitude": 42.216746, "longitude": -72.592778}, "transactions": ["delivery"], "price": "$", "location": {"address1": "60 Bridge St", "address2": null, "address3": null, "city": "South Hadley", "zip_code": "01075", "country": "US", "state": "MA", "display_address": ["60 Bridge St", "South Hadley, MA 01075"]}, "phone": "+14134377632", "display_phone": "(413) 437-7632", "distance": 1686.5865200810806}, {"id": "YK29unwKoqtrSoBQspn8xg", "alias": "smokin-caboose-holyoke", "name": "Smokin Caboose", "image_url": "https://s3-media2.fl.yelpcdn.com/bphoto/pqU8picqKSAiNTKTmhQ6Tg/o.jpg", "is_closed": false, "url": "https://www.yelp.com/biz/smokin-caboose-holyoke?adjust_creative=HdhkN5EEH6lAqE3kwhsHEQ&utm_campaign=yelp_api_v3&utm_medium=api_v3_business_search&utm_source=HdhkN5EEH6lAqE3kwhsHEQ", "review_count": 6, "categories": [{"alias": "bbq", "title": "Barbeque"}, {"alias": "foodtrucks", "title": "Food Trucks"}], "rating": 3.0, "coordinates": {"latitude": 42.2042586, "longitude": -72.6162009}, "transactions": [], "price": "$", "location": {"address1": "1049 North St", "address2": "", "address3": "Self Contained On Wheels", "city": "Holyoke", "zip_code": "01040", "country": "US", "state": "MA", "display_address": ["1049 North St", "Self Contained On Wheels", "Holyoke, MA 01040"]}, "phone": "+14132075364", "display_phone": "(413) 207-5364", "distance": 691.8392875862756}, {"id": "b9TX7xue5tmqZq7wTtVxxg", "alias": "tavern-on-the-hill-easthampton", "name": "Tavern on the Hill", "image_url": "https://s3-media4.fl.yelpcdn.com/bphoto/2U9nKkyaCKtV6PC60fiuBg/o.jpg", "is_closed": false, "url": "https://www.yelp.com/biz/tavern-on-the-hill-easthampton?adjust_creative=HdhkN5EEH6lAqE3kwhsHEQ&utm_campaign=yelp_api_v3&utm_medium=api_v3_business_search&utm_source=HdhkN5EEH6lAqE3kwhsHEQ", "review_count": 109, "categories": [{"alias": "tradamerican", "title": "American (Traditional)"}, {"alias": "bars", "title": "Bars"}, {"alias": "bbq", "title": "Barbeque"}], "rating": 3.0, "coordinates": {"latitude": 42.237602, "longitude": -72.652183}, "transactions": [], "price": "$$", "location": {"address1": "100 Mountain Rd", "address2": "", "address3": "", "city": "Easthampton", "zip_code": "01027", "country": "US", "state": "MA", "display_address": ["100 Mountain Rd", "Easthampton, MA 01027"]}, "phone": "+14134931700", "display_phone": "(413) 493-1700", "distance": 4791.7807822052055}, {"id": "uK0PEZf39yA9HAsMv4NlJg", "alias": "sl\u00e1inte-holyoke", "name": "Sl\u00e1inte", "image_url": "https://s3-media2.fl.yelpcdn.com/bphoto/ceMVVfR0aMUWGNbVYgSvcQ/o.jpg", "is_closed": false, "url": "https://www.yelp.com/biz/sl%C3%A1inte-holyoke?adjust_creative=HdhkN5EEH6lAqE3kwhsHEQ&utm_campaign=yelp_api_v3&utm_medium=api_v3_business_search&utm_source=HdhkN5EEH6lAqE3kwhsHEQ", "review_count": 77, "categories": [{"alias": "newamerican", "title": "American (New)"}, {"alias": "bars", "title": "Bars"}], "rating": 3.0, "coordinates": {"latitude": 42.217394, "longitude": -72.641519}, "transactions": ["delivery"], "price": "$$", "location": {"address1": "80 Jarvis Ave", "address2": "", "address3": "", "city": "Holyoke", "zip_code": "01040", "country": "US", "state": "MA", "display_address": ["80 Jarvis Ave", "Holyoke, MA 01040"]}, "phone": "+14135344000", "display_phone": "(413) 534-4000", "distance": 2816.0473013780665}, {"id": "UkW5Dnxx68Z8GBohYnXxJw", "alias": "talk-of-the-town-south-hadley", "name": "Talk of the Town", "image_url": "https://s3-media2.fl.yelpcdn.com/bphoto/pIQ1eROUkH_mjSd4Iw2rJg/o.jpg", "is_closed": false, "url": "https://www.yelp.com/biz/talk-of-the-town-south-hadley?adjust_creative=HdhkN5EEH6lAqE3kwhsHEQ&utm_campaign=yelp_api_v3&utm_medium=api_v3_business_search&utm_source=HdhkN5EEH6lAqE3kwhsHEQ", "review_count": 1, "categories": [{"alias": "breakfast_brunch", "title": "Breakfast & Brunch"}, {"alias": "tradamerican", "title": "American (Traditional)"}], "rating": 4.0, "coordinates": {"latitude": 42.2156, "longitude": -72.59789}, "transactions": [], "location": {"address1": "26 Main St", "address2": "", "address3": null, "city": "South Hadley", "zip_code": "01075", "country": "US", "state": "MA", "display_address": ["26 Main St", "South Hadley, MA 01075"]}, "phone": "+14133153290", "display_phone": "(413) 315-3290", "distance": 1344.090506766582}, {"id": "NLXXr9wHtj7dQGVIF1pDrQ", "alias": "log-cabin-holyoke", "name": "Log Cabin", "image_url": "https://s3-media1.fl.yelpcdn.com/bphoto/6lb4qvbaXklFQXA-4THKaQ/o.jpg", "is_closed": false, "url": "https://www.yelp.com/biz/log-cabin-holyoke?adjust_creative=HdhkN5EEH6lAqE3kwhsHEQ&utm_campaign=yelp_api_v3&utm_medium=api_v3_business_search&utm_source=HdhkN5EEH6lAqE3kwhsHEQ", "review_count": 37, "categories": [{"alias": "tradamerican", "title": "American (Traditional)"}], "rating": 4.0, "coordinates": {"latitude": 42.23617, "longitude": -72.65188}, "transactions": [], "price": "$$$", "location": {"address1": "500 Easthampton Rd", "address2": "", "address3": "", "city": "Holyoke", "zip_code": "01040", "country": "US", "state": "MA", "display_address": ["500 Easthampton Rd", "Holyoke, MA 01040"]}, "phone": "+14135355077", "display_phone": "(413) 535-5077", "distance": 4722.101866364636}, {"id": "GnQaW0tIAPliH4FPiFJB2w", "alias": "schermerhorns-seafood-holyoke", "name": "Schermerhorn's Seafood", "image_url": "https://s3-media2.fl.yelpcdn.com/bphoto/Imo4sJfgUaqQgaZ4X_ZEog/o.jpg", "is_closed": false, "url": "https://www.yelp.com/biz/schermerhorns-seafood-holyoke?adjust_creative=HdhkN5EEH6lAqE3kwhsHEQ&utm_campaign=yelp_api_v3&utm_medium=api_v3_business_search&utm_source=HdhkN5EEH6lAqE3kwhsHEQ", "review_count": 106, "categories": [{"alias": "seafoodmarkets", "title": "Seafood Markets"}, {"alias": "seafood", "title": "Seafood"}], "rating": 3.0, "coordinates": {"latitude": 42.1908930996048, "longitude": -72.6388066397266}, "transactions": ["delivery"], "price": "$$", "location": {"address1": "224 Westfield Rd", "address2": "", "address3": "", "city": "Holyoke", "zip_code": "01040", "country": "US", "state": "MA", "display_address": ["224 Westfield Rd", "Holyoke, MA 01040"]}, "phone": "+14135339229", "display_phone": "(413) 533-9229", "distance": 3074.357399159962}, {"id": "emj2QSQP6NjU4axpv0uKKQ", "alias": "frontera-grill-chicopee", "name": "Frontera Grill", "image_url": "https://s3-media2.fl.yelpcdn.com/bphoto/sidPdOPnY2e8Ly_m6Ee_wQ/o.jpg", "is_closed": false, "url": "https://www.yelp.com/biz/frontera-grill-chicopee?adjust_creative=HdhkN5EEH6lAqE3kwhsHEQ&utm_campaign=yelp_api_v3&utm_medium=api_v3_business_search&utm_source=HdhkN5EEH6lAqE3kwhsHEQ", "review_count": 194, "categories": [{"alias": "mexican", "title": "Mexican"}, {"alias": "bars", "title": "Bars"}], "rating": 4.0, "coordinates": {"latitude": 42.2017173, "longitude": -72.5712192}, "transactions": ["delivery"], "price": "$$", "location": {"address1": "1625 Memorial Dr", "address2": "", "address3": "", "city": "Chicopee", "zip_code": "01020", "country": "US", "state": "MA", "display_address": ["1625 Memorial Dr", "Chicopee, MA 01020"]}, "phone": "+14136122800", "display_phone": "(413) 612-2800", "distance": 3247.6353023555143}, {"id": "7yp9vICoDt89G3iicYM9-Q", "alias": "nicks-nest-holyoke", "name": "Nick's Nest", "image_url": "https://s3-media3.fl.yelpcdn.com/bphoto/EbSDPZz4kRrTx8ZCmhi4uw/o.jpg", "is_closed": false, "url": "https://www.yelp.com/biz/nicks-nest-holyoke?adjust_creative=HdhkN5EEH6lAqE3kwhsHEQ&utm_campaign=yelp_api_v3&utm_medium=api_v3_business_search&utm_source=HdhkN5EEH6lAqE3kwhsHEQ", "review_count": 69, "categories": [{"alias": "hotdog", "title": "Hot Dogs"}, {"alias": "icecream", "title": "Ice Cream & Frozen Yogurt"}], "rating": 3.5, "coordinates": {"latitude": 42.21009, "longitude": -72.63035}, "transactions": ["delivery"], "price": "$", "location": {"address1": "1597 Northampton St", "address2": "", "address3": "", "city": "Holyoke", "zip_code": "01040", "country": "US", "state": "MA", "display_address": ["1597 Northampton St", "Holyoke, MA 01040"]}, "phone": "+14135325229", "display_phone": "(413) 532-5229", "distance": 1711.1479470391944}, {"id": "9mSPmt6-b-Y4kl67TTOl0g", "alias": "mels-restaurant-holyoke", "name": "Mel's Restaurant", "image_url": "https://s3-media1.fl.yelpcdn.com/bphoto/gDkE9sHsq81zFrSfc0MGtA/o.jpg", "is_closed": false, "url": "https://www.yelp.com/biz/mels-restaurant-holyoke?adjust_creative=HdhkN5EEH6lAqE3kwhsHEQ&utm_campaign=yelp_api_v3&utm_medium=api_v3_business_search&utm_source=HdhkN5EEH6lAqE3kwhsHEQ", "review_count": 25, "categories": [{"alias": "italian", "title": "Italian"}, {"alias": "cocktailbars", "title": "Cocktail Bars"}], "rating": 3.5, "coordinates": {"latitude": 42.2127831862818, "longitude": -72.6203167096129}, "transactions": ["delivery"], "price": "$$", "location": {"address1": "490 Pleasant St", "address2": "", "address3": "", "city": "Holyoke", "zip_code": "01040", "country": "US", "state": "MA", "display_address": ["490 Pleasant St", "Holyoke, MA 01040"]}, "phone": "+14135321477", "display_phone": "(413) 532-1477", "distance": 1009.809657057552}, {"id": "1cyjA8wm0Kv1LCUvMMLDWw", "alias": "amedeos-holyoke", "name": "Amedeos", "image_url": "https://s3-media2.fl.yelpcdn.com/bphoto/N7_Gc4m9u7CNeHe2g1GD7Q/o.jpg", "is_closed": false, "url": "https://www.yelp.com/biz/amedeos-holyoke?adjust_creative=HdhkN5EEH6lAqE3kwhsHEQ&utm_campaign=yelp_api_v3&utm_medium=api_v3_business_search&utm_source=HdhkN5EEH6lAqE3kwhsHEQ", "review_count": 20, "categories": [{"alias": "pizza", "title": "Pizza"}], "rating": 3.0, "coordinates": {"latitude": 42.20805, "longitude": -72.59663}, "transactions": ["delivery"], "price": "$$", "location": {"address1": "8 N Bridge St", "address2": "", "address3": "", "city": "Holyoke", "zip_code": "01040", "country": "US", "state": "MA", "display_address": ["8 N Bridge St", "Holyoke, MA 01040"]}, "phone": "+14135364056", "display_phone": "(413) 536-4056", "distance": 1070.4036492475245}, {"id": "FjMNjjA3Y08LhCLal5e9cQ", "alias": "fiesta-cafe-holyoke", "name": "Fiesta Cafe", "image_url": "https://s3-media1.fl.yelpcdn.com/bphoto/pkmrsFsKblYpbbjxBpuWSw/o.jpg", "is_closed": false, "url": "https://www.yelp.com/biz/fiesta-cafe-holyoke?adjust_creative=HdhkN5EEH6lAqE3kwhsHEQ&utm_campaign=yelp_api_v3&utm_medium=api_v3_business_search&utm_source=HdhkN5EEH6lAqE3kwhsHEQ", "review_count": 7, "categories": [{"alias": "cafes", "title": "Cafes"}, {"alias": "sandwiches", "title": "Sandwiches"}], "rating": 3.5, "coordinates": {"latitude": 42.2005745031195, "longitude": -72.6066309213638}, "transactions": [], "price": "$", "location": {"address1": "305-307 Main St", "address2": "", "address3": "", "city": "Holyoke", "zip_code": "01040", "country": "US", "state": "MA", "display_address": ["305-307 Main St", "Holyoke, MA 01040"]}, "phone": "+14134377919", "display_phone": "(413) 437-7919", "distance": 881.3365108930103}, {"id": "BZxUjWjpsdgYwK9NyzBZwQ", "alias": "kennedy-fried-chicken-holyoke", "name": "Kennedy Fried Chicken", "image_url": "", "is_closed": false, "url": "https://www.yelp.com/biz/kennedy-fried-chicken-holyoke?adjust_creative=HdhkN5EEH6lAqE3kwhsHEQ&utm_campaign=yelp_api_v3&utm_medium=api_v3_business_search&utm_source=HdhkN5EEH6lAqE3kwhsHEQ", "review_count": 7, "categories": [{"alias": "chicken_wings", "title": "Chicken Wings"}], "rating": 3.5, "coordinates": {"latitude": 42.20559, "longitude": -72.60943}, "transactions": ["delivery"], "price": "$", "location": {"address1": "333 High St", "address2": "", "address3": "", "city": "Holyoke", "zip_code": "01040", "country": "US", "state": "MA", "display_address": ["333 High St", "Holyoke, MA 01040"]}, "phone": "+14135329993", "display_phone": "(413) 532-9993", "distance": 290.273942910163}, {"id": "aSh9w8cA3WdHt06qymNEtg", "alias": "rustys-place-holyoke-2", "name": "Rusty's Place", "image_url": "https://s3-media1.fl.yelpcdn.com/bphoto/rjCe8wNyM_2epue_5B4BCA/o.jpg", "is_closed": false, "url": "https://www.yelp.com/biz/rustys-place-holyoke-2?adjust_creative=HdhkN5EEH6lAqE3kwhsHEQ&utm_campaign=yelp_api_v3&utm_medium=api_v3_business_search&utm_source=HdhkN5EEH6lAqE3kwhsHEQ", "review_count": 70, "categories": [{"alias": "cafes", "title": "Cafes"}, {"alias": "breakfast_brunch", "title": "Breakfast & Brunch"}], "rating": 4.0, "coordinates": {"latitude": 42.21301, "longitude": -72.6226499}, "transactions": ["delivery"], "price": "$", "location": {"address1": "930 Hampden St", "address2": "", "address3": "", "city": "Holyoke", "zip_code": "01040", "country": "US", "state": "MA", "display_address": ["930 Hampden St", "Holyoke, MA 01040"]}, "phone": "+14134377530", "display_phone": "(413) 437-7530", "distance": 1202.1489500820753}, {"id": "AXbfEk1nCHeW4xbajGGgxg", "alias": "bernies-dining-depot-chicopee", "name": "Bernie's Dining Depot", "image_url": "https://s3-media1.fl.yelpcdn.com/bphoto/QrLEU1iRvQJ8bS09cE4GlA/o.jpg", "is_closed": false, "url": "https://www.yelp.com/biz/bernies-dining-depot-chicopee?adjust_creative=HdhkN5EEH6lAqE3kwhsHEQ&utm_campaign=yelp_api_v3&utm_medium=api_v3_business_search&utm_source=HdhkN5EEH6lAqE3kwhsHEQ", "review_count": 238, "categories": [{"alias": "steak", "title": "Steakhouses"}, {"alias": "seafood", "title": "Seafood"}], "rating": 3.5, "coordinates": {"latitude": 42.19969, "longitude": -72.56527}, "transactions": ["delivery"], "price": "$$", "location": {"address1": "749 James St", "address2": "", "address3": "", "city": "Chicopee", "zip_code": "01020", "country": "US", "state": "MA", "display_address": ["749 James St", "Chicopee, MA 01020"]}, "phone": "+14135399268", "display_phone": "(413) 539-9268", "distance": 3779.0581139966985}, {"id": "zz2DmnVuM2tE8AEqmFcgpQ", "alias": "tasty-rican-kitchen-chicopee", "name": "Tasty-Rican Kitchen", "image_url": "https://s3-media1.fl.yelpcdn.com/bphoto/O4o330n2UErnkKwgRWLoiQ/o.jpg", "is_closed": false, "url": "https://www.yelp.com/biz/tasty-rican-kitchen-chicopee?adjust_creative=HdhkN5EEH6lAqE3kwhsHEQ&utm_campaign=yelp_api_v3&utm_medium=api_v3_business_search&utm_source=HdhkN5EEH6lAqE3kwhsHEQ", "review_count": 1, "categories": [{"alias": "puertorican", "title": "Puerto Rican"}, {"alias": "tradamerican", "title": "American (Traditional)"}], "rating": 4.0, "coordinates": {"latitude": 42.19008667, "longitude": -72.60306833}, "transactions": [], "location": {"address1": "928-930 Chicopee St", "address2": null, "address3": null, "city": "Chicopee", "zip_code": "01013", "country": "US", "state": "MA", "display_address": ["928-930 Chicopee St", "Chicopee, MA 01013"]}, "phone": "+14133159673", "display_phone": "(413) 315-9673", "distance": 2074.0045277606023}, {"id": "fXQ6Sua1fDN5938SHg0Rjw", "alias": "master-chef-south-hadley", "name": "Master Chef", "image_url": "https://s3-media2.fl.yelpcdn.com/bphoto/Z9cq8z3SOVkMX1-LXMfRQQ/o.jpg", "is_closed": false, "url": "https://www.yelp.com/biz/master-chef-south-hadley?adjust_creative=HdhkN5EEH6lAqE3kwhsHEQ&utm_campaign=yelp_api_v3&utm_medium=api_v3_business_search&utm_source=HdhkN5EEH6lAqE3kwhsHEQ", "review_count": 123, "categories": [{"alias": "sushi", "title": "Sushi Bars"}, {"alias": "salad", "title": "Salad"}, {"alias": "japanese", "title": "Japanese"}], "rating": 4.0, "coordinates": {"latitude": 42.235034, "longitude": -72.563554}, "transactions": ["delivery"], "price": "$$", "location": {"address1": "461 Granby Rd", "address2": "", "address3": "", "city": "South Hadley", "zip_code": "01075", "country": "US", "state": "MA", "display_address": ["461 Granby Rd", "South Hadley, MA 01075"]}, "phone": "+14133220993", "display_phone": "(413) 322-0993", "distance": 4821.850158030223}, {"id": "ALGLKupbx3-pZC6Dspd04g", "alias": "priya-indian-cuisine-chicopee", "name": "Priya Indian Cuisine", "image_url": "https://s3-media2.fl.yelpcdn.com/bphoto/I0F-2_2W-bV6iQD2tKdbfA/o.jpg", "is_closed": false, "url": "https://www.yelp.com/biz/priya-indian-cuisine-chicopee?adjust_creative=HdhkN5EEH6lAqE3kwhsHEQ&utm_campaign=yelp_api_v3&utm_medium=api_v3_business_search&utm_source=HdhkN5EEH6lAqE3kwhsHEQ", "review_count": 165, "categories": [{"alias": "indpak", "title": "Indian"}, {"alias": "buffets", "title": "Buffets"}, {"alias": "desserts", "title": "Desserts"}], "rating": 4.5, "coordinates": {"latitude": 42.1706892199702, "longitude": -72.5779697022709}, "transactions": ["delivery", "pickup"], "price": "$$", "location": {"address1": "460 Memorial Dr", "address2": "", "address3": "", "city": "Chicopee", "zip_code": "01020", "country": "US", "state": "MA", "display_address": ["460 Memorial Dr", "Chicopee, MA 01020"]}, "phone": "+14135945555", "display_phone": "(413) 594-5555", "distance": 4918.828387046137}, {"id": "PztUrCM1-r20BiPDQoCqGQ", "alias": "el-guanaco-south-hadley-2", "name": "El Guanaco", "image_url": "https://s3-media3.fl.yelpcdn.com/bphoto/IIo4zamKTa_VBr9iqB8FuQ/o.jpg", "is_closed": false, "url": "https://www.yelp.com/biz/el-guanaco-south-hadley-2?adjust_creative=HdhkN5EEH6lAqE3kwhsHEQ&utm_campaign=yelp_api_v3&utm_medium=api_v3_business_search&utm_source=HdhkN5EEH6lAqE3kwhsHEQ", "review_count": 31, "categories": [{"alias": "mexican", "title": "Mexican"}, {"alias": "latin", "title": "Latin American"}], "rating": 3.5, "coordinates": {"latitude": 42.21823, "longitude": -72.59246}, "transactions": ["delivery"], "price": "$$", "location": {"address1": "50 Lamb St", "address2": "", "address3": "", "city": "South Hadley", "zip_code": "01075", "country": "US", "state": "MA", "display_address": ["50 Lamb St", "South Hadley, MA 01075"]}, "phone": "+14135365598", "display_phone": "(413) 536-5598", "distance": 1794.1118964072828}, {"id": "erqQ3-F8jVBQMZ1Stg95EQ", "alias": "als-diner-chicopee", "name": "Al's Diner", "image_url": "https://s3-media1.fl.yelpcdn.com/bphoto/hqkeC_WakHOk6o4W8DGInQ/o.jpg", "is_closed": false, "url": "https://www.yelp.com/biz/als-diner-chicopee?adjust_creative=HdhkN5EEH6lAqE3kwhsHEQ&utm_campaign=yelp_api_v3&utm_medium=api_v3_business_search&utm_source=HdhkN5EEH6lAqE3kwhsHEQ", "review_count": 44, "categories": [{"alias": "diners", "title": "Diners"}], "rating": 4.0, "coordinates": {"latitude": 42.1918989, "longitude": -72.5988849}, "transactions": ["delivery"], "price": "$", "location": {"address1": "14 Yelle St", "address2": "", "address3": "", "city": "Chicopee", "zip_code": "01013", "country": "US", "state": "MA", "display_address": ["14 Yelle St", "Chicopee, MA 01013"]}, "phone": "+14135343607", "display_phone": "(413) 534-3607", "distance": 2013.766881710584}, {"id": "4aD-UpB9gs0BKSie7J3JEw", "alias": "dam-cafe-holyoke", "name": "Dam Cafe", "image_url": "https://s3-media1.fl.yelpcdn.com/bphoto/5KD30y-sQ6WYVDWhCqH87A/o.jpg", "is_closed": false, "url": "https://www.yelp.com/biz/dam-cafe-holyoke?adjust_creative=HdhkN5EEH6lAqE3kwhsHEQ&utm_campaign=yelp_api_v3&utm_medium=api_v3_business_search&utm_source=HdhkN5EEH6lAqE3kwhsHEQ", "review_count": 70, "categories": [{"alias": "cafes", "title": "Cafes"}], "rating": 3.5, "coordinates": {"latitude": 42.1934757, "longitude": -72.629631}, "transactions": ["delivery", "pickup"], "price": "$", "location": {"address1": "2014 Northampton St", "address2": "", "address3": "", "city": "Holyoke", "zip_code": "01040", "country": "US", "state": "MA", "display_address": ["2014 Northampton St", "Holyoke, MA 01040"]}, "phone": "+14135331866", "display_phone": "(413) 533-1866", "distance": 2309.206758964378}, {"id": "MTF6ZbQY_QKSQ-CtmG20-Q", "alias": "thai-place-south-hadley", "name": "Thai Place", "image_url": "https://s3-media2.fl.yelpcdn.com/bphoto/yWf0P9W3nTvEZ4rjIq9hYA/o.jpg", "is_closed": false, "url": "https://www.yelp.com/biz/thai-place-south-hadley?adjust_creative=HdhkN5EEH6lAqE3kwhsHEQ&utm_campaign=yelp_api_v3&utm_medium=api_v3_business_search&utm_source=HdhkN5EEH6lAqE3kwhsHEQ", "review_count": 67, "categories": [{"alias": "thai", "title": "Thai"}], "rating": 4.0, "coordinates": {"latitude": 42.23465, "longitude": -72.56226}, "transactions": ["delivery"], "price": "$$", "location": {"address1": "480 Granby Rd", "address2": null, "address3": null, "city": "South Hadley", "zip_code": "01075", "country": "US", "state": "MA", "display_address": ["480 Granby Rd", "South Hadley, MA 01075"]}, "phone": "+14135339231", "display_phone": "(413) 533-9231", "distance": 4895.609820666576}, {"id": "OQuKSStQfYL9-iGhgZj7Wg", "alias": "holyoke-turn-verein-holyoke", "name": "Holyoke Turn Verein", "image_url": "https://s3-media1.fl.yelpcdn.com/bphoto/H3ixf_NYhpsKc7Q1HhktVg/o.jpg", "is_closed": false, "url": "https://www.yelp.com/biz/holyoke-turn-verein-holyoke?adjust_creative=HdhkN5EEH6lAqE3kwhsHEQ&utm_campaign=yelp_api_v3&utm_medium=api_v3_business_search&utm_source=HdhkN5EEH6lAqE3kwhsHEQ", "review_count": 4, "categories": [{"alias": "bowling", "title": "Bowling"}, {"alias": "bbq", "title": "Barbeque"}, {"alias": "sportsbars", "title": "Sports Bars"}], "rating": 4.0, "coordinates": {"latitude": 42.1953, "longitude": -72.60923}, "transactions": [], "location": {"address1": "624 S Bridge St", "address2": "", "address3": "", "city": "Holyoke", "zip_code": "01040", "country": "US", "state": "MA", "display_address": ["624 S Bridge St", "Holyoke, MA 01040"]}, "phone": "+14135399412", "display_phone": "(413) 539-9412", "distance": 1424.4275519050348}, {"id": "CTu0-gPygh3a6-JqbLU-5Q", "alias": "city-pizza-holyoke", "name": "City Pizza", "image_url": "https://s3-media3.fl.yelpcdn.com/bphoto/eGk5pfbwkdtCJ-hj7braTg/o.jpg", "is_closed": false, "url": "https://www.yelp.com/biz/city-pizza-holyoke?adjust_creative=HdhkN5EEH6lAqE3kwhsHEQ&utm_campaign=yelp_api_v3&utm_medium=api_v3_business_search&utm_source=HdhkN5EEH6lAqE3kwhsHEQ", "review_count": 14, "categories": [{"alias": "pizza", "title": "Pizza"}], "rating": 3.5, "coordinates": {"latitude": 42.203986, "longitude": -72.610308}, "transactions": ["delivery", "pickup"], "price": "$$", "location": {"address1": "420 High St", "address2": "", "address3": "", "city": "Holyoke", "zip_code": "01040", "country": "US", "state": "MA", "display_address": ["420 High St", "Holyoke, MA 01040"]}, "phone": "+14135361113", "display_phone": "(413) 536-1113", "distance": 468.56950656239786}, {"id": "2ZlcV7EYuh1QRK6dT7eDKg", "alias": "pics-pub-and-pizzeria-holyoke", "name": "Pic's Pub & Pizzeria", "image_url": "https://s3-media2.fl.yelpcdn.com/bphoto/znOix1KwAIFIJg4UECsR_w/o.jpg", "is_closed": false, "url": "https://www.yelp.com/biz/pics-pub-and-pizzeria-holyoke?adjust_creative=HdhkN5EEH6lAqE3kwhsHEQ&utm_campaign=yelp_api_v3&utm_medium=api_v3_business_search&utm_source=HdhkN5EEH6lAqE3kwhsHEQ", "review_count": 26, "categories": [{"alias": "pizza", "title": "Pizza"}, {"alias": "pubs", "title": "Pubs"}], "rating": 3.5, "coordinates": {"latitude": 42.2131383350507, "longitude": -72.6222859999826}, "transactions": ["delivery"], "price": "$$", "location": {"address1": "910 Hampden St", "address2": "", "address3": "", "city": "Holyoke", "zip_code": "01040", "country": "US", "state": "MA", "display_address": ["910 Hampden St", "Holyoke, MA 01040"]}, "phone": "+14135352050", "display_phone": "(413) 535-2050", "distance": 1176.4159505584066}, {"id": "2iXmpR3J389XJVGxRbqs7A", "alias": "china-house-restaurant-holyoke", "name": "China House Restaurant", "image_url": "https://s3-media2.fl.yelpcdn.com/bphoto/n8oPfKrOlYM54AfSlhH30g/o.jpg", "is_closed": false, "url": "https://www.yelp.com/biz/china-house-restaurant-holyoke?adjust_creative=HdhkN5EEH6lAqE3kwhsHEQ&utm_campaign=yelp_api_v3&utm_medium=api_v3_business_search&utm_source=HdhkN5EEH6lAqE3kwhsHEQ", "review_count": 2, "categories": [{"alias": "chinese", "title": "Chinese"}], "rating": 2.5, "coordinates": {"latitude": 42.2055251053385, "longitude": -72.6110715827964}, "transactions": ["delivery"], "price": "$", "location": {"address1": "322 Appleton St", "address2": "", "address3": "", "city": "Holyoke", "zip_code": "01040", "country": "US", "state": "MA", "display_address": ["322 Appleton St", "Holyoke, MA 01040"]}, "phone": "+14135328508", "display_phone": "(413) 532-8508", "distance": 315.6524337324145}, {"id": "nrLxUbJiQd6De_8yx7_jIQ", "alias": "crazy-arepas-springfield", "name": "Crazy Arepas", "image_url": "https://s3-media2.fl.yelpcdn.com/bphoto/xBRYNve2vxH1M1iG5Gm4lQ/o.jpg", "is_closed": false, "url": "https://www.yelp.com/biz/crazy-arepas-springfield?adjust_creative=HdhkN5EEH6lAqE3kwhsHEQ&utm_campaign=yelp_api_v3&utm_medium=api_v3_business_search&utm_source=HdhkN5EEH6lAqE3kwhsHEQ", "review_count": 3, "categories": [{"alias": "foodtrucks", "title": "Food Trucks"}, {"alias": "spanish", "title": "Spanish"}, {"alias": "tradamerican", "title": "American (Traditional)"}], "rating": 5.0, "coordinates": {"latitude": 42.1191, "longitude": -72.55044}, "transactions": [], "location": {"address1": null, "address2": null, "address3": null, "city": "Springfield", "zip_code": "01109", "country": "US", "state": "MA", "display_address": ["Springfield, MA 01109"]}, "phone": "+14138888083", "display_phone": "(413) 888-8083", "distance": 10598.938647687903}, {"id": "Ra_SIUVNkDrga38FG60w0g", "alias": "holyoke-pizza-holyoke", "name": "Holyoke Pizza", "image_url": "https://s3-media2.fl.yelpcdn.com/bphoto/xNwGd94PsktUoEBQxjDUSA/o.jpg", "is_closed": false, "url": "https://www.yelp.com/biz/holyoke-pizza-holyoke?adjust_creative=HdhkN5EEH6lAqE3kwhsHEQ&utm_campaign=yelp_api_v3&utm_medium=api_v3_business_search&utm_source=HdhkN5EEH6lAqE3kwhsHEQ", "review_count": 23, "categories": [{"alias": "pizza", "title": "Pizza"}], "rating": 3.5, "coordinates": {"latitude": 42.1960481, "longitude": -72.6202905}, "transactions": ["delivery", "pickup"], "price": "$", "location": {"address1": "213 South St", "address2": "", "address3": "", "city": "Holyoke", "zip_code": "01040", "country": "US", "state": "MA", "display_address": ["213 South St", "Holyoke, MA 01040"]}, "phone": "+14135326666", "display_phone": "(413) 532-6666", "distance": 1572.7176210542502}, {"id": "miwjwxTo95VRiYKrb2YALA", "alias": "jps-restaurant-holyoke", "name": "JP's Restaurant", "image_url": "https://s3-media1.fl.yelpcdn.com/bphoto/kJ4Mvsi6Xzm7XRJeasl6vA/o.jpg", "is_closed": false, "url": "https://www.yelp.com/biz/jps-restaurant-holyoke?adjust_creative=HdhkN5EEH6lAqE3kwhsHEQ&utm_campaign=yelp_api_v3&utm_medium=api_v3_business_search&utm_source=HdhkN5EEH6lAqE3kwhsHEQ", "review_count": 50, "categories": [{"alias": "sportsbars", "title": "Sports Bars"}, {"alias": "tradamerican", "title": "American (Traditional)"}], "rating": 3.5, "coordinates": {"latitude": 42.17798, "longitude": -72.63991}, "transactions": ["delivery"], "price": "$$", "location": {"address1": "200 Whiting Farms Rd", "address2": "", "address3": "", "city": "Holyoke", "zip_code": "01040", "country": "US", "state": "MA", "display_address": ["200 Whiting Farms Rd", "Holyoke, MA 01040"]}, "phone": "+14135329444", "display_phone": "(413) 532-9444", "distance": 4188.743711744772}, {"id": "WcbtvWUU_7GDZysfKqjHAA", "alias": "royal-buffet-chicopee-2", "name": "Royal Buffet", "image_url": "https://s3-media1.fl.yelpcdn.com/bphoto/4731EEVI_vYeP77GhoZgdg/o.jpg", "is_closed": false, "url": "https://www.yelp.com/biz/royal-buffet-chicopee-2?adjust_creative=HdhkN5EEH6lAqE3kwhsHEQ&utm_campaign=yelp_api_v3&utm_medium=api_v3_business_search&utm_source=HdhkN5EEH6lAqE3kwhsHEQ", "review_count": 32, "categories": [{"alias": "buffets", "title": "Buffets"}, {"alias": "chinese", "title": "Chinese"}], "rating": 2.5, "coordinates": {"latitude": 42.173787, "longitude": -72.571905}, "transactions": [], "price": "$$", "location": {"address1": "591 Memorial Dr", "address2": "Ste G", "address3": "", "city": "Chicopee", "zip_code": "01020", "country": "US", "state": "MA", "display_address": ["591 Memorial Dr", "Ste G", "Chicopee, MA 01020"]}, "phone": "+14135938838", "display_phone": "(413) 593-8838", "distance": 4929.642702855709}, {"id": "FLXxNUfDO8JFkNhgWGg1Ug", "alias": "bamboo-house-holyoke", "name": "Bamboo House", "image_url": "https://s3-media2.fl.yelpcdn.com/bphoto/C5eyaFVm6egy66s9Q3G72Q/o.jpg", "is_closed": false, "url": "https://www.yelp.com/biz/bamboo-house-holyoke?adjust_creative=HdhkN5EEH6lAqE3kwhsHEQ&utm_campaign=yelp_api_v3&utm_medium=api_v3_business_search&utm_source=HdhkN5EEH6lAqE3kwhsHEQ", "review_count": 19, "categories": [{"alias": "chinese", "title": "Chinese"}], "rating": 3.0, "coordinates": {"latitude": 42.1859909, "longitude": -72.6306179}, "transactions": ["delivery"], "price": "$", "location": {"address1": "2223 Northampton St", "address2": "", "address3": "", "city": "Holyoke", "zip_code": "01040", "country": "US", "state": "MA", "display_address": ["2223 Northampton St", "Holyoke, MA 01040"]}, "phone": "+14135364299", "display_phone": "(413) 536-4299", "distance": 3176.333175979049}, {"id": "q5YmJKFz7LetrJrJYBiifQ", "alias": "homestyle-cafe-chicopee", "name": "Homestyle Cafe", "image_url": "https://s3-media3.fl.yelpcdn.com/bphoto/9oEXPJVFy7ZoyqP4KzeLXw/o.jpg", "is_closed": false, "url": "https://www.yelp.com/biz/homestyle-cafe-chicopee?adjust_creative=HdhkN5EEH6lAqE3kwhsHEQ&utm_campaign=yelp_api_v3&utm_medium=api_v3_business_search&utm_source=HdhkN5EEH6lAqE3kwhsHEQ", "review_count": 18, "categories": [{"alias": "diners", "title": "Diners"}, {"alias": "cafes", "title": "Cafes"}], "rating": 4.5, "coordinates": {"latitude": 42.18248, "longitude": -72.5686}, "transactions": ["delivery"], "price": "$$", "location": {"address1": "1780 Westover Rd", "address2": "", "address3": "", "city": "Chicopee", "zip_code": "01020", "country": "US", "state": "MA", "display_address": ["1780 Westover Rd", "Chicopee, MA 01020"]}, "phone": "+14135933282", "display_phone": "(413) 593-3282", "distance": 4432.383948770079}, {"id": "pj7-K4PBLaHvVN98hhZpXQ", "alias": "new-england-fish-and-chips-holyoke", "name": "New England Fish & Chips", "image_url": "", "is_closed": false, "url": "https://www.yelp.com/biz/new-england-fish-and-chips-holyoke?adjust_creative=HdhkN5EEH6lAqE3kwhsHEQ&utm_campaign=yelp_api_v3&utm_medium=api_v3_business_search&utm_source=HdhkN5EEH6lAqE3kwhsHEQ", "review_count": 3, "categories": [{"alias": "fishnchips", "title": "Fish & Chips"}], "rating": 2.5, "coordinates": {"latitude": 42.202213, "longitude": -72.612038}, "transactions": [], "location": {"address1": "530 High St", "address2": "", "address3": "", "city": "Holyoke", "zip_code": "01040", "country": "US", "state": "MA", "display_address": ["530 High St", "Holyoke, MA 01040"]}, "phone": "+14135321589", "display_phone": "(413) 532-1589", "distance": 690.6393284549789}, {"id": "p-E7esOKcieVFFYdUlV8LQ", "alias": "springdale-lunch-holyoke", "name": "Springdale Lunch", "image_url": "https://s3-media3.fl.yelpcdn.com/bphoto/fRI7KnbPHWa-8nX-OCr5nA/o.jpg", "is_closed": false, "url": "https://www.yelp.com/biz/springdale-lunch-holyoke?adjust_creative=HdhkN5EEH6lAqE3kwhsHEQ&utm_campaign=yelp_api_v3&utm_medium=api_v3_business_search&utm_source=HdhkN5EEH6lAqE3kwhsHEQ", "review_count": 1, "categories": [{"alias": "tradamerican", "title": "American (Traditional)"}], "rating": 5.0, "coordinates": {"latitude": 42.1899637, "longitude": -72.6207873}, "transactions": [], "location": {"address1": "827 Main St", "address2": "", "address3": "", "city": "Holyoke", "zip_code": "01040", "country": "US", "state": "MA", "display_address": ["827 Main St", "Holyoke, MA 01040"]}, "phone": "+14135338372", "display_phone": "(413) 533-8372", "distance": 2222.2224813140333}, {"id": "yHCDRz8Cc3hd0RjXN9TCog", "alias": "strums-deli-and-meats-holyoke", "name": "Strums Deli and Meats", "image_url": "https://s3-media2.fl.yelpcdn.com/bphoto/qBEa_acY9w8t5r0Iy-nPXg/o.jpg", "is_closed": false, "url": "https://www.yelp.com/biz/strums-deli-and-meats-holyoke?adjust_creative=HdhkN5EEH6lAqE3kwhsHEQ&utm_campaign=yelp_api_v3&utm_medium=api_v3_business_search&utm_source=HdhkN5EEH6lAqE3kwhsHEQ", "review_count": 12, "categories": [{"alias": "meats", "title": "Meat Shops"}, {"alias": "delis", "title": "Delis"}], "rating": 4.0, "coordinates": {"latitude": 42.1868016, "longitude": -72.6499354}, "transactions": ["delivery"], "price": "$$", "location": {"address1": "502 Westfield Rd", "address2": "", "address3": "", "city": "Holyoke", "zip_code": "01040", "country": "US", "state": "MA", "display_address": ["502 Westfield Rd", "Holyoke, MA 01040"]}, "phone": "+14135328020", "display_phone": "(413) 532-8020", "distance": 4080.222980348695}, {"id": "p1QS-_UiNLrVWtG6OMou-Q", "alias": "mandarin-gourmet-south-hadley", "name": "Mandarin Gourmet", "image_url": "https://s3-media3.fl.yelpcdn.com/bphoto/vXgQMtuAphV91SdrztKvTg/o.jpg", "is_closed": false, "url": "https://www.yelp.com/biz/mandarin-gourmet-south-hadley?adjust_creative=HdhkN5EEH6lAqE3kwhsHEQ&utm_campaign=yelp_api_v3&utm_medium=api_v3_business_search&utm_source=HdhkN5EEH6lAqE3kwhsHEQ", "review_count": 17, "categories": [{"alias": "chinese", "title": "Chinese"}], "rating": 3.5, "coordinates": {"latitude": 42.2362332, "longitude": -72.5828403}, "transactions": ["delivery"], "price": "$$", "location": {"address1": "481 Newton St", "address2": "", "address3": "", "city": "South Hadley", "zip_code": "01075", "country": "US", "state": "MA", "display_address": ["481 Newton St", "South Hadley, MA 01075"]}, "phone": "+14135388080", "display_phone": "(413) 538-8080", "distance": 3927.7389548476026}, {"id": "f6x71FQN27Rh9xseF1iiwA", "alias": "mcdonalds-holyoke", "name": "McDonald's", "image_url": "https://s3-media3.fl.yelpcdn.com/bphoto/VvtsN_s_1Yp0PQr962LqaQ/o.jpg", "is_closed": false, "url": "https://www.yelp.com/biz/mcdonalds-holyoke?adjust_creative=HdhkN5EEH6lAqE3kwhsHEQ&utm_campaign=yelp_api_v3&utm_medium=api_v3_business_search&utm_source=HdhkN5EEH6lAqE3kwhsHEQ", "review_count": 11, "categories": [{"alias": "hotdogs", "title": "Fast Food"}, {"alias": "burgers", "title": "Burgers"}, {"alias": "coffee", "title": "Coffee & Tea"}], "rating": 2.5, "coordinates": {"latitude": 42.2057723669325, "longitude": -72.610682984814}, "transactions": ["delivery"], "price": "$", "location": {"address1": "285 Maple St", "address2": "", "address3": "", "city": "Holyoke", "zip_code": "01040", "country": "US", "state": "MA", "display_address": ["285 Maple St", "Holyoke, MA 01040"]}, "phone": "+14135340228", "display_phone": "(413) 534-0228", "distance": 279.6722673668229}, {"id": "QaqMEKjf1j8IGFCKlSD2BA", "alias": "hibiscus-holyoke-2", "name": "Hibiscus", "image_url": "https://s3-media4.fl.yelpcdn.com/bphoto/XHS7RdZiANAs6vU9d0Wj-g/o.jpg", "is_closed": false, "url": "https://www.yelp.com/biz/hibiscus-holyoke-2?adjust_creative=HdhkN5EEH6lAqE3kwhsHEQ&utm_campaign=yelp_api_v3&utm_medium=api_v3_business_search&utm_source=HdhkN5EEH6lAqE3kwhsHEQ", "review_count": 18, "categories": [{"alias": "japanese", "title": "Japanese"}, {"alias": "sushi", "title": "Sushi Bars"}, {"alias": "chinese", "title": "Chinese"}], "rating": 3.0, "coordinates": {"latitude": 42.19498, "longitude": -72.62495}, "transactions": ["delivery"], "price": "$", "location": {"address1": "455 South St", "address2": null, "address3": "", "city": "Holyoke", "zip_code": "01040", "country": "US", "state": "MA", "display_address": ["455 South St", "Holyoke, MA 01040"]}, "phone": "+14135327700", "display_phone": "(413) 532-7700", "distance": 1942.0400342721057}, {"id": "ShvuSSnS0JjKDEGhZS0SUQ", "alias": "jennifers-kitchen-chicopee", "name": "Jennifer's Kitchen", "image_url": "https://s3-media3.fl.yelpcdn.com/bphoto/PqLHLE-VAzbOKgB-kkPffg/o.jpg", "is_closed": false, "url": "https://www.yelp.com/biz/jennifers-kitchen-chicopee?adjust_creative=HdhkN5EEH6lAqE3kwhsHEQ&utm_campaign=yelp_api_v3&utm_medium=api_v3_business_search&utm_source=HdhkN5EEH6lAqE3kwhsHEQ", "review_count": 11, "categories": [{"alias": "breakfast_brunch", "title": "Breakfast & Brunch"}], "rating": 4.0, "coordinates": {"latitude": 42.18266, "longitude": -72.6142}, "transactions": ["delivery"], "price": "$", "location": {"address1": "574 Chicopee St", "address2": "", "address3": "", "city": "Chicopee", "zip_code": "01013", "country": "US", "state": "MA", "display_address": ["574 Chicopee St", "Chicopee, MA 01013"]}, "phone": "+14135327758", "display_phone": "(413) 532-7758", "distance": 2864.545644435731}, {"id": "T6V81F2O5GgfcANv12kRdA", "alias": "north-china-restaurant-chicopee", "name": "North China Restaurant", "image_url": "https://s3-media1.fl.yelpcdn.com/bphoto/2eqLQExUTq8MkWaPOAT_Hg/o.jpg", "is_closed": false, "url": "https://www.yelp.com/biz/north-china-restaurant-chicopee?adjust_creative=HdhkN5EEH6lAqE3kwhsHEQ&utm_campaign=yelp_api_v3&utm_medium=api_v3_business_search&utm_source=HdhkN5EEH6lAqE3kwhsHEQ", "review_count": 34, "categories": [{"alias": "chinese", "title": "Chinese"}], "rating": 3.0, "coordinates": {"latitude": 42.21173, "longitude": -72.57133}, "transactions": ["delivery"], "price": "$", "location": {"address1": "1995 Memorial Dr", "address2": "", "address3": "", "city": "Chicopee", "zip_code": "01020", "country": "US", "state": "MA", "display_address": ["1995 Memorial Dr", "Chicopee, MA 01020"]}, "phone": "+14135321499", "display_phone": "(413) 532-1499", "distance": 3185.6173160388803}, {"id": "I4lgSBkRb99Sj6O4jx2Y_A", "alias": "masses-american-bistro-chicopee", "name": "Masse's American Bistro", "image_url": "https://s3-media3.fl.yelpcdn.com/bphoto/MECaMAOx0zZaz8ra8Npw3g/o.jpg", "is_closed": false, "url": "https://www.yelp.com/biz/masses-american-bistro-chicopee?adjust_creative=HdhkN5EEH6lAqE3kwhsHEQ&utm_campaign=yelp_api_v3&utm_medium=api_v3_business_search&utm_source=HdhkN5EEH6lAqE3kwhsHEQ", "review_count": 83, "categories": [{"alias": "seafood", "title": "Seafood"}, {"alias": "newamerican", "title": "American (New)"}, {"alias": "cocktailbars", "title": "Cocktail Bars"}], "rating": 3.0, "coordinates": {"latitude": 42.19356, "longitude": -72.5748}, "transactions": ["delivery"], "price": "$$", "location": {"address1": "1329 Memorial Dr", "address2": "", "address3": "", "city": "Chicopee", "zip_code": "01020", "country": "US", "state": "MA", "display_address": ["1329 Memorial Dr", "Chicopee, MA 01020"]}, "phone": "+14133158501", "display_phone": "(413) 315-8501", "distance": 3275.5359922570433}, {"id": "pLNLE0qmSH1qniH0WKVUOg", "alias": "family-pizza-and-grinders-south-hadley", "name": "Family Pizza and Grinders", "image_url": "https://s3-media1.fl.yelpcdn.com/bphoto/mbmoSzAatOKMgHuM8sBdSg/o.jpg", "is_closed": false, "url": "https://www.yelp.com/biz/family-pizza-and-grinders-south-hadley?adjust_creative=HdhkN5EEH6lAqE3kwhsHEQ&utm_campaign=yelp_api_v3&utm_medium=api_v3_business_search&utm_source=HdhkN5EEH6lAqE3kwhsHEQ", "review_count": 28, "categories": [{"alias": "pizza", "title": "Pizza"}], "rating": 4.0, "coordinates": {"latitude": 42.230461, "longitude": -72.586547}, "transactions": ["delivery"], "price": "$", "location": {"address1": "334 Newton St", "address2": "", "address3": "", "city": "South Hadley", "zip_code": "01075", "country": "US", "state": "MA", "display_address": ["334 Newton St", "South Hadley, MA 01075"]}, "phone": "+14135363197", "display_phone": "(413) 536-3197", "distance": 3134.9044621012886}, {"id": "-fNjIY41as4eBe0SYjjbPg", "alias": "mannys-pizza-and-grinders-holyoke", "name": "Manny's Pizza & Grinders", "image_url": "https://s3-media2.fl.yelpcdn.com/bphoto/MnVwY9rMVsUFKdlVndCcEw/o.jpg", "is_closed": false, "url": "https://www.yelp.com/biz/mannys-pizza-and-grinders-holyoke?adjust_creative=HdhkN5EEH6lAqE3kwhsHEQ&utm_campaign=yelp_api_v3&utm_medium=api_v3_business_search&utm_source=HdhkN5EEH6lAqE3kwhsHEQ", "review_count": 28, "categories": [{"alias": "pizza", "title": "Pizza"}, {"alias": "greek", "title": "Greek"}, {"alias": "salad", "title": "Salad"}], "rating": 3.5, "coordinates": {"latitude": 42.1872781, "longitude": -72.6498022}, "transactions": ["delivery"], "price": "$", "location": {"address1": "510 Westfield Rd", "address2": "", "address3": "", "city": "Holyoke", "zip_code": "01040", "country": "US", "state": "MA", "display_address": ["510 Westfield Rd", "Holyoke, MA 01040"]}, "phone": "+14135324550", "display_phone": "(413) 532-4550", "distance": 4091.1027856143583}, {"id": "KY4Whh3UVSZQ8mm9XSxTeA", "alias": "mrs-mitchells-kitchen-holyoke", "name": "Mrs. Mitchell's Kitchen", "image_url": "https://s3-media1.fl.yelpcdn.com/bphoto/C_fxb5xRx72M6CpcvIdcww/o.jpg", "is_closed": false, "url": "https://www.yelp.com/biz/mrs-mitchells-kitchen-holyoke?adjust_creative=HdhkN5EEH6lAqE3kwhsHEQ&utm_campaign=yelp_api_v3&utm_medium=api_v3_business_search&utm_source=HdhkN5EEH6lAqE3kwhsHEQ", "review_count": 33, "categories": [{"alias": "irish", "title": "Irish"}, {"alias": "tradamerican", "title": "American (Traditional)"}, {"alias": "coffee", "title": "Coffee & Tea"}], "rating": 3.5, "coordinates": {"latitude": 42.1871758, "longitude": -72.6501541}, "transactions": ["delivery"], "price": "$", "location": {"address1": "514 Westfield Rd", "address2": "", "address3": "", "city": "Holyoke", "zip_code": "01040", "country": "US", "state": "MA", "display_address": ["514 Westfield Rd", "Holyoke, MA 01040"]}, "phone": "+14133228816", "display_phone": "(413) 322-8816", "distance": 4109.023719307386}, {"id": "KVOvPk_P_mEoMqiY7VSSfw", "alias": "99-restaurants-chicopee-2", "name": "99 Restaurants", "image_url": "https://s3-media3.fl.yelpcdn.com/bphoto/vURGVc0-Sl2pv286qwuIWw/o.jpg", "is_closed": false, "url": "https://www.yelp.com/biz/99-restaurants-chicopee-2?adjust_creative=HdhkN5EEH6lAqE3kwhsHEQ&utm_campaign=yelp_api_v3&utm_medium=api_v3_business_search&utm_source=HdhkN5EEH6lAqE3kwhsHEQ", "review_count": 22, "categories": [{"alias": "hotdogs", "title": "Fast Food"}], "rating": 3.5, "coordinates": {"latitude": 42.1727982, "longitude": -72.5764923}, "transactions": [], "price": "$$", "location": {"address1": "555 Memorial Dr", "address2": "", "address3": "", "city": "Chicopee", "zip_code": "01020", "country": "US", "state": "MA", "display_address": ["555 Memorial Dr", "Chicopee, MA 01020"]}, "phone": "+14135939909", "display_phone": "(413) 593-9909", "distance": 4821.091620591401}, {"id": "6OU5tZ84LbP6RBDNtUBcFA", "alias": "pulaski-hall-chicopee", "name": "Pulaski Hall", "image_url": "https://s3-media2.fl.yelpcdn.com/bphoto/k73QJU0YindaeXxTPbI4fw/o.jpg", "is_closed": false, "url": "https://www.yelp.com/biz/pulaski-hall-chicopee?adjust_creative=HdhkN5EEH6lAqE3kwhsHEQ&utm_campaign=yelp_api_v3&utm_medium=api_v3_business_search&utm_source=HdhkN5EEH6lAqE3kwhsHEQ", "review_count": 8, "categories": [{"alias": "polish", "title": "Polish"}, {"alias": "tradamerican", "title": "American (Traditional)"}], "rating": 3.5, "coordinates": {"latitude": 42.1823313832283, "longitude": -72.6150839030743}, "transactions": ["delivery"], "price": "$$", "location": {"address1": "13 Norman St", "address2": "", "address3": "", "city": "Chicopee", "zip_code": "01013", "country": "US", "state": "MA", "display_address": ["13 Norman St", "Chicopee, MA 01013"]}, "phone": "+14135347388", "display_phone": "(413) 534-7388", "distance": 2920.375947531717}, {"id": "XP8bIKvA-tJPYdY3HSG36w", "alias": "friendlys-holyoke", "name": "Friendly's", "image_url": "https://s3-media4.fl.yelpcdn.com/bphoto/tgb61-LhB8vVN32SRHe72Q/o.jpg", "is_closed": false, "url": "https://www.yelp.com/biz/friendlys-holyoke?adjust_creative=HdhkN5EEH6lAqE3kwhsHEQ&utm_campaign=yelp_api_v3&utm_medium=api_v3_business_search&utm_source=HdhkN5EEH6lAqE3kwhsHEQ", "review_count": 29, "categories": [{"alias": "burgers", "title": "Burgers"}, {"alias": "icecream", "title": "Ice Cream & Frozen Yogurt"}, {"alias": "tradamerican", "title": "American (Traditional)"}], "rating": 2.0, "coordinates": {"latitude": 42.2044296264648, "longitude": -72.6312942504883}, "transactions": ["delivery"], "price": "$", "location": {"address1": "1745 Northampton St", "address2": null, "address3": null, "city": "Holyoke", "zip_code": "01040", "country": "US", "state": "MA", "display_address": ["1745 Northampton St", "Holyoke, MA 01040"]}, "phone": "+14135364332", "display_phone": "(413) 536-4332", "distance": 1824.8237463309124}, {"id": "XNB02eI2QAsjKYZtN-5bxw", "alias": "valley-view-grille-south-hadley", "name": "Valley View Grille", "image_url": "", "is_closed": false, "url": "https://www.yelp.com/biz/valley-view-grille-south-hadley?adjust_creative=HdhkN5EEH6lAqE3kwhsHEQ&utm_campaign=yelp_api_v3&utm_medium=api_v3_business_search&utm_source=HdhkN5EEH6lAqE3kwhsHEQ", "review_count": 1, "categories": [{"alias": "tradamerican", "title": "American (Traditional)"}, {"alias": "bars", "title": "Bars"}], "rating": 5.0, "coordinates": {"latitude": 42.243263, "longitude": -72.597899}, "transactions": [], "location": {"address1": "18 Mulligan Dr", "address2": "", "address3": "", "city": "South Hadley", "zip_code": "01075", "country": "US", "state": "MA", "display_address": ["18 Mulligan Dr", "South Hadley, MA 01075"]}, "phone": "+14135322307", "display_phone": "(413) 532-2307", "distance": 4020.391001725022}, {"id": "XaiXpzznUb9wpdZmO37iqQ", "alias": "real-china-restaurants-holyoke", "name": "Real China Restaurants", "image_url": "", "is_closed": false, "url": "https://www.yelp.com/biz/real-china-restaurants-holyoke?adjust_creative=HdhkN5EEH6lAqE3kwhsHEQ&utm_campaign=yelp_api_v3&utm_medium=api_v3_business_search&utm_source=HdhkN5EEH6lAqE3kwhsHEQ", "review_count": 8, "categories": [{"alias": "chinese", "title": "Chinese"}], "rating": 2.5, "coordinates": {"latitude": 42.2116813, "longitude": -72.6299171}, "transactions": ["delivery"], "price": "$", "location": {"address1": "1529 Northampton St", "address2": "", "address3": "", "city": "Holyoke", "zip_code": "01040", "country": "US", "state": "MA", "display_address": ["1529 Northampton St", "Holyoke, MA 01040"]}, "phone": "+14135320800", "display_phone": "(413) 532-0800", "distance": 1759.782927233277}, {"id": "CwV3ZD7qW9XNeL4dgCE6rQ", "alias": "red-robin-gourmet-burgers-and-brews-holyoke", "name": "Red Robin Gourmet Burgers and Brews", "image_url": "https://s3-media3.fl.yelpcdn.com/bphoto/ujZXX0qXQn7CMSWJkVByag/o.jpg", "is_closed": false, "url": "https://www.yelp.com/biz/red-robin-gourmet-burgers-and-brews-holyoke?adjust_creative=HdhkN5EEH6lAqE3kwhsHEQ&utm_campaign=yelp_api_v3&utm_medium=api_v3_business_search&utm_source=HdhkN5EEH6lAqE3kwhsHEQ", "review_count": 106, "categories": [{"alias": "burgers", "title": "Burgers"}, {"alias": "tradamerican", "title": "American (Traditional)"}], "rating": 3.0, "coordinates": {"latitude": 42.17361, "longitude": -72.64059}, "transactions": ["delivery"], "price": "$$", "location": {"address1": "27 Holyoke St", "address2": "", "address3": "", "city": "Holyoke", "zip_code": "01040", "country": "US", "state": "MA", "display_address": ["27 Holyoke St", "Holyoke, MA 01040"]}, "phone": "+14133154350", "display_phone": "(413) 315-4350", "distance": 4655.476474110542}, {"id": "E-5u0QKs_XRC2jTxFlKdvQ", "alias": "cracker-barrel-old-country-store-holyoke-2", "name": "Cracker Barrel Old Country Store", "image_url": "https://s3-media1.fl.yelpcdn.com/bphoto/3jylWbM5lUnEj__UQNvNoA/o.jpg", "is_closed": false, "url": "https://www.yelp.com/biz/cracker-barrel-old-country-store-holyoke-2?adjust_creative=HdhkN5EEH6lAqE3kwhsHEQ&utm_campaign=yelp_api_v3&utm_medium=api_v3_business_search&utm_source=HdhkN5EEH6lAqE3kwhsHEQ", "review_count": 99, "categories": [{"alias": "tradamerican", "title": "American (Traditional)"}, {"alias": "breakfast_brunch", "title": "Breakfast & Brunch"}, {"alias": "southern", "title": "Southern"}], "rating": 3.0, "coordinates": {"latitude": 42.1771, "longitude": -72.64163}, "transactions": ["delivery"], "price": "$$", "location": {"address1": "227 Whiting Farms Rd", "address2": "", "address3": "", "city": "Holyoke", "zip_code": "01040", "country": "US", "state": "MA", "display_address": ["227 Whiting Farms Rd", "Holyoke, MA 01040"]}, "phone": "+14134931831", "display_phone": "(413) 493-1831", "distance": 4369.873417897842}, {"id": "lVxHsAyvK2gVqZCZ7C1J6w", "alias": "chick-fil-a-chicopee", "name": "Chick-fil-A", "image_url": "https://s3-media2.fl.yelpcdn.com/bphoto/i58gwxnDfDTix1OagZLnuA/o.jpg", "is_closed": false, "url": "https://www.yelp.com/biz/chick-fil-a-chicopee?adjust_creative=HdhkN5EEH6lAqE3kwhsHEQ&utm_campaign=yelp_api_v3&utm_medium=api_v3_business_search&utm_source=HdhkN5EEH6lAqE3kwhsHEQ", "review_count": 105, "categories": [{"alias": "hotdogs", "title": "Fast Food"}, {"alias": "catering", "title": "Caterers"}], "rating": 4.5, "coordinates": {"latitude": 42.1712386, "longitude": -72.5765328}, "transactions": [], "price": "$", "location": {"address1": "501 Memorial Dr", "address2": "", "address3": "", "city": "Chicopee", "zip_code": "01020", "country": "US", "state": "MA", "display_address": ["501 Memorial Dr", "Chicopee, MA 01020"]}, "phone": "+14135924500", "display_phone": "(413) 592-4500", "distance": 4931.706140644081}, {"id": "TEMnHGEIkfXHcvtUAQ5TXQ", "alias": "magris-fruit-co-chicopee", "name": "Magri's Fruit Co", "image_url": "https://s3-media4.fl.yelpcdn.com/bphoto/-gExjGuizJJ0LO-D14UsbA/o.jpg", "is_closed": false, "url": "https://www.yelp.com/biz/magris-fruit-co-chicopee?adjust_creative=HdhkN5EEH6lAqE3kwhsHEQ&utm_campaign=yelp_api_v3&utm_medium=api_v3_business_search&utm_source=HdhkN5EEH6lAqE3kwhsHEQ", "review_count": 21, "categories": [{"alias": "markets", "title": "Fruits & Veggies"}, {"alias": "grocery", "title": "Grocery"}, {"alias": "delis", "title": "Delis"}], "rating": 4.5, "coordinates": {"latitude": 42.21206, "longitude": -72.57138}, "transactions": [], "price": "$$", "location": {"address1": "2009 Memorial Dr", "address2": "", "address3": "", "city": "Chicopee", "zip_code": "01020", "country": "US", "state": "MA", "display_address": ["2009 Memorial Dr", "Chicopee, MA 01020"]}, "phone": "+14135351200", "display_phone": "(413) 535-1200", "distance": 3185.2675891410136}, {"id": "tvueggrP5KaiDffyntzgOg", "alias": "parthenon-restaurant-south-hadley", "name": "Parthenon Restaurant", "image_url": "https://s3-media3.fl.yelpcdn.com/bphoto/D3tc0deMkPYz-xz2OZCKVw/o.jpg", "is_closed": false, "url": "https://www.yelp.com/biz/parthenon-restaurant-south-hadley?adjust_creative=HdhkN5EEH6lAqE3kwhsHEQ&utm_campaign=yelp_api_v3&utm_medium=api_v3_business_search&utm_source=HdhkN5EEH6lAqE3kwhsHEQ", "review_count": 31, "categories": [{"alias": "pizza", "title": "Pizza"}], "rating": 2.5, "coordinates": {"latitude": 42.2359205782413, "longitude": -72.5831394642591}, "transactions": ["delivery"], "price": "$$", "location": {"address1": "475 Newton St", "address2": "", "address3": "", "city": "South Hadley", "zip_code": "01075", "country": "US", "state": "MA", "display_address": ["475 Newton St", "South Hadley, MA 01075"]}, "phone": "+14135396612", "display_phone": "(413) 539-6612", "distance": 3818.11602382676}, {"id": "-xsl94xBmHk-AAn5tgeUMA", "alias": "italian-friendly-pizza-and-grinder-holyoke", "name": "Italian Friendly Pizza & Grinder", "image_url": "https://s3-media2.fl.yelpcdn.com/bphoto/k5YPD9nxNCPq_YIUAaoMWw/o.jpg", "is_closed": false, "url": "https://www.yelp.com/biz/italian-friendly-pizza-and-grinder-holyoke?adjust_creative=HdhkN5EEH6lAqE3kwhsHEQ&utm_campaign=yelp_api_v3&utm_medium=api_v3_business_search&utm_source=HdhkN5EEH6lAqE3kwhsHEQ", "review_count": 23, "categories": [{"alias": "pizza", "title": "Pizza"}, {"alias": "italian", "title": "Italian"}, {"alias": "chicken_wings", "title": "Chicken Wings"}], "rating": 3.5, "coordinates": {"latitude": 42.190713, "longitude": -72.640321}, "transactions": ["delivery"], "price": "$$", "location": {"address1": "274 Westfield Rd", "address2": null, "address3": "", "city": "Holyoke", "zip_code": "01040", "country": "US", "state": "MA", "display_address": ["274 Westfield Rd", "Holyoke, MA 01040"]}, "phone": "+14135331555", "display_phone": "(413) 533-1555", "distance": 3184.8644083999184}, {"id": "PyLrEZT7jxD0xtMRNGNx0A", "alias": "moes-southwest-grill-chicopee-2", "name": "Moe's Southwest Grill", "image_url": "https://s3-media2.fl.yelpcdn.com/bphoto/UnsGNthY_T90TF3M_ig9pg/o.jpg", "is_closed": false, "url": "https://www.yelp.com/biz/moes-southwest-grill-chicopee-2?adjust_creative=HdhkN5EEH6lAqE3kwhsHEQ&utm_campaign=yelp_api_v3&utm_medium=api_v3_business_search&utm_source=HdhkN5EEH6lAqE3kwhsHEQ", "review_count": 8, "categories": [{"alias": "tex-mex", "title": "Tex-Mex"}, {"alias": "mexican", "title": "Mexican"}], "rating": 3.0, "coordinates": {"latitude": 42.1741901, "longitude": -72.5762951}, "transactions": [], "price": "$", "location": {"address1": "601 Memorial Dr", "address2": null, "address3": null, "city": "Chicopee", "zip_code": "01020", "country": "US", "state": "MA", "display_address": ["601 Memorial Dr", "Chicopee, MA 01020"]}, "phone": "+14133314983", "display_phone": "(413) 331-4983", "distance": 4680.98691131252}, {"id": "KeUtE3Da2gjyFA7TglAuew", "alias": "popeyes-louisiana-kitchen-chicopee", "name": "Popeyes Louisiana Kitchen", "image_url": "https://s3-media1.fl.yelpcdn.com/bphoto/II7DKvUD7MW8-1a1ATcsxQ/o.jpg", "is_closed": false, "url": "https://www.yelp.com/biz/popeyes-louisiana-kitchen-chicopee?adjust_creative=HdhkN5EEH6lAqE3kwhsHEQ&utm_campaign=yelp_api_v3&utm_medium=api_v3_business_search&utm_source=HdhkN5EEH6lAqE3kwhsHEQ", "review_count": 33, "categories": [{"alias": "hotdogs", "title": "Fast Food"}, {"alias": "chicken_wings", "title": "Chicken Wings"}], "rating": 2.0, "coordinates": {"latitude": 42.178456, "longitude": -72.5763723349876}, "transactions": ["delivery", "pickup"], "price": "$", "location": {"address1": "753 Memorial Dr", "address2": "", "address3": "", "city": "Chicopee", "zip_code": "01020", "country": "US", "state": "MA", "display_address": ["753 Memorial Dr", "Chicopee, MA 01020"]}, "phone": "+14135933088", "display_phone": "(413) 593-3088", "distance": 4294.798130646391}, {"id": "5sK72J8uVtzjAquIP-36MQ", "alias": "pizza-stop-holyoke", "name": "Pizza stop", "image_url": "https://s3-media4.fl.yelpcdn.com/bphoto/ZRoOdbUhsrnmPiPA98jJNQ/o.jpg", "is_closed": false, "url": "https://www.yelp.com/biz/pizza-stop-holyoke?adjust_creative=HdhkN5EEH6lAqE3kwhsHEQ&utm_campaign=yelp_api_v3&utm_medium=api_v3_business_search&utm_source=HdhkN5EEH6lAqE3kwhsHEQ", "review_count": 1, "categories": [{"alias": "pizza", "title": "Pizza"}], "rating": 1.0, "coordinates": {"latitude": 42.2032089, "longitude": -72.6198425}, "transactions": [], "location": {"address1": "172 Sargeant St", "address2": "", "address3": "", "city": "Holyoke", "zip_code": "01040", "country": "US", "state": "MA", "display_address": ["172 Sargeant St", "Holyoke, MA 01040"]}, "phone": "+14134377932", "display_phone": "(413) 437-7932", "distance": 996.3450392581766}, {"id": "IgZ-wQgWx0VVqzQKqPmNWA", "alias": "chipotle-mexican-grill-holyoke-2", "name": "Chipotle Mexican Grill", "image_url": "https://s3-media3.fl.yelpcdn.com/bphoto/C_NgTnwsCtDjamcMEny_MQ/o.jpg", "is_closed": false, "url": "https://www.yelp.com/biz/chipotle-mexican-grill-holyoke-2?adjust_creative=HdhkN5EEH6lAqE3kwhsHEQ&utm_campaign=yelp_api_v3&utm_medium=api_v3_business_search&utm_source=HdhkN5EEH6lAqE3kwhsHEQ", "review_count": 17, "categories": [{"alias": "mexican", "title": "Mexican"}, {"alias": "hotdogs", "title": "Fast Food"}], "rating": 3.5, "coordinates": {"latitude": 42.175069, "longitude": -72.64161}, "transactions": ["delivery"], "price": "$", "location": {"address1": "235 Whiting Farms Rd", "address2": null, "address3": "", "city": "Holyoke", "zip_code": "01040", "country": "US", "state": "MA", "display_address": ["235 Whiting Farms Rd", "Holyoke, MA 01040"]}, "phone": "+14136500574", "display_phone": "(413) 650-0574", "distance": 4524.726014596162}, {"id": "oVNgpmnjWvDkFgRbudqBjw", "alias": "dugout-cafe-chicopee", "name": "Dugout Cafe", "image_url": "https://s3-media2.fl.yelpcdn.com/bphoto/pVS9ULqTe3rTzfPkZ1u6fQ/o.jpg", "is_closed": false, "url": "https://www.yelp.com/biz/dugout-cafe-chicopee?adjust_creative=HdhkN5EEH6lAqE3kwhsHEQ&utm_campaign=yelp_api_v3&utm_medium=api_v3_business_search&utm_source=HdhkN5EEH6lAqE3kwhsHEQ", "review_count": 4, "categories": [{"alias": "pizza", "title": "Pizza"}], "rating": 3.5, "coordinates": {"latitude": 42.18304, "longitude": -72.611173}, "transactions": ["delivery", "pickup"], "location": {"address1": "134 Meadow St", "address2": "", "address3": "", "city": "Chicopee", "zip_code": "01013", "country": "US", "state": "MA", "display_address": ["134 Meadow St", "Chicopee, MA 01013"]}, "phone": "+14135331799", "display_phone": "(413) 533-1799", "distance": 2794.5297669245906}, {"id": "NiyAPoAV2ygeqhCw0g7I-w", "alias": "paramount-pizza-slices-holyoke", "name": "Paramount Pizza Slices", "image_url": "https://s3-media1.fl.yelpcdn.com/bphoto/PbHHqR-e67C2W9mAWQomVQ/o.jpg", "is_closed": false, "url": "https://www.yelp.com/biz/paramount-pizza-slices-holyoke?adjust_creative=HdhkN5EEH6lAqE3kwhsHEQ&utm_campaign=yelp_api_v3&utm_medium=api_v3_business_search&utm_source=HdhkN5EEH6lAqE3kwhsHEQ", "review_count": 18, "categories": [{"alias": "pizza", "title": "Pizza"}], "rating": 3.5, "coordinates": {"latitude": 42.1831291, "longitude": -72.6314449}, "transactions": ["delivery"], "price": "$", "location": {"address1": "2287 Northampton St", "address2": "", "address3": "", "city": "Holyoke", "zip_code": "01040", "country": "US", "state": "MA", "display_address": ["2287 Northampton St", "Holyoke, MA 01040"]}, "phone": "+14135385544", "display_phone": "(413) 538-5544", "distance": 3473.438013425728}, {"id": "W0RYdButnTP-93nLxXS2_A", "alias": "buffalo-wild-wings-chicopee-4", "name": "Buffalo Wild Wings", "image_url": "https://s3-media2.fl.yelpcdn.com/bphoto/xztcf6o6U3D56PbgDN8ZoA/o.jpg", "is_closed": false, "url": "https://www.yelp.com/biz/buffalo-wild-wings-chicopee-4?adjust_creative=HdhkN5EEH6lAqE3kwhsHEQ&utm_campaign=yelp_api_v3&utm_medium=api_v3_business_search&utm_source=HdhkN5EEH6lAqE3kwhsHEQ", "review_count": 69, "categories": [{"alias": "chicken_wings", "title": "Chicken Wings"}, {"alias": "sportsbars", "title": "Sports Bars"}, {"alias": "tradamerican", "title": "American (Traditional)"}], "rating": 3.0, "coordinates": {"latitude": 42.1720313771595, "longitude": -72.577751}, "transactions": [], "price": "$$", "location": {"address1": "480 Memorial Dr", "address2": "", "address3": "", "city": "Chicopee", "zip_code": "01020", "country": "US", "state": "MA", "display_address": ["480 Memorial Dr", "Chicopee, MA 01020"]}, "phone": "+14133315041", "display_phone": "(413) 331-5041", "distance": 4802.848747083857}, {"id": "d1aIkleLYvp44c360dY_2g", "alias": "chicken-queen-chicopee-2", "name": "Chicken Queen", "image_url": "https://s3-media1.fl.yelpcdn.com/bphoto/JwB43P15poee27JVLTexMQ/o.jpg", "is_closed": false, "url": "https://www.yelp.com/biz/chicken-queen-chicopee-2?adjust_creative=HdhkN5EEH6lAqE3kwhsHEQ&utm_campaign=yelp_api_v3&utm_medium=api_v3_business_search&utm_source=HdhkN5EEH6lAqE3kwhsHEQ", "review_count": 12, "categories": [{"alias": "chicken_wings", "title": "Chicken Wings"}], "rating": 3.5, "coordinates": {"latitude": 42.1824989, "longitude": -72.5684128}, "transactions": ["delivery"], "price": "$", "location": {"address1": "1782 Westover Rd", "address2": null, "address3": null, "city": "Chicopee", "zip_code": "01020", "country": "US", "state": "MA", "display_address": ["1782 Westover Rd", "Chicopee, MA 01020"]}, "phone": "+14135931193", "display_phone": "(413) 593-1193", "distance": 4442.730505433785}, {"id": "MOc-ng3P6nEsuwhBPX_xNw", "alias": "golden-chopsticks-holyoke", "name": "Golden Chopsticks", "image_url": "https://s3-media1.fl.yelpcdn.com/bphoto/F8uTkL9hDRPiX8_nOGSVaQ/o.jpg", "is_closed": false, "url": "https://www.yelp.com/biz/golden-chopsticks-holyoke?adjust_creative=HdhkN5EEH6lAqE3kwhsHEQ&utm_campaign=yelp_api_v3&utm_medium=api_v3_business_search&utm_source=HdhkN5EEH6lAqE3kwhsHEQ", "review_count": 16, "categories": [{"alias": "chinese", "title": "Chinese"}], "rating": 2.5, "coordinates": {"latitude": 42.2047, "longitude": -72.63113}, "transactions": ["delivery"], "price": "$", "location": {"address1": "1735 Northampton St", "address2": "Ste 3", "address3": null, "city": "Holyoke", "zip_code": "01040", "country": "US", "state": "MA", "display_address": ["1735 Northampton St", "Ste 3", "Holyoke, MA 01040"]}, "phone": "+14135351717", "display_phone": "(413) 535-1717", "distance": 1814.690867378242}, {"id": "OYeRm1Z4dmeZu4pZKJUk5w", "alias": "ichiban-chinese-and-japanese-restaurant-south-hadley", "name": "Ichiban Chinese & Japanese Restaurant", "image_url": "https://s3-media4.fl.yelpcdn.com/bphoto/WH95bzpwO7avRs-dJdbTuA/o.jpg", "is_closed": false, "url": "https://www.yelp.com/biz/ichiban-chinese-and-japanese-restaurant-south-hadley?adjust_creative=HdhkN5EEH6lAqE3kwhsHEQ&utm_campaign=yelp_api_v3&utm_medium=api_v3_business_search&utm_source=HdhkN5EEH6lAqE3kwhsHEQ", "review_count": 95, "categories": [{"alias": "chinese", "title": "Chinese"}, {"alias": "japanese", "title": "Japanese"}, {"alias": "sushi", "title": "Sushi Bars"}], "rating": 3.5, "coordinates": {"latitude": 42.21556, "longitude": -72.57314}, "transactions": ["delivery"], "price": "$$", "location": {"address1": "2090 Memorial Dr", "address2": "", "address3": "", "city": "South Hadley", "zip_code": "01075", "country": "US", "state": "MA", "display_address": ["2090 Memorial Dr", "South Hadley, MA 01075"]}, "phone": "+14135339988", "display_phone": "(413) 533-9988", "distance": 3121.425534973726}, {"id": "-q_Sk-yHnfD_qlO9eao1QA", "alias": "applebees-grill-bar-holyoke", "name": "Applebee's Grill + Bar", "image_url": "https://s3-media3.fl.yelpcdn.com/bphoto/Sl9KKq2Txgl-oxip-QdYDw/o.jpg", "is_closed": false, "url": "https://www.yelp.com/biz/applebees-grill-bar-holyoke?adjust_creative=HdhkN5EEH6lAqE3kwhsHEQ&utm_campaign=yelp_api_v3&utm_medium=api_v3_business_search&utm_source=HdhkN5EEH6lAqE3kwhsHEQ", "review_count": 19, "categories": [{"alias": "tradamerican", "title": "American (Traditional)"}, {"alias": "sportsbars", "title": "Sports Bars"}, {"alias": "burgers", "title": "Burgers"}], "rating": 3.0, "coordinates": {"latitude": 42.175033693997, "longitude": -72.642032}, "transactions": ["delivery"], "price": "$$", "location": {"address1": "225 Whiting Farm Rd", "address2": "", "address3": null, "city": "Holyoke", "zip_code": "01040", "country": "US", "state": "MA", "display_address": ["225 Whiting Farm Rd", "Holyoke, MA 01040"]}, "phone": "+14135361082", "display_phone": "(413) 536-1082", "distance": 4548.211387954666}, {"id": "q7Sg9Er4M0xGogN0lxBctg", "alias": "burger-king-holyoke-2", "name": "Burger King", "image_url": "https://s3-media2.fl.yelpcdn.com/bphoto/0eUrPesh6XLc9DTL0SnrEQ/o.jpg", "is_closed": false, "url": "https://www.yelp.com/biz/burger-king-holyoke-2?adjust_creative=HdhkN5EEH6lAqE3kwhsHEQ&utm_campaign=yelp_api_v3&utm_medium=api_v3_business_search&utm_source=HdhkN5EEH6lAqE3kwhsHEQ", "review_count": 6, "categories": [{"alias": "burgers", "title": "Burgers"}, {"alias": "hotdogs", "title": "Fast Food"}], "rating": 2.0, "coordinates": {"latitude": 42.187238, "longitude": -72.630743}, "transactions": [], "price": "$", "location": {"address1": "2177 NORTHAMPTON ST", "address2": "", "address3": "", "city": "Holyoke", "zip_code": "01040", "country": "US", "state": "MA", "display_address": ["2177 NORTHAMPTON ST", "Holyoke, MA 01040"]}, "phone": "", "display_phone": "", "distance": 2902.0990917339386}, {"id": "PS7x5L3NOLdDZZVBydCJgA", "alias": "wings-over-chicopee-chicopee", "name": "Wings Over Chicopee", "image_url": "https://s3-media4.fl.yelpcdn.com/bphoto/X_eEHf3thxIkp8yNwRG7iw/o.jpg", "is_closed": false, "url": "https://www.yelp.com/biz/wings-over-chicopee-chicopee?adjust_creative=HdhkN5EEH6lAqE3kwhsHEQ&utm_campaign=yelp_api_v3&utm_medium=api_v3_business_search&utm_source=HdhkN5EEH6lAqE3kwhsHEQ", "review_count": 24, "categories": [{"alias": "chicken_wings", "title": "Chicken Wings"}, {"alias": "hotdogs", "title": "Fast Food"}, {"alias": "sandwiches", "title": "Sandwiches"}], "rating": 2.5, "coordinates": {"latitude": 42.1960501, "longitude": -72.5747773}, "transactions": [], "price": "$$", "location": {"address1": "1408 Memorial Dr", "address2": "", "address3": "", "city": "Chicopee", "zip_code": "01020", "country": "US", "state": "MA", "display_address": ["1408 Memorial Dr", "Chicopee, MA 01020"]}, "phone": "+14135399464", "display_phone": "(413) 539-9464", "distance": 3128.0745882615274}, {"id": "iRpB9gWZO8vl2OCYIMEyng", "alias": "panera-bread-chicopee", "name": "Panera Bread", "image_url": "https://s3-media2.fl.yelpcdn.com/bphoto/275W7cUbZ1yUri_ORxDkdQ/o.jpg", "is_closed": false, "url": "https://www.yelp.com/biz/panera-bread-chicopee?adjust_creative=HdhkN5EEH6lAqE3kwhsHEQ&utm_campaign=yelp_api_v3&utm_medium=api_v3_business_search&utm_source=HdhkN5EEH6lAqE3kwhsHEQ", "review_count": 14, "categories": [{"alias": "sandwiches", "title": "Sandwiches"}, {"alias": "salad", "title": "Salad"}, {"alias": "soup", "title": "Soup"}], "rating": 3.0, "coordinates": {"latitude": 42.174626, "longitude": -72.575755}, "transactions": ["delivery"], "price": "$", "location": {"address1": "601 Memorial Dr", "address2": "Ste G", "address3": null, "city": "Chicopee", "zip_code": "01020", "country": "US", "state": "MA", "display_address": ["601 Memorial Dr", "Ste G", "Chicopee, MA 01020"]}, "phone": "+14135931800", "display_phone": "(413) 593-1800", "distance": 4660.828791306864}, {"id": "KI53NtpdG9FurpmDP5r3AA", "alias": "ninety-nine-chicopee", "name": "Ninety Nine", "image_url": "", "is_closed": false, "url": "https://www.yelp.com/biz/ninety-nine-chicopee?adjust_creative=HdhkN5EEH6lAqE3kwhsHEQ&utm_campaign=yelp_api_v3&utm_medium=api_v3_business_search&utm_source=HdhkN5EEH6lAqE3kwhsHEQ", "review_count": 5, "categories": [{"alias": "tradamerican", "title": "American (Traditional)"}], "rating": 5.0, "coordinates": {"latitude": 42.1729378403022, "longitude": -72.5761985778809}, "transactions": [], "price": "$$", "location": {"address1": "555 Memorial Dr", "address2": "", "address3": "", "city": "Chicopee", "zip_code": "01020", "country": "US", "state": "MA", "display_address": ["555 Memorial Dr", "Chicopee, MA 01020"]}, "phone": "", "display_phone": "", "distance": 4791.27752476924}, {"id": "KrAA8btBrdkfqOQYaxlnMw", "alias": "mi-isla-bakery-and-restaurant-chicopee-2", "name": "Mi Isla Bakery & Restaurant", "image_url": "", "is_closed": false, "url": "https://www.yelp.com/biz/mi-isla-bakery-and-restaurant-chicopee-2?adjust_creative=HdhkN5EEH6lAqE3kwhsHEQ&utm_campaign=yelp_api_v3&utm_medium=api_v3_business_search&utm_source=HdhkN5EEH6lAqE3kwhsHEQ", "review_count": 2, "categories": [{"alias": "latin", "title": "Latin American"}, {"alias": "bakeries", "title": "Bakeries"}, {"alias": "breakfast_brunch", "title": "Breakfast & Brunch"}], "rating": 5.0, "coordinates": {"latitude": 42.1867979, "longitude": -72.6083284}, "transactions": [], "location": {"address1": "738 Chicopee St", "address2": "", "address3": null, "city": "Chicopee", "zip_code": "01013", "country": "US", "state": "MA", "display_address": ["738 Chicopee St", "Chicopee, MA 01013"]}, "phone": "+14134378501", "display_phone": "(413) 437-8501", "distance": 2382.0977092552225}, {"id": "o25ce2CeQyYbmuOxIUyiLA", "alias": "egg-and-i-south-hadley", "name": "Egg & I", "image_url": "https://s3-media4.fl.yelpcdn.com/bphoto/1nyBM-cZHcHhRAyMBL4PBw/o.jpg", "is_closed": false, "url": "https://www.yelp.com/biz/egg-and-i-south-hadley?adjust_creative=HdhkN5EEH6lAqE3kwhsHEQ&utm_campaign=yelp_api_v3&utm_medium=api_v3_business_search&utm_source=HdhkN5EEH6lAqE3kwhsHEQ", "review_count": 36, "categories": [{"alias": "breakfast_brunch", "title": "Breakfast & Brunch"}, {"alias": "tradamerican", "title": "American (Traditional)"}, {"alias": "diners", "title": "Diners"}], "rating": 3.5, "coordinates": {"latitude": 42.2368092, "longitude": -72.5817893}, "transactions": ["delivery"], "price": "$", "location": {"address1": "489 Newton St", "address2": "", "address3": "", "city": "South Hadley", "zip_code": "01075", "country": "US", "state": "MA", "display_address": ["489 Newton St", "South Hadley, MA 01075"]}, "phone": "+14133228753", "display_phone": "(413) 322-8753", "distance": 3925.6125055258367}, {"id": "U61KHNlv-EVU88S7BuJXrA", "alias": "subway-holyoke-7", "name": "Subway", "image_url": "https://s3-media1.fl.yelpcdn.com/bphoto/YJD9Zyoz8P8vQg_zy-Ig2g/o.jpg", "is_closed": false, "url": "https://www.yelp.com/biz/subway-holyoke-7?adjust_creative=HdhkN5EEH6lAqE3kwhsHEQ&utm_campaign=yelp_api_v3&utm_medium=api_v3_business_search&utm_source=HdhkN5EEH6lAqE3kwhsHEQ", "review_count": 5, "categories": [{"alias": "sandwiches", "title": "Sandwiches"}], "rating": 2.5, "coordinates": {"latitude": 42.212013939613, "longitude": -72.6290156373449}, "transactions": ["delivery", "pickup"], "price": "$", "location": {"address1": "1506 Northhampton St", "address2": "", "address3": "", "city": "Holyoke", "zip_code": "01040", "country": "US", "state": "MA", "display_address": ["1506 Northhampton St", "Holyoke, MA 01040"]}, "phone": "+14135323060", "display_phone": "(413) 532-3060", "distance": 1649.3451219006313}, {"id": "DouCHYOwUc1KzZzE-AK-4w", "alias": "dennys-holyoke", "name": "Denny's", "image_url": "https://s3-media1.fl.yelpcdn.com/bphoto/K6PNk6vtO4W2hM5u8oqh4g/o.jpg", "is_closed": false, "url": "https://www.yelp.com/biz/dennys-holyoke?adjust_creative=HdhkN5EEH6lAqE3kwhsHEQ&utm_campaign=yelp_api_v3&utm_medium=api_v3_business_search&utm_source=HdhkN5EEH6lAqE3kwhsHEQ", "review_count": 25, "categories": [{"alias": "tradamerican", "title": "American (Traditional)"}, {"alias": "breakfast_brunch", "title": "Breakfast & Brunch"}, {"alias": "diners", "title": "Diners"}], "rating": 2.0, "coordinates": {"latitude": 42.187850871717, "longitude": -72.6305562257767}, "transactions": ["delivery", "pickup"], "price": "$", "location": {"address1": "2173 Northampton St", "address2": "", "address3": "", "city": "Holyoke", "zip_code": "01040", "country": "US", "state": "MA", "display_address": ["2173 Northampton St", "Holyoke, MA 01040"]}, "phone": "+14135327554", "display_phone": "(413) 532-7554", "distance": 2840.0878486408674}, {"id": "VzziYtDR9pbfre0le3uIRA", "alias": "dinos-pizza-restaurant-holyoke", "name": "Dino's Pizza Restaurant", "image_url": "https://s3-media2.fl.yelpcdn.com/bphoto/dgFPR-1UVKh_pJnqC2GLRA/o.jpg", "is_closed": false, "url": "https://www.yelp.com/biz/dinos-pizza-restaurant-holyoke?adjust_creative=HdhkN5EEH6lAqE3kwhsHEQ&utm_campaign=yelp_api_v3&utm_medium=api_v3_business_search&utm_source=HdhkN5EEH6lAqE3kwhsHEQ", "review_count": 19, "categories": [{"alias": "pizza", "title": "Pizza"}, {"alias": "indpak", "title": "Indian"}], "rating": 3.0, "coordinates": {"latitude": 42.1862259, "longitude": -72.6508179}, "transactions": ["delivery"], "price": "$$", "location": {"address1": "615 Homestead Ave", "address2": null, "address3": null, "city": "Holyoke", "zip_code": "01040", "country": "US", "state": "MA", "display_address": ["615 Homestead Ave", "Holyoke, MA 01040"]}, "phone": "+14133156590", "display_phone": "(413) 315-6590", "distance": 4193.798075372006}, {"id": "9ePjPHx19JxwUbgd55KZiA", "alias": "dairy-queen-grill-and-chill-chicopee", "name": "Dairy Queen Grill & Chill", "image_url": "https://s3-media4.fl.yelpcdn.com/bphoto/w6MxLHE-D9ZADgykqcBLVA/o.jpg", "is_closed": false, "url": "https://www.yelp.com/biz/dairy-queen-grill-and-chill-chicopee?adjust_creative=HdhkN5EEH6lAqE3kwhsHEQ&utm_campaign=yelp_api_v3&utm_medium=api_v3_business_search&utm_source=HdhkN5EEH6lAqE3kwhsHEQ", "review_count": 12, "categories": [{"alias": "icecream", "title": "Ice Cream & Frozen Yogurt"}, {"alias": "burgers", "title": "Burgers"}, {"alias": "hotdogs", "title": "Fast Food"}], "rating": 3.0, "coordinates": {"latitude": 42.1995837056037, "longitude": -72.5726885301992}, "transactions": [], "price": "$", "location": {"address1": "1535 Memorial Dr", "address2": "", "address3": "", "city": "Chicopee", "zip_code": "01020", "country": "US", "state": "MA", "display_address": ["1535 Memorial Dr", "Chicopee, MA 01020"]}, "phone": "+14135353005", "display_phone": "(413) 535-3005", "distance": 3192.5503573123265}, {"id": "zd4eEblxwqCawQa0xW78gA", "alias": "lucky-strike-restaurant-chicopee", "name": "Lucky Strike Restaurant", "image_url": "https://s3-media1.fl.yelpcdn.com/bphoto/nix50nZbSZPveSjmYc3W9w/o.jpg", "is_closed": false, "url": "https://www.yelp.com/biz/lucky-strike-restaurant-chicopee?adjust_creative=HdhkN5EEH6lAqE3kwhsHEQ&utm_campaign=yelp_api_v3&utm_medium=api_v3_business_search&utm_source=HdhkN5EEH6lAqE3kwhsHEQ", "review_count": 44, "categories": [{"alias": "breakfast_brunch", "title": "Breakfast & Brunch"}, {"alias": "tradamerican", "title": "American (Traditional)"}], "rating": 3.5, "coordinates": {"latitude": 42.17417, "longitude": -72.59973}, "transactions": ["delivery"], "price": "$$", "location": {"address1": "703 Grattan St", "address2": "", "address3": "", "city": "Chicopee", "zip_code": "01020", "country": "US", "state": "MA", "display_address": ["703 Grattan St", "Chicopee, MA 01020"]}, "phone": "+14135367912", "display_phone": "(413) 536-7912", "distance": 3869.0756144121888}, {"id": "jK40SlN459S34psCzLn1iQ", "alias": "cavalier-banquet-hall-chicopee", "name": "Cavalier Banquet Hall", "image_url": "https://s3-media3.fl.yelpcdn.com/bphoto/NIv7kj5fQHMaLxRj-gtKlA/o.jpg", "is_closed": false, "url": "https://www.yelp.com/biz/cavalier-banquet-hall-chicopee?adjust_creative=HdhkN5EEH6lAqE3kwhsHEQ&utm_campaign=yelp_api_v3&utm_medium=api_v3_business_search&utm_source=HdhkN5EEH6lAqE3kwhsHEQ", "review_count": 20, "categories": [{"alias": "portuguese", "title": "Portuguese"}, {"alias": "venues", "title": "Venues & Event Spaces"}, {"alias": "bars", "title": "Bars"}], "rating": 3.0, "coordinates": {"latitude": 42.1711858703906, "longitude": -72.6239132371885}, "transactions": [], "price": "$$", "location": {"address1": "366 Chicopee St", "address2": "", "address3": "", "city": "Chicopee", "zip_code": "01013", "country": "US", "state": "MA", "display_address": ["366 Chicopee St", "Chicopee, MA 01013"]}, "phone": "+14135339195", "display_phone": "(413) 533-9195", "distance": 4276.91181135362}, {"id": "jafgjkpKBWYXxY96ucrnqg", "alias": "brothers-pizza-chicopee", "name": "Brothers Pizza", "image_url": "https://s3-media4.fl.yelpcdn.com/bphoto/KreFoMvBsZPkrl-Xc2aV0g/o.jpg", "is_closed": false, "url": "https://www.yelp.com/biz/brothers-pizza-chicopee?adjust_creative=HdhkN5EEH6lAqE3kwhsHEQ&utm_campaign=yelp_api_v3&utm_medium=api_v3_business_search&utm_source=HdhkN5EEH6lAqE3kwhsHEQ", "review_count": 23, "categories": [{"alias": "pizza", "title": "Pizza"}], "rating": 3.5, "coordinates": {"latitude": 42.17286, "longitude": -72.599}, "transactions": ["delivery"], "price": "$", "location": {"address1": "653 Grattan St", "address2": "", "address3": "", "city": "Chicopee", "zip_code": "01020", "country": "US", "state": "MA", "display_address": ["653 Grattan St", "Chicopee, MA 01020"]}, "phone": "+14135328452", "display_phone": "(413) 532-8452", "distance": 4024.8256572160817}, {"id": "w075_vGlTgaS2ThtTf-p9w", "alias": "dominos-pizza-holyoke-2", "name": "Domino's Pizza", "image_url": "", "is_closed": false, "url": "https://www.yelp.com/biz/dominos-pizza-holyoke-2?adjust_creative=HdhkN5EEH6lAqE3kwhsHEQ&utm_campaign=yelp_api_v3&utm_medium=api_v3_business_search&utm_source=HdhkN5EEH6lAqE3kwhsHEQ", "review_count": 2, "categories": [{"alias": "chicken_wings", "title": "Chicken Wings"}, {"alias": "pizza", "title": "Pizza"}, {"alias": "sandwiches", "title": "Sandwiches"}], "rating": 3.0, "coordinates": {"latitude": 42.210575, "longitude": -72.627602}, "transactions": [], "price": "$", "location": {"address1": "1534 Dwight St", "address2": null, "address3": null, "city": "Holyoke", "zip_code": "01040", "country": "US", "state": "MA", "display_address": ["1534 Dwight St", "Holyoke, MA 01040"]}, "phone": "+14135331155", "display_phone": "(413) 533-1155", "distance": 1503.8996843172947}, {"id": "_KpFszaYzoyf77B0FC3yrg", "alias": "c-and-t-pizza-chicopee", "name": "C and T Pizza", "image_url": "https://s3-media2.fl.yelpcdn.com/bphoto/4IyVYz_KKygmo_WkwcnAig/o.jpg", "is_closed": false, "url": "https://www.yelp.com/biz/c-and-t-pizza-chicopee?adjust_creative=HdhkN5EEH6lAqE3kwhsHEQ&utm_campaign=yelp_api_v3&utm_medium=api_v3_business_search&utm_source=HdhkN5EEH6lAqE3kwhsHEQ", "review_count": 4, "categories": [{"alias": "pizza", "title": "Pizza"}], "rating": 3.5, "coordinates": {"latitude": 42.1914, "longitude": -72.60181}, "transactions": ["delivery"], "price": "$", "location": {"address1": "982 Chicopee St", "address2": "", "address3": "", "city": "Chicopee", "zip_code": "01013", "country": "US", "state": "MA", "display_address": ["982 Chicopee St", "Chicopee, MA 01013"]}, "phone": "+14135340736", "display_phone": "(413) 534-0736", "distance": 1971.8949377072863}, {"id": "k_A4zra7Zt7rRtXWtMLCIQ", "alias": "d-angelo-holyoke", "name": "D'Angelo", "image_url": "https://s3-media4.fl.yelpcdn.com/bphoto/_NnQ8xZ0hO2gTN0LCmzAGg/o.jpg", "is_closed": false, "url": "https://www.yelp.com/biz/d-angelo-holyoke?adjust_creative=HdhkN5EEH6lAqE3kwhsHEQ&utm_campaign=yelp_api_v3&utm_medium=api_v3_business_search&utm_source=HdhkN5EEH6lAqE3kwhsHEQ", "review_count": 7, "categories": [{"alias": "sandwiches", "title": "Sandwiches"}], "rating": 3.5, "coordinates": {"latitude": 42.1879512, "longitude": -72.6301609}, "transactions": ["delivery"], "price": "$", "location": {"address1": "2175 Northampton St", "address2": "", "address3": "", "city": "Holyoke", "zip_code": "01040", "country": "US", "state": "MA", "display_address": ["2175 Northampton St", "Holyoke, MA 01040"]}, "phone": "+14135327370", "display_phone": "(413) 532-7370", "distance": 2888.5970100431446}, {"id": "EKHfQcuswfkPv3Y6VUpULg", "alias": "five-guys-chicopee-2", "name": "Five Guys", "image_url": "https://s3-media2.fl.yelpcdn.com/bphoto/VjbJ1oYKGqsZreMkC6CRzQ/o.jpg", "is_closed": false, "url": "https://www.yelp.com/biz/five-guys-chicopee-2?adjust_creative=HdhkN5EEH6lAqE3kwhsHEQ&utm_campaign=yelp_api_v3&utm_medium=api_v3_business_search&utm_source=HdhkN5EEH6lAqE3kwhsHEQ", "review_count": 4, "categories": [{"alias": "burgers", "title": "Burgers"}], "rating": 3.5, "coordinates": {"latitude": 42.171875, "longitude": -72.577848}, "transactions": ["delivery", "pickup"], "location": {"address1": "474 Memorial Dr", "address2": "", "address3": null, "city": "Chicopee", "zip_code": "01020", "country": "US", "state": "MA", "display_address": ["474 Memorial Dr", "Chicopee, MA 01020"]}, "phone": "+14133312227", "display_phone": "(413) 331-2227", "distance": 4813.051721101239}, {"id": "w1A6eJRKkOn-zN_qi4W4Mw", "alias": "sarahs-place-breakfast-and-lunch-chicopee", "name": "Sarah's Place Breakfast & Lunch", "image_url": "https://s3-media2.fl.yelpcdn.com/bphoto/_lEGrcN9k2mMqJBrOfIvww/o.jpg", "is_closed": false, "url": "https://www.yelp.com/biz/sarahs-place-breakfast-and-lunch-chicopee?adjust_creative=HdhkN5EEH6lAqE3kwhsHEQ&utm_campaign=yelp_api_v3&utm_medium=api_v3_business_search&utm_source=HdhkN5EEH6lAqE3kwhsHEQ", "review_count": 2, "categories": [{"alias": "tradamerican", "title": "American (Traditional)"}, {"alias": "soup", "title": "Soup"}], "rating": 2.0, "coordinates": {"latitude": 42.1902403, "longitude": -72.6029117}, "transactions": ["delivery"], "price": "$", "location": {"address1": "930 Chicopee St", "address2": null, "address3": "", "city": "Chicopee", "zip_code": "01013", "country": "US", "state": "MA", "display_address": ["930 Chicopee St", "Chicopee, MA 01013"]}, "phone": "+14134378100", "display_phone": "(413) 437-8100", "distance": 2076.217769658744}, {"id": "WmHT7UNPMELnqYtnmWgJkw", "alias": "d-angelo-sandwich-shops-chicopee", "name": "D'angelo Sandwich Shops", "image_url": "https://s3-media3.fl.yelpcdn.com/bphoto/YCro4BiGqWfMhLqKk8Z2lw/o.jpg", "is_closed": false, "url": "https://www.yelp.com/biz/d-angelo-sandwich-shops-chicopee?adjust_creative=HdhkN5EEH6lAqE3kwhsHEQ&utm_campaign=yelp_api_v3&utm_medium=api_v3_business_search&utm_source=HdhkN5EEH6lAqE3kwhsHEQ", "review_count": 6, "categories": [{"alias": "sandwiches", "title": "Sandwiches"}], "rating": 4.0, "coordinates": {"latitude": 42.201063, "longitude": -72.574456}, "transactions": ["delivery"], "price": "$$", "location": {"address1": "1606 Memorial Dr", "address2": "", "address3": "", "city": "Chicopee", "zip_code": "01020", "country": "US", "state": "MA", "display_address": ["1606 Memorial Dr", "Chicopee, MA 01020"]}, "phone": "+14135339486", "display_phone": "(413) 533-9486", "distance": 3006.5290539571515}, {"id": "fO60qUuyryEPxSWUDtJQDg", "alias": "barnes-and-noble-booksellers-holyoke-holyoke", "name": "Barnes & Noble Booksellers Holyoke", "image_url": "https://s3-media2.fl.yelpcdn.com/bphoto/r4bdpET3K82EUBhm2Ew_nQ/o.jpg", "is_closed": false, "url": "https://www.yelp.com/biz/barnes-and-noble-booksellers-holyoke-holyoke?adjust_creative=HdhkN5EEH6lAqE3kwhsHEQ&utm_campaign=yelp_api_v3&utm_medium=api_v3_business_search&utm_source=HdhkN5EEH6lAqE3kwhsHEQ", "review_count": 22, "categories": [{"alias": "mags", "title": "Newspapers & Magazines"}, {"alias": "musicvideo", "title": "Music & DVDs"}, {"alias": "cafes", "title": "Cafes"}], "rating": 3.5, "coordinates": {"latitude": 42.1736101306334, "longitude": -72.6412096016052}, "transactions": [], "price": "$$", "location": {"address1": "7 Holyoke St", "address2": "", "address3": "", "city": "Holyoke", "zip_code": "01040", "country": "US", "state": "MA", "display_address": ["7 Holyoke St", "Holyoke, MA 01040"]}, "phone": "+14135323200", "display_phone": "(413) 532-3200", "distance": 4639.115339762735}, {"id": "dRliKAp38ZLJzirz5Gy66Q", "alias": "friendlys-chicopee", "name": "Friendly's", "image_url": "https://s3-media2.fl.yelpcdn.com/bphoto/Rb1UHBPf8ECcWK9DTbLvxg/o.jpg", "is_closed": false, "url": "https://www.yelp.com/biz/friendlys-chicopee?adjust_creative=HdhkN5EEH6lAqE3kwhsHEQ&utm_campaign=yelp_api_v3&utm_medium=api_v3_business_search&utm_source=HdhkN5EEH6lAqE3kwhsHEQ", "review_count": 25, "categories": [{"alias": "burgers", "title": "Burgers"}, {"alias": "icecream", "title": "Ice Cream & Frozen Yogurt"}, {"alias": "tradamerican", "title": "American (Traditional)"}], "rating": 2.0, "coordinates": {"latitude": 42.1719131, "longitude": -72.576767}, "transactions": ["delivery"], "price": "$", "location": {"address1": "529 Memorial Dr", "address2": null, "address3": null, "city": "Chicopee", "zip_code": "01020", "country": "US", "state": "MA", "display_address": ["529 Memorial Dr", "Chicopee, MA 01020"]}, "phone": "+14135924221", "display_phone": "(413) 592-4221", "distance": 4854.001800633405}, {"id": "qY0pkCBYMrIQIWjSfB8A7w", "alias": "rt-33-pizza-house-south-hadley", "name": "Rt 33 Pizza House", "image_url": "https://s3-media2.fl.yelpcdn.com/bphoto/EcgGU9y41iRUh1wSI0BhNQ/o.jpg", "is_closed": false, "url": "https://www.yelp.com/biz/rt-33-pizza-house-south-hadley?adjust_creative=HdhkN5EEH6lAqE3kwhsHEQ&utm_campaign=yelp_api_v3&utm_medium=api_v3_business_search&utm_source=HdhkN5EEH6lAqE3kwhsHEQ", "review_count": 10, "categories": [{"alias": "pizza", "title": "Pizza"}], "rating": 3.0, "coordinates": {"latitude": 42.2149732, "longitude": -72.5727152}, "transactions": ["delivery"], "price": "$", "location": {"address1": "2080 Memorial Dr", "address2": "", "address3": "", "city": "South Hadley", "zip_code": "01075", "country": "US", "state": "MA", "display_address": ["2080 Memorial Dr", "South Hadley, MA 01075"]}, "phone": "+14135352002", "display_phone": "(413) 535-2002", "distance": 3110.4713120474576}, {"id": "gpDhpHjVqHaXNLBRqOU4pA", "alias": "great-china-restaurant-chicopee", "name": "Great China Restaurant", "image_url": "https://s3-media1.fl.yelpcdn.com/bphoto/nfKOdvh8cxtGx6RNGE4xjg/o.jpg", "is_closed": false, "url": "https://www.yelp.com/biz/great-china-restaurant-chicopee?adjust_creative=HdhkN5EEH6lAqE3kwhsHEQ&utm_campaign=yelp_api_v3&utm_medium=api_v3_business_search&utm_source=HdhkN5EEH6lAqE3kwhsHEQ", "review_count": 12, "categories": [{"alias": "chinese", "title": "Chinese"}], "rating": 2.5, "coordinates": {"latitude": 42.17399, "longitude": -72.59905}, "transactions": ["delivery", "pickup"], "price": "$", "location": {"address1": "690 Grattan St", "address2": "", "address3": "", "city": "Chicopee", "zip_code": "01020", "country": "US", "state": "MA", "display_address": ["690 Grattan St", "Chicopee, MA 01020"]}, "phone": "+14135345600", "display_phone": "(413) 534-5600", "distance": 3900.03334599449}, {"id": "4j6U3vQsFzAkum54IJzDHw", "alias": "ledges-golf-club-south-hadley", "name": "Ledges Golf Club", "image_url": "https://s3-media3.fl.yelpcdn.com/bphoto/6uqKP_hHY6TSNF5HYkDoBQ/o.jpg", "is_closed": false, "url": "https://www.yelp.com/biz/ledges-golf-club-south-hadley?adjust_creative=HdhkN5EEH6lAqE3kwhsHEQ&utm_campaign=yelp_api_v3&utm_medium=api_v3_business_search&utm_source=HdhkN5EEH6lAqE3kwhsHEQ", "review_count": 10, "categories": [{"alias": "golf", "title": "Golf"}, {"alias": "tradamerican", "title": "American (Traditional)"}], "rating": 2.5, "coordinates": {"latitude": 42.240424, "longitude": -72.606663}, "transactions": [], "location": {"address1": "18 Mulligan Dr", "address2": "", "address3": "", "city": "South Hadley", "zip_code": "01075", "country": "US", "state": "MA", "display_address": ["18 Mulligan Dr", "South Hadley, MA 01075"]}, "phone": "+14135322307", "display_phone": "(413) 532-2307", "distance": 3594.6312774074504}, {"id": "qjlYAiX-CyZyQA0pjq5ggg", "alias": "mr-cone-chicopee", "name": "Mr. Cone", "image_url": "https://s3-media4.fl.yelpcdn.com/bphoto/508t_GGQ28kmrjqHs_M6mw/o.jpg", "is_closed": false, "url": "https://www.yelp.com/biz/mr-cone-chicopee?adjust_creative=HdhkN5EEH6lAqE3kwhsHEQ&utm_campaign=yelp_api_v3&utm_medium=api_v3_business_search&utm_source=HdhkN5EEH6lAqE3kwhsHEQ", "review_count": 10, "categories": [{"alias": "hotdogs", "title": "Fast Food"}, {"alias": "icecream", "title": "Ice Cream & Frozen Yogurt"}], "rating": 4.0, "coordinates": {"latitude": 42.1717529296875, "longitude": -72.5900344848633}, "transactions": [], "price": "$", "location": {"address1": "1048 Granby Rd", "address2": null, "address3": null, "city": "Chicopee", "zip_code": "01020", "country": "US", "state": "MA", "display_address": ["1048 Granby Rd", "Chicopee, MA 01020"]}, "phone": "+14133158585", "display_phone": "(413) 315-8585", "distance": 4356.339843890477}, {"id": "3OF6Wxw5GNUcj6W8tyKvNA", "alias": "giovannis-pizza-shop-chicopee", "name": "Giovanni's Pizza Shop", "image_url": "https://s3-media1.fl.yelpcdn.com/bphoto/fSt2rFDuekYFBO5_0WcUhQ/o.jpg", "is_closed": false, "url": "https://www.yelp.com/biz/giovannis-pizza-shop-chicopee?adjust_creative=HdhkN5EEH6lAqE3kwhsHEQ&utm_campaign=yelp_api_v3&utm_medium=api_v3_business_search&utm_source=HdhkN5EEH6lAqE3kwhsHEQ", "review_count": 24, "categories": [{"alias": "pizza", "title": "Pizza"}], "rating": 2.5, "coordinates": {"latitude": 42.2086591, "longitude": -72.5711535}, "transactions": ["delivery", "pickup"], "price": "$", "location": {"address1": "1885 Memorial Dr", "address2": "", "address3": "", "city": "Chicopee", "zip_code": "01020", "country": "US", "state": "MA", "display_address": ["1885 Memorial Dr", "Chicopee, MA 01020"]}, "phone": "+14135361057", "display_phone": "(413) 536-1057", "distance": 3200.328800200086}, {"id": "Fv2wbCAMbpPQNigK-G7GSA", "alias": "boston-bay-pizza-chicopee-3", "name": "Boston Bay Pizza", "image_url": "https://s3-media2.fl.yelpcdn.com/bphoto/xj1dFJ7H-3Y51Fi5Qn4SZg/o.jpg", "is_closed": false, "url": "https://www.yelp.com/biz/boston-bay-pizza-chicopee-3?adjust_creative=HdhkN5EEH6lAqE3kwhsHEQ&utm_campaign=yelp_api_v3&utm_medium=api_v3_business_search&utm_source=HdhkN5EEH6lAqE3kwhsHEQ", "review_count": 32, "categories": [{"alias": "pizza", "title": "Pizza"}], "rating": 2.5, "coordinates": {"latitude": 42.173596, "longitude": -72.5870064}, "transactions": ["delivery", "pickup"], "price": "$", "location": {"address1": "515 Montgomery St", "address2": "", "address3": "", "city": "Chicopee", "zip_code": "01020", "country": "US", "state": "MA", "display_address": ["515 Montgomery St", "Chicopee, MA 01020"]}, "phone": "+14138883000", "display_phone": "(413) 888-3000", "distance": 4274.3291998563045}, {"id": "29e2DQrQzYrqKnzuXYoE2Q", "alias": "applebees-grill-bar-chicopee", "name": "Applebee's Grill + Bar", "image_url": "https://s3-media2.fl.yelpcdn.com/bphoto/VtdymByGSeb8Cm0sZRZNDQ/o.jpg", "is_closed": false, "url": "https://www.yelp.com/biz/applebees-grill-bar-chicopee?adjust_creative=HdhkN5EEH6lAqE3kwhsHEQ&utm_campaign=yelp_api_v3&utm_medium=api_v3_business_search&utm_source=HdhkN5EEH6lAqE3kwhsHEQ", "review_count": 23, "categories": [{"alias": "tradamerican", "title": "American (Traditional)"}, {"alias": "sportsbars", "title": "Sports Bars"}, {"alias": "burgers", "title": "Burgers"}], "rating": 3.0, "coordinates": {"latitude": 42.1735, "longitude": -72.5756}, "transactions": ["delivery"], "price": "$$", "location": {"address1": "597 Memorial Dr", "address2": null, "address3": null, "city": "Chicopee", "zip_code": "01020", "country": "US", "state": "MA", "display_address": ["597 Memorial Dr", "Chicopee, MA 01020"]}, "phone": "+14135930134", "display_phone": "(413) 593-0134", "distance": 4769.148790353841}, {"id": "CfABbW2CXgLPF2j-gQGgMg", "alias": "maggios-pizza-chicopee", "name": "Maggio's Pizza", "image_url": "https://s3-media1.fl.yelpcdn.com/bphoto/qefyd_TPuO7l20llkd7UHg/o.jpg", "is_closed": false, "url": "https://www.yelp.com/biz/maggios-pizza-chicopee?adjust_creative=HdhkN5EEH6lAqE3kwhsHEQ&utm_campaign=yelp_api_v3&utm_medium=api_v3_business_search&utm_source=HdhkN5EEH6lAqE3kwhsHEQ", "review_count": 13, "categories": [{"alias": "pizza", "title": "Pizza"}], "rating": 3.0, "coordinates": {"latitude": 42.1831031888723, "longitude": -72.6132720708847}, "transactions": ["delivery"], "price": "$$", "location": {"address1": "582 Chicopee St", "address2": "", "address3": "", "city": "Chicopee", "zip_code": "01013", "country": "US", "state": "MA", "display_address": ["582 Chicopee St", "Chicopee, MA 01013"]}, "phone": "+14133159015", "display_phone": "(413) 315-9015", "distance": 2789.3104773454593}, {"id": "1eSjouEGi9wDOfoZoF63_A", "alias": "subway-south-hadley-3", "name": "Subway", "image_url": "https://s3-media1.fl.yelpcdn.com/bphoto/bI7XQ0GekQY8vbsNsRyDCw/o.jpg", "is_closed": false, "url": "https://www.yelp.com/biz/subway-south-hadley-3?adjust_creative=HdhkN5EEH6lAqE3kwhsHEQ&utm_campaign=yelp_api_v3&utm_medium=api_v3_business_search&utm_source=HdhkN5EEH6lAqE3kwhsHEQ", "review_count": 5, "categories": [{"alias": "sandwiches", "title": "Sandwiches"}], "rating": 1.5, "coordinates": {"latitude": 42.238549572488, "longitude": -72.5822219431927}, "transactions": [], "price": "$", "location": {"address1": "532 Newton St", "address2": "", "address3": "", "city": "South Hadley", "zip_code": "01075", "country": "US", "state": "MA", "display_address": ["532 Newton St", "South Hadley, MA 01075"]}, "phone": "+14135332686", "display_phone": "(413) 533-2686", "distance": 4064.210355793151}, {"id": "GfJBCdYyN1zvCR_AhaQyJA", "alias": "subway-chicopee-14", "name": "Subway", "image_url": "https://s3-media3.fl.yelpcdn.com/bphoto/dWs4fJGWXJPj3-MZS-UqQg/o.jpg", "is_closed": false, "url": "https://www.yelp.com/biz/subway-chicopee-14?adjust_creative=HdhkN5EEH6lAqE3kwhsHEQ&utm_campaign=yelp_api_v3&utm_medium=api_v3_business_search&utm_source=HdhkN5EEH6lAqE3kwhsHEQ", "review_count": 5, "categories": [{"alias": "sandwiches", "title": "Sandwiches"}], "rating": 4.0, "coordinates": {"latitude": 42.1990269763803, "longitude": -72.5727159119235}, "transactions": ["delivery", "pickup"], "price": "$", "location": {"address1": "1525 Memorial Dr", "address2": "", "address3": "", "city": "Chicopee", "zip_code": "01020", "country": "US", "state": "MA", "display_address": ["1525 Memorial Dr", "Chicopee, MA 01020"]}, "phone": "+14135385129", "display_phone": "(413) 538-5129", "distance": 3209.4880119084287}, {"id": "nS7TW7kw4PIBfNnrG0L-yw", "alias": "kfc-holyoke", "name": "KFC", "image_url": "https://s3-media1.fl.yelpcdn.com/bphoto/s7N8_p1VDNIyXV2LPOsD2g/o.jpg", "is_closed": false, "url": "https://www.yelp.com/biz/kfc-holyoke?adjust_creative=HdhkN5EEH6lAqE3kwhsHEQ&utm_campaign=yelp_api_v3&utm_medium=api_v3_business_search&utm_source=HdhkN5EEH6lAqE3kwhsHEQ", "review_count": 3, "categories": [{"alias": "hotdogs", "title": "Fast Food"}, {"alias": "chicken_wings", "title": "Chicken Wings"}, {"alias": "chickenshop", "title": "Chicken Shop"}], "rating": 2.0, "coordinates": {"latitude": 42.1829517, "longitude": -72.6322322760748}, "transactions": ["delivery", "pickup"], "price": "$", "location": {"address1": "2241 N Hampton St", "address2": "", "address3": "", "city": "Holyoke", "zip_code": "01040", "country": "US", "state": "MA", "display_address": ["2241 N Hampton St", "Holyoke, MA 01040"]}, "phone": "+14135367731", "display_phone": "(413) 536-7731", "distance": 3364.4194872031057}, {"id": "KhWBxvNKsl26s9jN6terww", "alias": "circle-k-chicopee", "name": "Circle K", "image_url": "https://s3-media2.fl.yelpcdn.com/bphoto/UHDGdRlQNkPRQb0jDho73w/o.jpg", "is_closed": false, "url": "https://www.yelp.com/biz/circle-k-chicopee?adjust_creative=HdhkN5EEH6lAqE3kwhsHEQ&utm_campaign=yelp_api_v3&utm_medium=api_v3_business_search&utm_source=HdhkN5EEH6lAqE3kwhsHEQ", "review_count": 3, "categories": [{"alias": "hotdogs", "title": "Fast Food"}, {"alias": "burgers", "title": "Burgers"}], "rating": 1.5, "coordinates": {"latitude": 42.19786, "longitude": -72.57459}, "transactions": [], "location": {"address1": "1460 Memorial Dr", "address2": "", "address3": "", "city": "Chicopee", "zip_code": "01020", "country": "US", "state": "MA", "display_address": ["1460 Memorial Dr", "Chicopee, MA 01020"]}, "phone": "+14135325128", "display_phone": "(413) 532-5128", "distance": 3120.0052617959586}, {"id": "Sd_5U2xx6VW9BtHobh4YJQ", "alias": "dominos-pizza-chicopee", "name": "Domino's Pizza", "image_url": "https://s3-media4.fl.yelpcdn.com/bphoto/QyWmkrex2E0l1CFsom4fXQ/o.jpg", "is_closed": false, "url": "https://www.yelp.com/biz/dominos-pizza-chicopee?adjust_creative=HdhkN5EEH6lAqE3kwhsHEQ&utm_campaign=yelp_api_v3&utm_medium=api_v3_business_search&utm_source=HdhkN5EEH6lAqE3kwhsHEQ", "review_count": 5, "categories": [{"alias": "pizza", "title": "Pizza"}, {"alias": "chicken_wings", "title": "Chicken Wings"}, {"alias": "sandwiches", "title": "Sandwiches"}], "rating": 4.0, "coordinates": {"latitude": 42.192439, "longitude": -72.575484}, "transactions": [], "price": "$", "location": {"address1": "1273 Memorial Dr", "address2": null, "address3": null, "city": "Chicopee", "zip_code": "01020", "country": "US", "state": "MA", "display_address": ["1273 Memorial Dr", "Chicopee, MA 01020"]}, "phone": "+14135939500", "display_phone": "(413) 593-9500", "distance": 3315.450412064052}, {"id": "hh7hDzORHgtnkjM1dyExqA", "alias": "taco-bell-holyoke-2", "name": "Taco Bell", "image_url": "https://s3-media4.fl.yelpcdn.com/bphoto/_hAuaMeFm5om3fWdOS3P8g/o.jpg", "is_closed": false, "url": "https://www.yelp.com/biz/taco-bell-holyoke-2?adjust_creative=HdhkN5EEH6lAqE3kwhsHEQ&utm_campaign=yelp_api_v3&utm_medium=api_v3_business_search&utm_source=HdhkN5EEH6lAqE3kwhsHEQ", "review_count": 11, "categories": [{"alias": "hotdogs", "title": "Fast Food"}, {"alias": "tacos", "title": "Tacos"}], "rating": 3.0, "coordinates": {"latitude": 42.18561, "longitude": -72.630847}, "transactions": ["delivery"], "price": "$", "location": {"address1": "2199 Northampton St", "address2": "", "address3": "", "city": "Holyoke", "zip_code": "01040", "country": "US", "state": "MA", "display_address": ["2199 Northampton St", "Holyoke, MA 01040"]}, "phone": "+14135365863", "display_phone": "(413) 536-5863", "distance": 3055.7215988310195}, {"id": "s10eoL5D6Q1bmIzS7zXD8g", "alias": "chipotle-mexican-grill-chicopee", "name": "Chipotle Mexican Grill", "image_url": "https://s3-media3.fl.yelpcdn.com/bphoto/vQdhDyxFMdPJw8tne8v81A/o.jpg", "is_closed": false, "url": "https://www.yelp.com/biz/chipotle-mexican-grill-chicopee?adjust_creative=HdhkN5EEH6lAqE3kwhsHEQ&utm_campaign=yelp_api_v3&utm_medium=api_v3_business_search&utm_source=HdhkN5EEH6lAqE3kwhsHEQ", "review_count": 35, "categories": [{"alias": "mexican", "title": "Mexican"}, {"alias": "hotdogs", "title": "Fast Food"}], "rating": 3.5, "coordinates": {"latitude": 42.1727036515862, "longitude": -72.5775907980462}, "transactions": ["delivery"], "price": "$", "location": {"address1": "530 Memorial Dr", "address2": "Ste A", "address3": "", "city": "Chicopee", "zip_code": "01020", "country": "US", "state": "MA", "display_address": ["530 Memorial Dr", "Ste A", "Chicopee, MA 01020"]}, "phone": "+14135925455", "display_phone": "(413) 592-5455", "distance": 4747.8019887960045}, {"id": "OrWwZCoxAK_L9C2NklzKfg", "alias": "dennys-chicopee-falls", "name": "Denny's", "image_url": "https://s3-media4.fl.yelpcdn.com/bphoto/QT9ndE76GmEvjEAvs3xHhg/o.jpg", "is_closed": false, "url": "https://www.yelp.com/biz/dennys-chicopee-falls?adjust_creative=HdhkN5EEH6lAqE3kwhsHEQ&utm_campaign=yelp_api_v3&utm_medium=api_v3_business_search&utm_source=HdhkN5EEH6lAqE3kwhsHEQ", "review_count": 34, "categories": [{"alias": "diners", "title": "Diners"}, {"alias": "breakfast_brunch", "title": "Breakfast & Brunch"}, {"alias": "tradamerican", "title": "American (Traditional)"}], "rating": 2.5, "coordinates": {"latitude": 42.1706596966572, "longitude": -72.5768126588628}, "transactions": ["delivery", "pickup"], "price": "$$", "location": {"address1": "467 Memorial Dr", "address2": "", "address3": "", "city": "Chicopee Falls", "zip_code": "01020", "country": "US", "state": "MA", "display_address": ["467 Memorial Dr", "Chicopee Falls, MA 01020"]}, "phone": "+14135926059", "display_phone": "(413) 592-6059", "distance": 4972.856897698596}, {"id": "dJY0NohjVSTpiiOebo5tgw", "alias": "golden-china-restaurant-holyoke", "name": "Golden China Restaurant", "image_url": "", "is_closed": false, "url": "https://www.yelp.com/biz/golden-china-restaurant-holyoke?adjust_creative=HdhkN5EEH6lAqE3kwhsHEQ&utm_campaign=yelp_api_v3&utm_medium=api_v3_business_search&utm_source=HdhkN5EEH6lAqE3kwhsHEQ", "review_count": 1, "categories": [{"alias": "chinese", "title": "Chinese"}], "rating": 1.0, "coordinates": {"latitude": 42.1859894, "longitude": -72.6306152}, "transactions": ["delivery"], "location": {"address1": "2223 Northampton St", "address2": "", "address3": "", "city": "Holyoke", "zip_code": "01040", "country": "US", "state": "MA", "display_address": ["2223 Northampton St", "Holyoke, MA 01040"]}, "phone": "+14135364299", "display_phone": "(413) 536-4299", "distance": 3045.636225216764}, {"id": "jgyT9FHSrwxutR2v8M-BjA", "alias": "arbys-chicopee", "name": "Arby's", "image_url": "https://s3-media3.fl.yelpcdn.com/bphoto/RgOROcPwrx2WgXyOEsIuRw/o.jpg", "is_closed": false, "url": "https://www.yelp.com/biz/arbys-chicopee?adjust_creative=HdhkN5EEH6lAqE3kwhsHEQ&utm_campaign=yelp_api_v3&utm_medium=api_v3_business_search&utm_source=HdhkN5EEH6lAqE3kwhsHEQ", "review_count": 9, "categories": [{"alias": "hotdogs", "title": "Fast Food"}, {"alias": "sandwiches", "title": "Sandwiches"}], "rating": 3.0, "coordinates": {"latitude": 42.17996, "longitude": -72.57829}, "transactions": [], "price": "$", "location": {"address1": "1483 Granby Rd", "address2": "", "address3": "", "city": "Chicopee", "zip_code": "01020", "country": "US", "state": "MA", "display_address": ["1483 Granby Rd", "Chicopee, MA 01020"]}, "phone": "+14135931437", "display_phone": "(413) 593-1437", "distance": 4059.6891786015017}, {"id": "j0PnSEcMczIc5knOeR1Fow", "alias": "little-caesers-chicopee", "name": "Little Caesers", "image_url": "https://s3-media1.fl.yelpcdn.com/bphoto/HnMBEUgPopbBcAWzr0skVA/o.jpg", "is_closed": false, "url": "https://www.yelp.com/biz/little-caesers-chicopee?adjust_creative=HdhkN5EEH6lAqE3kwhsHEQ&utm_campaign=yelp_api_v3&utm_medium=api_v3_business_search&utm_source=HdhkN5EEH6lAqE3kwhsHEQ", "review_count": 1, "categories": [{"alias": "pizza", "title": "Pizza"}], "rating": 2.0, "coordinates": {"latitude": 42.1782285130349, "longitude": -72.5764433294535}, "transactions": [], "price": "$", "location": {"address1": "749 Memorial Dr", "address2": "", "address3": null, "city": "Chicopee", "zip_code": "01020", "country": "US", "state": "MA", "display_address": ["749 Memorial Dr", "Chicopee, MA 01020"]}, "phone": "+14135939990", "display_phone": "(413) 593-9990", "distance": 4310.577234340379}, {"id": "y1BC-G_QMxMWbBvmQnazqg", "alias": "wendys-chicopee-3", "name": "Wendy's", "image_url": "https://s3-media3.fl.yelpcdn.com/bphoto/K683o5Dx3Ts5CXy20OUlbg/o.jpg", "is_closed": false, "url": "https://www.yelp.com/biz/wendys-chicopee-3?adjust_creative=HdhkN5EEH6lAqE3kwhsHEQ&utm_campaign=yelp_api_v3&utm_medium=api_v3_business_search&utm_source=HdhkN5EEH6lAqE3kwhsHEQ", "review_count": 9, "categories": [{"alias": "burgers", "title": "Burgers"}, {"alias": "hotdogs", "title": "Fast Food"}], "rating": 1.5, "coordinates": {"latitude": 42.17923, "longitude": -72.57775}, "transactions": ["delivery"], "price": "$", "location": {"address1": "786 Memorial Dr.", "address2": "", "address3": "", "city": "Chicopee", "zip_code": "01020", "country": "US", "state": "MA", "display_address": ["786 Memorial Dr.", "Chicopee, MA 01020"]}, "phone": "+14135936529", "display_phone": "(413) 593-6529", "distance": 4154.902490513358}, {"id": "4hpk-dP4FvxAYbOQBFGx6A", "alias": "mt-joe-to-go-holyoke", "name": "Mt. Joe To Go", "image_url": "https://s3-media2.fl.yelpcdn.com/bphoto/A_LljHsYoAFD9ap_iaC65Q/o.jpg", "is_closed": false, "url": "https://www.yelp.com/biz/mt-joe-to-go-holyoke?adjust_creative=HdhkN5EEH6lAqE3kwhsHEQ&utm_campaign=yelp_api_v3&utm_medium=api_v3_business_search&utm_source=HdhkN5EEH6lAqE3kwhsHEQ", "review_count": 15, "categories": [{"alias": "coffee", "title": "Coffee & Tea"}, {"alias": "sandwiches", "title": "Sandwiches"}, {"alias": "hotdogs", "title": "Fast Food"}], "rating": 3.5, "coordinates": {"latitude": 42.2361640930176, "longitude": -72.6518630981445}, "transactions": ["delivery"], "price": "$", "location": {"address1": "500 Easthampton Rd", "address2": "", "address3": "", "city": "Holyoke", "zip_code": "01040", "country": "US", "state": "MA", "display_address": ["500 Easthampton Rd", "Holyoke, MA 01040"]}, "phone": "+14134270538", "display_phone": "(413) 427-0538", "distance": 4664.427100279962}, {"id": "ChIXGcfb7KwHe1Cz1bAJ9g", "alias": "kfc-chicopee", "name": "KFC", "image_url": "https://s3-media2.fl.yelpcdn.com/bphoto/xWQfONYGBcu9SO-pxxq2vw/o.jpg", "is_closed": false, "url": "https://www.yelp.com/biz/kfc-chicopee?adjust_creative=HdhkN5EEH6lAqE3kwhsHEQ&utm_campaign=yelp_api_v3&utm_medium=api_v3_business_search&utm_source=HdhkN5EEH6lAqE3kwhsHEQ", "review_count": 5, "categories": [{"alias": "hotdogs", "title": "Fast Food"}, {"alias": "chicken_wings", "title": "Chicken Wings"}, {"alias": "chickenshop", "title": "Chicken Shop"}], "rating": 3.0, "coordinates": {"latitude": 42.1930974804244, "longitude": -72.5753182844268}, "transactions": ["delivery", "pickup"], "price": "$", "location": {"address1": "1307 Memorial Dr", "address2": null, "address3": null, "city": "Chicopee", "zip_code": "01020", "country": "US", "state": "MA", "display_address": ["1307 Memorial Dr", "Chicopee, MA 01020"]}, "phone": "+14135323014", "display_phone": "(413) 532-3014", "distance": 3289.1261269145825}, {"id": "ETTdp2dP9ZbZLQfNmYh_rQ", "alias": "mcdonalds-holyoke-5", "name": "McDonald's", "image_url": "https://s3-media2.fl.yelpcdn.com/bphoto/4jksYyfdYEMHQepc_9IYNg/o.jpg", "is_closed": false, "url": "https://www.yelp.com/biz/mcdonalds-holyoke-5?adjust_creative=HdhkN5EEH6lAqE3kwhsHEQ&utm_campaign=yelp_api_v3&utm_medium=api_v3_business_search&utm_source=HdhkN5EEH6lAqE3kwhsHEQ", "review_count": 8, "categories": [{"alias": "hotdogs", "title": "Fast Food"}, {"alias": "burgers", "title": "Burgers"}, {"alias": "coffee", "title": "Coffee & Tea"}], "rating": 1.5, "coordinates": {"latitude": 42.175242, "longitude": -72.640805}, "transactions": ["delivery"], "price": "$", "location": {"address1": "233 Whiting Farms Rd", "address2": "", "address3": null, "city": "Holyoke", "zip_code": "01040", "country": "US", "state": "MA", "display_address": ["233 Whiting Farms Rd", "Holyoke, MA 01040"]}, "phone": "+14133227092", "display_phone": "(413) 322-7092", "distance": 4470.713516537826}, {"id": "qGXL1cSj4KLuw4FY59nu2w", "alias": "auroras-pizzeria-chicopee", "name": "Aurora's Pizzeria", "image_url": "https://s3-media2.fl.yelpcdn.com/bphoto/fZRFKZJhwG_Sg_rVe_u7Jg/o.jpg", "is_closed": false, "url": "https://www.yelp.com/biz/auroras-pizzeria-chicopee?adjust_creative=HdhkN5EEH6lAqE3kwhsHEQ&utm_campaign=yelp_api_v3&utm_medium=api_v3_business_search&utm_source=HdhkN5EEH6lAqE3kwhsHEQ", "review_count": 13, "categories": [{"alias": "pizza", "title": "Pizza"}], "rating": 2.5, "coordinates": {"latitude": 42.18238, "longitude": -72.57037}, "transactions": ["delivery", "pickup"], "price": "$", "location": {"address1": "1720 Westover Rd", "address2": "", "address3": "", "city": "Chicopee", "zip_code": "01020", "country": "US", "state": "MA", "display_address": ["1720 Westover Rd", "Chicopee, MA 01020"]}, "phone": "+14135933222", "display_phone": "(413) 593-3222", "distance": 4356.643175834497}, {"id": "dfWYSGHpthfZHYZv2V_AjQ", "alias": "taco-bell-chicopee", "name": "Taco Bell", "image_url": "https://s3-media1.fl.yelpcdn.com/bphoto/IAjdqmoVSqTUYvM2WCIXrg/o.jpg", "is_closed": false, "url": "https://www.yelp.com/biz/taco-bell-chicopee?adjust_creative=HdhkN5EEH6lAqE3kwhsHEQ&utm_campaign=yelp_api_v3&utm_medium=api_v3_business_search&utm_source=HdhkN5EEH6lAqE3kwhsHEQ", "review_count": 8, "categories": [{"alias": "hotdogs", "title": "Fast Food"}, {"alias": "tacos", "title": "Tacos"}], "rating": 3.0, "coordinates": {"latitude": 42.197415, "longitude": -72.573925}, "transactions": ["delivery"], "price": "$", "location": {"address1": "1471 Memorial Drive", "address2": "", "address3": "", "city": "Chicopee", "zip_code": "01020", "country": "US", "state": "MA", "display_address": ["1471 Memorial Drive", "Chicopee, MA 01020"]}, "phone": "+14135326583", "display_phone": "(413) 532-6583", "distance": 3178.262805946151}, {"id": "DN6sXoqT1V35njwI-FQI_g", "alias": "mcdonalds-holyoke-2", "name": "McDonald's", "image_url": "https://s3-media3.fl.yelpcdn.com/bphoto/uIGEUrDKeZR_2lAqEe7VMA/o.jpg", "is_closed": false, "url": "https://www.yelp.com/biz/mcdonalds-holyoke-2?adjust_creative=HdhkN5EEH6lAqE3kwhsHEQ&utm_campaign=yelp_api_v3&utm_medium=api_v3_business_search&utm_source=HdhkN5EEH6lAqE3kwhsHEQ", "review_count": 7, "categories": [{"alias": "hotdogs", "title": "Fast Food"}, {"alias": "burgers", "title": "Burgers"}, {"alias": "coffee", "title": "Coffee & Tea"}], "rating": 2.5, "coordinates": {"latitude": 42.1866149, "longitude": -72.6298706851412}, "transactions": ["delivery"], "price": "$", "location": {"address1": "2194 N Hampton St", "address2": "", "address3": "", "city": "Holyoke", "zip_code": "01040", "country": "US", "state": "MA", "display_address": ["2194 N Hampton St", "Holyoke, MA 01040"]}, "phone": "+14135325116", "display_phone": "(413) 532-5116", "distance": 2918.0591494789596}, {"id": "nOLDX7QV4c62QA67x0lPvg", "alias": "burger-king-chicopee", "name": "Burger King", "image_url": "https://s3-media3.fl.yelpcdn.com/bphoto/e4zDdmLDekQUCO3JTODlFA/o.jpg", "is_closed": false, "url": "https://www.yelp.com/biz/burger-king-chicopee?adjust_creative=HdhkN5EEH6lAqE3kwhsHEQ&utm_campaign=yelp_api_v3&utm_medium=api_v3_business_search&utm_source=HdhkN5EEH6lAqE3kwhsHEQ", "review_count": 2, "categories": [{"alias": "burgers", "title": "Burgers"}, {"alias": "hotdogs", "title": "Fast Food"}], "rating": 1.5, "coordinates": {"latitude": 42.1929398, "longitude": -72.5765991}, "transactions": ["delivery"], "price": "$", "location": {"address1": "1284 Memorial Dr", "address2": null, "address3": null, "city": "Chicopee", "zip_code": "01020", "country": "US", "state": "MA", "display_address": ["1284 Memorial Dr", "Chicopee, MA 01020"]}, "phone": "", "display_phone": "", "distance": 3202.509393513978}, {"id": "PXmYANZ0sWkmK9IyDesf8A", "alias": "subway-chicopee-15", "name": "Subway", "image_url": "https://s3-media2.fl.yelpcdn.com/bphoto/9uaXbjZFGOxKKHrgGCOgPg/o.jpg", "is_closed": false, "url": "https://www.yelp.com/biz/subway-chicopee-15?adjust_creative=HdhkN5EEH6lAqE3kwhsHEQ&utm_campaign=yelp_api_v3&utm_medium=api_v3_business_search&utm_source=HdhkN5EEH6lAqE3kwhsHEQ", "review_count": 2, "categories": [{"alias": "sandwiches", "title": "Sandwiches"}], "rating": 2.0, "coordinates": {"latitude": 42.175551532654, "longitude": -72.5759231284999}, "transactions": ["delivery", "pickup"], "price": "$", "location": {"address1": "645 Memorial Dr", "address2": "Store FS2", "address3": null, "city": "Chicopee", "zip_code": "01020", "country": "US", "state": "MA", "display_address": ["645 Memorial Dr", "Store FS2", "Chicopee, MA 01020"]}, "phone": "+14135938820", "display_phone": "(413) 593-8820", "distance": 4570.4244412913995}, {"id": "THsWUgLFPCojB5k3wlyYRA", "alias": "colonial-cafe-chicopee", "name": "Colonial Cafe", "image_url": "https://s3-media2.fl.yelpcdn.com/bphoto/J8sbrNuqhY6QF502xspGyQ/o.jpg", "is_closed": false, "url": "https://www.yelp.com/biz/colonial-cafe-chicopee?adjust_creative=HdhkN5EEH6lAqE3kwhsHEQ&utm_campaign=yelp_api_v3&utm_medium=api_v3_business_search&utm_source=HdhkN5EEH6lAqE3kwhsHEQ", "review_count": 2, "categories": [{"alias": "burgers", "title": "Burgers"}, {"alias": "mexican", "title": "Mexican"}, {"alias": "bars", "title": "Bars"}], "rating": 1.0, "coordinates": {"latitude": 42.1816360453872, "longitude": -72.6153182610869}, "transactions": [], "price": "$", "location": {"address1": "550 Chicopee St", "address2": "", "address3": "", "city": "Chicopee", "zip_code": "01013", "country": "US", "state": "MA", "display_address": ["550 Chicopee St", "Chicopee, MA 01013"]}, "phone": "+14135361935", "display_phone": "(413) 536-1935", "distance": 2987.2640651951633}, {"id": "PjxaUwGuVmQ37hGXklFzSA", "alias": "mcdonalds-chicopee-6", "name": "McDonald's", "image_url": "https://s3-media1.fl.yelpcdn.com/bphoto/-JMQdWhWSDM0p5L_ZB-K7A/o.jpg", "is_closed": false, "url": "https://www.yelp.com/biz/mcdonalds-chicopee-6?adjust_creative=HdhkN5EEH6lAqE3kwhsHEQ&utm_campaign=yelp_api_v3&utm_medium=api_v3_business_search&utm_source=HdhkN5EEH6lAqE3kwhsHEQ", "review_count": 5, "categories": [{"alias": "coffee", "title": "Coffee & Tea"}, {"alias": "burgers", "title": "Burgers"}, {"alias": "hotdogs", "title": "Fast Food"}], "rating": 3.0, "coordinates": {"latitude": 42.19786, "longitude": -72.57459}, "transactions": ["delivery"], "price": "$", "location": {"address1": "1460 Memorial Dr", "address2": null, "address3": null, "city": "Chicopee", "zip_code": "01020", "country": "US", "state": "MA", "display_address": ["1460 Memorial Dr", "Chicopee, MA 01020"]}, "phone": "+14135325128", "display_phone": "(413) 532-5128", "distance": 3120.0052617959586}, {"id": "b17C84AfrFoO7eFCP3mxWg", "alias": "mcdonalds-chicopee-4", "name": "McDonald's", "image_url": "https://s3-media4.fl.yelpcdn.com/bphoto/zMUBR3tF-0Dg1xpGMsIJzg/o.jpg", "is_closed": false, "url": "https://www.yelp.com/biz/mcdonalds-chicopee-4?adjust_creative=HdhkN5EEH6lAqE3kwhsHEQ&utm_campaign=yelp_api_v3&utm_medium=api_v3_business_search&utm_source=HdhkN5EEH6lAqE3kwhsHEQ", "review_count": 2, "categories": [{"alias": "hotdogs", "title": "Fast Food"}, {"alias": "burgers", "title": "Burgers"}, {"alias": "coffee", "title": "Coffee & Tea"}], "rating": 3.0, "coordinates": {"latitude": 42.17513, "longitude": -72.57584}, "transactions": ["delivery"], "price": "$", "location": {"address1": "639 Memorial Dr", "address2": "", "address3": "", "city": "Chicopee", "zip_code": "01020", "country": "US", "state": "MA", "display_address": ["639 Memorial Dr", "Chicopee, MA 01020"]}, "phone": "+14135933110", "display_phone": "(413) 593-3110", "distance": 4610.874266914064}, {"id": "Io4C5tUwnb_YzeaMXHBqBA", "alias": "shuckin-truck-narragansett-2", "name": "Shuckin Truck", "image_url": "https://s3-media2.fl.yelpcdn.com/bphoto/r7QRORfe9UYVS7GGzUm9DQ/o.jpg", "is_closed": false, "url": "https://www.yelp.com/biz/shuckin-truck-narragansett-2?adjust_creative=HdhkN5EEH6lAqE3kwhsHEQ&utm_campaign=yelp_api_v3&utm_medium=api_v3_business_search&utm_source=HdhkN5EEH6lAqE3kwhsHEQ", "review_count": 24, "categories": [{"alias": "foodtrucks", "title": "Food Trucks"}, {"alias": "seafood", "title": "Seafood"}], "rating": 4.5, "coordinates": {"latitude": 41.4274482727051, "longitude": -71.4597778320313}, "transactions": [], "price": "$$", "location": {"address1": "", "address2": "", "address3": "", "city": "Narragansett", "zip_code": "02882", "country": "US", "state": "RI", "display_address": ["Narragansett, RI 02882"]}, "phone": "+14017415953", "display_phone": "(401) 741-5953", "distance": 129353.79097669433}, {"id": "qqA8YX58xnmEXLyanHfdUg", "alias": "stufd-food-truck-brooklyn", "name": "Stuf'd Food Truck", "image_url": "https://s3-media2.fl.yelpcdn.com/bphoto/_Wn0i-tLIOFinw8BPAqxPA/o.jpg", "is_closed": false, "url": "https://www.yelp.com/biz/stufd-food-truck-brooklyn?adjust_creative=HdhkN5EEH6lAqE3kwhsHEQ&utm_campaign=yelp_api_v3&utm_medium=api_v3_business_search&utm_source=HdhkN5EEH6lAqE3kwhsHEQ", "review_count": 4, "categories": [{"alias": "sandwiches", "title": "Sandwiches"}, {"alias": "foodtrucks", "title": "Food Trucks"}], "rating": 4.0, "coordinates": {"latitude": 40.7124539, "longitude": -73.9287374}, "transactions": [], "location": {"address1": "178 Varick Ave", "address2": "", "address3": null, "city": "Brooklyn", "zip_code": "11237", "country": "US", "state": "NY", "display_address": ["178 Varick Ave", "Brooklyn, NY 11237"]}, "phone": "+18457091808", "display_phone": "(845) 709-1808", "distance": 199350.8333021974}]