[{"id": "nfeb9YXVrPx1cJOlgOHDNA", "alias": "the-1761-old-mill-westminster", "name": "The 1761 Old Mill", "image_url": "https://s3-media2.fl.yelpcdn.com/bphoto/tdAVI4Xm0xA_WaHWSMPWfQ/o.jpg", "is_closed": false, "url": "https://www.yelp.com/biz/the-1761-old-mill-westminster?adjust_creative=h5HwbyQ0TYvQjBo6Ys5Bgw&utm_campaign=yelp_api_v3&utm_medium=api_v3_business_search&utm_source=h5HwbyQ0TYvQjBo6Ys5Bgw", "review_count": 204, "categories": [{"alias": "tradamerican", "title": "American (Traditional)"}], "rating": 3.5, "coordinates": {"latitude": 42.549262, "longitude": -71.885783}, "transactions": [], "price": "$$", "location": {"address1": "69 State Rd E", "address2": null, "address3": "", "city": "Westminster", "zip_code": "01473", "country": "US", "state": "MA", "display_address": ["69 State Rd E", "Westminster, MA 01473"]}, "phone": "+19788745941", "display_phone": "(978) 874-5941", "distance": 3489.859125067285}, {"id": "wzs8aDcYZyAWOWghMoaGzw", "alias": "angler-fish-market-and-chowder-westminster-2", "name": "Angler Fish Market & Chowder", "image_url": "https://s3-media1.fl.yelpcdn.com/bphoto/rhCv_g0tD3O4VI19oGcsKA/o.jpg", "is_closed": false, "url": "https://www.yelp.com/biz/angler-fish-market-and-chowder-westminster-2?adjust_creative=h5HwbyQ0TYvQjBo6Ys5Bgw&utm_campaign=yelp_api_v3&utm_medium=api_v3_business_search&utm_source=h5HwbyQ0TYvQjBo6Ys5Bgw", "review_count": 105, "categories": [{"alias": "seafoodmarkets", "title": "Seafood Markets"}, {"alias": "seafood", "title": "Seafood"}], "rating": 4.0, "coordinates": {"latitude": 42.545545, "longitude": -71.914566}, "transactions": ["delivery", "pickup"], "price": "$$", "location": {"address1": "1 Village Sq", "address2": null, "address3": null, "city": "Westminster", "zip_code": "01473", "country": "US", "state": "MA", "display_address": ["1 Village Sq", "Westminster, MA 01473"]}, "phone": "+19788742202", "display_phone": "(978) 874-2202", "distance": 1946.0531557708266}, {"id": "xd-G4ijhAy3m3UUwecSF8w", "alias": "albatross-westminster", "name": "Albatross", "image_url": "https://s3-media2.fl.yelpcdn.com/bphoto/zOECZh7kMbmGuuFDpk4NEg/o.jpg", "is_closed": false, "url": "https://www.yelp.com/biz/albatross-westminster?adjust_creative=h5HwbyQ0TYvQjBo6Ys5Bgw&utm_campaign=yelp_api_v3&utm_medium=api_v3_business_search&utm_source=h5HwbyQ0TYvQjBo6Ys5Bgw", "review_count": 5, "categories": [{"alias": "newamerican", "title": "American (New)"}, {"alias": "breakfast_brunch", "title": "Breakfast & Brunch"}, {"alias": "bars", "title": "Bars"}], "rating": 5.0, "coordinates": {"latitude": 42.54569, "longitude": -71.93143}, "transactions": [], "location": {"address1": "51 Ellis Rd", "address2": null, "address3": "", "city": "Westminster", "zip_code": "01473", "country": "US", "state": "MA", "display_address": ["51 Ellis Rd", "Westminster, MA 01473"]}, "phone": "+19788745900", "display_phone": "(978) 874-5900", "distance": 2211.1390047320488}, {"id": "7x3ahfSXy7WIbiyTWXP9Ow", "alias": "blueprint-american-bar-and-grille-westminster", "name": "Blueprint American Bar And Grille", "image_url": "https://s3-media1.fl.yelpcdn.com/bphoto/RZ-2SoH1vHklaszInf0x_w/o.jpg", "is_closed": false, "url": "https://www.yelp.com/biz/blueprint-american-bar-and-grille-westminster?adjust_creative=h5HwbyQ0TYvQjBo6Ys5Bgw&utm_campaign=yelp_api_v3&utm_medium=api_v3_business_search&utm_source=h5HwbyQ0TYvQjBo6Ys5Bgw", "review_count": 84, "categories": [{"alias": "newamerican", "title": "American (New)"}, {"alias": "bars", "title": "Bars"}], "rating": 3.5, "coordinates": {"latitude": 42.5457633862712, "longitude": -71.9147932863456}, "transactions": [], "price": "$$", "location": {"address1": "10 Village Square", "address2": "", "address3": null, "city": "Westminster", "zip_code": "01473", "country": "US", "state": "MA", "display_address": ["10 Village Square", "Westminster, MA 01473"]}, "phone": "+19786685580", "display_phone": "(978) 668-5580", "distance": 1915.906915521408}, {"id": "TVd2898Jy_u8ro-GLrZEIQ", "alias": "green-tea-westminster", "name": "Green Tea", "image_url": "https://s3-media4.fl.yelpcdn.com/bphoto/mT4nA7r9_QfD0Nk7CiRqjg/o.jpg", "is_closed": false, "url": "https://www.yelp.com/biz/green-tea-westminster?adjust_creative=h5HwbyQ0TYvQjBo6Ys5Bgw&utm_campaign=yelp_api_v3&utm_medium=api_v3_business_search&utm_source=h5HwbyQ0TYvQjBo6Ys5Bgw", "review_count": 16, "categories": [{"alias": "chinese", "title": "Chinese"}], "rating": 4.5, "coordinates": {"latitude": 42.5467888580999, "longitude": -71.9142293930054}, "transactions": [], "price": "$$", "location": {"address1": "7 Village Sq", "address2": null, "address3": null, "city": "Westminster", "zip_code": "01473", "country": "US", "state": "MA", "display_address": ["7 Village Sq", "Westminster, MA 01473"]}, "phone": "+19788742288", "display_phone": "(978) 874-2288", "distance": 1838.5122845002004}, {"id": "nlaFN5Qx6OiwQfEZmaYYjw", "alias": "old-mill-restaurant-and-crackerbarrel-pub-and-lounge-westminster", "name": "Old Mill Restaurant & Crackerbarrel Pub & Lounge", "image_url": "https://s3-media1.fl.yelpcdn.com/bphoto/juP9N3sZcuP9IoYgwR62nw/o.jpg", "is_closed": false, "url": "https://www.yelp.com/biz/old-mill-restaurant-and-crackerbarrel-pub-and-lounge-westminster?adjust_creative=h5HwbyQ0TYvQjBo6Ys5Bgw&utm_campaign=yelp_api_v3&utm_medium=api_v3_business_search&utm_source=h5HwbyQ0TYvQjBo6Ys5Bgw", "review_count": 61, "categories": [{"alias": "newamerican", "title": "American (New)"}], "rating": 3.0, "coordinates": {"latitude": 42.5497726279832, "longitude": -71.8857302846505}, "transactions": [], "price": "$$", "location": {"address1": "Rt 2A", "address2": "", "address3": "", "city": "Westminster", "zip_code": "01473", "country": "US", "state": "MA", "display_address": ["Rt 2A", "Westminster, MA 01473"]}, "phone": "+19788745941", "display_phone": "(978) 874-5941", "distance": 3498.052809548046}, {"id": "EZhQ41NJaq4no3RTzs7cmw", "alias": "colonial-grille-gardner", "name": "Colonial Grille", "image_url": "https://s3-media1.fl.yelpcdn.com/bphoto/voCLPpE2SaAJdfbfn5BHRg/o.jpg", "is_closed": false, "url": "https://www.yelp.com/biz/colonial-grille-gardner?adjust_creative=h5HwbyQ0TYvQjBo6Ys5Bgw&utm_campaign=yelp_api_v3&utm_medium=api_v3_business_search&utm_source=h5HwbyQ0TYvQjBo6Ys5Bgw", "review_count": 22, "categories": [{"alias": "tradamerican", "title": "American (Traditional)"}, {"alias": "seafood", "title": "Seafood"}, {"alias": "pizza", "title": "Pizza"}], "rating": 3.5, "coordinates": {"latitude": 42.562668, "longitude": -71.949158}, "transactions": [], "price": "$$", "location": {"address1": "625 Betty Spring Rd", "address2": "", "address3": "", "city": "Gardner", "zip_code": "01440", "country": "US", "state": "MA", "display_address": ["625 Betty Spring Rd", "Gardner, MA 01440"]}, "phone": "+19786302500", "display_phone": "(978) 630-2500", "distance": 1937.683546410021}, {"id": "6X755NM6my9JyexFB_XX_A", "alias": "kays-dairy-bar-westminster-2", "name": "Kay's Dairy Bar", "image_url": "https://s3-media1.fl.yelpcdn.com/bphoto/ancJPX2z7M0R9o0hEeMVVw/o.jpg", "is_closed": false, "url": "https://www.yelp.com/biz/kays-dairy-bar-westminster-2?adjust_creative=h5HwbyQ0TYvQjBo6Ys5Bgw&utm_campaign=yelp_api_v3&utm_medium=api_v3_business_search&utm_source=h5HwbyQ0TYvQjBo6Ys5Bgw", "review_count": 29, "categories": [{"alias": "icecream", "title": "Ice Cream & Frozen Yogurt"}, {"alias": "seafood", "title": "Seafood"}], "rating": 4.0, "coordinates": {"latitude": 42.5517, "longitude": -71.9587}, "transactions": [], "price": "$$", "location": {"address1": "196 State Rd W", "address2": "", "address3": null, "city": "Westminster", "zip_code": "01473", "country": "US", "state": "MA", "display_address": ["196 State Rd W", "Westminster, MA 01473"]}, "phone": "+19786327191", "display_phone": "(978) 632-7191", "distance": 2900.146366190437}, {"id": "bxPkkUUZSgpcIECmiOVHBA", "alias": "westminster-cafe-westminster", "name": "Westminster Cafe", "image_url": "https://s3-media2.fl.yelpcdn.com/bphoto/oDlOcq4-1Lwei9pIqBrCIw/o.jpg", "is_closed": false, "url": "https://www.yelp.com/biz/westminster-cafe-westminster?adjust_creative=h5HwbyQ0TYvQjBo6Ys5Bgw&utm_campaign=yelp_api_v3&utm_medium=api_v3_business_search&utm_source=h5HwbyQ0TYvQjBo6Ys5Bgw", "review_count": 29, "categories": [{"alias": "breakfast_brunch", "title": "Breakfast & Brunch"}, {"alias": "seafood", "title": "Seafood"}, {"alias": "icecream", "title": "Ice Cream & Frozen Yogurt"}], "rating": 4.0, "coordinates": {"latitude": 42.548792, "longitude": -71.917325}, "transactions": [], "price": "$", "location": {"address1": "51 Main St", "address2": null, "address3": null, "city": "Westminster", "zip_code": "01473", "country": "US", "state": "MA", "display_address": ["51 Main St", "Westminster, MA 01473"]}, "phone": "+19788741833", "display_phone": "(978) 874-1833", "distance": 1521.680224684054}, {"id": "kKKJ4J05Jii-oAc6oEJifg", "alias": "town-house-of-pizza-westminster", "name": "Town House of Pizza", "image_url": "https://s3-media3.fl.yelpcdn.com/bphoto/mJvtfHsssMJqGTvEAJ-uyw/o.jpg", "is_closed": false, "url": "https://www.yelp.com/biz/town-house-of-pizza-westminster?adjust_creative=h5HwbyQ0TYvQjBo6Ys5Bgw&utm_campaign=yelp_api_v3&utm_medium=api_v3_business_search&utm_source=h5HwbyQ0TYvQjBo6Ys5Bgw", "review_count": 23, "categories": [{"alias": "pizza", "title": "Pizza"}, {"alias": "italian", "title": "Italian"}, {"alias": "breakfast_brunch", "title": "Breakfast & Brunch"}], "rating": 3.5, "coordinates": {"latitude": 42.5484099, "longitude": -71.91575}, "transactions": [], "price": "$", "location": {"address1": "68 Main St", "address2": "", "address3": "", "city": "Westminster", "zip_code": "01473", "country": "US", "state": "MA", "display_address": ["68 Main St", "Westminster, MA 01473"]}, "phone": "+19788740326", "display_phone": "(978) 874-0326", "distance": 1609.8374448327756}, {"id": "37gP7ifq1CpZz9L9Pz80YQ", "alias": "stefanos-house-of-pizza-westminster", "name": "Stefanos' House of Pizza", "image_url": "https://s3-media1.fl.yelpcdn.com/bphoto/tE-DWbxiKdwXZItchnG96w/o.jpg", "is_closed": false, "url": "https://www.yelp.com/biz/stefanos-house-of-pizza-westminster?adjust_creative=h5HwbyQ0TYvQjBo6Ys5Bgw&utm_campaign=yelp_api_v3&utm_medium=api_v3_business_search&utm_source=h5HwbyQ0TYvQjBo6Ys5Bgw", "review_count": 15, "categories": [{"alias": "pizza", "title": "Pizza"}, {"alias": "salad", "title": "Salad"}, {"alias": "sandwiches", "title": "Sandwiches"}], "rating": 3.0, "coordinates": {"latitude": 42.546079, "longitude": -71.91376}, "transactions": [], "price": "$", "location": {"address1": "105 Main St", "address2": "", "address3": "", "city": "Westminster", "zip_code": "01473", "country": "US", "state": "MA", "display_address": ["105 Main St", "Westminster, MA 01473"]}, "phone": "+19788741922", "display_phone": "(978) 874-1922", "distance": 1926.0586600848849}, {"id": "lBW15hrQi7ZmoviO03sEuw", "alias": "mikes-pizza-of-westminster-westminster-2", "name": "Mike's Pizza of Westminster", "image_url": "https://s3-media2.fl.yelpcdn.com/bphoto/DWQliLLzaiE-SAQ25l-70Q/o.jpg", "is_closed": false, "url": "https://www.yelp.com/biz/mikes-pizza-of-westminster-westminster-2?adjust_creative=h5HwbyQ0TYvQjBo6Ys5Bgw&utm_campaign=yelp_api_v3&utm_medium=api_v3_business_search&utm_source=h5HwbyQ0TYvQjBo6Ys5Bgw", "review_count": 14, "categories": [{"alias": "pizza", "title": "Pizza"}, {"alias": "salad", "title": "Salad"}, {"alias": "italian", "title": "Italian"}], "rating": 2.5, "coordinates": {"latitude": 42.5572891235352, "longitude": -71.8745956420898}, "transactions": [], "price": "$", "location": {"address1": "158 State Rd E", "address2": "", "address3": "", "city": "Westminster", "zip_code": "01473", "country": "US", "state": "MA", "display_address": ["158 State Rd E", "Westminster, MA 01473"]}, "phone": "+19788741800", "display_phone": "(978) 874-1800", "distance": 4188.272086741714}, {"id": "boiEL8LxY8US_zN67Hd8gQ", "alias": "patriot-pizza-and-subs-gardner", "name": "Patriot Pizza & Subs", "image_url": "https://s3-media2.fl.yelpcdn.com/bphoto/9HO7wpIHyROEIqk9G2C_lw/o.jpg", "is_closed": false, "url": "https://www.yelp.com/biz/patriot-pizza-and-subs-gardner?adjust_creative=h5HwbyQ0TYvQjBo6Ys5Bgw&utm_campaign=yelp_api_v3&utm_medium=api_v3_business_search&utm_source=h5HwbyQ0TYvQjBo6Ys5Bgw", "review_count": 18, "categories": [{"alias": "pizza", "title": "Pizza"}], "rating": 3.5, "coordinates": {"latitude": 42.5662419, "longitude": -71.9800468}, "transactions": [], "price": "$$", "location": {"address1": "52 Pearson Blvd", "address2": "Ste 1", "address3": null, "city": "Gardner", "zip_code": "01440", "country": "US", "state": "MA", "display_address": ["52 Pearson Blvd", "Ste 1", "Gardner, MA 01440"]}, "phone": "+19786324500", "display_phone": "(978) 632-4500", "distance": 4201.618706364724}, {"id": "iFhZ31feMlCA1F6H-rLVUA", "alias": "subway-westminster-42", "name": "Subway", "image_url": "https://s3-media3.fl.yelpcdn.com/bphoto/Q4DHyx93UuD2MKm09Qp6ZA/o.jpg", "is_closed": false, "url": "https://www.yelp.com/biz/subway-westminster-42?adjust_creative=h5HwbyQ0TYvQjBo6Ys5Bgw&utm_campaign=yelp_api_v3&utm_medium=api_v3_business_search&utm_source=h5HwbyQ0TYvQjBo6Ys5Bgw", "review_count": 4, "categories": [{"alias": "sandwiches", "title": "Sandwiches"}], "rating": 3.5, "coordinates": {"latitude": 42.5464934656065, "longitude": -71.9140293000952}, "transactions": [], "price": "$", "location": {"address1": "97 Main St", "address2": "", "address3": null, "city": "Westminster", "zip_code": "01473", "country": "US", "state": "MA", "display_address": ["97 Main St", "Westminster, MA 01473"]}, "phone": "+19788742185", "display_phone": "(978) 874-2185", "distance": 1875.1372172832819}]