[{"id": "w8VFgsn7CZ-LtQjIZdSHCw", "alias": "crispys-wings-n-fish-springfield-2", "name": "Crispy's wings-n-fish", "image_url": "https://s3-media3.fl.yelpcdn.com/bphoto/7fzeeos7sBLcrEezeAwgmw/o.jpg", "is_closed": false, "url": "https://www.yelp.com/biz/crispys-wings-n-fish-springfield-2?adjust_creative=h5HwbyQ0TYvQjBo6Ys5Bgw&utm_campaign=yelp_api_v3&utm_medium=api_v3_business_search&utm_source=h5HwbyQ0TYvQjBo6Ys5Bgw", "review_count": 9, "categories": [{"alias": "chicken_wings", "title": "Chicken Wings"}, {"alias": "fishnchips", "title": "Fish & Chips"}], "rating": 4.5, "coordinates": {"latitude": 42.112536, "longitude": -72.5610571}, "transactions": [], "location": {"address1": "17 Rutland St", "address2": null, "address3": "", "city": "Springfield", "zip_code": "01109", "country": "US", "state": "MA", "display_address": ["17 Rutland St", "Springfield, MA 01109"]}, "phone": "+14133103722", "display_phone": "(413) 310-3722", "distance": 1179.1284451688164}, {"id": "nrLxUbJiQd6De_8yx7_jIQ", "alias": "crazy-arepas-springfield", "name": "Crazy Arepas", "image_url": "https://s3-media2.fl.yelpcdn.com/bphoto/xBRYNve2vxH1M1iG5Gm4lQ/o.jpg", "is_closed": false, "url": "https://www.yelp.com/biz/crazy-arepas-springfield?adjust_creative=h5HwbyQ0TYvQjBo6Ys5Bgw&utm_campaign=yelp_api_v3&utm_medium=api_v3_business_search&utm_source=h5HwbyQ0TYvQjBo6Ys5Bgw", "review_count": 3, "categories": [{"alias": "foodtrucks", "title": "Food Trucks"}, {"alias": "spanish", "title": "Spanish"}, {"alias": "tradamerican", "title": "American (Traditional)"}], "rating": 5.0, "coordinates": {"latitude": 42.1191, "longitude": -72.55044}, "transactions": [], "location": {"address1": null, "address2": null, "address3": null, "city": "Springfield", "zip_code": "01109", "country": "US", "state": "MA", "display_address": ["Springfield, MA 01109"]}, "phone": "+14138888083", "display_phone": "(413) 888-8083", "distance": 719.3433919786066}, {"id": "P3Zd1y8I7tNAIVMqCCphEw", "alias": "tonys-pizza-springfield-2", "name": "Tony's Pizza", "image_url": "https://s3-media1.fl.yelpcdn.com/bphoto/54y0u0h4m15jhttlIO3Y8w/o.jpg", "is_closed": false, "url": "https://www.yelp.com/biz/tonys-pizza-springfield-2?adjust_creative=h5HwbyQ0TYvQjBo6Ys5Bgw&utm_campaign=yelp_api_v3&utm_medium=api_v3_business_search&utm_source=h5HwbyQ0TYvQjBo6Ys5Bgw", "review_count": 24, "categories": [{"alias": "pizza", "title": "Pizza"}, {"alias": "italian", "title": "Italian"}], "rating": 4.5, "coordinates": {"latitude": 42.12516, "longitude": -72.53664}, "transactions": ["delivery"], "price": "$$", "location": {"address1": "108 Boston Rd", "address2": "", "address3": "", "city": "Springfield", "zip_code": "01109", "country": "US", "state": "MA", "display_address": ["108 Boston Rd", "Springfield, MA 01109"]}, "phone": "+14137326600", "display_phone": "(413) 732-6600", "distance": 1306.9315342350951}, {"id": "luuwS_sp1EFbM-zSLYQn_g", "alias": "golden-krust-caribbean-restaurant-springfield", "name": "Golden Krust Caribbean Restaurant", "image_url": "https://s3-media3.fl.yelpcdn.com/bphoto/OOntCp1_G1HwMU2kT9d8IQ/o.jpg", "is_closed": false, "url": "https://www.yelp.com/biz/golden-krust-caribbean-restaurant-springfield?adjust_creative=h5HwbyQ0TYvQjBo6Ys5Bgw&utm_campaign=yelp_api_v3&utm_medium=api_v3_business_search&utm_source=h5HwbyQ0TYvQjBo6Ys5Bgw", "review_count": 5, "categories": [{"alias": "caribbean", "title": "Caribbean"}], "rating": 4.0, "coordinates": {"latitude": 42.11299, "longitude": -72.552419}, "transactions": [], "price": "$", "location": {"address1": "320 Wilbraham Rd", "address2": "", "address3": "", "city": "Springfield", "zip_code": "01109", "country": "US", "state": "MA", "display_address": ["320 Wilbraham Rd", "Springfield, MA 01109"]}, "phone": "+14137317720", "display_phone": "(413) 731-7720", "distance": 592.4280866649199}, {"id": "-IelzHk45WkMvm9mbRvpPg", "alias": "b-and-b-sandwich-shop-springfield", "name": "B&B Sandwich Shop", "image_url": "https://s3-media1.fl.yelpcdn.com/bphoto/QR3kwMYViQUSi1S6xMOKEQ/o.jpg", "is_closed": false, "url": "https://www.yelp.com/biz/b-and-b-sandwich-shop-springfield?adjust_creative=h5HwbyQ0TYvQjBo6Ys5Bgw&utm_campaign=yelp_api_v3&utm_medium=api_v3_business_search&utm_source=h5HwbyQ0TYvQjBo6Ys5Bgw", "review_count": 1, "categories": [{"alias": "breakfast_brunch", "title": "Breakfast & Brunch"}, {"alias": "sandwiches", "title": "Sandwiches"}], "rating": 5.0, "coordinates": {"latitude": 42.1148420514989, "longitude": -72.5531617552042}, "transactions": [], "location": {"address1": "1127 State St", "address2": "", "address3": "", "city": "Springfield", "zip_code": "01109", "country": "US", "state": "MA", "display_address": ["1127 State St", "Springfield, MA 01109"]}, "phone": "+14132318942", "display_phone": "(413) 231-8942", "distance": 487.50317233476386}, {"id": "616-oQCamCRDa5JhXQnBuw", "alias": "cantina-curbside-grill-springfield", "name": "Cantina Curbside Grill", "image_url": "https://s3-media3.fl.yelpcdn.com/bphoto/DmWL1gUNkbEH9PdiO9Or9g/o.jpg", "is_closed": false, "url": "https://www.yelp.com/biz/cantina-curbside-grill-springfield?adjust_creative=h5HwbyQ0TYvQjBo6Ys5Bgw&utm_campaign=yelp_api_v3&utm_medium=api_v3_business_search&utm_source=h5HwbyQ0TYvQjBo6Ys5Bgw", "review_count": 1, "categories": [{"alias": "latin", "title": "Latin American"}, {"alias": "foodtrucks", "title": "Food Trucks"}], "rating": 5.0, "coordinates": {"latitude": 42.1011632858, "longitude": -72.5874854261}, "transactions": [], "location": {"address1": null, "address2": null, "address3": null, "city": "Springfield", "zip_code": "01103", "country": "US", "state": "MA", "display_address": ["Springfield, MA 01103"]}, "phone": "+14134262604", "display_phone": "(413) 426-2604", "distance": 3698.464251339233}, {"id": "-tYd2nzZ-hDUdWqE7ogyLw", "alias": "lucky-kitchen-springfield", "name": "Lucky Kitchen", "image_url": "https://s3-media3.fl.yelpcdn.com/bphoto/-VmPPvDsorDSMtFnGIztwQ/o.jpg", "is_closed": false, "url": "https://www.yelp.com/biz/lucky-kitchen-springfield?adjust_creative=h5HwbyQ0TYvQjBo6Ys5Bgw&utm_campaign=yelp_api_v3&utm_medium=api_v3_business_search&utm_source=h5HwbyQ0TYvQjBo6Ys5Bgw", "review_count": 2, "categories": [{"alias": "chinese", "title": "Chinese"}], "rating": 3.5, "coordinates": {"latitude": 42.1248589, "longitude": -72.5392914}, "transactions": ["delivery"], "price": "$", "location": {"address1": "42 Berkshire Ave", "address2": null, "address3": null, "city": "Springfield", "zip_code": "01109", "country": "US", "state": "MA", "display_address": ["42 Berkshire Ave", "Springfield, MA 01109"]}, "phone": "+14137461999", "display_phone": "(413) 746-1999", "distance": 1118.7423414315608}, {"id": "c5CF-HwUN-aWd9JUty2APg", "alias": "antonios-grinders-springfield-2", "name": "Antonio's Grinders", "image_url": "https://s3-media4.fl.yelpcdn.com/bphoto/Ski0l6VDUlwBMR9YyspVAw/o.jpg", "is_closed": false, "url": "https://www.yelp.com/biz/antonios-grinders-springfield-2?adjust_creative=h5HwbyQ0TYvQjBo6Ys5Bgw&utm_campaign=yelp_api_v3&utm_medium=api_v3_business_search&utm_source=h5HwbyQ0TYvQjBo6Ys5Bgw", "review_count": 15, "categories": [{"alias": "pizza", "title": "Pizza"}, {"alias": "sandwiches", "title": "Sandwiches"}, {"alias": "wraps", "title": "Wraps"}], "rating": 1.5, "coordinates": {"latitude": 42.1139757, "longitude": -72.5568495}, "transactions": ["delivery"], "price": "$", "location": {"address1": "1030 State St", "address2": "", "address3": "", "city": "Springfield", "zip_code": "01109", "country": "US", "state": "MA", "display_address": ["1030 State St", "Springfield, MA 01109"]}, "phone": "+14137341719", "display_phone": "(413) 734-1719", "distance": 790.1553614349403}, {"id": "qqA8YX58xnmEXLyanHfdUg", "alias": "stufd-food-truck-brooklyn", "name": "Stuf'd Food Truck", "image_url": "https://s3-media2.fl.yelpcdn.com/bphoto/_Wn0i-tLIOFinw8BPAqxPA/o.jpg", "is_closed": false, "url": "https://www.yelp.com/biz/stufd-food-truck-brooklyn?adjust_creative=h5HwbyQ0TYvQjBo6Ys5Bgw&utm_campaign=yelp_api_v3&utm_medium=api_v3_business_search&utm_source=h5HwbyQ0TYvQjBo6Ys5Bgw", "review_count": 4, "categories": [{"alias": "sandwiches", "title": "Sandwiches"}, {"alias": "foodtrucks", "title": "Food Trucks"}], "rating": 4.0, "coordinates": {"latitude": 40.7124539, "longitude": -73.9287374}, "transactions": [], "location": {"address1": "178 Varick Ave", "address2": "", "address3": null, "city": "Brooklyn", "zip_code": "11237", "country": "US", "state": "NY", "display_address": ["178 Varick Ave", "Brooklyn, NY 11237"]}, "phone": "+18457091808", "display_phone": "(845) 709-1808", "distance": 194042.7444396435}]