[{"id": "pB3uFyDAiLfEy0U1taGlaw", "alias": "oscars-burritos-boxborough", "name": "Oscar's Burritos", "image_url": "https://s3-media3.fl.yelpcdn.com/bphoto/dR0gBJdatrFKvqfEnwxOsA/o.jpg", "is_closed": false, "url": "https://www.yelp.com/biz/oscars-burritos-boxborough?adjust_creative=HdhkN5EEH6lAqE3kwhsHEQ&utm_campaign=yelp_api_v3&utm_medium=api_v3_business_search&utm_source=HdhkN5EEH6lAqE3kwhsHEQ", "review_count": 210, "categories": [{"alias": "mexican", "title": "Mexican"}], "rating": 4.5, "coordinates": {"latitude": 42.478607, "longitude": -71.490058}, "transactions": [], "price": "$", "location": {"address1": "34 Massachusetts Ave", "address2": "", "address3": "", "city": "Boxborough", "zip_code": "01719", "country": "US", "state": "MA", "display_address": ["34 Massachusetts Ave", "Boxborough, MA 01719"]}, "phone": "+19782660001", "display_phone": "(978) 266-0001", "distance": 2645.662137656574}, {"id": "n_qop5yfcZTk1gLfK-99NQ", "alias": "rapscallion-table-and-tap-acton-2", "name": "Rapscallion Table & Tap", "image_url": "https://s3-media2.fl.yelpcdn.com/bphoto/LLK_PzB0b0Miwyo6v-bCdg/o.jpg", "is_closed": false, "url": "https://www.yelp.com/biz/rapscallion-table-and-tap-acton-2?adjust_creative=HdhkN5EEH6lAqE3kwhsHEQ&utm_campaign=yelp_api_v3&utm_medium=api_v3_business_search&utm_source=HdhkN5EEH6lAqE3kwhsHEQ", "review_count": 302, "categories": [{"alias": "breweries", "title": "Breweries"}, {"alias": "pubs", "title": "Pubs"}, {"alias": "tradamerican", "title": "American (Traditional)"}], "rating": 4.0, "coordinates": {"latitude": 42.49191, "longitude": -71.41585}, "transactions": [], "price": "$$", "location": {"address1": "5 Strawberry Hill Rd", "address2": "", "address3": "", "city": "Acton", "zip_code": "01720", "country": "US", "state": "MA", "display_address": ["5 Strawberry Hill Rd", "Acton, MA 01720"]}, "phone": "+19784298161", "display_phone": "(978) 429-8161", "distance": 8283.110817228}, {"id": "ZScuLRQPk_ZazKrrO10OPQ", "alias": "smack-noodle-maynard", "name": "Smack Noodle", "image_url": "https://s3-media3.fl.yelpcdn.com/bphoto/CO5fyi_rAHLhL3qn8KvBVA/o.jpg", "is_closed": false, "url": "https://www.yelp.com/biz/smack-noodle-maynard?adjust_creative=HdhkN5EEH6lAqE3kwhsHEQ&utm_campaign=yelp_api_v3&utm_medium=api_v3_business_search&utm_source=HdhkN5EEH6lAqE3kwhsHEQ", "review_count": 83, "categories": [{"alias": "ramen", "title": "Ramen"}], "rating": 4.5, "coordinates": {"latitude": 42.4325894545364, "longitude": -71.4520796077231}, "transactions": ["delivery"], "price": "$$", "location": {"address1": "45 Main St", "address2": "", "address3": null, "city": "Maynard", "zip_code": "01754", "country": "US", "state": "MA", "display_address": ["45 Main St", "Maynard, MA 01754"]}, "phone": "+19782524665", "display_phone": "(978) 252-4665", "distance": 8464.714471972888}, {"id": "OKwVGtexA7A-ug0c5S45XA", "alias": "holy-grail-bar-and-restaurant-acton", "name": "Holy Grail Bar and Restaurant", "image_url": "https://s3-media4.fl.yelpcdn.com/bphoto/FP1yJ-fpE7TiMsR0kb813g/o.jpg", "is_closed": false, "url": "https://www.yelp.com/biz/holy-grail-bar-and-restaurant-acton?adjust_creative=HdhkN5EEH6lAqE3kwhsHEQ&utm_campaign=yelp_api_v3&utm_medium=api_v3_business_search&utm_source=HdhkN5EEH6lAqE3kwhsHEQ", "review_count": 26, "categories": [{"alias": "pubs", "title": "Pubs"}, {"alias": "tradamerican", "title": "American (Traditional)"}], "rating": 4.0, "coordinates": {"latitude": 42.485569, "longitude": -71.41708}, "transactions": [], "location": {"address1": "166 Great Rd", "address2": "", "address3": null, "city": "Acton", "zip_code": "01720", "country": "US", "state": "MA", "display_address": ["166 Great Rd", "Acton, MA 01720"]}, "phone": "+19782635500", "display_phone": "(978) 263-5500", "distance": 8212.519266568403}, {"id": "yj_jarKTFg43Zbzrkml1XA", "alias": "azucar-tapas-bar-maynard-2", "name": "Azucar Tapas Bar", "image_url": "https://s3-media3.fl.yelpcdn.com/bphoto/tepfIPfeuMT-xELWpOuMJQ/o.jpg", "is_closed": false, "url": "https://www.yelp.com/biz/azucar-tapas-bar-maynard-2?adjust_creative=HdhkN5EEH6lAqE3kwhsHEQ&utm_campaign=yelp_api_v3&utm_medium=api_v3_business_search&utm_source=HdhkN5EEH6lAqE3kwhsHEQ", "review_count": 33, "categories": [{"alias": "tapasmallplates", "title": "Tapas/Small Plates"}, {"alias": "tapas", "title": "Tapas Bars"}, {"alias": "spanish", "title": "Spanish"}], "rating": 4.0, "coordinates": {"latitude": 42.4326, "longitude": -71.45245}, "transactions": ["delivery"], "price": "$$", "location": {"address1": "51 Main St", "address2": null, "address3": "", "city": "Maynard", "zip_code": "01754", "country": "US", "state": "MA", "display_address": ["51 Main St", "Maynard, MA 01754"]}, "phone": "+19783310381", "display_phone": "(978) 331-0381", "distance": 8448.335009850896}, {"id": "BemUwFQvmGcJEHexcPP06w", "alias": "lucias-tavola-ayer", "name": "Lucia's Tavola", "image_url": "https://s3-media3.fl.yelpcdn.com/bphoto/MX1SRlgcIa8ccSxRg4C5Aw/o.jpg", "is_closed": false, "url": "https://www.yelp.com/biz/lucias-tavola-ayer?adjust_creative=HdhkN5EEH6lAqE3kwhsHEQ&utm_campaign=yelp_api_v3&utm_medium=api_v3_business_search&utm_source=HdhkN5EEH6lAqE3kwhsHEQ", "review_count": 119, "categories": [{"alias": "italian", "title": "Italian"}], "rating": 4.0, "coordinates": {"latitude": 42.5596558302641, "longitude": -71.5883953124285}, "transactions": ["pickup", "delivery"], "price": "$$", "location": {"address1": "31 Main St", "address2": "", "address3": "", "city": "Ayer", "zip_code": "01432", "country": "US", "state": "MA", "display_address": ["31 Main St", "Ayer, MA 01432"]}, "phone": "+19783914837", "display_phone": "(978) 391-4837", "distance": 9543.819818087964}, {"id": "mVLEKPsRb2dcBp9AR_2nTw", "alias": "great-road-kitchen-littleton-3", "name": "Great Road Kitchen", "image_url": "https://s3-media2.fl.yelpcdn.com/bphoto/llZlb3lgRgKn_RyKqwngPw/o.jpg", "is_closed": false, "url": "https://www.yelp.com/biz/great-road-kitchen-littleton-3?adjust_creative=HdhkN5EEH6lAqE3kwhsHEQ&utm_campaign=yelp_api_v3&utm_medium=api_v3_business_search&utm_source=HdhkN5EEH6lAqE3kwhsHEQ", "review_count": 316, "categories": [{"alias": "newamerican", "title": "American (New)"}, {"alias": "seafood", "title": "Seafood"}, {"alias": "cocktailbars", "title": "Cocktail Bars"}], "rating": 3.5, "coordinates": {"latitude": 42.5515168578442, "longitude": -71.4776526846558}, "transactions": [], "price": "$$", "location": {"address1": "613 Constitution Ave", "address2": null, "address3": "", "city": "Littleton", "zip_code": "01460", "country": "US", "state": "MA", "display_address": ["613 Constitution Ave", "Littleton, MA 01460"]}, "phone": "+19789527333", "display_phone": "(978) 952-7333", "distance": 7373.867684841459}, {"id": "YdqVHbM3-BjxlVAiqnFwTQ", "alias": "bravo-pizza-boxborough", "name": "Bravo Pizza", "image_url": "https://s3-media4.fl.yelpcdn.com/bphoto/EE3zwF9R0kXh9WjHW5dcEw/o.jpg", "is_closed": false, "url": "https://www.yelp.com/biz/bravo-pizza-boxborough?adjust_creative=HdhkN5EEH6lAqE3kwhsHEQ&utm_campaign=yelp_api_v3&utm_medium=api_v3_business_search&utm_source=HdhkN5EEH6lAqE3kwhsHEQ", "review_count": 34, "categories": [{"alias": "pizza", "title": "Pizza"}, {"alias": "salad", "title": "Salad"}, {"alias": "bbq", "title": "Barbeque"}], "rating": 4.0, "coordinates": {"latitude": 42.4854095, "longitude": -71.5327093}, "transactions": ["delivery"], "price": "$", "location": {"address1": "1233 Massachusetts Ave Rte 111", "address2": "", "address3": "", "city": "Boxborough", "zip_code": "01719", "country": "US", "state": "MA", "display_address": ["1233 Massachusetts Ave Rte 111", "Boxborough, MA 01719"]}, "phone": "+19786350637", "display_phone": "(978) 635-0637", "distance": 1481.860189168188}, {"id": "QUJu1mi0vqJLnxoCiV7-kA", "alias": "true-west-acton", "name": "True West", "image_url": "https://s3-media3.fl.yelpcdn.com/bphoto/f-T7UafGS5AK9uibw33Hyg/o.jpg", "is_closed": false, "url": "https://www.yelp.com/biz/true-west-acton?adjust_creative=HdhkN5EEH6lAqE3kwhsHEQ&utm_campaign=yelp_api_v3&utm_medium=api_v3_business_search&utm_source=HdhkN5EEH6lAqE3kwhsHEQ", "review_count": 246, "categories": [{"alias": "breweries", "title": "Breweries"}, {"alias": "salad", "title": "Salad"}, {"alias": "sandwiches", "title": "Sandwiches"}], "rating": 3.5, "coordinates": {"latitude": 42.476353, "longitude": -71.469277}, "transactions": [], "price": "$$", "location": {"address1": "525 Massachusetts Ave", "address2": "", "address3": "", "city": "Acton", "zip_code": "01720", "country": "US", "state": "MA", "display_address": ["525 Massachusetts Ave", "Acton, MA 01720"]}, "phone": "+19782061600", "display_phone": "(978) 206-1600", "distance": 4266.009788327074}, {"id": "dVUinhjpeVLEU-Uzd8JV3Q", "alias": "beijing-tokyo-acton-5", "name": "Beijing Tokyo", "image_url": "https://s3-media2.fl.yelpcdn.com/bphoto/y99WW4gqEmkiEt57XVGdSA/o.jpg", "is_closed": false, "url": "https://www.yelp.com/biz/beijing-tokyo-acton-5?adjust_creative=HdhkN5EEH6lAqE3kwhsHEQ&utm_campaign=yelp_api_v3&utm_medium=api_v3_business_search&utm_source=HdhkN5EEH6lAqE3kwhsHEQ", "review_count": 53, "categories": [{"alias": "chinese", "title": "Chinese"}, {"alias": "japanese", "title": "Japanese"}, {"alias": "bars", "title": "Bars"}], "rating": 4.0, "coordinates": {"latitude": 42.5224910880023, "longitude": -71.4315375519852}, "transactions": [], "location": {"address1": "103 Nagog Park", "address2": "", "address3": null, "city": "Acton", "zip_code": "01720", "country": "US", "state": "MA", "display_address": ["103 Nagog Park", "Acton, MA 01720"]}, "phone": "+19784298989", "display_phone": "(978) 429-8989", "distance": 7781.738964794474}, {"id": "Njx_JiKQH6BsylGkBLR9_g", "alias": "fuse-bistro-westford", "name": "Fuse Bistro", "image_url": "https://s3-media3.fl.yelpcdn.com/bphoto/8wRQhgdZ8DaMimqW-Vyv_Q/o.jpg", "is_closed": false, "url": "https://www.yelp.com/biz/fuse-bistro-westford?adjust_creative=HdhkN5EEH6lAqE3kwhsHEQ&utm_campaign=yelp_api_v3&utm_medium=api_v3_business_search&utm_source=HdhkN5EEH6lAqE3kwhsHEQ", "review_count": 52, "categories": [{"alias": "newamerican", "title": "American (New)"}], "rating": 4.0, "coordinates": {"latitude": 42.55631, "longitude": -71.437977}, "transactions": ["delivery"], "price": "$$", "location": {"address1": "2 Powers Rd", "address2": "", "address3": null, "city": "Westford", "zip_code": "01886", "country": "US", "state": "MA", "display_address": ["2 Powers Rd", "Westford, MA 01886"]}, "phone": "+19783923636", "display_phone": "(978) 392-3636", "distance": 9660.960619770309}, {"id": "HjZDcALHDKs38IaBtsVy_Q", "alias": "markohs-on-main-ayer-2", "name": "Markoh's On Main", "image_url": "https://s3-media1.fl.yelpcdn.com/bphoto/k-Eb43VH3vlvQI0W-yz5PQ/o.jpg", "is_closed": false, "url": "https://www.yelp.com/biz/markohs-on-main-ayer-2?adjust_creative=HdhkN5EEH6lAqE3kwhsHEQ&utm_campaign=yelp_api_v3&utm_medium=api_v3_business_search&utm_source=HdhkN5EEH6lAqE3kwhsHEQ", "review_count": 47, "categories": [{"alias": "newamerican", "title": "American (New)"}], "rating": 3.5, "coordinates": {"latitude": 42.5598238, "longitude": -71.5886893}, "transactions": ["pickup", "delivery", "restaurant_reservation"], "price": "$$", "location": {"address1": "43 Main St", "address2": "", "address3": "", "city": "Ayer", "zip_code": "01432", "country": "US", "state": "MA", "display_address": ["43 Main St", "Ayer, MA 01432"]}, "phone": "+19787965260", "display_phone": "(978) 796-5260", "distance": 9573.080166357293}, {"id": "fDQlB4vMd1O_x7wZAiMCkQ", "alias": "twin-seafood-acton", "name": "Twin Seafood", "image_url": "https://s3-media4.fl.yelpcdn.com/bphoto/cMddl-q53Fvlw0Y9L09rpA/o.jpg", "is_closed": false, "url": "https://www.yelp.com/biz/twin-seafood-acton?adjust_creative=HdhkN5EEH6lAqE3kwhsHEQ&utm_campaign=yelp_api_v3&utm_medium=api_v3_business_search&utm_source=HdhkN5EEH6lAqE3kwhsHEQ", "review_count": 91, "categories": [{"alias": "seafood", "title": "Seafood"}], "rating": 4.0, "coordinates": {"latitude": 42.4761949, "longitude": -71.4715152}, "transactions": [], "price": "$$", "location": {"address1": "541 Massachusetts Ave", "address2": "", "address3": "", "city": "Acton", "zip_code": "01720", "country": "US", "state": "MA", "display_address": ["541 Massachusetts Ave", "Acton, MA 01720"]}, "phone": "+19786350010", "display_phone": "(978) 635-0010", "distance": 4107.788911086831}, {"id": "_TlGhXKPH5lAE2sP7Nba7A", "alias": "evviva-trattoria-westford", "name": "Evviva Trattoria", "image_url": "https://s3-media3.fl.yelpcdn.com/bphoto/pP8Aa9-2cHLwKRNZ2xBR7w/o.jpg", "is_closed": false, "url": "https://www.yelp.com/biz/evviva-trattoria-westford?adjust_creative=HdhkN5EEH6lAqE3kwhsHEQ&utm_campaign=yelp_api_v3&utm_medium=api_v3_business_search&utm_source=HdhkN5EEH6lAqE3kwhsHEQ", "review_count": 310, "categories": [{"alias": "italian", "title": "Italian"}, {"alias": "pizza", "title": "Pizza"}, {"alias": "cocktailbars", "title": "Cocktail Bars"}], "rating": 4.0, "coordinates": {"latitude": 42.5660302344765, "longitude": -71.4269551946463}, "transactions": ["delivery"], "price": "$$", "location": {"address1": "7 Cornerstone Sq", "address2": "", "address3": "", "city": "Westford", "zip_code": "01886", "country": "US", "state": "MA", "display_address": ["7 Cornerstone Sq", "Westford, MA 01886"]}, "phone": "+19786929050", "display_phone": "(978) 692-9050", "distance": 11036.80793986405}, {"id": "mcZb2oSI-0x1vlPysfN4LA", "alias": "the-red-raven-gastropub-acton", "name": "The Red Raven Gastropub", "image_url": "https://s3-media2.fl.yelpcdn.com/bphoto/PF6eP8GTy7n1DCdD9rklUQ/o.jpg", "is_closed": false, "url": "https://www.yelp.com/biz/the-red-raven-gastropub-acton?adjust_creative=HdhkN5EEH6lAqE3kwhsHEQ&utm_campaign=yelp_api_v3&utm_medium=api_v3_business_search&utm_source=HdhkN5EEH6lAqE3kwhsHEQ", "review_count": 356, "categories": [{"alias": "gastropubs", "title": "Gastropubs"}], "rating": 3.0, "coordinates": {"latitude": 42.5210909755955, "longitude": -71.432013687558}, "transactions": [], "price": "$$", "location": {"address1": "3 Nagog Park", "address2": null, "address3": "", "city": "Acton", "zip_code": "01720", "country": "US", "state": "MA", "display_address": ["3 Nagog Park", "Acton, MA 01720"]}, "phone": "+19782742231", "display_phone": "(978) 274-2231", "distance": 7679.507974735379}, {"id": "yklmU9WZS49RV-GnlKdoeQ", "alias": "siam-pepper-harvard", "name": "Siam Pepper", "image_url": "https://s3-media3.fl.yelpcdn.com/bphoto/5Tdu4tGqcvUcxxToSMUvKg/o.jpg", "is_closed": false, "url": "https://www.yelp.com/biz/siam-pepper-harvard?adjust_creative=HdhkN5EEH6lAqE3kwhsHEQ&utm_campaign=yelp_api_v3&utm_medium=api_v3_business_search&utm_source=HdhkN5EEH6lAqE3kwhsHEQ", "review_count": 93, "categories": [{"alias": "thai", "title": "Thai"}], "rating": 4.0, "coordinates": {"latitude": 42.5428756968778, "longitude": -71.5750345732847}, "transactions": ["delivery"], "price": "$$", "location": {"address1": "325 Ayer Rd", "address2": "", "address3": "", "city": "Harvard", "zip_code": "01451", "country": "US", "state": "MA", "display_address": ["325 Ayer Rd", "Harvard, MA 01451"]}, "phone": "+19783911251", "display_phone": "(978) 391-1251", "distance": 7411.574841766271}, {"id": "azpEJXSbMAw9bXfSKA_N6g", "alias": "minuteman-lounge-boxborough", "name": "Minuteman Lounge", "image_url": "https://s3-media2.fl.yelpcdn.com/bphoto/AMpMWRA6LxLYdT7ea6x-hw/o.jpg", "is_closed": false, "url": "https://www.yelp.com/biz/minuteman-lounge-boxborough?adjust_creative=HdhkN5EEH6lAqE3kwhsHEQ&utm_campaign=yelp_api_v3&utm_medium=api_v3_business_search&utm_source=HdhkN5EEH6lAqE3kwhsHEQ", "review_count": 11, "categories": [{"alias": "lounges", "title": "Lounges"}, {"alias": "burgers", "title": "Burgers"}, {"alias": "buffets", "title": "Buffets"}], "rating": 3.0, "coordinates": {"latitude": 42.4816166571658, "longitude": -71.5454085765636}, "transactions": [], "price": "$$", "location": {"address1": "242 Adams Pl", "address2": "", "address3": "", "city": "Boxborough", "zip_code": "01719", "country": "US", "state": "MA", "display_address": ["242 Adams Pl", "Boxborough, MA 01719"]}, "phone": "+19782638701", "display_phone": "(978) 263-8701", "distance": 2600.916434097259}, {"id": "wb6fUD_E-WOzxByyrmszLQ", "alias": "js-restaurant-at-nashoba-valley-winery-bolton", "name": "J's Restaurant at Nashoba Valley Winery", "image_url": "https://s3-media2.fl.yelpcdn.com/bphoto/bM8lKp14G8BEpPUfXTJwdw/o.jpg", "is_closed": false, "url": "https://www.yelp.com/biz/js-restaurant-at-nashoba-valley-winery-bolton?adjust_creative=HdhkN5EEH6lAqE3kwhsHEQ&utm_campaign=yelp_api_v3&utm_medium=api_v3_business_search&utm_source=HdhkN5EEH6lAqE3kwhsHEQ", "review_count": 96, "categories": [{"alias": "newamerican", "title": "American (New)"}, {"alias": "brewpubs", "title": "Brewpubs"}], "rating": 4.0, "coordinates": {"latitude": 42.4305992126465, "longitude": -71.616943359375}, "transactions": [], "price": "$$", "location": {"address1": "100 Wattaquadoc Hill Rd", "address2": "", "address3": "", "city": "Bolton", "zip_code": "01740", "country": "US", "state": "MA", "display_address": ["100 Wattaquadoc Hill Rd", "Bolton, MA 01740"]}, "phone": "+19787799816", "display_phone": "(978) 779-9816", "distance": 10665.211048415898}, {"id": "v0J-MR5FQbBcXEK5ivnHOg", "alias": "bar-25-ayer", "name": "Bar 25", "image_url": "https://s3-media2.fl.yelpcdn.com/bphoto/jZFOPugzQR7fzXKhK33jJQ/o.jpg", "is_closed": false, "url": "https://www.yelp.com/biz/bar-25-ayer?adjust_creative=HdhkN5EEH6lAqE3kwhsHEQ&utm_campaign=yelp_api_v3&utm_medium=api_v3_business_search&utm_source=HdhkN5EEH6lAqE3kwhsHEQ", "review_count": 26, "categories": [{"alias": "cocktailbars", "title": "Cocktail Bars"}, {"alias": "pizza", "title": "Pizza"}, {"alias": "sandwiches", "title": "Sandwiches"}], "rating": 4.5, "coordinates": {"latitude": 42.55971, "longitude": -71.58791}, "transactions": ["pickup", "delivery"], "price": "$$", "location": {"address1": "25 Main St Ayer", "address2": null, "address3": "", "city": "Ayer", "zip_code": "01432", "country": "US", "state": "MA", "display_address": ["25 Main St Ayer", "Ayer, MA 01432"]}, "phone": "+19783914680", "display_phone": "(978) 391-4680", "distance": 9522.410617156995}, {"id": "vK-Qfq9ChNkerChPKd0wGw", "alias": "woo-jung-restaurant-ayer", "name": "Woo Jung Restaurant", "image_url": "https://s3-media3.fl.yelpcdn.com/bphoto/XVuQMW-LD7CsgGUqq792lA/o.jpg", "is_closed": false, "url": "https://www.yelp.com/biz/woo-jung-restaurant-ayer?adjust_creative=HdhkN5EEH6lAqE3kwhsHEQ&utm_campaign=yelp_api_v3&utm_medium=api_v3_business_search&utm_source=HdhkN5EEH6lAqE3kwhsHEQ", "review_count": 212, "categories": [{"alias": "korean", "title": "Korean"}], "rating": 4.5, "coordinates": {"latitude": 42.55669, "longitude": -71.6019}, "transactions": ["delivery"], "price": "$$", "location": {"address1": "174 W Main St", "address2": "", "address3": "", "city": "Ayer", "zip_code": "01432", "country": "US", "state": "MA", "display_address": ["174 W Main St", "Ayer, MA 01432"]}, "phone": "+19787725742", "display_phone": "(978) 772-5742", "distance": 10021.03673215693}, {"id": "aElPz-7PYO5KVVeGDEPpJg", "alias": "il-forno-restaurant-and-catering-littleton", "name": "Il Forno Restaurant & Catering", "image_url": "https://s3-media2.fl.yelpcdn.com/bphoto/dddMjz8N4ys7Mxwib9pxjg/o.jpg", "is_closed": false, "url": "https://www.yelp.com/biz/il-forno-restaurant-and-catering-littleton?adjust_creative=HdhkN5EEH6lAqE3kwhsHEQ&utm_campaign=yelp_api_v3&utm_medium=api_v3_business_search&utm_source=HdhkN5EEH6lAqE3kwhsHEQ", "review_count": 65, "categories": [{"alias": "italian", "title": "Italian"}, {"alias": "seafood", "title": "Seafood"}, {"alias": "pizza", "title": "Pizza"}], "rating": 4.0, "coordinates": {"latitude": 42.547248, "longitude": -71.470847}, "transactions": ["pickup", "delivery"], "price": "$$", "location": {"address1": "529 King St", "address2": "", "address3": null, "city": "Littleton", "zip_code": "01460", "country": "US", "state": "MA", "display_address": ["529 King St", "Littleton, MA 01460"]}, "phone": "+19785402880", "display_phone": "(978) 540-2880", "distance": 7224.736695737046}, {"id": "tYbRF8dYf0Io96iu-L0zVw", "alias": "tavern-in-the-square-littleton", "name": "Tavern in the Square", "image_url": "https://s3-media2.fl.yelpcdn.com/bphoto/ff376q_y9NCU-GWgLITACA/o.jpg", "is_closed": false, "url": "https://www.yelp.com/biz/tavern-in-the-square-littleton?adjust_creative=HdhkN5EEH6lAqE3kwhsHEQ&utm_campaign=yelp_api_v3&utm_medium=api_v3_business_search&utm_source=HdhkN5EEH6lAqE3kwhsHEQ", "review_count": 167, "categories": [{"alias": "newamerican", "title": "American (New)"}, {"alias": "sportsbars", "title": "Sports Bars"}], "rating": 3.0, "coordinates": {"latitude": 42.55298, "longitude": -71.47769}, "transactions": ["delivery"], "price": "$$", "location": {"address1": "810 Constitution Ave", "address2": "", "address3": "The Point", "city": "Littleton", "zip_code": "01460", "country": "US", "state": "MA", "display_address": ["810 Constitution Ave", "The Point", "Littleton, MA 01460"]}, "phone": "+19783395372", "display_phone": "(978) 339-5372", "distance": 7577.978077271708}, {"id": "3UjEb2CmgJE2CXuoB4Ghgg", "alias": "family-delicatessen-maynard", "name": "Family Delicatessen", "image_url": "https://s3-media2.fl.yelpcdn.com/bphoto/bbivYZ0U7nV681w7fR9sZw/o.jpg", "is_closed": false, "url": "https://www.yelp.com/biz/family-delicatessen-maynard?adjust_creative=HdhkN5EEH6lAqE3kwhsHEQ&utm_campaign=yelp_api_v3&utm_medium=api_v3_business_search&utm_source=HdhkN5EEH6lAqE3kwhsHEQ", "review_count": 16, "categories": [{"alias": "delis", "title": "Delis"}, {"alias": "sandwiches", "title": "Sandwiches"}], "rating": 5.0, "coordinates": {"latitude": 42.4318116659135, "longitude": -71.4555281424715}, "transactions": [], "location": {"address1": "129 Main St", "address2": "", "address3": null, "city": "Maynard", "zip_code": "01754", "country": "US", "state": "MA", "display_address": ["129 Main St", "Maynard, MA 01754"]}, "phone": "+19782985147", "display_phone": "(978) 298-5147", "distance": 8358.913978815655}, {"id": "3p4J2ltKODEIZusat54BGA", "alias": "not-your-average-joes-acton", "name": "Not Your Average Joe's", "image_url": "https://s3-media2.fl.yelpcdn.com/bphoto/sokHFL5Ns3RJj5AJqP3Nqg/o.jpg", "is_closed": false, "url": "https://www.yelp.com/biz/not-your-average-joes-acton?adjust_creative=HdhkN5EEH6lAqE3kwhsHEQ&utm_campaign=yelp_api_v3&utm_medium=api_v3_business_search&utm_source=HdhkN5EEH6lAqE3kwhsHEQ", "review_count": 247, "categories": [{"alias": "newamerican", "title": "American (New)"}], "rating": 3.5, "coordinates": {"latitude": 42.4764274, "longitude": -71.4509788}, "transactions": [], "price": "$$", "location": {"address1": "305 Main", "address2": "", "address3": "", "city": "Acton", "zip_code": "01720", "country": "US", "state": "MA", "display_address": ["305 Main", "Acton, MA 01720"]}, "phone": "+19786350101", "display_phone": "(978) 635-0101", "distance": 5707.543920661467}, {"id": "zSMYkwSikanl3zT43Y5vDQ", "alias": "masala-bay-indian-kitchen-littleton", "name": "Masala Bay Indian Kitchen", "image_url": "https://s3-media1.fl.yelpcdn.com/bphoto/JUknGzXOskrCAPJV-C-FFw/o.jpg", "is_closed": false, "url": "https://www.yelp.com/biz/masala-bay-indian-kitchen-littleton?adjust_creative=HdhkN5EEH6lAqE3kwhsHEQ&utm_campaign=yelp_api_v3&utm_medium=api_v3_business_search&utm_source=HdhkN5EEH6lAqE3kwhsHEQ", "review_count": 135, "categories": [{"alias": "indpak", "title": "Indian"}], "rating": 4.0, "coordinates": {"latitude": 42.551695, "longitude": -71.47641}, "transactions": ["pickup", "delivery"], "price": "$$", "location": {"address1": "501 Constitution Ave", "address2": null, "address3": "", "city": "Littleton", "zip_code": "01460", "country": "US", "state": "MA", "display_address": ["501 Constitution Ave", "Littleton, MA 01460"]}, "phone": "+19788000059", "display_phone": "(978) 800-0059", "distance": 7436.552040965367}, {"id": "VvFZm4_bPws-3kw-ONkMIA", "alias": "anthonys-coal-fired-pizza-littleton-3", "name": "Anthony's Coal Fired Pizza", "image_url": "https://s3-media2.fl.yelpcdn.com/bphoto/0mnNV5GBLYMWL4Xj1Jv4mg/o.jpg", "is_closed": false, "url": "https://www.yelp.com/biz/anthonys-coal-fired-pizza-littleton-3?adjust_creative=HdhkN5EEH6lAqE3kwhsHEQ&utm_campaign=yelp_api_v3&utm_medium=api_v3_business_search&utm_source=HdhkN5EEH6lAqE3kwhsHEQ", "review_count": 126, "categories": [{"alias": "chicken_wings", "title": "Chicken Wings"}, {"alias": "pizza", "title": "Pizza"}, {"alias": "italian", "title": "Italian"}], "rating": 3.5, "coordinates": {"latitude": 42.551729, "longitude": -71.478114}, "transactions": [], "price": "$$", "location": {"address1": "201 Constitution Ave", "address2": null, "address3": "", "city": "Littleton", "zip_code": "01460", "country": "US", "state": "MA", "display_address": ["201 Constitution Ave", "Littleton, MA 01460"]}, "phone": "+19784864124", "display_phone": "(978) 486-4124", "distance": 7378.747322655305}, {"id": "QyW8j3aut9ERG_lkIVd46g", "alias": "the-devens-grill-devens-2", "name": "The Devens Grill", "image_url": "https://s3-media2.fl.yelpcdn.com/bphoto/OgUpc7UGU-7gZykkviro4A/o.jpg", "is_closed": false, "url": "https://www.yelp.com/biz/the-devens-grill-devens-2?adjust_creative=HdhkN5EEH6lAqE3kwhsHEQ&utm_campaign=yelp_api_v3&utm_medium=api_v3_business_search&utm_source=HdhkN5EEH6lAqE3kwhsHEQ", "review_count": 164, "categories": [{"alias": "tradamerican", "title": "American (Traditional)"}, {"alias": "bars", "title": "Bars"}, {"alias": "salad", "title": "Salad"}], "rating": 3.5, "coordinates": {"latitude": 42.540703, "longitude": -71.612189}, "transactions": ["pickup", "delivery"], "price": "$$", "location": {"address1": "4 Ryans Way", "address2": "", "address3": "", "city": "Devens", "zip_code": "01434", "country": "US", "state": "MA", "display_address": ["4 Ryans Way", "Devens, MA 01434"]}, "phone": "+19788620060", "display_phone": "(978) 862-0060", "distance": 9515.885740842215}, {"id": "51ANijojLx_Fkjn6SHiFfQ", "alias": "the-natural-cafe-devens", "name": "The Natural Cafe", "image_url": "https://s3-media1.fl.yelpcdn.com/bphoto/KPBXv6nhpq5KlcPxowtREg/o.jpg", "is_closed": false, "url": "https://www.yelp.com/biz/the-natural-cafe-devens?adjust_creative=HdhkN5EEH6lAqE3kwhsHEQ&utm_campaign=yelp_api_v3&utm_medium=api_v3_business_search&utm_source=HdhkN5EEH6lAqE3kwhsHEQ", "review_count": 38, "categories": [{"alias": "newamerican", "title": "American (New)"}, {"alias": "vegan", "title": "Vegan"}, {"alias": "vegetarian", "title": "Vegetarian"}], "rating": 4.5, "coordinates": {"latitude": 42.5416746, "longitude": -71.6104325}, "transactions": ["delivery"], "price": "$$", "location": {"address1": "176 Jackson Rd", "address2": "", "address3": "", "city": "Devens", "zip_code": "01434", "country": "US", "state": "MA", "display_address": ["176 Jackson Rd", "Devens, MA 01434"]}, "phone": "+19786602680", "display_phone": "(978) 660-2680", "distance": 9440.611491619156}, {"id": "6H_ALfCZhN-j84lHQcHn1g", "alias": "ginger-court-acton", "name": "Ginger Court", "image_url": "https://s3-media3.fl.yelpcdn.com/bphoto/HQLKRRYl8TA3VopKBOa0jA/o.jpg", "is_closed": false, "url": "https://www.yelp.com/biz/ginger-court-acton?adjust_creative=HdhkN5EEH6lAqE3kwhsHEQ&utm_campaign=yelp_api_v3&utm_medium=api_v3_business_search&utm_source=HdhkN5EEH6lAqE3kwhsHEQ", "review_count": 26, "categories": [{"alias": "seafood", "title": "Seafood"}, {"alias": "chinese", "title": "Chinese"}], "rating": 4.0, "coordinates": {"latitude": 42.502129, "longitude": -71.420804}, "transactions": [], "price": "$$", "location": {"address1": "344 Great Rd", "address2": "", "address3": null, "city": "Acton", "zip_code": "01720", "country": "US", "state": "MA", "display_address": ["344 Great Rd", "Acton, MA 01720"]}, "phone": "+19782643100", "display_phone": "(978) 264-3100", "distance": 7959.256336958118}, {"id": "6HBiQFIUQM6RG0zvhWu2uA", "alias": "siam-village-maynard", "name": "Siam Village", "image_url": "https://s3-media3.fl.yelpcdn.com/bphoto/Bf4HvzWw0ajJB4gDRduKiQ/o.jpg", "is_closed": false, "url": "https://www.yelp.com/biz/siam-village-maynard?adjust_creative=HdhkN5EEH6lAqE3kwhsHEQ&utm_campaign=yelp_api_v3&utm_medium=api_v3_business_search&utm_source=HdhkN5EEH6lAqE3kwhsHEQ", "review_count": 56, "categories": [{"alias": "thai", "title": "Thai"}], "rating": 4.0, "coordinates": {"latitude": 42.4319277402795, "longitude": -71.4542866417183}, "transactions": [], "price": "$$", "location": {"address1": "98 Main St", "address2": "", "address3": "", "city": "Maynard", "zip_code": "01754", "country": "US", "state": "MA", "display_address": ["98 Main St", "Maynard, MA 01754"]}, "phone": "+19788970211", "display_phone": "(978) 897-0211", "distance": 8410.391164625877}, {"id": "hI3yd5LwfNObQXNx2JWgbA", "alias": "thai-chili-maynard", "name": "Thai Chili", "image_url": "https://s3-media1.fl.yelpcdn.com/bphoto/hZx6Im4naD0sk7ECBGoq8g/o.jpg", "is_closed": false, "url": "https://www.yelp.com/biz/thai-chili-maynard?adjust_creative=HdhkN5EEH6lAqE3kwhsHEQ&utm_campaign=yelp_api_v3&utm_medium=api_v3_business_search&utm_source=HdhkN5EEH6lAqE3kwhsHEQ", "review_count": 118, "categories": [{"alias": "thai", "title": "Thai"}], "rating": 4.0, "coordinates": {"latitude": 42.432243, "longitude": -71.451986}, "transactions": ["pickup", "delivery"], "price": "$$", "location": {"address1": "40 Main St", "address2": "", "address3": "", "city": "Maynard", "zip_code": "01754", "country": "US", "state": "MA", "display_address": ["40 Main St", "Maynard, MA 01754"]}, "phone": "+19788972984", "display_phone": "(978) 897-2984", "distance": 8499.647532515179}, {"id": "NiZ71XJcKTk2d4HgMlJ_zQ", "alias": "mayuri-indian-cuisine-acton-3", "name": "Mayuri Indian Cuisine", "image_url": "https://s3-media4.fl.yelpcdn.com/bphoto/T5YlIdUqtsghaSD-t5Rm9A/o.jpg", "is_closed": false, "url": "https://www.yelp.com/biz/mayuri-indian-cuisine-acton-3?adjust_creative=HdhkN5EEH6lAqE3kwhsHEQ&utm_campaign=yelp_api_v3&utm_medium=api_v3_business_search&utm_source=HdhkN5EEH6lAqE3kwhsHEQ", "review_count": 83, "categories": [{"alias": "indpak", "title": "Indian"}], "rating": 4.0, "coordinates": {"latitude": 42.523, "longitude": -71.432142}, "transactions": ["pickup"], "price": "$$", "location": {"address1": "5 Nagog Park", "address2": "Ste 508", "address3": "Nagog Mall", "city": "Acton", "zip_code": "01720", "country": "US", "state": "MA", "display_address": ["5 Nagog Park", "Ste 508", "Nagog Mall", "Acton, MA 01720"]}, "phone": "+19782742323", "display_phone": "(978) 274-2323", "distance": 7762.300792009234}, {"id": "fTy1G9jyLaclAlNSTN2AcA", "alias": "carlins-restaurant-ayer", "name": "Carlins Restaurant", "image_url": "https://s3-media2.fl.yelpcdn.com/bphoto/KFMEla9ueo6y0iaHEq3_Hw/o.jpg", "is_closed": false, "url": "https://www.yelp.com/biz/carlins-restaurant-ayer?adjust_creative=HdhkN5EEH6lAqE3kwhsHEQ&utm_campaign=yelp_api_v3&utm_medium=api_v3_business_search&utm_source=HdhkN5EEH6lAqE3kwhsHEQ", "review_count": 39, "categories": [{"alias": "newamerican", "title": "American (New)"}, {"alias": "seafood", "title": "Seafood"}, {"alias": "sandwiches", "title": "Sandwiches"}], "rating": 3.5, "coordinates": {"latitude": 42.559352, "longitude": -71.589046}, "transactions": [], "price": "$$", "location": {"address1": "7 Depot Sq", "address2": "", "address3": "", "city": "Ayer", "zip_code": "01432", "country": "US", "state": "MA", "display_address": ["7 Depot Sq", "Ayer, MA 01432"]}, "phone": "+19787722317", "display_phone": "(978) 772-2317", "distance": 9565.73580672323}, {"id": "Inxo5kY1MtgkBmbDM7NzPQ", "alias": "kimball-farm-westford-3", "name": "Kimball Farm", "image_url": "https://s3-media2.fl.yelpcdn.com/bphoto/JqIXgJ_tWF9RT4sCRmATBA/o.jpg", "is_closed": false, "url": "https://www.yelp.com/biz/kimball-farm-westford-3?adjust_creative=HdhkN5EEH6lAqE3kwhsHEQ&utm_campaign=yelp_api_v3&utm_medium=api_v3_business_search&utm_source=HdhkN5EEH6lAqE3kwhsHEQ", "review_count": 518, "categories": [{"alias": "seafood", "title": "Seafood"}, {"alias": "icecream", "title": "Ice Cream & Frozen Yogurt"}, {"alias": "recreation", "title": "Recreation Centers"}], "rating": 4.0, "coordinates": {"latitude": 42.54886, "longitude": -71.45658}, "transactions": [], "price": "$$", "location": {"address1": "400 Littleton Rd", "address2": "", "address3": "", "city": "Westford", "zip_code": "01886", "country": "US", "state": "MA", "display_address": ["400 Littleton Rd", "Westford, MA 01886"]}, "phone": "+19784863891", "display_phone": "(978) 486-3891", "distance": 8050.20487569612}, {"id": "8Pbb00BwbOLlaaSdNzRrag", "alias": "burtons-grill-and-bar-of-westford-westford", "name": "Burtons Grill & Bar of Westford", "image_url": "https://s3-media2.fl.yelpcdn.com/bphoto/5GC8uzO2NnDqC4Wwy2gOvg/o.jpg", "is_closed": false, "url": "https://www.yelp.com/biz/burtons-grill-and-bar-of-westford-westford?adjust_creative=HdhkN5EEH6lAqE3kwhsHEQ&utm_campaign=yelp_api_v3&utm_medium=api_v3_business_search&utm_source=HdhkN5EEH6lAqE3kwhsHEQ", "review_count": 250, "categories": [{"alias": "tradamerican", "title": "American (Traditional)"}, {"alias": "seafood", "title": "Seafood"}], "rating": 3.5, "coordinates": {"latitude": 42.567217886514, "longitude": -71.4254665374756}, "transactions": ["pickup", "delivery"], "price": "$$", "location": {"address1": "1 Cornerstone Sq", "address2": "", "address3": "", "city": "Westford", "zip_code": "01886", "country": "US", "state": "MA", "display_address": ["1 Cornerstone Sq", "Westford, MA 01886"]}, "phone": "+19786921220", "display_phone": "(978) 692-1220", "distance": 11241.302156728947}, {"id": "xCUXkpRdAQHEQ5-j2zMXcw", "alias": "westward-orchards-harvard-2", "name": "Westward Orchards", "image_url": "https://s3-media1.fl.yelpcdn.com/bphoto/KF3qJldrBvxWkeVUIRLu2g/o.jpg", "is_closed": false, "url": "https://www.yelp.com/biz/westward-orchards-harvard-2?adjust_creative=HdhkN5EEH6lAqE3kwhsHEQ&utm_campaign=yelp_api_v3&utm_medium=api_v3_business_search&utm_source=HdhkN5EEH6lAqE3kwhsHEQ", "review_count": 17, "categories": [{"alias": "markets", "title": "Fruits & Veggies"}, {"alias": "breakfast_brunch", "title": "Breakfast & Brunch"}], "rating": 4.0, "coordinates": {"latitude": 42.4937076, "longitude": -71.5608527}, "transactions": [], "price": "$", "location": {"address1": "178 Mass Ave", "address2": null, "address3": null, "city": "Harvard", "zip_code": "01451", "country": "US", "state": "MA", "display_address": ["178 Mass Ave", "Harvard, MA 01451"]}, "phone": "+19784568363", "display_phone": "(978) 456-8363", "distance": 3611.679367541313}, {"id": "x07A69dXSkVq-w4IFmJ_mg", "alias": "benjarong-restaurant-acton", "name": "Benjarong Restaurant", "image_url": "https://s3-media2.fl.yelpcdn.com/bphoto/VFX1bgNYYfn-37UZlXiing/o.jpg", "is_closed": false, "url": "https://www.yelp.com/biz/benjarong-restaurant-acton?adjust_creative=HdhkN5EEH6lAqE3kwhsHEQ&utm_campaign=yelp_api_v3&utm_medium=api_v3_business_search&utm_source=HdhkN5EEH6lAqE3kwhsHEQ", "review_count": 88, "categories": [{"alias": "thai", "title": "Thai"}], "rating": 3.5, "coordinates": {"latitude": 42.469078, "longitude": -71.456516}, "transactions": ["pickup", "delivery"], "price": "$$", "location": {"address1": "214 Main St", "address2": "", "address3": "", "city": "Acton", "zip_code": "01720", "country": "US", "state": "MA", "display_address": ["214 Main St", "Acton, MA 01720"]}, "phone": "+19786359580", "display_phone": "(978) 635-9580", "distance": 5559.245760088045}, {"id": "Upkif4kfxGDyBOOA3IO5xQ", "alias": "gigis-restaraunt-maynard", "name": "Gigi's Restaraunt", "image_url": "https://s3-media1.fl.yelpcdn.com/bphoto/VBqBaEsvmnBKEIPsc8cJgA/o.jpg", "is_closed": false, "url": "https://www.yelp.com/biz/gigis-restaraunt-maynard?adjust_creative=HdhkN5EEH6lAqE3kwhsHEQ&utm_campaign=yelp_api_v3&utm_medium=api_v3_business_search&utm_source=HdhkN5EEH6lAqE3kwhsHEQ", "review_count": 100, "categories": [{"alias": "vietnamese", "title": "Vietnamese"}, {"alias": "sushi", "title": "Sushi Bars"}, {"alias": "bars", "title": "Bars"}], "rating": 4.0, "coordinates": {"latitude": 42.4306404, "longitude": -71.4599448}, "transactions": ["delivery"], "price": "$$", "location": {"address1": "177 Main St", "address2": "", "address3": "", "city": "Maynard", "zip_code": "01754", "country": "US", "state": "MA", "display_address": ["177 Main St", "Maynard, MA 01754"]}, "phone": "+19787938684", "display_phone": "(978) 793-8684", "distance": 8255.413221658986}, {"id": "4qDaTcKIII1OGUJncBOtYQ", "alias": "slaters-bolton", "name": "Slater's", "image_url": "https://s3-media4.fl.yelpcdn.com/bphoto/NjBX-Rt2T7LvsFd3bTMf8Q/o.jpg", "is_closed": false, "url": "https://www.yelp.com/biz/slaters-bolton?adjust_creative=HdhkN5EEH6lAqE3kwhsHEQ&utm_campaign=yelp_api_v3&utm_medium=api_v3_business_search&utm_source=HdhkN5EEH6lAqE3kwhsHEQ", "review_count": 162, "categories": [{"alias": "bbq", "title": "Barbeque"}, {"alias": "italian", "title": "Italian"}, {"alias": "pizza", "title": "Pizza"}], "rating": 3.5, "coordinates": {"latitude": 42.432528690525, "longitude": -71.576899551012}, "transactions": [], "price": "$$", "location": {"address1": "356 Main St", "address2": "", "address3": "", "city": "Bolton", "zip_code": "01740", "country": "US", "state": "MA", "display_address": ["356 Main St", "Bolton, MA 01740"]}, "phone": "+19787796680", "display_phone": "(978) 779-6680", "distance": 8229.902544847611}, {"id": "cb6XRJdpzMIKhAgDWL44Vg", "alias": "legend-cafe-acton", "name": "Legend Cafe", "image_url": "https://s3-media1.fl.yelpcdn.com/bphoto/AYcH3WTRGvULxPZAOSSBQA/o.jpg", "is_closed": false, "url": "https://www.yelp.com/biz/legend-cafe-acton?adjust_creative=HdhkN5EEH6lAqE3kwhsHEQ&utm_campaign=yelp_api_v3&utm_medium=api_v3_business_search&utm_source=HdhkN5EEH6lAqE3kwhsHEQ", "review_count": 61, "categories": [{"alias": "breakfast_brunch", "title": "Breakfast & Brunch"}, {"alias": "desserts", "title": "Desserts"}, {"alias": "coffee", "title": "Coffee & Tea"}], "rating": 4.0, "coordinates": {"latitude": 42.4763273152225, "longitude": -71.4722213490726}, "transactions": ["pickup"], "price": "$$", "location": {"address1": "5A Spruce St", "address2": "", "address3": "", "city": "Acton", "zip_code": "01720", "country": "US", "state": "MA", "display_address": ["5A Spruce St", "Acton, MA 01720"]}, "phone": "+19786355315", "display_phone": "(978) 635-5315", "distance": 4047.4877953603086}, {"id": "mjdumaxpoQR01n26UnZmQg", "alias": "max-and-leo-s-artisan-pizza-sudbury", "name": "Max & Leo\u2019s Artisan Pizza", "image_url": "https://s3-media2.fl.yelpcdn.com/bphoto/tNhds6nCTd4mD057AXx4fA/o.jpg", "is_closed": false, "url": "https://www.yelp.com/biz/max-and-leo-s-artisan-pizza-sudbury?adjust_creative=HdhkN5EEH6lAqE3kwhsHEQ&utm_campaign=yelp_api_v3&utm_medium=api_v3_business_search&utm_source=HdhkN5EEH6lAqE3kwhsHEQ", "review_count": 48, "categories": [{"alias": "pizza", "title": "Pizza"}, {"alias": "bars", "title": "Bars"}, {"alias": "sandwiches", "title": "Sandwiches"}], "rating": 4.0, "coordinates": {"latitude": 42.424137876957, "longitude": -71.422606207404}, "transactions": [], "price": "$$", "location": {"address1": "470 North Rd", "address2": "", "address3": null, "city": "Sudbury", "zip_code": "01776", "country": "US", "state": "MA", "display_address": ["470 North Rd", "Sudbury, MA 01776"]}, "phone": "+19782615906", "display_phone": "(978) 261-5906", "distance": 10792.223428260588}, {"id": "fQn9zRW_aFCWWM-It4si7A", "alias": "osawa-japanese-bistro-ayer", "name": "Osawa Japanese Bistro", "image_url": "https://s3-media2.fl.yelpcdn.com/bphoto/HaWLuBHYR1xHUEJVfYmJdw/o.jpg", "is_closed": false, "url": "https://www.yelp.com/biz/osawa-japanese-bistro-ayer?adjust_creative=HdhkN5EEH6lAqE3kwhsHEQ&utm_campaign=yelp_api_v3&utm_medium=api_v3_business_search&utm_source=HdhkN5EEH6lAqE3kwhsHEQ", "review_count": 74, "categories": [{"alias": "sushi", "title": "Sushi Bars"}, {"alias": "japanese", "title": "Japanese"}], "rating": 4.0, "coordinates": {"latitude": 42.55961, "longitude": -71.5874}, "transactions": ["delivery"], "price": "$$", "location": {"address1": "9 Main St", "address2": "", "address3": null, "city": "Ayer", "zip_code": "01432", "country": "US", "state": "MA", "display_address": ["9 Main St", "Ayer, MA 01432"]}, "phone": "+19783914335", "display_phone": "(978) 391-4335", "distance": 9508.319028107697}, {"id": "Bq_zhxiiHYeDO2IhsHidvQ", "alias": "sorrentos-brick-oven-pizzeria-acton", "name": "Sorrento's Brick Oven Pizzeria", "image_url": "https://s3-media3.fl.yelpcdn.com/bphoto/1T3Nn5xQJCeHcIf6Qv6HFw/o.jpg", "is_closed": false, "url": "https://www.yelp.com/biz/sorrentos-brick-oven-pizzeria-acton?adjust_creative=HdhkN5EEH6lAqE3kwhsHEQ&utm_campaign=yelp_api_v3&utm_medium=api_v3_business_search&utm_source=HdhkN5EEH6lAqE3kwhsHEQ", "review_count": 94, "categories": [{"alias": "pizza", "title": "Pizza"}, {"alias": "italian", "title": "Italian"}], "rating": 3.5, "coordinates": {"latitude": 42.4735904934316, "longitude": -71.4538613494138}, "transactions": ["pickup", "delivery"], "price": "$$", "location": {"address1": "251 Main St", "address2": "", "address3": "", "city": "Acton", "zip_code": "01720", "country": "US", "state": "MA", "display_address": ["251 Main St", "Acton, MA 01720"]}, "phone": "+19782649006", "display_phone": "(978) 264-9006", "distance": 5551.422736640403}, {"id": "rBbwtaM47FAg795W3C4moQ", "alias": "cafe-of-india-maynard", "name": "Cafe of India", "image_url": "https://s3-media2.fl.yelpcdn.com/bphoto/K_8VGB6GGdfueg2C_4Qcpg/o.jpg", "is_closed": false, "url": "https://www.yelp.com/biz/cafe-of-india-maynard?adjust_creative=HdhkN5EEH6lAqE3kwhsHEQ&utm_campaign=yelp_api_v3&utm_medium=api_v3_business_search&utm_source=HdhkN5EEH6lAqE3kwhsHEQ", "review_count": 50, "categories": [{"alias": "indpak", "title": "Indian"}, {"alias": "buffets", "title": "Buffets"}], "rating": 4.0, "coordinates": {"latitude": 42.4312477111816, "longitude": -71.4589080810547}, "transactions": ["pickup", "delivery"], "price": "$$", "location": {"address1": "155 Main St", "address2": "", "address3": null, "city": "Maynard", "zip_code": "01754", "country": "US", "state": "MA", "display_address": ["155 Main St", "Maynard, MA 01754"]}, "phone": "+19788979227", "display_phone": "(978) 897-9227", "distance": 8266.018057614418}, {"id": "61UV7C68CcPcm5k1nmww2A", "alias": "asian-plus-noodle-and-rice-westford-2", "name": "Asian Plus Noodle & Rice", "image_url": "https://s3-media2.fl.yelpcdn.com/bphoto/fs1M_bDFL_r0Cpo2lsigOA/o.jpg", "is_closed": false, "url": "https://www.yelp.com/biz/asian-plus-noodle-and-rice-westford-2?adjust_creative=HdhkN5EEH6lAqE3kwhsHEQ&utm_campaign=yelp_api_v3&utm_medium=api_v3_business_search&utm_source=HdhkN5EEH6lAqE3kwhsHEQ", "review_count": 39, "categories": [{"alias": "japanese", "title": "Japanese"}, {"alias": "vietnamese", "title": "Vietnamese"}, {"alias": "thai", "title": "Thai"}], "rating": 4.0, "coordinates": {"latitude": 42.5554964625884, "longitude": -71.4442735165357}, "transactions": ["delivery"], "price": "$", "location": {"address1": "313 Littleton Rd", "address2": "", "address3": null, "city": "Westford", "zip_code": "01886", "country": "US", "state": "MA", "display_address": ["313 Littleton Rd", "Westford, MA 01886"]}, "phone": "+19785776425", "display_phone": "(978) 577-6425", "distance": 9247.186852643497}, {"id": "c8cjfl5UmsMoLcrG99irgA", "alias": "dicapri-pizzeria-and-restaurant-acton-4", "name": "Dicapri Pizzeria and Restaurant", "image_url": "https://s3-media1.fl.yelpcdn.com/bphoto/ANYppYzry6LurCh7gtUqEw/o.jpg", "is_closed": false, "url": "https://www.yelp.com/biz/dicapri-pizzeria-and-restaurant-acton-4?adjust_creative=HdhkN5EEH6lAqE3kwhsHEQ&utm_campaign=yelp_api_v3&utm_medium=api_v3_business_search&utm_source=HdhkN5EEH6lAqE3kwhsHEQ", "review_count": 60, "categories": [{"alias": "pizza", "title": "Pizza"}, {"alias": "italian", "title": "Italian"}], "rating": 3.5, "coordinates": {"latitude": 42.4761012580439, "longitude": -71.4738458109086}, "transactions": ["pickup", "delivery"], "price": "$", "location": {"address1": "576 Massachusetts Ave", "address2": null, "address3": "", "city": "Acton", "zip_code": "01720", "country": "US", "state": "MA", "display_address": ["576 Massachusetts Ave", "Acton, MA 01720"]}, "phone": "+19782634700", "display_phone": "(978) 263-4700", "distance": 3949.2861810867166}, {"id": "0EuDsWHDVjSWZ8f-zeVPfQ", "alias": "the-pleasant-cafe-maynard", "name": "The Pleasant Cafe", "image_url": "https://s3-media3.fl.yelpcdn.com/bphoto/wRDiMmPDpHbOzM4pHW1B4A/o.jpg", "is_closed": false, "url": "https://www.yelp.com/biz/the-pleasant-cafe-maynard?adjust_creative=HdhkN5EEH6lAqE3kwhsHEQ&utm_campaign=yelp_api_v3&utm_medium=api_v3_business_search&utm_source=HdhkN5EEH6lAqE3kwhsHEQ", "review_count": 71, "categories": [{"alias": "sportsbars", "title": "Sports Bars"}, {"alias": "tradamerican", "title": "American (Traditional)"}], "rating": 4.0, "coordinates": {"latitude": 42.4323768, "longitude": -71.4516751}, "transactions": ["delivery"], "price": "$$", "location": {"address1": "36 Main St", "address2": "", "address3": "", "city": "Maynard", "zip_code": "01754", "country": "US", "state": "MA", "display_address": ["36 Main St", "Maynard, MA 01754"]}, "phone": "+19788974511", "display_phone": "(978) 897-4511", "distance": 8500.248627156856}, {"id": "SBW4ZWvwrZOcuds7wvQSDA", "alias": "taka-littleton", "name": "Taka", "image_url": "https://s3-media2.fl.yelpcdn.com/bphoto/-QfMwcgfiLWItcj6f67Ptg/o.jpg", "is_closed": false, "url": "https://www.yelp.com/biz/taka-littleton?adjust_creative=HdhkN5EEH6lAqE3kwhsHEQ&utm_campaign=yelp_api_v3&utm_medium=api_v3_business_search&utm_source=HdhkN5EEH6lAqE3kwhsHEQ", "review_count": 55, "categories": [{"alias": "asianfusion", "title": "Asian Fusion"}], "rating": 3.0, "coordinates": {"latitude": 42.552223, "longitude": -71.47652}, "transactions": ["delivery"], "location": {"address1": "602 Constitution Ave", "address2": null, "address3": "", "city": "Littleton", "zip_code": "01460", "country": "US", "state": "MA", "display_address": ["602 Constitution Ave", "Littleton, MA 01460"]}, "phone": "+19783395498", "display_phone": "(978) 339-5498", "distance": 7485.153725632902}, {"id": "qFWXdPiBvFxapeagaYwi7w", "alias": "nancys-air-field-cafe-stow", "name": "Nancy's Air Field Cafe", "image_url": "https://s3-media3.fl.yelpcdn.com/bphoto/ZjNA6EYlmRO9LmnqZ-CMAA/o.jpg", "is_closed": false, "url": "https://www.yelp.com/biz/nancys-air-field-cafe-stow?adjust_creative=HdhkN5EEH6lAqE3kwhsHEQ&utm_campaign=yelp_api_v3&utm_medium=api_v3_business_search&utm_source=HdhkN5EEH6lAqE3kwhsHEQ", "review_count": 173, "categories": [{"alias": "breakfast_brunch", "title": "Breakfast & Brunch"}, {"alias": "tradamerican", "title": "American (Traditional)"}, {"alias": "pizza", "title": "Pizza"}], "rating": 3.5, "coordinates": {"latitude": 42.462117, "longitude": -71.516988}, "transactions": [], "price": "$$", "location": {"address1": "302 Boxboro Rd", "address2": "", "address3": "", "city": "Stow", "zip_code": "01775", "country": "US", "state": "MA", "display_address": ["302 Boxboro Rd", "Stow, MA 01775"]}, "phone": "+19788973934", "display_phone": "(978) 897-3934", "distance": 3304.472272051661}, {"id": "YVxRFGmxzo1P3j_o6m7iJg", "alias": "le-lyonnais-acton", "name": "Le Lyonnais", "image_url": "https://s3-media1.fl.yelpcdn.com/bphoto/gu20DtgUXBiLjipC4MhFYg/o.jpg", "is_closed": false, "url": "https://www.yelp.com/biz/le-lyonnais-acton?adjust_creative=HdhkN5EEH6lAqE3kwhsHEQ&utm_campaign=yelp_api_v3&utm_medium=api_v3_business_search&utm_source=HdhkN5EEH6lAqE3kwhsHEQ", "review_count": 49, "categories": [{"alias": "french", "title": "French"}], "rating": 3.5, "coordinates": {"latitude": 42.509717, "longitude": -71.421318}, "transactions": [], "price": "$$$", "location": {"address1": "416 Great Rd", "address2": "", "address3": "Rte 2A", "city": "Acton", "zip_code": "01720", "country": "US", "state": "MA", "display_address": ["416 Great Rd", "Rte 2A", "Acton, MA 01720"]}, "phone": "+19782639068", "display_phone": "(978) 263-9068", "distance": 8082.312321242598}, {"id": "SixjqwG0i-lfnMRqyzxf2Q", "alias": "ruby-donut-ayer", "name": "Ruby Donut", "image_url": "https://s3-media3.fl.yelpcdn.com/bphoto/HGi_MAvNkY9GM8gunxuqkA/o.jpg", "is_closed": false, "url": "https://www.yelp.com/biz/ruby-donut-ayer?adjust_creative=HdhkN5EEH6lAqE3kwhsHEQ&utm_campaign=yelp_api_v3&utm_medium=api_v3_business_search&utm_source=HdhkN5EEH6lAqE3kwhsHEQ", "review_count": 47, "categories": [{"alias": "donuts", "title": "Donuts"}, {"alias": "bagels", "title": "Bagels"}, {"alias": "sandwiches", "title": "Sandwiches"}], "rating": 5.0, "coordinates": {"latitude": 42.554444, "longitude": -71.604917}, "transactions": ["delivery"], "location": {"address1": "210 W Main St", "address2": "", "address3": null, "city": "Ayer", "zip_code": "01432", "country": "US", "state": "MA", "display_address": ["210 W Main St", "Ayer, MA 01432"]}, "phone": "+19784877986", "display_phone": "(978) 487-7986", "distance": 10026.150502795517}, {"id": "PqZ7AQ252xN40IzpworuIw", "alias": "red-ginger-asian-cuisine-stow", "name": "Red Ginger Asian Cuisine", "image_url": "https://s3-media1.fl.yelpcdn.com/bphoto/UoK5eNT3_MrwSJS2ROUgoQ/o.jpg", "is_closed": false, "url": "https://www.yelp.com/biz/red-ginger-asian-cuisine-stow?adjust_creative=HdhkN5EEH6lAqE3kwhsHEQ&utm_campaign=yelp_api_v3&utm_medium=api_v3_business_search&utm_source=HdhkN5EEH6lAqE3kwhsHEQ", "review_count": 121, "categories": [{"alias": "chinese", "title": "Chinese"}, {"alias": "japanese", "title": "Japanese"}], "rating": 3.0, "coordinates": {"latitude": 42.4345582641346, "longitude": -71.4862633211749}, "transactions": [], "price": "$$", "location": {"address1": "117 Great Rd", "address2": "", "address3": "Stow Shopping Ctr", "city": "Stow", "zip_code": "01775", "country": "US", "state": "MA", "display_address": ["117 Great Rd", "Stow Shopping Ctr", "Stow, MA 01775"]}, "phone": "+19788979998", "display_phone": "(978) 897-9998", "distance": 6846.033243966896}, {"id": "3M_iHY69pmbN-6FEWdBoog", "alias": "thai-on-the-fly-westford", "name": "Thai on the Fly", "image_url": "https://s3-media2.fl.yelpcdn.com/bphoto/6pFrMEHJmGFBgSjp3PWlWg/o.jpg", "is_closed": false, "url": "https://www.yelp.com/biz/thai-on-the-fly-westford?adjust_creative=HdhkN5EEH6lAqE3kwhsHEQ&utm_campaign=yelp_api_v3&utm_medium=api_v3_business_search&utm_source=HdhkN5EEH6lAqE3kwhsHEQ", "review_count": 45, "categories": [{"alias": "thai", "title": "Thai"}], "rating": 4.0, "coordinates": {"latitude": 42.550656, "longitude": -71.465773}, "transactions": ["delivery"], "price": "$$", "location": {"address1": "439 Littleton Rd", "address2": "Acorn Plaza", "address3": "", "city": "Westford", "zip_code": "01886", "country": "US", "state": "MA", "display_address": ["439 Littleton Rd", "Acorn Plaza", "Westford, MA 01886"]}, "phone": "+19789250299", "display_phone": "(978) 925-0299", "distance": 7751.0146594161}, {"id": "XR6QHyaa1zPAsTo-Pznl_g", "alias": "bamboo-fine-asian-cuisine-westford", "name": "Bamboo Fine Asian Cuisine", "image_url": "https://s3-media3.fl.yelpcdn.com/bphoto/C4UZJg_I4RHNY2PXHseTug/o.jpg", "is_closed": false, "url": "https://www.yelp.com/biz/bamboo-fine-asian-cuisine-westford?adjust_creative=HdhkN5EEH6lAqE3kwhsHEQ&utm_campaign=yelp_api_v3&utm_medium=api_v3_business_search&utm_source=HdhkN5EEH6lAqE3kwhsHEQ", "review_count": 216, "categories": [{"alias": "sushi", "title": "Sushi Bars"}, {"alias": "asianfusion", "title": "Asian Fusion"}], "rating": 3.5, "coordinates": {"latitude": 42.55985, "longitude": -71.43074}, "transactions": ["delivery"], "price": "$$", "location": {"address1": "1 Lan Dr", "address2": "", "address3": "", "city": "Westford", "zip_code": "01886", "country": "US", "state": "MA", "display_address": ["1 Lan Dr", "Westford, MA 01886"]}, "phone": "+19785899666", "display_phone": "(978) 589-9666", "distance": 10368.763402847977}, {"id": "xmAaaZldwaJD0NJIwzwvsg", "alias": "rangoli-grill-westford", "name": "Rangoli Grill", "image_url": "https://s3-media2.fl.yelpcdn.com/bphoto/qNntlpqpIkCH3RbnILSgDQ/o.jpg", "is_closed": false, "url": "https://www.yelp.com/biz/rangoli-grill-westford?adjust_creative=HdhkN5EEH6lAqE3kwhsHEQ&utm_campaign=yelp_api_v3&utm_medium=api_v3_business_search&utm_source=HdhkN5EEH6lAqE3kwhsHEQ", "review_count": 68, "categories": [{"alias": "indpak", "title": "Indian"}], "rating": 4.0, "coordinates": {"latitude": 42.564871, "longitude": -71.427813}, "transactions": ["pickup", "delivery"], "price": "$", "location": {"address1": "8 Cornerstone Sq", "address2": "", "address3": "", "city": "Westford", "zip_code": "01886", "country": "US", "state": "MA", "display_address": ["8 Cornerstone Sq", "Westford, MA 01886"]}, "phone": "+19786928130", "display_phone": "(978) 692-8130", "distance": 10918.729604412187}, {"id": "CRP8fgjKy_37pBITLElNLw", "alias": "stow-house-of-pizza-stow", "name": "Stow House of Pizza", "image_url": "https://s3-media1.fl.yelpcdn.com/bphoto/XBUUYuzXH7QoKlexfiTPcw/o.jpg", "is_closed": false, "url": "https://www.yelp.com/biz/stow-house-of-pizza-stow?adjust_creative=HdhkN5EEH6lAqE3kwhsHEQ&utm_campaign=yelp_api_v3&utm_medium=api_v3_business_search&utm_source=HdhkN5EEH6lAqE3kwhsHEQ", "review_count": 29, "categories": [{"alias": "pizza", "title": "Pizza"}], "rating": 4.5, "coordinates": {"latitude": 42.4337981239046, "longitude": -71.4886791521149}, "transactions": ["delivery"], "price": "$", "location": {"address1": "156 Great Rd", "address2": "", "address3": "", "city": "Stow", "zip_code": "01775", "country": "US", "state": "MA", "display_address": ["156 Great Rd", "Stow, MA 01775"]}, "phone": "+19788970704", "display_phone": "(978) 897-0704", "distance": 6855.363906740515}, {"id": "ZV8pXUGi3ZMZgjoNqJgZgg", "alias": "bueno-y-sano-acton", "name": "Bueno Y Sano", "image_url": "https://s3-media4.fl.yelpcdn.com/bphoto/IYMIxeVOoW1c_KPevDibuQ/o.jpg", "is_closed": false, "url": "https://www.yelp.com/biz/bueno-y-sano-acton?adjust_creative=HdhkN5EEH6lAqE3kwhsHEQ&utm_campaign=yelp_api_v3&utm_medium=api_v3_business_search&utm_source=HdhkN5EEH6lAqE3kwhsHEQ", "review_count": 140, "categories": [{"alias": "mexican", "title": "Mexican"}, {"alias": "tex-mex", "title": "Tex-Mex"}], "rating": 3.0, "coordinates": {"latitude": 42.47463, "longitude": -71.45357}, "transactions": [], "price": "$", "location": {"address1": "263 Main St", "address2": "", "address3": "", "city": "Acton", "zip_code": "01720", "country": "US", "state": "MA", "display_address": ["263 Main St", "Acton, MA 01720"]}, "phone": "+19782639200", "display_phone": "(978) 263-9200", "distance": 5541.396979066537}, {"id": "AAAvkHygm8g2ZJvXh2NA1Q", "alias": "sweet-tomatoes-pizza-acton", "name": "Sweet Tomatoes Pizza", "image_url": "https://s3-media2.fl.yelpcdn.com/bphoto/NY6K4RnsGX7fHpaKOus09w/o.jpg", "is_closed": false, "url": "https://www.yelp.com/biz/sweet-tomatoes-pizza-acton?adjust_creative=HdhkN5EEH6lAqE3kwhsHEQ&utm_campaign=yelp_api_v3&utm_medium=api_v3_business_search&utm_source=HdhkN5EEH6lAqE3kwhsHEQ", "review_count": 8, "categories": [{"alias": "pizza", "title": "Pizza"}, {"alias": "salad", "title": "Salad"}], "rating": 4.0, "coordinates": {"latitude": 42.442471, "longitude": -71.428799}, "transactions": [], "location": {"address1": "100 Powder Mill Rd", "address2": "", "address3": null, "city": "Acton", "zip_code": "01720", "country": "US", "state": "MA", "display_address": ["100 Powder Mill Rd", "Acton, MA 01720"]}, "phone": "+19782985959", "display_phone": "(978) 298-5959", "distance": 9104.39283890172}, {"id": "WZXH1fzCqQHoeLhAkxCPCQ", "alias": "el-huipil-maynard", "name": "El Huipil", "image_url": "https://s3-media2.fl.yelpcdn.com/bphoto/VQz2dcRx3cFyqSQcGZiMdw/o.jpg", "is_closed": false, "url": "https://www.yelp.com/biz/el-huipil-maynard?adjust_creative=HdhkN5EEH6lAqE3kwhsHEQ&utm_campaign=yelp_api_v3&utm_medium=api_v3_business_search&utm_source=HdhkN5EEH6lAqE3kwhsHEQ", "review_count": 190, "categories": [{"alias": "mexican", "title": "Mexican"}], "rating": 3.5, "coordinates": {"latitude": 42.432723, "longitude": -71.452326}, "transactions": ["delivery"], "price": "$", "location": {"address1": "51 R Main St", "address2": "", "address3": "", "city": "Maynard", "zip_code": "01754", "country": "US", "state": "MA", "display_address": ["51 R Main St", "Maynard, MA 01754"]}, "phone": "+19782985302", "display_phone": "(978) 298-5302", "distance": 8440.464735262012}, {"id": "T51Wxd2LnUcUNkYCOGYlZw", "alias": "crossroads-cafe-acton", "name": "Crossroads Cafe", "image_url": "https://s3-media4.fl.yelpcdn.com/bphoto/LGGpXVv1WmDC95QD7c1xIg/o.jpg", "is_closed": false, "url": "https://www.yelp.com/biz/crossroads-cafe-acton?adjust_creative=HdhkN5EEH6lAqE3kwhsHEQ&utm_campaign=yelp_api_v3&utm_medium=api_v3_business_search&utm_source=HdhkN5EEH6lAqE3kwhsHEQ", "review_count": 114, "categories": [{"alias": "tradamerican", "title": "American (Traditional)"}, {"alias": "lounges", "title": "Lounges"}], "rating": 3.5, "coordinates": {"latitude": 42.5231520552662, "longitude": -71.4325873768414}, "transactions": ["delivery"], "price": "$$", "location": {"address1": "405 Nagog Sq", "address2": "", "address3": "", "city": "Acton", "zip_code": "01720", "country": "US", "state": "MA", "display_address": ["405 Nagog Sq", "Acton, MA 01720"]}, "phone": "+19782639733", "display_phone": "(978) 263-9733", "distance": 7737.237360806466}, {"id": "4xfqjOKIDuyJXChEEIUnfA", "alias": "karma-westford", "name": "KARMA", "image_url": "https://s3-media4.fl.yelpcdn.com/bphoto/h4vebcLJe7HSexUTMRYNUg/o.jpg", "is_closed": false, "url": "https://www.yelp.com/biz/karma-westford?adjust_creative=HdhkN5EEH6lAqE3kwhsHEQ&utm_campaign=yelp_api_v3&utm_medium=api_v3_business_search&utm_source=HdhkN5EEH6lAqE3kwhsHEQ", "review_count": 189, "categories": [{"alias": "asianfusion", "title": "Asian Fusion"}, {"alias": "chinese", "title": "Chinese"}, {"alias": "japanese", "title": "Japanese"}], "rating": 3.5, "coordinates": {"latitude": 42.56655, "longitude": -71.42205}, "transactions": ["delivery"], "price": "$$", "location": {"address1": "174 Littleton Rd", "address2": "", "address3": "", "city": "Westford", "zip_code": "01886", "country": "US", "state": "MA", "display_address": ["174 Littleton Rd", "Westford, MA 01886"]}, "phone": "+19786926920", "display_phone": "(978) 692-6920", "distance": 11360.873757684156}, {"id": "LJyx9fdgZ1SbwjkBVgEybg", "alias": "red-tail-tavern-devens", "name": "Red Tail Tavern", "image_url": "https://s3-media3.fl.yelpcdn.com/bphoto/LqBZubEx8o_KT4HBvYQDxA/o.jpg", "is_closed": false, "url": "https://www.yelp.com/biz/red-tail-tavern-devens?adjust_creative=HdhkN5EEH6lAqE3kwhsHEQ&utm_campaign=yelp_api_v3&utm_medium=api_v3_business_search&utm_source=HdhkN5EEH6lAqE3kwhsHEQ", "review_count": 2, "categories": [{"alias": "tradamerican", "title": "American (Traditional)"}], "rating": 3.5, "coordinates": {"latitude": 42.5321175, "longitude": -71.5993047}, "transactions": ["delivery"], "price": "$$", "location": {"address1": "15 Bulge Rd", "address2": "", "address3": "", "city": "Devens", "zip_code": "01434", "country": "US", "state": "MA", "display_address": ["15 Bulge Rd", "Devens, MA 01434"]}, "phone": "+19787723273", "display_phone": "(978) 772-3273", "distance": 8106.245391121236}, {"id": "ahK_lCLqp3cV3ES-Z5REHg", "alias": "the-okipok\u00e9-westford-3", "name": "The Okipok\u00e9", "image_url": "https://s3-media1.fl.yelpcdn.com/bphoto/RjmXccYK0ELkP72NTNnQ1Q/o.jpg", "is_closed": false, "url": "https://www.yelp.com/biz/the-okipok%C3%A9-westford-3?adjust_creative=HdhkN5EEH6lAqE3kwhsHEQ&utm_campaign=yelp_api_v3&utm_medium=api_v3_business_search&utm_source=HdhkN5EEH6lAqE3kwhsHEQ", "review_count": 126, "categories": [{"alias": "japanese", "title": "Japanese"}, {"alias": "poke", "title": "Poke"}, {"alias": "salad", "title": "Salad"}], "rating": 4.5, "coordinates": {"latitude": 42.5649744, "longitude": -71.4278108}, "transactions": ["delivery"], "price": "$$", "location": {"address1": "8 Cornerstone Square", "address2": "Unit B", "address3": "", "city": "Westford", "zip_code": "01886", "country": "US", "state": "MA", "display_address": ["8 Cornerstone Square", "Unit B", "Westford, MA 01886"]}, "phone": "+19785776372", "display_phone": "(978) 577-6372", "distance": 10925.715057907642}, {"id": "OCudqBSdDe8xAjM08ZXzdA", "alias": "new-london-style-pizza-acton", "name": "New London Style Pizza", "image_url": "https://s3-media1.fl.yelpcdn.com/bphoto/fMRPOhCaVBGO8ASa8xi7nQ/o.jpg", "is_closed": false, "url": "https://www.yelp.com/biz/new-london-style-pizza-acton?adjust_creative=HdhkN5EEH6lAqE3kwhsHEQ&utm_campaign=yelp_api_v3&utm_medium=api_v3_business_search&utm_source=HdhkN5EEH6lAqE3kwhsHEQ", "review_count": 42, "categories": [{"alias": "pizza", "title": "Pizza"}, {"alias": "italian", "title": "Italian"}], "rating": 3.5, "coordinates": {"latitude": 42.47647, "longitude": -71.47317}, "transactions": ["pickup", "delivery"], "price": "$", "location": {"address1": "555 Massachusetts Ave", "address2": "", "address3": "", "city": "Acton", "zip_code": "01720", "country": "US", "state": "MA", "display_address": ["555 Massachusetts Ave", "Acton, MA 01720"]}, "phone": "+19782633033", "display_phone": "(978) 263-3033", "distance": 3978.8324699635746}, {"id": "v8fjU6o2_IExHU7HZ--49A", "alias": "alltown-fresh-ayer", "name": "Alltown Fresh", "image_url": "https://s3-media2.fl.yelpcdn.com/bphoto/B3MyVIqVSFXxcBfHrDk7SQ/o.jpg", "is_closed": false, "url": "https://www.yelp.com/biz/alltown-fresh-ayer?adjust_creative=HdhkN5EEH6lAqE3kwhsHEQ&utm_campaign=yelp_api_v3&utm_medium=api_v3_business_search&utm_source=HdhkN5EEH6lAqE3kwhsHEQ", "review_count": 1, "categories": [{"alias": "coffee", "title": "Coffee & Tea"}, {"alias": "juicebars", "title": "Juice Bars & Smoothies"}, {"alias": "sandwiches", "title": "Sandwiches"}], "rating": 4.0, "coordinates": {"latitude": 42.5493, "longitude": -71.57109}, "transactions": ["pickup", "delivery"], "location": {"address1": "28 Harvard Rd", "address2": "", "address3": null, "city": "Ayer", "zip_code": "01432", "country": "US", "state": "MA", "display_address": ["28 Harvard Rd", "Ayer, MA 01432"]}, "phone": "+19787572050", "display_phone": "(978) 757-2050", "distance": 7776.380868848318}, {"id": "4Vb8nCKRstL-hHlluEBGzg", "alias": "yangtze-river-restaurant-littleton", "name": "Yangtze River Restaurant", "image_url": "https://s3-media1.fl.yelpcdn.com/bphoto/0l0g8_5nzBH06a4mZ0tT-A/o.jpg", "is_closed": false, "url": "https://www.yelp.com/biz/yangtze-river-restaurant-littleton?adjust_creative=HdhkN5EEH6lAqE3kwhsHEQ&utm_campaign=yelp_api_v3&utm_medium=api_v3_business_search&utm_source=HdhkN5EEH6lAqE3kwhsHEQ", "review_count": 71, "categories": [{"alias": "chinese", "title": "Chinese"}], "rating": 3.0, "coordinates": {"latitude": 42.549693708509, "longitude": -71.4671961752727}, "transactions": [], "price": "$$", "location": {"address1": "584 King St", "address2": "", "address3": "", "city": "Littleton", "zip_code": "01460", "country": "US", "state": "MA", "display_address": ["584 King St", "Littleton, MA 01460"]}, "phone": "+19784860500", "display_phone": "(978) 486-0500", "distance": 7613.69881172685}, {"id": "xJWsOgQ4Lgn-lmkiVnPE6A", "alias": "the-blue-coyote-grille-maynard", "name": "The Blue Coyote Grille", "image_url": "https://s3-media2.fl.yelpcdn.com/bphoto/b4V5CwVp-Z7jrUCGmXo_sA/o.jpg", "is_closed": false, "url": "https://www.yelp.com/biz/the-blue-coyote-grille-maynard?adjust_creative=HdhkN5EEH6lAqE3kwhsHEQ&utm_campaign=yelp_api_v3&utm_medium=api_v3_business_search&utm_source=HdhkN5EEH6lAqE3kwhsHEQ", "review_count": 68, "categories": [{"alias": "newamerican", "title": "American (New)"}], "rating": 3.0, "coordinates": {"latitude": 42.4317519, "longitude": -71.4558964}, "transactions": ["delivery"], "price": "$$", "location": {"address1": "137 Main St", "address2": "", "address3": "", "city": "Maynard", "zip_code": "01754", "country": "US", "state": "MA", "display_address": ["137 Main St", "Maynard, MA 01754"]}, "phone": "+19788971998", "display_phone": "(978) 897-1998", "distance": 8344.13835289132}, {"id": "wBon9hVdWSA5Gp5zdrK_Iw", "alias": "andreas-littleton-cafe-littleton-2", "name": "Andrea's Littleton Cafe", "image_url": "https://s3-media4.fl.yelpcdn.com/bphoto/INFhq2Znh0zpudSVlMBBkw/o.jpg", "is_closed": false, "url": "https://www.yelp.com/biz/andreas-littleton-cafe-littleton-2?adjust_creative=HdhkN5EEH6lAqE3kwhsHEQ&utm_campaign=yelp_api_v3&utm_medium=api_v3_business_search&utm_source=HdhkN5EEH6lAqE3kwhsHEQ", "review_count": 23, "categories": [{"alias": "coffee", "title": "Coffee & Tea"}, {"alias": "breakfast_brunch", "title": "Breakfast & Brunch"}, {"alias": "sandwiches", "title": "Sandwiches"}], "rating": 4.0, "coordinates": {"latitude": 42.540962, "longitude": -71.479726}, "transactions": ["delivery"], "price": "$$", "location": {"address1": "341 King St", "address2": "", "address3": "", "city": "Littleton", "zip_code": "01460", "country": "US", "state": "MA", "display_address": ["341 King St", "Littleton, MA 01460"]}, "phone": "+19789520025", "display_phone": "(978) 952-0025", "distance": 6253.959726061034}, {"id": "9RG40oVNHorKWzttfSfdGQ", "alias": "sorrentos-brick-oven-pizzeria-harvard", "name": "Sorrento's Brick Oven Pizzeria", "image_url": "https://s3-media4.fl.yelpcdn.com/bphoto/qErO8bXXh8dcgY6hIydTYg/o.jpg", "is_closed": false, "url": "https://www.yelp.com/biz/sorrentos-brick-oven-pizzeria-harvard?adjust_creative=HdhkN5EEH6lAqE3kwhsHEQ&utm_campaign=yelp_api_v3&utm_medium=api_v3_business_search&utm_source=HdhkN5EEH6lAqE3kwhsHEQ", "review_count": 83, "categories": [{"alias": "pizza", "title": "Pizza"}, {"alias": "italian", "title": "Italian"}], "rating": 3.5, "coordinates": {"latitude": 42.5382642269497, "longitude": -71.5762989340076}, "transactions": ["delivery"], "price": "$$", "location": {"address1": "285 Ayer Rd", "address2": "", "address3": "", "city": "Harvard", "zip_code": "01451", "country": "US", "state": "MA", "display_address": ["285 Ayer Rd", "Harvard, MA 01451"]}, "phone": "+19787720025", "display_phone": "(978) 772-0025", "distance": 7097.484430333186}, {"id": "XOeQIhLOSX-FBUcMVa2W8Q", "alias": "el-huipil-acton", "name": "El Huipil", "image_url": "https://s3-media2.fl.yelpcdn.com/bphoto/taeO0agrkAGFS-7TY-fUqA/o.jpg", "is_closed": false, "url": "https://www.yelp.com/biz/el-huipil-acton?adjust_creative=HdhkN5EEH6lAqE3kwhsHEQ&utm_campaign=yelp_api_v3&utm_medium=api_v3_business_search&utm_source=HdhkN5EEH6lAqE3kwhsHEQ", "review_count": 41, "categories": [{"alias": "mexican", "title": "Mexican"}], "rating": 3.5, "coordinates": {"latitude": 42.4956935, "longitude": -71.4164793}, "transactions": [], "price": "$$", "location": {"address1": "273 Great Rd", "address2": "", "address3": null, "city": "Acton", "zip_code": "01720", "country": "US", "state": "MA", "display_address": ["273 Great Rd", "Acton, MA 01720"]}, "phone": "+19787954413", "display_phone": "(978) 795-4413", "distance": 8269.340640200082}, {"id": "Gndq0uVwuw_e2sU-dlgoag", "alias": "eds-weenies-littleton", "name": "Ed's Weenies", "image_url": "https://s3-media3.fl.yelpcdn.com/bphoto/Cs2XeoXUjhTq7YmbbEF9xA/o.jpg", "is_closed": false, "url": "https://www.yelp.com/biz/eds-weenies-littleton?adjust_creative=HdhkN5EEH6lAqE3kwhsHEQ&utm_campaign=yelp_api_v3&utm_medium=api_v3_business_search&utm_source=HdhkN5EEH6lAqE3kwhsHEQ", "review_count": 32, "categories": [{"alias": "hotdog", "title": "Hot Dogs"}], "rating": 4.0, "coordinates": {"latitude": 42.5608, "longitude": -71.49558}, "transactions": ["delivery"], "price": "$", "location": {"address1": "600 Great Rd", "address2": "", "address3": "At Gary's Farm Stand", "city": "Littleton", "zip_code": "01460", "country": "US", "state": "MA", "display_address": ["600 Great Rd", "At Gary's Farm Stand", "Littleton, MA 01460"]}, "phone": "+19785053448", "display_phone": "(978) 505-3448", "distance": 7845.7760609726765}, {"id": "3K1XGpMDNYutNqsNEunR5w", "alias": "nashoba-club-pizza-restaurant-ayer", "name": "Nashoba Club Pizza Restaurant", "image_url": "https://s3-media2.fl.yelpcdn.com/bphoto/URHCNbKh2nClB4AALpRJBQ/o.jpg", "is_closed": false, "url": "https://www.yelp.com/biz/nashoba-club-pizza-restaurant-ayer?adjust_creative=HdhkN5EEH6lAqE3kwhsHEQ&utm_campaign=yelp_api_v3&utm_medium=api_v3_business_search&utm_source=HdhkN5EEH6lAqE3kwhsHEQ", "review_count": 58, "categories": [{"alias": "pizza", "title": "Pizza"}], "rating": 4.0, "coordinates": {"latitude": 42.5597, "longitude": -71.58481}, "transactions": ["pickup", "delivery"], "price": "$$", "location": {"address1": "14 Central Ave", "address2": "", "address3": "", "city": "Ayer", "zip_code": "01432", "country": "US", "state": "MA", "display_address": ["14 Central Ave", "Ayer, MA 01432"]}, "phone": "+19787722736", "display_phone": "(978) 772-2736", "distance": 9382.523021661262}, {"id": "UEbQ3fJTYr88cshYkryoUw", "alias": "china-ruby-restaurant-maynard", "name": "China Ruby Restaurant", "image_url": "https://s3-media1.fl.yelpcdn.com/bphoto/7FIFhKGT62kAko2GtrHDAA/o.jpg", "is_closed": false, "url": "https://www.yelp.com/biz/china-ruby-restaurant-maynard?adjust_creative=HdhkN5EEH6lAqE3kwhsHEQ&utm_campaign=yelp_api_v3&utm_medium=api_v3_business_search&utm_source=HdhkN5EEH6lAqE3kwhsHEQ", "review_count": 79, "categories": [{"alias": "chinese", "title": "Chinese"}], "rating": 2.5, "coordinates": {"latitude": 42.43328, "longitude": -71.45349}, "transactions": [], "price": "$", "location": {"address1": "42 Nason St", "address2": "", "address3": "", "city": "Maynard", "zip_code": "01754", "country": "US", "state": "MA", "display_address": ["42 Nason St", "Maynard, MA 01754"]}, "phone": "+19788975945", "display_phone": "(978) 897-5945", "distance": 8337.56551294944}, {"id": "d71RSj0CSAPxF0fjIpVTzA", "alias": "pizza-express-and-more-littleton", "name": "Pizza Express & More", "image_url": "https://s3-media4.fl.yelpcdn.com/bphoto/5KB4E0lk488FZdScOiG5Hg/o.jpg", "is_closed": false, "url": "https://www.yelp.com/biz/pizza-express-and-more-littleton?adjust_creative=HdhkN5EEH6lAqE3kwhsHEQ&utm_campaign=yelp_api_v3&utm_medium=api_v3_business_search&utm_source=HdhkN5EEH6lAqE3kwhsHEQ", "review_count": 15, "categories": [{"alias": "pizza", "title": "Pizza"}], "rating": 4.0, "coordinates": {"latitude": 42.56629, "longitude": -71.50337}, "transactions": ["delivery"], "price": "$", "location": {"address1": "653 Great Rd", "address2": "", "address3": "", "city": "Littleton", "zip_code": "01460", "country": "US", "state": "MA", "display_address": ["653 Great Rd", "Littleton, MA 01460"]}, "phone": "+19784869270", "display_phone": "(978) 486-9270", "distance": 8326.753636330941}, {"id": "LwB6c6UC-P5GVX3Vs9KmJg", "alias": "harvard-general-store-harvard", "name": "Harvard General Store", "image_url": "https://s3-media2.fl.yelpcdn.com/bphoto/EhaRdLz8I2-e3weg7tF_Zw/o.jpg", "is_closed": false, "url": "https://www.yelp.com/biz/harvard-general-store-harvard?adjust_creative=HdhkN5EEH6lAqE3kwhsHEQ&utm_campaign=yelp_api_v3&utm_medium=api_v3_business_search&utm_source=HdhkN5EEH6lAqE3kwhsHEQ", "review_count": 66, "categories": [{"alias": "coffee", "title": "Coffee & Tea"}, {"alias": "beer_and_wine", "title": "Beer, Wine & Spirits"}, {"alias": "cafes", "title": "Cafes"}], "rating": 4.0, "coordinates": {"latitude": 42.500545, "longitude": -71.583819}, "transactions": ["delivery"], "price": "$$", "location": {"address1": "1 Still River Rd", "address2": "", "address3": "", "city": "Harvard", "zip_code": "01451", "country": "US", "state": "MA", "display_address": ["1 Still River Rd", "Harvard, MA 01451"]}, "phone": "+19784300062", "display_phone": "(978) 430-0062", "distance": 5573.200762172109}, {"id": "ouJyJloQ1urfKQJGtTKcAA", "alias": "little-pusan-maynard", "name": "Little Pusan", "image_url": "https://s3-media2.fl.yelpcdn.com/bphoto/NcX1L4WbckH4Lid_WLNA2g/o.jpg", "is_closed": false, "url": "https://www.yelp.com/biz/little-pusan-maynard?adjust_creative=HdhkN5EEH6lAqE3kwhsHEQ&utm_campaign=yelp_api_v3&utm_medium=api_v3_business_search&utm_source=HdhkN5EEH6lAqE3kwhsHEQ", "review_count": 100, "categories": [{"alias": "korean", "title": "Korean"}], "rating": 3.0, "coordinates": {"latitude": 42.4322173382841, "longitude": -71.4533980921124}, "transactions": ["pickup", "delivery"], "price": "$$", "location": {"address1": "83 Main St", "address2": "", "address3": "", "city": "Maynard", "zip_code": "01754", "country": "US", "state": "MA", "display_address": ["83 Main St", "Maynard, MA 01754"]}, "phone": "+19788975107", "display_phone": "(978) 897-5107", "distance": 8422.723892047012}, {"id": "I5k2lCxyO5Msk0dW5WB16Q", "alias": "the-great-american-grill-devens", "name": "The Great American Grill", "image_url": "https://s3-media3.fl.yelpcdn.com/bphoto/hrN1iqnQezm8Kky4fRB2bg/o.jpg", "is_closed": false, "url": "https://www.yelp.com/biz/the-great-american-grill-devens?adjust_creative=HdhkN5EEH6lAqE3kwhsHEQ&utm_campaign=yelp_api_v3&utm_medium=api_v3_business_search&utm_source=HdhkN5EEH6lAqE3kwhsHEQ", "review_count": 9, "categories": [{"alias": "tradamerican", "title": "American (Traditional)"}], "rating": 2.0, "coordinates": {"latitude": 42.5397804086682, "longitude": -71.610993549704}, "transactions": ["delivery"], "price": "$$", "location": {"address1": "59 Andrews Pkwy", "address2": "", "address3": "", "city": "Devens", "zip_code": "01434", "country": "US", "state": "MA", "display_address": ["59 Andrews Pkwy", "Devens, MA 01434"]}, "phone": "+19786151509", "display_phone": "(978) 615-1509", "distance": 9354.602758809711}, {"id": "U-RWLBNihwgteY7htlaUnw", "alias": "the-outlook-restaurant-westford", "name": "The Outlook Restaurant", "image_url": "https://s3-media2.fl.yelpcdn.com/bphoto/tUJeLAnRyONU6SgNTBspyw/o.jpg", "is_closed": false, "url": "https://www.yelp.com/biz/the-outlook-restaurant-westford?adjust_creative=HdhkN5EEH6lAqE3kwhsHEQ&utm_campaign=yelp_api_v3&utm_medium=api_v3_business_search&utm_source=HdhkN5EEH6lAqE3kwhsHEQ", "review_count": 45, "categories": [{"alias": "venues", "title": "Venues & Event Spaces"}, {"alias": "newamerican", "title": "American (New)"}], "rating": 3.0, "coordinates": {"latitude": 42.5423329, "longitude": -71.4446193}, "transactions": [], "price": "$$", "location": {"address1": "79 Powers Rd", "address2": "", "address3": "", "city": "Westford", "zip_code": "01886", "country": "US", "state": "MA", "display_address": ["79 Powers Rd", "Westford, MA 01886"]}, "phone": "+19786925700", "display_phone": "(978) 692-5700", "distance": 8160.945142847633}, {"id": "JCdIC9tTKoy6Exi9bpnGmw", "alias": "tc-landos-acton", "name": "TC Lando's", "image_url": "https://s3-media3.fl.yelpcdn.com/bphoto/V1he9hMTEm-JYEjtdjGWUw/o.jpg", "is_closed": false, "url": "https://www.yelp.com/biz/tc-landos-acton?adjust_creative=HdhkN5EEH6lAqE3kwhsHEQ&utm_campaign=yelp_api_v3&utm_medium=api_v3_business_search&utm_source=HdhkN5EEH6lAqE3kwhsHEQ", "review_count": 155, "categories": [{"alias": "pizza", "title": "Pizza"}, {"alias": "sandwiches", "title": "Sandwiches"}, {"alias": "italian", "title": "Italian"}], "rating": 3.5, "coordinates": {"latitude": 42.4761672, "longitude": -71.4515324}, "transactions": [], "price": "$", "location": {"address1": "297 Main St", "address2": "", "address3": "", "city": "Acton", "zip_code": "01720", "country": "US", "state": "MA", "display_address": ["297 Main St", "Acton, MA 01720"]}, "phone": "+19789299955", "display_phone": "(978) 929-9955", "distance": 5685.909730117572}, {"id": "F4d71koRxe3yE-B-xLApEQ", "alias": "junction-rpd-ayer", "name": "Junction RPD", "image_url": "https://s3-media1.fl.yelpcdn.com/bphoto/H2AONTVIZuccpDFblVn16A/o.jpg", "is_closed": false, "url": "https://www.yelp.com/biz/junction-rpd-ayer?adjust_creative=HdhkN5EEH6lAqE3kwhsHEQ&utm_campaign=yelp_api_v3&utm_medium=api_v3_business_search&utm_source=HdhkN5EEH6lAqE3kwhsHEQ", "review_count": 6, "categories": [{"alias": "pizza", "title": "Pizza"}], "rating": 3.0, "coordinates": {"latitude": 42.560131, "longitude": -71.592976}, "transactions": ["delivery"], "location": {"address1": "60 W Main St", "address2": "", "address3": null, "city": "Ayer", "zip_code": "01432", "country": "US", "state": "MA", "display_address": ["60 W Main St", "Ayer, MA 01432"]}, "phone": "+19787725200", "display_phone": "(978) 772-5200", "distance": 9822.16272312715}, {"id": "c_-xeSJbkdLlR-D1QFrOUw", "alias": "moes-southwest-grill-littleton", "name": "Moe's Southwest Grill", "image_url": "https://s3-media2.fl.yelpcdn.com/bphoto/k7jSTyqpaTp-QhyIDqzfHA/o.jpg", "is_closed": false, "url": "https://www.yelp.com/biz/moes-southwest-grill-littleton?adjust_creative=HdhkN5EEH6lAqE3kwhsHEQ&utm_campaign=yelp_api_v3&utm_medium=api_v3_business_search&utm_source=HdhkN5EEH6lAqE3kwhsHEQ", "review_count": 31, "categories": [{"alias": "mexican", "title": "Mexican"}, {"alias": "tex-mex", "title": "Tex-Mex"}], "rating": 3.5, "coordinates": {"latitude": 42.5519506671666, "longitude": -71.4764384952396}, "transactions": [], "price": "$", "location": {"address1": "607 Constitution Ave", "address2": "", "address3": "", "city": "Littleton", "zip_code": "01460", "country": "US", "state": "MA", "display_address": ["607 Constitution Ave", "Littleton, MA 01460"]}, "phone": "+19785065154", "display_phone": "(978) 506-5154", "distance": 7460.967724429921}, {"id": "ZT0K4mvHHbso2uVzR8sQtA", "alias": "emmas-cafe-stow", "name": "Emma's Cafe", "image_url": "https://s3-media2.fl.yelpcdn.com/bphoto/5doy1i2pbRGA0A2WzpaFQQ/o.jpg", "is_closed": false, "url": "https://www.yelp.com/biz/emmas-cafe-stow?adjust_creative=HdhkN5EEH6lAqE3kwhsHEQ&utm_campaign=yelp_api_v3&utm_medium=api_v3_business_search&utm_source=HdhkN5EEH6lAqE3kwhsHEQ", "review_count": 108, "categories": [{"alias": "breakfast_brunch", "title": "Breakfast & Brunch"}, {"alias": "sandwiches", "title": "Sandwiches"}, {"alias": "cafes", "title": "Cafes"}], "rating": 4.0, "coordinates": {"latitude": 42.434259, "longitude": -71.485058}, "transactions": ["pickup", "delivery"], "price": "$", "location": {"address1": "117 Great Rd", "address2": null, "address3": "", "city": "Stow", "zip_code": "01775", "country": "US", "state": "MA", "display_address": ["117 Great Rd", "Stow, MA 01775"]}, "phone": "+19786372656", "display_phone": "(978) 637-2656", "distance": 6913.719853057655}, {"id": "249yeS7lQ_tsaW1NwIsoJw", "alias": "roasted-peppers-maynard", "name": "Roasted Peppers", "image_url": "https://s3-media3.fl.yelpcdn.com/bphoto/4lZDQhF_UGLlnLFTYYmLRA/o.jpg", "is_closed": false, "url": "https://www.yelp.com/biz/roasted-peppers-maynard?adjust_creative=HdhkN5EEH6lAqE3kwhsHEQ&utm_campaign=yelp_api_v3&utm_medium=api_v3_business_search&utm_source=HdhkN5EEH6lAqE3kwhsHEQ", "review_count": 80, "categories": [{"alias": "tradamerican", "title": "American (Traditional)"}, {"alias": "pizza", "title": "Pizza"}, {"alias": "sandwiches", "title": "Sandwiches"}], "rating": 3.5, "coordinates": {"latitude": 42.4323007348458, "longitude": -71.4529944536564}, "transactions": ["pickup", "delivery"], "price": "$$", "location": {"address1": "65 Main St", "address2": "", "address3": "", "city": "Maynard", "zip_code": "01754", "country": "US", "state": "MA", "display_address": ["65 Main St", "Maynard, MA 01754"]}, "phone": "+19784619932", "display_phone": "(978) 461-9932", "distance": 8439.966811604278}, {"id": "c7fXcHOW6vQksqRdw3xBLA", "alias": "the-cottage-ayer-2", "name": "The Cottage", "image_url": "https://s3-media4.fl.yelpcdn.com/bphoto/fM3PmJfDYRNJmwpf5olzPw/o.jpg", "is_closed": false, "url": "https://www.yelp.com/biz/the-cottage-ayer-2?adjust_creative=HdhkN5EEH6lAqE3kwhsHEQ&utm_campaign=yelp_api_v3&utm_medium=api_v3_business_search&utm_source=HdhkN5EEH6lAqE3kwhsHEQ", "review_count": 40, "categories": [{"alias": "pizza", "title": "Pizza"}, {"alias": "sandwiches", "title": "Sandwiches"}, {"alias": "burgers", "title": "Burgers"}], "rating": 3.5, "coordinates": {"latitude": 42.55933, "longitude": -71.5878}, "transactions": ["delivery"], "price": "$", "location": {"address1": "18 Main St", "address2": "", "address3": "", "city": "Ayer", "zip_code": "01432", "country": "US", "state": "MA", "display_address": ["18 Main St", "Ayer, MA 01432"]}, "phone": "+19787722565", "display_phone": "(978) 772-2565", "distance": 9494.694227399154}, {"id": "TA-YWuVGlmr9L7CZW3Sq7A", "alias": "di-napoli-pizzeria-westford", "name": "Di Napoli Pizzeria", "image_url": "https://s3-media2.fl.yelpcdn.com/bphoto/5yAqNYKTVl_quF38avT7wQ/o.jpg", "is_closed": false, "url": "https://www.yelp.com/biz/di-napoli-pizzeria-westford?adjust_creative=HdhkN5EEH6lAqE3kwhsHEQ&utm_campaign=yelp_api_v3&utm_medium=api_v3_business_search&utm_source=HdhkN5EEH6lAqE3kwhsHEQ", "review_count": 19, "categories": [{"alias": "pizza", "title": "Pizza"}], "rating": 3.5, "coordinates": {"latitude": 42.5503795246298, "longitude": -71.4659185379989}, "transactions": [], "price": "$", "location": {"address1": "439 Littleton Rd", "address2": "", "address3": "", "city": "Westford", "zip_code": "01886", "country": "US", "state": "MA", "display_address": ["439 Littleton Rd", "Westford, MA 01886"]}, "phone": "+19784868050", "display_phone": "(978) 486-8050", "distance": 7734.266204317626}, {"id": "y6UU91mogOFrFNCBZRbA1Q", "alias": "littleton-sub-shoppe-littleton", "name": "Littleton Sub Shoppe", "image_url": "https://s3-media1.fl.yelpcdn.com/bphoto/G0B_zz4QunelDhKRkQikYQ/o.jpg", "is_closed": false, "url": "https://www.yelp.com/biz/littleton-sub-shoppe-littleton?adjust_creative=HdhkN5EEH6lAqE3kwhsHEQ&utm_campaign=yelp_api_v3&utm_medium=api_v3_business_search&utm_source=HdhkN5EEH6lAqE3kwhsHEQ", "review_count": 58, "categories": [{"alias": "pizza", "title": "Pizza"}, {"alias": "salad", "title": "Salad"}, {"alias": "sandwiches", "title": "Sandwiches"}], "rating": 3.5, "coordinates": {"latitude": 42.546497, "longitude": -71.4733872}, "transactions": ["delivery"], "price": "$", "location": {"address1": "486 King St", "address2": "", "address3": "", "city": "Littleton", "zip_code": "01460", "country": "US", "state": "MA", "display_address": ["486 King St", "Littleton, MA 01460"]}, "phone": "+19784863553", "display_phone": "(978) 486-3553", "distance": 7046.098830649876}, {"id": "2ZyGBeh3zhC1z-hj0ryy6w", "alias": "north-end-pizzeria-acton-2", "name": "North End Pizzeria", "image_url": "https://s3-media1.fl.yelpcdn.com/bphoto/BUSVuHEU--0f1mX29MKDvw/o.jpg", "is_closed": false, "url": "https://www.yelp.com/biz/north-end-pizzeria-acton-2?adjust_creative=HdhkN5EEH6lAqE3kwhsHEQ&utm_campaign=yelp_api_v3&utm_medium=api_v3_business_search&utm_source=HdhkN5EEH6lAqE3kwhsHEQ", "review_count": 5, "categories": [{"alias": "pizza", "title": "Pizza"}], "rating": 3.0, "coordinates": {"latitude": 42.4853973, "longitude": -71.4167099}, "transactions": [], "price": "$$", "location": {"address1": "168 Great Rd", "address2": "", "address3": "", "city": "Acton", "zip_code": "01720", "country": "US", "state": "MA", "display_address": ["168 Great Rd", "Acton, MA 01720"]}, "phone": "+19782639111", "display_phone": "(978) 263-9111", "distance": 8214.934329015694}, {"id": "WRMLT-BB6s9Py9Zf_Z8ldg", "alias": "blackbird-acton", "name": "Blackbird", "image_url": "https://s3-media4.fl.yelpcdn.com/bphoto/p8cD7TSbYHGAIB8Zk2qXgg/o.jpg", "is_closed": false, "url": "https://www.yelp.com/biz/blackbird-acton?adjust_creative=HdhkN5EEH6lAqE3kwhsHEQ&utm_campaign=yelp_api_v3&utm_medium=api_v3_business_search&utm_source=HdhkN5EEH6lAqE3kwhsHEQ", "review_count": 63, "categories": [{"alias": "cafes", "title": "Cafes"}, {"alias": "breakfast_brunch", "title": "Breakfast & Brunch"}, {"alias": "tradamerican", "title": "American (Traditional)"}], "rating": 3.5, "coordinates": {"latitude": 42.5019749, "longitude": -71.420928}, "transactions": ["pickup", "delivery"], "price": "$$", "location": {"address1": "342 Great Rd", "address2": "", "address3": null, "city": "Acton", "zip_code": "01720", "country": "US", "state": "MA", "display_address": ["342 Great Rd", "Acton, MA 01720"]}, "phone": "+19782742403", "display_phone": "(978) 274-2403", "distance": 7946.75623685078}, {"id": "jJ7Hrfm8OkAQbXBfXotCiA", "alias": "99-restaurants-westford-westford-6", "name": "99 Restaurants - Westford", "image_url": "https://s3-media4.fl.yelpcdn.com/bphoto/OPyCcAO1G5QpJzzqfncAqw/o.jpg", "is_closed": false, "url": "https://www.yelp.com/biz/99-restaurants-westford-westford-6?adjust_creative=HdhkN5EEH6lAqE3kwhsHEQ&utm_campaign=yelp_api_v3&utm_medium=api_v3_business_search&utm_source=HdhkN5EEH6lAqE3kwhsHEQ", "review_count": 56, "categories": [{"alias": "pubs", "title": "Pubs"}, {"alias": "tradamerican", "title": "American (Traditional)"}, {"alias": "desserts", "title": "Desserts"}], "rating": 2.5, "coordinates": {"latitude": 42.55518, "longitude": -71.4482}, "transactions": [], "price": "$$", "location": {"address1": "333 Littleton Rd", "address2": "", "address3": "", "city": "Westford", "zip_code": "01886", "country": "US", "state": "MA", "display_address": ["333 Littleton Rd", "Westford, MA 01886"]}, "phone": "+19785899948", "display_phone": "(978) 589-9948", "distance": 9038.929398180835}, {"id": "To5rOKAoIYtPXH6Nhc_7kg", "alias": "lazy-marys-ayer", "name": "Lazy Mary's", "image_url": "https://s3-media1.fl.yelpcdn.com/bphoto/vrUFXnnd3VkhhmY9fsq0kw/o.jpg", "is_closed": false, "url": "https://www.yelp.com/biz/lazy-marys-ayer?adjust_creative=HdhkN5EEH6lAqE3kwhsHEQ&utm_campaign=yelp_api_v3&utm_medium=api_v3_business_search&utm_source=HdhkN5EEH6lAqE3kwhsHEQ", "review_count": 60, "categories": [{"alias": "pizza", "title": "Pizza"}, {"alias": "delis", "title": "Delis"}, {"alias": "bakeries", "title": "Bakeries"}], "rating": 2.5, "coordinates": {"latitude": 42.552406, "longitude": -71.567604}, "transactions": ["delivery"], "price": "$$", "location": {"address1": "30 Littleton Rd", "address2": "", "address3": "", "city": "Ayer", "zip_code": "01432", "country": "US", "state": "MA", "display_address": ["30 Littleton Rd", "Ayer, MA 01432"]}, "phone": "+19787727600", "display_phone": "(978) 772-7600", "distance": 7915.102906747886}, {"id": "yyZyj3RAUGGFn7raD0rUgw", "alias": "pizza-bella-devens", "name": "Pizza Bella", "image_url": "https://s3-media3.fl.yelpcdn.com/bphoto/bJMZk5ftZXHdNREyf_m4CQ/o.jpg", "is_closed": false, "url": "https://www.yelp.com/biz/pizza-bella-devens?adjust_creative=HdhkN5EEH6lAqE3kwhsHEQ&utm_campaign=yelp_api_v3&utm_medium=api_v3_business_search&utm_source=HdhkN5EEH6lAqE3kwhsHEQ", "review_count": 28, "categories": [{"alias": "pizza", "title": "Pizza"}], "rating": 3.0, "coordinates": {"latitude": 42.540718, "longitude": -71.61153}, "transactions": ["delivery"], "price": "$", "location": {"address1": "8 Andrews Pkwy", "address2": null, "address3": "", "city": "Devens", "zip_code": "01434", "country": "US", "state": "MA", "display_address": ["8 Andrews Pkwy", "Devens, MA 01434"]}, "phone": "+19787720004", "display_phone": "(978) 772-0004", "distance": 9472.552580426516}, {"id": "VARH-Wum9FjYPzWJYpMTtQ", "alias": "verona-pizza-and-seafood-ayer", "name": "Verona Pizza & Seafood", "image_url": "https://s3-media1.fl.yelpcdn.com/bphoto/ZMtox9NqmUH5MvLpnzHzoQ/o.jpg", "is_closed": false, "url": "https://www.yelp.com/biz/verona-pizza-and-seafood-ayer?adjust_creative=HdhkN5EEH6lAqE3kwhsHEQ&utm_campaign=yelp_api_v3&utm_medium=api_v3_business_search&utm_source=HdhkN5EEH6lAqE3kwhsHEQ", "review_count": 31, "categories": [{"alias": "pizza", "title": "Pizza"}], "rating": 3.0, "coordinates": {"latitude": 42.561255208883, "longitude": -71.5904309596677}, "transactions": ["delivery"], "price": "$", "location": {"address1": "18 Park St", "address2": "", "address3": "", "city": "Ayer", "zip_code": "01432", "country": "US", "state": "MA", "display_address": ["18 Park St", "Ayer, MA 01432"]}, "phone": "+19787722444", "display_phone": "(978) 772-2444", "distance": 9855.658307852804}, {"id": "49e0Lpbovspg8iaQboXGjg", "alias": "pauls-diner-westford", "name": "Paul's Diner", "image_url": "https://s3-media2.fl.yelpcdn.com/bphoto/3Oc0df-vohFH32HjqQorlA/o.jpg", "is_closed": false, "url": "https://www.yelp.com/biz/pauls-diner-westford?adjust_creative=HdhkN5EEH6lAqE3kwhsHEQ&utm_campaign=yelp_api_v3&utm_medium=api_v3_business_search&utm_source=HdhkN5EEH6lAqE3kwhsHEQ", "review_count": 143, "categories": [{"alias": "diners", "title": "Diners"}, {"alias": "breakfast_brunch", "title": "Breakfast & Brunch"}], "rating": 3.5, "coordinates": {"latitude": 42.56581, "longitude": -71.4228}, "transactions": [], "price": "$$", "location": {"address1": "6 Carlisle Rd", "address2": "", "address3": "", "city": "Westford", "zip_code": "01886", "country": "US", "state": "MA", "display_address": ["6 Carlisle Rd", "Westford, MA 01886"]}, "phone": "+19786929269", "display_phone": "(978) 692-9269", "distance": 11286.303759086646}, {"id": "QTBkUaSLgfOXs_7f-O2W8g", "alias": "serendipity-cafe-maynard", "name": "Serendipity Cafe", "image_url": "https://s3-media4.fl.yelpcdn.com/bphoto/FMCDE7PatnmJoKomueGLGw/o.jpg", "is_closed": false, "url": "https://www.yelp.com/biz/serendipity-cafe-maynard?adjust_creative=HdhkN5EEH6lAqE3kwhsHEQ&utm_campaign=yelp_api_v3&utm_medium=api_v3_business_search&utm_source=HdhkN5EEH6lAqE3kwhsHEQ", "review_count": 89, "categories": [{"alias": "cafes", "title": "Cafes"}], "rating": 3.5, "coordinates": {"latitude": 42.4321708162737, "longitude": -71.4537341933236}, "transactions": ["delivery"], "price": "$$", "location": {"address1": "1 Nason St", "address2": "", "address3": "", "city": "Maynard", "zip_code": "01754", "country": "US", "state": "MA", "display_address": ["1 Nason St", "Maynard, MA 01754"]}, "phone": "+19788971516", "display_phone": "(978) 897-1516", "distance": 8416.805655010365}, {"id": "D3XpbVy6GLOSHJnO7ATILw", "alias": "maynard-village-pizza-maynard", "name": "Maynard Village Pizza", "image_url": "https://s3-media4.fl.yelpcdn.com/bphoto/2z0bcV6ub2AFJLp7XatWZg/o.jpg", "is_closed": false, "url": "https://www.yelp.com/biz/maynard-village-pizza-maynard?adjust_creative=HdhkN5EEH6lAqE3kwhsHEQ&utm_campaign=yelp_api_v3&utm_medium=api_v3_business_search&utm_source=HdhkN5EEH6lAqE3kwhsHEQ", "review_count": 27, "categories": [{"alias": "pizza", "title": "Pizza"}], "rating": 3.0, "coordinates": {"latitude": 42.4378699, "longitude": -71.44174}, "transactions": ["delivery"], "price": "$$", "location": {"address1": "86 Powder Mill Rd", "address2": "", "address3": "", "city": "Maynard", "zip_code": "01754", "country": "US", "state": "MA", "display_address": ["86 Powder Mill Rd", "Maynard, MA 01754"]}, "phone": "+19788972233", "display_phone": "(978) 897-2233", "distance": 8602.901563632297}, {"id": "8rCV2oUmJDvB30wq4nBZ0g", "alias": "donelans-supermarket-acton", "name": "Donelan's Supermarket", "image_url": "https://s3-media4.fl.yelpcdn.com/bphoto/MnkN2uSvRXy9V9UefHjsRg/o.jpg", "is_closed": false, "url": "https://www.yelp.com/biz/donelans-supermarket-acton?adjust_creative=HdhkN5EEH6lAqE3kwhsHEQ&utm_campaign=yelp_api_v3&utm_medium=api_v3_business_search&utm_source=HdhkN5EEH6lAqE3kwhsHEQ", "review_count": 39, "categories": [{"alias": "grocery", "title": "Grocery"}, {"alias": "delis", "title": "Delis"}, {"alias": "seafoodmarkets", "title": "Seafood Markets"}], "rating": 3.5, "coordinates": {"latitude": 42.494058606129, "longitude": -71.417516662218}, "transactions": [], "price": "$$", "location": {"address1": "248 Great Rd", "address2": "", "address3": "", "city": "Acton", "zip_code": "01720", "country": "US", "state": "MA", "display_address": ["248 Great Rd", "Acton, MA 01720"]}, "phone": "+19786359893", "display_phone": "(978) 635-9893", "distance": 8150.3070057693485}, {"id": "zcqz54AipZw2VTxcE1rsoQ", "alias": "subway-acton-5", "name": "Subway", "image_url": "https://s3-media3.fl.yelpcdn.com/bphoto/qkFX0qRwgHwc4M9UggtB2g/o.jpg", "is_closed": false, "url": "https://www.yelp.com/biz/subway-acton-5?adjust_creative=HdhkN5EEH6lAqE3kwhsHEQ&utm_campaign=yelp_api_v3&utm_medium=api_v3_business_search&utm_source=HdhkN5EEH6lAqE3kwhsHEQ", "review_count": 8, "categories": [{"alias": "sandwiches", "title": "Sandwiches"}], "rating": 3.5, "coordinates": {"latitude": 42.473875714206, "longitude": -71.4537559629772}, "transactions": [], "price": "$", "location": {"address1": "255 Main St", "address2": "Unit B", "address3": "", "city": "Acton", "zip_code": "01720", "country": "US", "state": "MA", "display_address": ["255 Main St", "Unit B", "Acton, MA 01720"]}, "phone": "+19782633800", "display_phone": "(978) 263-3800", "distance": 5547.962694848158}, {"id": "CHxt3VFg-9NloQ5zLv5yVA", "alias": "subway-bolton-12", "name": "Subway", "image_url": "https://s3-media1.fl.yelpcdn.com/bphoto/2wfPwCXAyukEqi9EoRkNMQ/o.jpg", "is_closed": false, "url": "https://www.yelp.com/biz/subway-bolton-12?adjust_creative=HdhkN5EEH6lAqE3kwhsHEQ&utm_campaign=yelp_api_v3&utm_medium=api_v3_business_search&utm_source=HdhkN5EEH6lAqE3kwhsHEQ", "review_count": 3, "categories": [{"alias": "sandwiches", "title": "Sandwiches"}], "rating": 3.0, "coordinates": {"latitude": 42.430049, "longitude": -71.589063}, "transactions": [], "price": "$", "location": {"address1": "476 Main St Hwy", "address2": "", "address3": null, "city": "Bolton", "zip_code": "01740", "country": "US", "state": "MA", "display_address": ["476 Main St Hwy", "Bolton, MA 01740"]}, "phone": "+19787799911", "display_phone": "(978) 779-9911", "distance": 9070.082256303816}, {"id": "wQfXaR4FcmA5MiJNAWFN-g", "alias": "acton-great-road-pizzeria-acton", "name": "Acton Great Road Pizzeria", "image_url": "", "is_closed": false, "url": "https://www.yelp.com/biz/acton-great-road-pizzeria-acton?adjust_creative=HdhkN5EEH6lAqE3kwhsHEQ&utm_campaign=yelp_api_v3&utm_medium=api_v3_business_search&utm_source=HdhkN5EEH6lAqE3kwhsHEQ", "review_count": 9, "categories": [{"alias": "pizza", "title": "Pizza"}, {"alias": "italian", "title": "Italian"}, {"alias": "sandwiches", "title": "Sandwiches"}], "rating": 2.5, "coordinates": {"latitude": 42.4853973, "longitude": -71.4167135}, "transactions": [], "price": "$$", "location": {"address1": "168 Great Rd", "address2": "", "address3": "", "city": "Acton", "zip_code": "01720", "country": "US", "state": "MA", "display_address": ["168 Great Rd", "Acton, MA 01720"]}, "phone": "+19782639111", "display_phone": "(978) 263-9111", "distance": 8214.83759200446}, {"id": "M7XG8259yfQ9GcsySDs81Q", "alias": "devens-pizza-and-deli-ayer", "name": "Devens Pizza & Deli", "image_url": "https://s3-media4.fl.yelpcdn.com/bphoto/5uxXPwy1W3uIb0lC6z4aUw/o.jpg", "is_closed": false, "url": "https://www.yelp.com/biz/devens-pizza-and-deli-ayer?adjust_creative=HdhkN5EEH6lAqE3kwhsHEQ&utm_campaign=yelp_api_v3&utm_medium=api_v3_business_search&utm_source=HdhkN5EEH6lAqE3kwhsHEQ", "review_count": 23, "categories": [{"alias": "pizza", "title": "Pizza"}, {"alias": "delis", "title": "Delis"}], "rating": 3.5, "coordinates": {"latitude": 42.5537623, "longitude": -71.6064692}, "transactions": ["delivery"], "price": "$", "location": {"address1": "220 W Main St", "address2": "", "address3": "", "city": "Ayer", "zip_code": "01432", "country": "US", "state": "MA", "display_address": ["220 W Main St", "Ayer, MA 01432"]}, "phone": "+19787722997", "display_phone": "(978) 772-2997", "distance": 10025.498856474032}, {"id": "aOr6q6RyWWNGqOi0kiRo-Q", "alias": "wok-n-roll-ayer", "name": "Wok n' Roll", "image_url": "https://s3-media4.fl.yelpcdn.com/bphoto/QfASq1enTQCxxVMfg6iTRA/o.jpg", "is_closed": false, "url": "https://www.yelp.com/biz/wok-n-roll-ayer?adjust_creative=HdhkN5EEH6lAqE3kwhsHEQ&utm_campaign=yelp_api_v3&utm_medium=api_v3_business_search&utm_source=HdhkN5EEH6lAqE3kwhsHEQ", "review_count": 45, "categories": [{"alias": "chinese", "title": "Chinese"}, {"alias": "japanese", "title": "Japanese"}], "rating": 3.0, "coordinates": {"latitude": 42.56384, "longitude": -71.59079}, "transactions": [], "price": "$", "location": {"address1": "49 Park St", "address2": "", "address3": "", "city": "Ayer", "zip_code": "01432", "country": "US", "state": "MA", "display_address": ["49 Park St", "Ayer, MA 01432"]}, "phone": "+19787724526", "display_phone": "(978) 772-4526", "distance": 10039.641612193795}, {"id": "PXRM4xgkx222eNjyfxWNow", "alias": "maynard-pizza-house-maynard", "name": "Maynard Pizza House", "image_url": "https://s3-media4.fl.yelpcdn.com/bphoto/DtUVT86xnlp7DQ7RwqXBJA/o.jpg", "is_closed": false, "url": "https://www.yelp.com/biz/maynard-pizza-house-maynard?adjust_creative=HdhkN5EEH6lAqE3kwhsHEQ&utm_campaign=yelp_api_v3&utm_medium=api_v3_business_search&utm_source=HdhkN5EEH6lAqE3kwhsHEQ", "review_count": 40, "categories": [{"alias": "pizza", "title": "Pizza"}], "rating": 3.5, "coordinates": {"latitude": 42.43143, "longitude": -71.45731}, "transactions": ["pickup", "delivery"], "price": "$", "location": {"address1": "149 Main St", "address2": "", "address3": "", "city": "Maynard", "zip_code": "01754", "country": "US", "state": "MA", "display_address": ["149 Main St", "Maynard, MA 01754"]}, "phone": "+19788974212", "display_phone": "(978) 897-4212", "distance": 8312.360787990832}, {"id": "_m5u1BqWw501CrH7T-CnmQ", "alias": "acton-house-of-pizza-acton", "name": "Acton House of Pizza", "image_url": "https://s3-media1.fl.yelpcdn.com/bphoto/5XVa8PHOtZSyrFpmAlvtww/o.jpg", "is_closed": false, "url": "https://www.yelp.com/biz/acton-house-of-pizza-acton?adjust_creative=HdhkN5EEH6lAqE3kwhsHEQ&utm_campaign=yelp_api_v3&utm_medium=api_v3_business_search&utm_source=HdhkN5EEH6lAqE3kwhsHEQ", "review_count": 16, "categories": [{"alias": "pizza", "title": "Pizza"}], "rating": 3.5, "coordinates": {"latitude": 42.48658, "longitude": -71.43274}, "transactions": ["pickup", "delivery"], "price": "$", "location": {"address1": "494 Main St", "address2": "", "address3": "", "city": "Acton", "zip_code": "01720", "country": "US", "state": "MA", "display_address": ["494 Main St", "Acton, MA 01720"]}, "phone": "+19782637144", "display_phone": "(978) 263-7144", "distance": 6921.027299356557}, {"id": "35dI-RR0Pr7A-cPadgynIQ", "alias": "stow-cafe-stow", "name": "Stow Cafe", "image_url": "https://s3-media1.fl.yelpcdn.com/bphoto/nfOwtqbV9TztZyr-9SyFZw/o.jpg", "is_closed": false, "url": "https://www.yelp.com/biz/stow-cafe-stow?adjust_creative=HdhkN5EEH6lAqE3kwhsHEQ&utm_campaign=yelp_api_v3&utm_medium=api_v3_business_search&utm_source=HdhkN5EEH6lAqE3kwhsHEQ", "review_count": 22, "categories": [{"alias": "breakfast_brunch", "title": "Breakfast & Brunch"}, {"alias": "tradamerican", "title": "American (Traditional)"}], "rating": 3.0, "coordinates": {"latitude": 42.432522, "longitude": -71.486588}, "transactions": ["delivery"], "price": "$$", "location": {"address1": "118 Great Rd", "address2": "Ste 101", "address3": "", "city": "Stow", "zip_code": "01775", "country": "US", "state": "MA", "display_address": ["118 Great Rd", "Ste 101", "Stow, MA 01775"]}, "phone": "+19788979330", "display_phone": "(978) 897-9330", "distance": 7030.1574120053665}, {"id": "KPThmwPJc6I97WKbgcyXig", "alias": "karyns-kitchen-ayer", "name": "Karyn's Kitchen", "image_url": "https://s3-media1.fl.yelpcdn.com/bphoto/B8eehPh5qylT8QWPom1fKA/o.jpg", "is_closed": false, "url": "https://www.yelp.com/biz/karyns-kitchen-ayer?adjust_creative=HdhkN5EEH6lAqE3kwhsHEQ&utm_campaign=yelp_api_v3&utm_medium=api_v3_business_search&utm_source=HdhkN5EEH6lAqE3kwhsHEQ", "review_count": 36, "categories": [{"alias": "breakfast_brunch", "title": "Breakfast & Brunch"}, {"alias": "coffee", "title": "Coffee & Tea"}], "rating": 3.5, "coordinates": {"latitude": 42.5549899, "longitude": -71.6044}, "transactions": ["delivery"], "price": "$", "location": {"address1": "200 W Main St", "address2": "", "address3": "", "city": "Ayer", "zip_code": "01432", "country": "US", "state": "MA", "display_address": ["200 W Main St", "Ayer, MA 01432"]}, "phone": "+19787726953", "display_phone": "(978) 772-6953", "distance": 10032.499190749782}, {"id": "ftgYAfpzGiGuCOIG0W6PqQ", "alias": "five-guys-westford", "name": "Five Guys", "image_url": "https://s3-media1.fl.yelpcdn.com/bphoto/gaHP6QLJtOKciSce6TxuSg/o.jpg", "is_closed": false, "url": "https://www.yelp.com/biz/five-guys-westford?adjust_creative=HdhkN5EEH6lAqE3kwhsHEQ&utm_campaign=yelp_api_v3&utm_medium=api_v3_business_search&utm_source=HdhkN5EEH6lAqE3kwhsHEQ", "review_count": 45, "categories": [{"alias": "burgers", "title": "Burgers"}, {"alias": "hotdogs", "title": "Fast Food"}], "rating": 3.0, "coordinates": {"latitude": 42.5649170301972, "longitude": -71.4279166618407}, "transactions": ["delivery"], "price": "$", "location": {"address1": "10 Cornerstone Square", "address2": "", "address3": "", "city": "Westford", "zip_code": "01886", "country": "US", "state": "MA", "display_address": ["10 Cornerstone Square", "Westford, MA 01886"]}, "phone": "+19786926008", "display_phone": "(978) 692-6008", "distance": 10911.929392865106}, {"id": "84UFpTr2y2iq0tWQMXNitg", "alias": "subway-acton-6", "name": "Subway", "image_url": "https://s3-media1.fl.yelpcdn.com/bphoto/-YXngGQWFU0CcLlsUL-78w/o.jpg", "is_closed": false, "url": "https://www.yelp.com/biz/subway-acton-6?adjust_creative=HdhkN5EEH6lAqE3kwhsHEQ&utm_campaign=yelp_api_v3&utm_medium=api_v3_business_search&utm_source=HdhkN5EEH6lAqE3kwhsHEQ", "review_count": 4, "categories": [{"alias": "sandwiches", "title": "Sandwiches"}], "rating": 4.0, "coordinates": {"latitude": 42.4804256055956, "longitude": -71.4152270489663}, "transactions": [], "price": "$", "location": {"address1": "134 Great Rd", "address2": "", "address3": "", "city": "Acton", "zip_code": "01720", "country": "US", "state": "MA", "display_address": ["134 Great Rd", "Acton, MA 01720"]}, "phone": "+19782638875", "display_phone": "(978) 263-8875", "distance": 8431.18222637192}, {"id": "TxWmdiqCB5E_qzJE8oD9qw", "alias": "chipotle-mexican-grill-westford", "name": "Chipotle Mexican Grill", "image_url": "https://s3-media2.fl.yelpcdn.com/bphoto/qri2zC80aYXBndmMBShKAA/o.jpg", "is_closed": false, "url": "https://www.yelp.com/biz/chipotle-mexican-grill-westford?adjust_creative=HdhkN5EEH6lAqE3kwhsHEQ&utm_campaign=yelp_api_v3&utm_medium=api_v3_business_search&utm_source=HdhkN5EEH6lAqE3kwhsHEQ", "review_count": 63, "categories": [{"alias": "mexican", "title": "Mexican"}, {"alias": "hotdogs", "title": "Fast Food"}], "rating": 2.5, "coordinates": {"latitude": 42.566508, "longitude": -71.422754}, "transactions": ["delivery"], "price": "$", "location": {"address1": "174 Littleton Rd", "address2": "Ste 1", "address3": "", "city": "Westford", "zip_code": "01886", "country": "US", "state": "MA", "display_address": ["174 Littleton Rd", "Ste 1", "Westford, MA 01886"]}, "phone": "+19785774776", "display_phone": "(978) 577-4776", "distance": 11332.681684569145}, {"id": "XTGtWfWbY-ewGKAllWvKpQ", "alias": "pizza-express-maynard", "name": "Pizza Express", "image_url": "https://s3-media2.fl.yelpcdn.com/bphoto/rcAhdyICGlWW0_7f1fKWLA/o.jpg", "is_closed": false, "url": "https://www.yelp.com/biz/pizza-express-maynard?adjust_creative=HdhkN5EEH6lAqE3kwhsHEQ&utm_campaign=yelp_api_v3&utm_medium=api_v3_business_search&utm_source=HdhkN5EEH6lAqE3kwhsHEQ", "review_count": 21, "categories": [{"alias": "pizza", "title": "Pizza"}], "rating": 3.0, "coordinates": {"latitude": 42.43204, "longitude": -71.453}, "transactions": ["delivery"], "price": "$", "location": {"address1": "62 Main St", "address2": "", "address3": "", "city": "Maynard", "zip_code": "01754", "country": "US", "state": "MA", "display_address": ["62 Main St", "Maynard, MA 01754"]}, "phone": "+19788979575", "display_phone": "(978) 897-9575", "distance": 8461.978988849289}, {"id": "8qj3x3WSSiECpUqZkB0B_Q", "alias": "junior-pizza-acton", "name": "Junior Pizza", "image_url": "https://s3-media2.fl.yelpcdn.com/bphoto/om27t_E6WQDVkWtVudFSxQ/o.jpg", "is_closed": false, "url": "https://www.yelp.com/biz/junior-pizza-acton?adjust_creative=HdhkN5EEH6lAqE3kwhsHEQ&utm_campaign=yelp_api_v3&utm_medium=api_v3_business_search&utm_source=HdhkN5EEH6lAqE3kwhsHEQ", "review_count": 50, "categories": [{"alias": "pizza", "title": "Pizza"}, {"alias": "chicken_wings", "title": "Chicken Wings"}, {"alias": "sandwiches", "title": "Sandwiches"}], "rating": 3.0, "coordinates": {"latitude": 42.514754, "longitude": -71.426749}, "transactions": ["delivery"], "price": "$", "location": {"address1": "481 Great Rd", "address2": "", "address3": "", "city": "Acton", "zip_code": "01720", "country": "US", "state": "MA", "display_address": ["481 Great Rd", "Acton, MA 01720"]}, "phone": "+19782630267", "display_phone": "(978) 263-0267", "distance": 7815.549945271048}, {"id": "m40vuw6ZXNPJBDQs8ZcgVQ", "alias": "panera-bread-westford", "name": "Panera Bread", "image_url": "https://s3-media4.fl.yelpcdn.com/bphoto/gngu1Nztt7h0fBPqig3Vnw/o.jpg", "is_closed": false, "url": "https://www.yelp.com/biz/panera-bread-westford?adjust_creative=HdhkN5EEH6lAqE3kwhsHEQ&utm_campaign=yelp_api_v3&utm_medium=api_v3_business_search&utm_source=HdhkN5EEH6lAqE3kwhsHEQ", "review_count": 43, "categories": [{"alias": "sandwiches", "title": "Sandwiches"}, {"alias": "salad", "title": "Salad"}, {"alias": "soup", "title": "Soup"}], "rating": 2.5, "coordinates": {"latitude": 42.566839, "longitude": -71.4250481128693}, "transactions": ["delivery"], "price": "$", "location": {"address1": "2 Cornerstone Sq", "address2": "", "address3": "", "city": "Westford", "zip_code": "01886", "country": "US", "state": "MA", "display_address": ["2 Cornerstone Sq", "Westford, MA 01886"]}, "phone": "+19786922863", "display_phone": "(978) 692-2863", "distance": 11232.876765430092}, {"id": "vUebUzuXFHHNDRksITSEew", "alias": "big-apple-market-and-deli-westford", "name": "Big Apple Market and Deli", "image_url": "https://s3-media4.fl.yelpcdn.com/bphoto/d9jeqckseOl9a868mDL4Pw/o.jpg", "is_closed": false, "url": "https://www.yelp.com/biz/big-apple-market-and-deli-westford?adjust_creative=HdhkN5EEH6lAqE3kwhsHEQ&utm_campaign=yelp_api_v3&utm_medium=api_v3_business_search&utm_source=HdhkN5EEH6lAqE3kwhsHEQ", "review_count": 13, "categories": [{"alias": "delis", "title": "Delis"}, {"alias": "grocery", "title": "Grocery"}, {"alias": "sandwiches", "title": "Sandwiches"}], "rating": 3.0, "coordinates": {"latitude": 42.5549545288086, "longitude": -71.4403305053711}, "transactions": ["delivery"], "price": "$", "location": {"address1": "294 Littleton Rd", "address2": "", "address3": null, "city": "Westford", "zip_code": "01886", "country": "US", "state": "MA", "display_address": ["294 Littleton Rd", "Westford, MA 01886"]}, "phone": "+19788504124", "display_phone": "(978) 850-4124", "distance": 9397.85853393594}, {"id": "cuFag7ajx7NIrWoN6HKeHA", "alias": "subway-westford-3", "name": "Subway", "image_url": "https://s3-media4.fl.yelpcdn.com/bphoto/tdxHpR4NqNHJPI0oks33RA/o.jpg", "is_closed": false, "url": "https://www.yelp.com/biz/subway-westford-3?adjust_creative=HdhkN5EEH6lAqE3kwhsHEQ&utm_campaign=yelp_api_v3&utm_medium=api_v3_business_search&utm_source=HdhkN5EEH6lAqE3kwhsHEQ", "review_count": 19, "categories": [{"alias": "sandwiches", "title": "Sandwiches"}], "rating": 4.0, "coordinates": {"latitude": 42.5664604459643, "longitude": -71.4226941451407}, "transactions": [], "price": "$", "location": {"address1": "174 Littleton Rd", "address2": "", "address3": "Westford Valley Marketplace", "city": "Westford", "zip_code": "01886", "country": "US", "state": "MA", "display_address": ["174 Littleton Rd", "Westford Valley Marketplace", "Westford, MA 01886"]}, "phone": "+19785776439", "display_phone": "(978) 577-6439", "distance": 11332.14969103869}, {"id": "Mr05XLFALHFvxZaCzKfBhA", "alias": "bickfords-family-restaurant-acton", "name": "Bickford's Family Restaurant", "image_url": "https://s3-media3.fl.yelpcdn.com/bphoto/76JDUPMzeGz8VXFMI3YSHg/o.jpg", "is_closed": false, "url": "https://www.yelp.com/biz/bickfords-family-restaurant-acton?adjust_creative=HdhkN5EEH6lAqE3kwhsHEQ&utm_campaign=yelp_api_v3&utm_medium=api_v3_business_search&utm_source=HdhkN5EEH6lAqE3kwhsHEQ", "review_count": 35, "categories": [{"alias": "newamerican", "title": "American (New)"}, {"alias": "breakfast_brunch", "title": "Breakfast & Brunch"}, {"alias": "venues", "title": "Venues & Event Spaces"}], "rating": 3.0, "coordinates": {"latitude": 42.52437, "longitude": -71.43284}, "transactions": [], "price": "$", "location": {"address1": "20 Nagog Park", "address2": "", "address3": "", "city": "Acton", "zip_code": "01720", "country": "US", "state": "MA", "display_address": ["20 Nagog Park", "Acton, MA 01720"]}, "phone": "+19782630442", "display_phone": "(978) 263-0442", "distance": 7597.228992373536}, {"id": "OhMgTXzxn_Xk2lnKZnMbzA", "alias": "stoney-brook-cafe-westford", "name": "Stoney Brook Cafe", "image_url": "", "is_closed": false, "url": "https://www.yelp.com/biz/stoney-brook-cafe-westford?adjust_creative=HdhkN5EEH6lAqE3kwhsHEQ&utm_campaign=yelp_api_v3&utm_medium=api_v3_business_search&utm_source=HdhkN5EEH6lAqE3kwhsHEQ", "review_count": 3, "categories": [{"alias": "breakfast_brunch", "title": "Breakfast & Brunch"}, {"alias": "cafes", "title": "Cafes"}], "rating": 3.5, "coordinates": {"latitude": 42.5631366670132, "longitude": -71.4293932914734}, "transactions": [], "price": "$$$", "location": {"address1": "219 Littleton Rd", "address2": "", "address3": "", "city": "Westford", "zip_code": "01886", "country": "US", "state": "MA", "display_address": ["219 Littleton Rd", "Westford, MA 01886"]}, "phone": "+19786928200", "display_phone": "(978) 692-8200", "distance": 10701.694012952716}, {"id": "Ql1eg922BG8-JVp_zDFwcg", "alias": "wendys-ayer", "name": "Wendy's", "image_url": "https://s3-media4.fl.yelpcdn.com/bphoto/wAjGnnpCn4HgozlOKY8EUQ/o.jpg", "is_closed": false, "url": "https://www.yelp.com/biz/wendys-ayer?adjust_creative=HdhkN5EEH6lAqE3kwhsHEQ&utm_campaign=yelp_api_v3&utm_medium=api_v3_business_search&utm_source=HdhkN5EEH6lAqE3kwhsHEQ", "review_count": 31, "categories": [{"alias": "hotdogs", "title": "Fast Food"}, {"alias": "burgers", "title": "Burgers"}], "rating": 1.5, "coordinates": {"latitude": 42.552204, "longitude": -71.572774}, "transactions": ["delivery"], "price": "$", "location": {"address1": "2 Barnum Rd", "address2": "", "address3": "", "city": "Ayer", "zip_code": "01432", "country": "US", "state": "MA", "display_address": ["2 Barnum Rd", "Ayer, MA 01432"]}, "phone": "+19787725650", "display_phone": "(978) 772-5650", "distance": 8103.1591518771165}, {"id": "1ntOwwqIkgMcid8St7dKTA", "alias": "subway-ayer-3", "name": "Subway", "image_url": "https://s3-media2.fl.yelpcdn.com/bphoto/UDyyzK1U-Sy9QfNfqN2Nmg/o.jpg", "is_closed": false, "url": "https://www.yelp.com/biz/subway-ayer-3?adjust_creative=HdhkN5EEH6lAqE3kwhsHEQ&utm_campaign=yelp_api_v3&utm_medium=api_v3_business_search&utm_source=HdhkN5EEH6lAqE3kwhsHEQ", "review_count": 8, "categories": [{"alias": "sandwiches", "title": "Sandwiches"}], "rating": 3.0, "coordinates": {"latitude": 42.5599578518872, "longitude": -71.5905098699579}, "transactions": [], "price": "$", "location": {"address1": "1 Mill St", "address2": "", "address3": "", "city": "Ayer", "zip_code": "01432", "country": "US", "state": "MA", "display_address": ["1 Mill St", "Ayer, MA 01432"]}, "phone": "+19787965397", "display_phone": "(978) 796-5397", "distance": 9684.516269507065}, {"id": "eSuXNyERyB_rnnZuLZdjfg", "alias": "boston-bean-house-maynard-2", "name": "Boston Bean House", "image_url": "https://s3-media2.fl.yelpcdn.com/bphoto/y_rpFCkWb0JKjbxiqCt4Ig/o.jpg", "is_closed": false, "url": "https://www.yelp.com/biz/boston-bean-house-maynard-2?adjust_creative=HdhkN5EEH6lAqE3kwhsHEQ&utm_campaign=yelp_api_v3&utm_medium=api_v3_business_search&utm_source=HdhkN5EEH6lAqE3kwhsHEQ", "review_count": 87, "categories": [{"alias": "coffee", "title": "Coffee & Tea"}, {"alias": "tradamerican", "title": "American (Traditional)"}], "rating": 3.0, "coordinates": {"latitude": 42.4317674, "longitude": -71.4545868}, "transactions": ["delivery"], "price": "$$", "location": {"address1": "102 Main St", "address2": "", "address3": "", "city": "Maynard", "zip_code": "01754", "country": "US", "state": "MA", "display_address": ["102 Main St", "Maynard, MA 01754"]}, "phone": "+19788978907", "display_phone": "(978) 897-8907", "distance": 8420.322655976477}, {"id": "8CJ4WpeKstXYf5EbP-L__A", "alias": "subway-littleton-51", "name": "Subway", "image_url": "https://s3-media2.fl.yelpcdn.com/bphoto/cm-In0NhAzI3qMWCPBdPUQ/o.jpg", "is_closed": false, "url": "https://www.yelp.com/biz/subway-littleton-51?adjust_creative=HdhkN5EEH6lAqE3kwhsHEQ&utm_campaign=yelp_api_v3&utm_medium=api_v3_business_search&utm_source=HdhkN5EEH6lAqE3kwhsHEQ", "review_count": 14, "categories": [{"alias": "sandwiches", "title": "Sandwiches"}], "rating": 2.5, "coordinates": {"latitude": 42.5449656692104, "longitude": -71.4692099592296}, "transactions": [], "price": "$", "location": {"address1": "287 Great Rd", "address2": "", "address3": "", "city": "Littleton", "zip_code": "01460", "country": "US", "state": "MA", "display_address": ["287 Great Rd", "Littleton, MA 01460"]}, "phone": "+19784869782", "display_phone": "(978) 486-9782", "distance": 7082.694787028298}, {"id": "6t_EpYrm4NZwGSzTakY0Yg", "alias": "cumberland-farms-westford", "name": "Cumberland Farms", "image_url": "https://s3-media3.fl.yelpcdn.com/bphoto/nanVASHaSyL2A9pdRUAxjA/o.jpg", "is_closed": false, "url": "https://www.yelp.com/biz/cumberland-farms-westford?adjust_creative=HdhkN5EEH6lAqE3kwhsHEQ&utm_campaign=yelp_api_v3&utm_medium=api_v3_business_search&utm_source=HdhkN5EEH6lAqE3kwhsHEQ", "review_count": 4, "categories": [{"alias": "convenience", "title": "Convenience Stores"}, {"alias": "coffee", "title": "Coffee & Tea"}, {"alias": "hotdogs", "title": "Fast Food"}], "rating": 3.0, "coordinates": {"latitude": 42.5665614, "longitude": -71.4233513}, "transactions": [], "location": {"address1": "188 Littleton Rd", "address2": "", "address3": "Rt 110", "city": "Westford", "zip_code": "01886", "country": "US", "state": "MA", "display_address": ["188 Littleton Rd", "Rt 110", "Westford, MA 01886"]}, "phone": "+19786923091", "display_phone": "(978) 692-3091", "distance": 11292.023826324941}, {"id": "e4Rqi-tjwTS580kIlB7raA", "alias": "mcdonalds-maynard-2", "name": "McDonald's", "image_url": "https://s3-media2.fl.yelpcdn.com/bphoto/1t6Qbv6rrwOzLAyY3SCmvQ/o.jpg", "is_closed": false, "url": "https://www.yelp.com/biz/mcdonalds-maynard-2?adjust_creative=HdhkN5EEH6lAqE3kwhsHEQ&utm_campaign=yelp_api_v3&utm_medium=api_v3_business_search&utm_source=HdhkN5EEH6lAqE3kwhsHEQ", "review_count": 41, "categories": [{"alias": "burgers", "title": "Burgers"}, {"alias": "hotdogs", "title": "Fast Food"}, {"alias": "coffee", "title": "Coffee & Tea"}], "rating": 2.0, "coordinates": {"latitude": 42.4325212, "longitude": -71.450030207634}, "transactions": ["delivery"], "price": "$", "location": {"address1": "4 Main St", "address2": "", "address3": "", "city": "Maynard", "zip_code": "01754", "country": "US", "state": "MA", "display_address": ["4 Main St", "Maynard, MA 01754"]}, "phone": "+19788978995", "display_phone": "(978) 897-8995", "distance": 8577.115096244868}, {"id": "AzqoWjaO2hvHl42U2NKK0A", "alias": "mcdonalds-ayer", "name": "McDonald's", "image_url": "https://s3-media2.fl.yelpcdn.com/bphoto/FCWOSxv2I4O34MEY4Xh73g/o.jpg", "is_closed": false, "url": "https://www.yelp.com/biz/mcdonalds-ayer?adjust_creative=HdhkN5EEH6lAqE3kwhsHEQ&utm_campaign=yelp_api_v3&utm_medium=api_v3_business_search&utm_source=HdhkN5EEH6lAqE3kwhsHEQ", "review_count": 34, "categories": [{"alias": "burgers", "title": "Burgers"}, {"alias": "hotdogs", "title": "Fast Food"}, {"alias": "coffee", "title": "Coffee & Tea"}], "rating": 2.0, "coordinates": {"latitude": 42.55365, "longitude": -71.57156}, "transactions": [], "price": "$", "location": {"address1": "2 Sandy Pond Rd", "address2": "", "address3": "", "city": "Ayer", "zip_code": "01432", "country": "US", "state": "MA", "display_address": ["2 Sandy Pond Rd", "Ayer, MA 01432"]}, "phone": "+19787729626", "display_phone": "(978) 772-9626", "distance": 8224.412889371972}, {"id": "0x1xePDyHM8A3kRgXcjlqA", "alias": "wendys-maynard", "name": "Wendy's", "image_url": "https://s3-media1.fl.yelpcdn.com/bphoto/uD-d_DpibHYRT6oShSqGJA/o.jpg", "is_closed": false, "url": "https://www.yelp.com/biz/wendys-maynard?adjust_creative=HdhkN5EEH6lAqE3kwhsHEQ&utm_campaign=yelp_api_v3&utm_medium=api_v3_business_search&utm_source=HdhkN5EEH6lAqE3kwhsHEQ", "review_count": 17, "categories": [{"alias": "hotdogs", "title": "Fast Food"}, {"alias": "burgers", "title": "Burgers"}], "rating": 3.0, "coordinates": {"latitude": 42.43853, "longitude": -71.43486}, "transactions": ["delivery"], "price": "$", "location": {"address1": "115 Powder Mill Road", "address2": "", "address3": "", "city": "Maynard", "zip_code": "01754", "country": "US", "state": "MA", "display_address": ["115 Powder Mill Road", "Maynard, MA 01754"]}, "phone": "+19784610444", "display_phone": "(978) 461-0444", "distance": 8964.085837176528}, {"id": "P0RXAa3cMlZSE1-A26MmJQ", "alias": "bolton-bean-bolton-2", "name": "Bolton Bean", "image_url": "https://s3-media4.fl.yelpcdn.com/bphoto/rbblzfbULvLDhvkOk_XdFg/o.jpg", "is_closed": false, "url": "https://www.yelp.com/biz/bolton-bean-bolton-2?adjust_creative=HdhkN5EEH6lAqE3kwhsHEQ&utm_campaign=yelp_api_v3&utm_medium=api_v3_business_search&utm_source=HdhkN5EEH6lAqE3kwhsHEQ", "review_count": 96, "categories": [{"alias": "cafes", "title": "Cafes"}, {"alias": "coffee", "title": "Coffee & Tea"}, {"alias": "sandwiches", "title": "Sandwiches"}], "rating": 4.5, "coordinates": {"latitude": 42.4314856948864, "longitude": -71.6026036441326}, "transactions": [], "price": "$", "location": {"address1": "626 Main St", "address2": "", "address3": null, "city": "Bolton", "zip_code": "01740", "country": "US", "state": "MA", "display_address": ["626 Main St", "Bolton, MA 01740"]}, "phone": "+19786341188", "display_phone": "(978) 634-1188", "distance": 9720.336187370727}, {"id": "gQJabSdqDPkCd29cY6eIWw", "alias": "taco-bell-ayer", "name": "Taco Bell", "image_url": "https://s3-media2.fl.yelpcdn.com/bphoto/MRxPJ7c8lvKQyccqFXr5rA/o.jpg", "is_closed": false, "url": "https://www.yelp.com/biz/taco-bell-ayer?adjust_creative=HdhkN5EEH6lAqE3kwhsHEQ&utm_campaign=yelp_api_v3&utm_medium=api_v3_business_search&utm_source=HdhkN5EEH6lAqE3kwhsHEQ", "review_count": 17, "categories": [{"alias": "tacos", "title": "Tacos"}, {"alias": "breakfast_brunch", "title": "Breakfast & Brunch"}], "rating": 2.5, "coordinates": {"latitude": 42.5540427, "longitude": -71.571142}, "transactions": ["delivery"], "price": "$", "location": {"address1": "4 Sandy Pond Rd", "address2": "", "address3": "", "city": "Ayer", "zip_code": "01432", "country": "US", "state": "MA", "display_address": ["4 Sandy Pond Rd", "Ayer, MA 01432"]}, "phone": "", "display_phone": "", "distance": 8223.431302545427}, {"id": "L7-0OCCg6X1f1wil8OPfqw", "alias": "babicos-cafe-maynard", "name": "Babico's Cafe", "image_url": "https://s3-media1.fl.yelpcdn.com/bphoto/sdOTCReHcqOPVjhTpCDoyw/o.jpg", "is_closed": false, "url": "https://www.yelp.com/biz/babicos-cafe-maynard?adjust_creative=HdhkN5EEH6lAqE3kwhsHEQ&utm_campaign=yelp_api_v3&utm_medium=api_v3_business_search&utm_source=HdhkN5EEH6lAqE3kwhsHEQ", "review_count": 58, "categories": [{"alias": "bakeries", "title": "Bakeries"}, {"alias": "breakfast_brunch", "title": "Breakfast & Brunch"}, {"alias": "cafes", "title": "Cafes"}], "rating": 3.5, "coordinates": {"latitude": 42.4330062, "longitude": -71.4531622}, "transactions": [], "price": "$", "location": {"address1": "35 Nason St", "address2": "", "address3": "", "city": "Maynard", "zip_code": "01754", "country": "US", "state": "MA", "display_address": ["35 Nason St", "Maynard, MA 01754"]}, "phone": "+19787931629", "display_phone": "(978) 793-1629", "distance": 8381.302035717144}]