[{"id": "Tl4vnrf3G4sSXzpSgvKczQ", "alias": "tables-at-the-farm-palmer", "name": "Tables at the Farm", "image_url": "https://s3-media1.fl.yelpcdn.com/bphoto/gpx2Q9o1H7Ijnpc2GYyF5w/o.jpg", "is_closed": false, "url": "https://www.yelp.com/biz/tables-at-the-farm-palmer?adjust_creative=HdhkN5EEH6lAqE3kwhsHEQ&utm_campaign=yelp_api_v3&utm_medium=api_v3_business_search&utm_source=HdhkN5EEH6lAqE3kwhsHEQ", "review_count": 19, "categories": [{"alias": "breakfast_brunch", "title": "Breakfast & Brunch"}, {"alias": "tradamerican", "title": "American (Traditional)"}], "rating": 4.0, "coordinates": {"latitude": 42.192764, "longitude": -72.35028967}, "transactions": [], "location": {"address1": "3092 Palmer St", "address2": "Ma-181", "address3": "", "city": "Palmer", "zip_code": "01069", "country": "US", "state": "MA", "display_address": ["3092 Palmer St", "Ma-181", "Palmer, MA 01069"]}, "phone": "+14133242986", "display_phone": "(413) 324-2986", "distance": 868.8694276360302}, {"id": "HQEBY4lEJxmn6G5tDYWEVg", "alias": "russos-lakeside-seafood-and-steakhouse-palmer", "name": "Russo's Lakeside Seafood & Steakhouse", "image_url": "https://s3-media3.fl.yelpcdn.com/bphoto/cE5L8cxQbGhT18yqnV8RWw/o.jpg", "is_closed": false, "url": "https://www.yelp.com/biz/russos-lakeside-seafood-and-steakhouse-palmer?adjust_creative=HdhkN5EEH6lAqE3kwhsHEQ&utm_campaign=yelp_api_v3&utm_medium=api_v3_business_search&utm_source=HdhkN5EEH6lAqE3kwhsHEQ", "review_count": 45, "categories": [{"alias": "seafood", "title": "Seafood"}, {"alias": "steak", "title": "Steakhouses"}], "rating": 4.0, "coordinates": {"latitude": 42.210545, "longitude": -72.307816}, "transactions": ["delivery", "pickup"], "price": "$$", "location": {"address1": "702 River St", "address2": "", "address3": "", "city": "Palmer", "zip_code": "01069", "country": "US", "state": "MA", "display_address": ["702 River St", "Palmer, MA 01069"]}, "phone": "+14132892360", "display_phone": "(413) 289-2360", "distance": 2614.89051824459}, {"id": "FhaArV8Sex3wL-Wyv6MQuw", "alias": "gin-mill-palmer", "name": "Gin Mill", "image_url": "https://s3-media1.fl.yelpcdn.com/bphoto/hzab8IojP7MVbmN__a9RtQ/o.jpg", "is_closed": false, "url": "https://www.yelp.com/biz/gin-mill-palmer?adjust_creative=HdhkN5EEH6lAqE3kwhsHEQ&utm_campaign=yelp_api_v3&utm_medium=api_v3_business_search&utm_source=HdhkN5EEH6lAqE3kwhsHEQ", "review_count": 11, "categories": [{"alias": "divebars", "title": "Dive Bars"}, {"alias": "tradamerican", "title": "American (Traditional)"}], "rating": 4.5, "coordinates": {"latitude": 42.213802, "longitude": -72.344717}, "transactions": [], "price": "$", "location": {"address1": "3095 Main St", "address2": "", "address3": "", "city": "Palmer", "zip_code": "01069", "country": "US", "state": "MA", "display_address": ["3095 Main St", "Palmer, MA 01069"]}, "phone": "+14132832014", "display_phone": "(413) 283-2014", "distance": 703.1410718946436}, {"id": "B64xV_p3vrtrcyRoFK2DIQ", "alias": "burgundy-brook-cafe-three-rivers", "name": "Burgundy Brook Cafe", "image_url": "https://s3-media2.fl.yelpcdn.com/bphoto/RPDX7aqpoHYxn2gLVQ4OCw/o.jpg", "is_closed": false, "url": "https://www.yelp.com/biz/burgundy-brook-cafe-three-rivers?adjust_creative=HdhkN5EEH6lAqE3kwhsHEQ&utm_campaign=yelp_api_v3&utm_medium=api_v3_business_search&utm_source=HdhkN5EEH6lAqE3kwhsHEQ", "review_count": 100, "categories": [{"alias": "delis", "title": "Delis"}, {"alias": "sandwiches", "title": "Sandwiches"}, {"alias": "breakfast_brunch", "title": "Breakfast & Brunch"}], "rating": 3.5, "coordinates": {"latitude": 42.180909, "longitude": -72.363095}, "transactions": [], "price": "$$", "location": {"address1": "2048 Main St", "address2": null, "address3": null, "city": "Three Rivers", "zip_code": "01080", "country": "US", "state": "MA", "display_address": ["2048 Main St", "Three Rivers, MA 01080"]}, "phone": "+14132896359", "display_phone": "(413) 289-6359", "distance": 3661.9838277429044}, {"id": "QAYlKRxw_hdSe8PjkVbgrg", "alias": "alvin-rondeaus-dairy-bar-palmer", "name": "Alvin Rondeau's Dairy Bar", "image_url": "https://s3-media2.fl.yelpcdn.com/bphoto/P7hATNpoqavOsVP2iG9akg/o.jpg", "is_closed": false, "url": "https://www.yelp.com/biz/alvin-rondeaus-dairy-bar-palmer?adjust_creative=HdhkN5EEH6lAqE3kwhsHEQ&utm_campaign=yelp_api_v3&utm_medium=api_v3_business_search&utm_source=HdhkN5EEH6lAqE3kwhsHEQ", "review_count": 33, "categories": [{"alias": "foodstands", "title": "Food Stands"}, {"alias": "hotdog", "title": "Hot Dogs"}, {"alias": "seafood", "title": "Seafood"}], "rating": 4.0, "coordinates": {"latitude": 42.21143, "longitude": -72.3027}, "transactions": [], "price": "$", "location": {"address1": "1300 Ware St", "address2": "", "address3": "", "city": "Palmer", "zip_code": "01069", "country": "US", "state": "MA", "display_address": ["1300 Ware St", "Palmer, MA 01069"]}, "phone": "+14132835281", "display_phone": "(413) 283-5281", "distance": 3042.1624190543134}, {"id": "5Cx_U0_NCW4GQfpeaf50rw", "alias": "radars-pub-three-rivers", "name": "Radar's Pub", "image_url": "https://s3-media1.fl.yelpcdn.com/bphoto/bygx9tBJhB56ciwwoDxBYw/o.jpg", "is_closed": false, "url": "https://www.yelp.com/biz/radars-pub-three-rivers?adjust_creative=HdhkN5EEH6lAqE3kwhsHEQ&utm_campaign=yelp_api_v3&utm_medium=api_v3_business_search&utm_source=HdhkN5EEH6lAqE3kwhsHEQ", "review_count": 3, "categories": [{"alias": "seafood", "title": "Seafood"}, {"alias": "sandwiches", "title": "Sandwiches"}, {"alias": "burgers", "title": "Burgers"}], "rating": 2.5, "coordinates": {"latitude": 42.180993, "longitude": -72.3629807308316}, "transactions": [], "location": {"address1": "2052 Main St", "address2": "", "address3": null, "city": "Three Rivers", "zip_code": "01080", "country": "US", "state": "MA", "display_address": ["2052 Main St", "Three Rivers, MA 01080"]}, "phone": "+14132836989", "display_phone": "(413) 283-6989", "distance": 3649.0699737837135}, {"id": "MwToLNoS7ocAP983G30vrg", "alias": "wendys-palmer-2", "name": "Wendy's", "image_url": "https://s3-media3.fl.yelpcdn.com/bphoto/xOLby4pZ-wowdApIyQMYkw/o.jpg", "is_closed": false, "url": "https://www.yelp.com/biz/wendys-palmer-2?adjust_creative=HdhkN5EEH6lAqE3kwhsHEQ&utm_campaign=yelp_api_v3&utm_medium=api_v3_business_search&utm_source=HdhkN5EEH6lAqE3kwhsHEQ", "review_count": 5, "categories": [{"alias": "burgers", "title": "Burgers"}, {"alias": "hotdogs", "title": "Fast Food"}], "rating": 2.0, "coordinates": {"latitude": 42.17377, "longitude": -72.32249}, "transactions": [], "price": "$", "location": {"address1": "1213 Thorndyke St", "address2": "", "address3": "", "city": "Palmer", "zip_code": "01069", "country": "US", "state": "MA", "display_address": ["1213 Thorndyke St", "Palmer, MA 01069"]}, "phone": "+14132833037", "display_phone": "(413) 283-3037", "distance": 4137.8711627162065}, {"id": "i36ybHMGuHOgH7BN7cFN1A", "alias": "mcdonalds-palmer-4", "name": "McDonald's", "image_url": "https://s3-media3.fl.yelpcdn.com/bphoto/OHjM5Gi4Hm6A4yeWkbCCgg/o.jpg", "is_closed": false, "url": "https://www.yelp.com/biz/mcdonalds-palmer-4?adjust_creative=HdhkN5EEH6lAqE3kwhsHEQ&utm_campaign=yelp_api_v3&utm_medium=api_v3_business_search&utm_source=HdhkN5EEH6lAqE3kwhsHEQ", "review_count": 6, "categories": [{"alias": "coffee", "title": "Coffee & Tea"}, {"alias": "burgers", "title": "Burgers"}, {"alias": "hotdogs", "title": "Fast Food"}], "rating": 3.0, "coordinates": {"latitude": 42.1744, "longitude": -72.32263}, "transactions": [], "price": "$", "location": {"address1": "1184 Thorndike St", "address2": null, "address3": null, "city": "Palmer", "zip_code": "01069", "country": "US", "state": "MA", "display_address": ["1184 Thorndike St", "Palmer, MA 01069"]}, "phone": "+14132839095", "display_phone": "(413) 283-9095", "distance": 4067.8333183094683}, {"id": "DqykbdUgYwboKgNhqjuAIA", "alias": "dominos-pizza-palmer", "name": "Domino's Pizza", "image_url": "", "is_closed": false, "url": "https://www.yelp.com/biz/dominos-pizza-palmer?adjust_creative=HdhkN5EEH6lAqE3kwhsHEQ&utm_campaign=yelp_api_v3&utm_medium=api_v3_business_search&utm_source=HdhkN5EEH6lAqE3kwhsHEQ", "review_count": 3, "categories": [{"alias": "chicken_wings", "title": "Chicken Wings"}, {"alias": "pizza", "title": "Pizza"}, {"alias": "sandwiches", "title": "Sandwiches"}], "rating": 3.5, "coordinates": {"latitude": 42.1744194030762, "longitude": -72.3206405639648}, "transactions": [], "price": "$", "location": {"address1": "1219 Thorndike St", "address2": null, "address3": null, "city": "Palmer", "zip_code": "01069", "country": "US", "state": "MA", "display_address": ["1219 Thorndike St", "Palmer, MA 01069"]}, "phone": "+14132896245", "display_phone": "(413) 289-6245", "distance": 4108.049438709679}, {"id": "Io4C5tUwnb_YzeaMXHBqBA", "alias": "shuckin-truck-narragansett-2", "name": "Shuckin Truck", "image_url": "https://s3-media2.fl.yelpcdn.com/bphoto/r7QRORfe9UYVS7GGzUm9DQ/o.jpg", "is_closed": false, "url": "https://www.yelp.com/biz/shuckin-truck-narragansett-2?adjust_creative=HdhkN5EEH6lAqE3kwhsHEQ&utm_campaign=yelp_api_v3&utm_medium=api_v3_business_search&utm_source=HdhkN5EEH6lAqE3kwhsHEQ", "review_count": 24, "categories": [{"alias": "foodtrucks", "title": "Food Trucks"}, {"alias": "seafood", "title": "Seafood"}], "rating": 4.5, "coordinates": {"latitude": 41.4274482727051, "longitude": -71.4597778320313}, "transactions": [], "price": "$$", "location": {"address1": "", "address2": "", "address3": "", "city": "Narragansett", "zip_code": "02882", "country": "US", "state": "RI", "display_address": ["Narragansett, RI 02882"]}, "phone": "+14017415953", "display_phone": "(401) 741-5953", "distance": 114399.61464297891}, {"id": "qqA8YX58xnmEXLyanHfdUg", "alias": "stufd-food-truck-brooklyn", "name": "Stuf'd Food Truck", "image_url": "https://s3-media2.fl.yelpcdn.com/bphoto/_Wn0i-tLIOFinw8BPAqxPA/o.jpg", "is_closed": false, "url": "https://www.yelp.com/biz/stufd-food-truck-brooklyn?adjust_creative=HdhkN5EEH6lAqE3kwhsHEQ&utm_campaign=yelp_api_v3&utm_medium=api_v3_business_search&utm_source=HdhkN5EEH6lAqE3kwhsHEQ", "review_count": 4, "categories": [{"alias": "sandwiches", "title": "Sandwiches"}, {"alias": "foodtrucks", "title": "Food Trucks"}], "rating": 4.0, "coordinates": {"latitude": 40.7124539, "longitude": -73.9287374}, "transactions": [], "location": {"address1": "178 Varick Ave", "address2": "", "address3": null, "city": "Brooklyn", "zip_code": "11237", "country": "US", "state": "NY", "display_address": ["178 Varick Ave", "Brooklyn, NY 11237"]}, "phone": "+18457091808", "display_phone": "(845) 709-1808", "distance": 212648.8807834995}]