[{"id": "yIhVtwTmftVIpNYcxf9yMA", "alias": "statz-sports-pub-and-grill-north-brookfield", "name": "Statz Sports Pub & Grill", "image_url": "https://s3-media3.fl.yelpcdn.com/bphoto/iOISgzMcfKXM9LCMMpr-xw/o.jpg", "is_closed": false, "url": "https://www.yelp.com/biz/statz-sports-pub-and-grill-north-brookfield?adjust_creative=HdhkN5EEH6lAqE3kwhsHEQ&utm_campaign=yelp_api_v3&utm_medium=api_v3_business_search&utm_source=HdhkN5EEH6lAqE3kwhsHEQ", "review_count": 5, "categories": [{"alias": "breakfast_brunch", "title": "Breakfast & Brunch"}, {"alias": "pubs", "title": "Pubs"}], "rating": 5.0, "coordinates": {"latitude": 42.275866, "longitude": -72.083283}, "transactions": [], "price": "$", "location": {"address1": "341 N Main St", "address2": "", "address3": null, "city": "North Brookfield", "zip_code": "01535", "country": "US", "state": "MA", "display_address": ["341 N Main St", "North Brookfield, MA 01535"]}, "phone": "+15088677204", "display_phone": "(508) 867-7204", "distance": 740.1026674443709}, {"id": "ekTKSMIx3hd5XXNmFeT-Bg", "alias": "salem-cross-inn-west-brookfield", "name": "Salem Cross Inn", "image_url": "https://s3-media4.fl.yelpcdn.com/bphoto/2OJ_dw5_3VL5zyJvN1czrA/o.jpg", "is_closed": false, "url": "https://www.yelp.com/biz/salem-cross-inn-west-brookfield?adjust_creative=HdhkN5EEH6lAqE3kwhsHEQ&utm_campaign=yelp_api_v3&utm_medium=api_v3_business_search&utm_source=HdhkN5EEH6lAqE3kwhsHEQ", "review_count": 113, "categories": [{"alias": "venues", "title": "Venues & Event Spaces"}, {"alias": "tradamerican", "title": "American (Traditional)"}], "rating": 4.0, "coordinates": {"latitude": 42.2460335987962, "longitude": -72.1747081086731}, "transactions": [], "price": "$$$", "location": {"address1": "260 W Main St Rt 9", "address2": "", "address3": "", "city": "West Brookfield", "zip_code": "01585", "country": "US", "state": "MA", "display_address": ["260 W Main St Rt 9", "West Brookfield, MA 01585"]}, "phone": "+15088672345", "display_phone": "(508) 867-2345", "distance": 7998.093995890864}, {"id": "9CB1T3OCrceK3JRmagcoMA", "alias": "308-lakeside-east-brookfield", "name": "308 Lakeside", "image_url": "https://s3-media1.fl.yelpcdn.com/bphoto/u8Fqwre_2Owsm6MLE7bvIA/o.jpg", "is_closed": false, "url": "https://www.yelp.com/biz/308-lakeside-east-brookfield?adjust_creative=HdhkN5EEH6lAqE3kwhsHEQ&utm_campaign=yelp_api_v3&utm_medium=api_v3_business_search&utm_source=HdhkN5EEH6lAqE3kwhsHEQ", "review_count": 103, "categories": [{"alias": "newamerican", "title": "American (New)"}, {"alias": "beer_and_wine", "title": "Beer, Wine & Spirits"}], "rating": 3.0, "coordinates": {"latitude": 42.2270431518555, "longitude": -72.0465240478516}, "transactions": ["delivery", "pickup"], "price": "$$", "location": {"address1": "308 E Main St", "address2": "", "address3": "Rt 9", "city": "East Brookfield", "zip_code": "01515", "country": "US", "state": "MA", "display_address": ["308 E Main St", "Rt 9", "East Brookfield, MA 01515"]}, "phone": "+17744498333", "display_phone": "(774) 449-8333", "distance": 5544.301230898487}, {"id": "gLsN78yTskhjpdHMa6HA3A", "alias": "ice-house-pub-barre", "name": "Ice House Pub", "image_url": "https://s3-media1.fl.yelpcdn.com/bphoto/lnDcvFdVS6GZoOB7_uRaqg/o.jpg", "is_closed": false, "url": "https://www.yelp.com/biz/ice-house-pub-barre?adjust_creative=HdhkN5EEH6lAqE3kwhsHEQ&utm_campaign=yelp_api_v3&utm_medium=api_v3_business_search&utm_source=HdhkN5EEH6lAqE3kwhsHEQ", "review_count": 41, "categories": [{"alias": "gastropubs", "title": "Gastropubs"}, {"alias": "newamerican", "title": "American (New)"}], "rating": 4.0, "coordinates": {"latitude": 42.4090505140105, "longitude": -72.0973576462425}, "transactions": [], "location": {"address1": "7 Worcester Rd", "address2": "", "address3": null, "city": "Barre", "zip_code": "01005", "country": "US", "state": "MA", "display_address": ["7 Worcester Rd", "Barre, MA 01005"]}, "phone": "+19783553000", "display_phone": "(978) 355-3000", "distance": 15604.806363539845}, {"id": "BR-rauP8Dl8iRI1xEOJLlw", "alias": "thai-house-restaurant-east-brookfield", "name": "Thai House Restaurant", "image_url": "https://s3-media3.fl.yelpcdn.com/bphoto/Xk332iy5p35LkQyZbVl6-Q/o.jpg", "is_closed": false, "url": "https://www.yelp.com/biz/thai-house-restaurant-east-brookfield?adjust_creative=HdhkN5EEH6lAqE3kwhsHEQ&utm_campaign=yelp_api_v3&utm_medium=api_v3_business_search&utm_source=HdhkN5EEH6lAqE3kwhsHEQ", "review_count": 38, "categories": [{"alias": "thai", "title": "Thai"}], "rating": 4.0, "coordinates": {"latitude": 42.2274131, "longitude": -72.0419256}, "transactions": [], "price": "$$", "location": {"address1": "355 E Main St", "address2": "", "address3": "", "city": "East Brookfield", "zip_code": "01515", "country": "US", "state": "MA", "display_address": ["355 E Main St", "East Brookfield, MA 01515"]}, "phone": "+15088674900", "display_phone": "(508) 867-4900", "distance": 5732.386725300897}, {"id": "W-if4K_9EljWBdVzXlb4SA", "alias": "black-and-white-grille-spencer", "name": "Black & White Grille", "image_url": "https://s3-media2.fl.yelpcdn.com/bphoto/UWWwnpVVKt-ypz8S9tD79A/o.jpg", "is_closed": false, "url": "https://www.yelp.com/biz/black-and-white-grille-spencer?adjust_creative=HdhkN5EEH6lAqE3kwhsHEQ&utm_campaign=yelp_api_v3&utm_medium=api_v3_business_search&utm_source=HdhkN5EEH6lAqE3kwhsHEQ", "review_count": 78, "categories": [{"alias": "tradamerican", "title": "American (Traditional)"}, {"alias": "italian", "title": "Italian"}, {"alias": "seafood", "title": "Seafood"}], "rating": 3.5, "coordinates": {"latitude": 42.302455, "longitude": -71.989682}, "transactions": [], "price": "$$", "location": {"address1": "206 N Spencer Rd", "address2": "", "address3": "", "city": "Spencer", "zip_code": "01562", "country": "US", "state": "MA", "display_address": ["206 N Spencer Rd", "Spencer, MA 01562"]}, "phone": "+15088855018", "display_phone": "(508) 885-5018", "distance": 8500.741817392947}, {"id": "0uZi3bproBbPbYdli72dSg", "alias": "north-brookfield-pizza-palace-north-brookfield-2", "name": "North Brookfield Pizza Palace", "image_url": "", "is_closed": false, "url": "https://www.yelp.com/biz/north-brookfield-pizza-palace-north-brookfield-2?adjust_creative=HdhkN5EEH6lAqE3kwhsHEQ&utm_campaign=yelp_api_v3&utm_medium=api_v3_business_search&utm_source=HdhkN5EEH6lAqE3kwhsHEQ", "review_count": 10, "categories": [{"alias": "pizza", "title": "Pizza"}], "rating": 3.5, "coordinates": {"latitude": 42.2685891, "longitude": -72.0822442}, "transactions": [], "price": "$", "location": {"address1": "60 School St", "address2": "", "address3": "", "city": "North Brookfield", "zip_code": "01535", "country": "US", "state": "MA", "display_address": ["60 School St", "North Brookfield, MA 01535"]}, "phone": "+15088670060", "display_phone": "(508) 867-0060", "distance": 70.02196910695376}, {"id": "qZ2mUZB1EFz2-Was9kft2Q", "alias": "ye-olde-tavern-west-brookfield-3", "name": "Ye Olde Tavern", "image_url": "https://s3-media2.fl.yelpcdn.com/bphoto/feqtvkBcHvmzmclvTYA-WQ/o.jpg", "is_closed": false, "url": "https://www.yelp.com/biz/ye-olde-tavern-west-brookfield-3?adjust_creative=HdhkN5EEH6lAqE3kwhsHEQ&utm_campaign=yelp_api_v3&utm_medium=api_v3_business_search&utm_source=HdhkN5EEH6lAqE3kwhsHEQ", "review_count": 31, "categories": [{"alias": "pizza", "title": "Pizza"}], "rating": 3.5, "coordinates": {"latitude": 42.2349328, "longitude": -72.1419567}, "transactions": [], "price": "$$", "location": {"address1": "7 E Main St", "address2": "", "address3": "", "city": "West Brookfield", "zip_code": "01585", "country": "US", "state": "MA", "display_address": ["7 E Main St", "West Brookfield, MA 01585"]}, "phone": "+15088679709", "display_phone": "(508) 867-9709", "distance": 6186.390709978532}, {"id": "w7OhIPtYkrCNLt8P2uIavA", "alias": "hanna-devines-restaurant-ware", "name": "Hanna Devine's Restaurant", "image_url": "https://s3-media3.fl.yelpcdn.com/bphoto/y0x0A04JfuP0gNbBhQAbOQ/o.jpg", "is_closed": false, "url": "https://www.yelp.com/biz/hanna-devines-restaurant-ware?adjust_creative=HdhkN5EEH6lAqE3kwhsHEQ&utm_campaign=yelp_api_v3&utm_medium=api_v3_business_search&utm_source=HdhkN5EEH6lAqE3kwhsHEQ", "review_count": 65, "categories": [{"alias": "seafood", "title": "Seafood"}, {"alias": "beer_and_wine", "title": "Beer, Wine & Spirits"}, {"alias": "newamerican", "title": "American (New)"}], "rating": 3.5, "coordinates": {"latitude": 42.2605129935206, "longitude": -72.2413601052226}, "transactions": [], "price": "$$", "location": {"address1": "91 Main St", "address2": "", "address3": null, "city": "Ware", "zip_code": "01082", "country": "US", "state": "MA", "display_address": ["91 Main St", "Ware, MA 01082"]}, "phone": "+14132770707", "display_phone": "(413) 277-0707", "distance": 13093.417776998194}, {"id": "Xk6_V-Sd08xSFqaQUCvZbw", "alias": "wicked-wing-ware", "name": "Wicked Wing", "image_url": "https://s3-media4.fl.yelpcdn.com/bphoto/jSg8-20Gf49RhkksAP3Iwg/o.jpg", "is_closed": false, "url": "https://www.yelp.com/biz/wicked-wing-ware?adjust_creative=HdhkN5EEH6lAqE3kwhsHEQ&utm_campaign=yelp_api_v3&utm_medium=api_v3_business_search&utm_source=HdhkN5EEH6lAqE3kwhsHEQ", "review_count": 35, "categories": [{"alias": "chicken_wings", "title": "Chicken Wings"}, {"alias": "breweries", "title": "Breweries"}, {"alias": "cocktailbars", "title": "Cocktail Bars"}], "rating": 4.0, "coordinates": {"latitude": 42.2672853535435, "longitude": -72.2480573767605}, "transactions": [], "location": {"address1": "136 Pleasant St", "address2": "", "address3": null, "city": "Ware", "zip_code": "01082", "country": "US", "state": "MA", "display_address": ["136 Pleasant St", "Ware, MA 01082"]}, "phone": "+14132770020", "display_phone": "(413) 277-0020", "distance": 13610.216336774853}, {"id": "i8CP0pPlUwa4C_e0Zt3jSw", "alias": "center-tree-bar-and-grill-rutland", "name": "Center Tree Bar & Grill", "image_url": "https://s3-media2.fl.yelpcdn.com/bphoto/hLWERM_f_iYmU1Yv_npqYw/o.jpg", "is_closed": false, "url": "https://www.yelp.com/biz/center-tree-bar-and-grill-rutland?adjust_creative=HdhkN5EEH6lAqE3kwhsHEQ&utm_campaign=yelp_api_v3&utm_medium=api_v3_business_search&utm_source=HdhkN5EEH6lAqE3kwhsHEQ", "review_count": 14, "categories": [{"alias": "bars", "title": "Bars"}, {"alias": "tradamerican", "title": "American (Traditional)"}, {"alias": "pizza", "title": "Pizza"}], "rating": 4.0, "coordinates": {"latitude": 42.3759484186041, "longitude": -71.9545865803957}, "transactions": [], "location": {"address1": "249 Main St", "address2": "", "address3": null, "city": "Rutland", "zip_code": "01543", "country": "US", "state": "MA", "display_address": ["249 Main St", "Rutland, MA 01543"]}, "phone": "+17742340234", "display_phone": "(774) 234-0234", "distance": 15873.200140003431}, {"id": "tvP1MXfXcaJKD8pGyO31Mw", "alias": "matts-breakfast-nook-west-brookfield", "name": "Matt's Breakfast Nook", "image_url": "https://s3-media3.fl.yelpcdn.com/bphoto/BBidKu4IzxWx95_oclff3w/o.jpg", "is_closed": false, "url": "https://www.yelp.com/biz/matts-breakfast-nook-west-brookfield?adjust_creative=HdhkN5EEH6lAqE3kwhsHEQ&utm_campaign=yelp_api_v3&utm_medium=api_v3_business_search&utm_source=HdhkN5EEH6lAqE3kwhsHEQ", "review_count": 1, "categories": [{"alias": "breakfast_brunch", "title": "Breakfast & Brunch"}], "rating": 5.0, "coordinates": {"latitude": 42.2351378, "longitude": -72.1417457}, "transactions": [], "location": {"address1": "8 E Main St", "address2": "", "address3": null, "city": "West Brookfield", "zip_code": "01585", "country": "US", "state": "MA", "display_address": ["8 E Main St", "West Brookfield, MA 01585"]}, "phone": "+15086371166", "display_phone": "(508) 637-1166", "distance": 6157.366349601291}, {"id": "JNRdBxmhf3BaiWwQX8VJmw", "alias": "jims-pizza-north-brookfield", "name": "Jim's Pizza", "image_url": "", "is_closed": false, "url": "https://www.yelp.com/biz/jims-pizza-north-brookfield?adjust_creative=HdhkN5EEH6lAqE3kwhsHEQ&utm_campaign=yelp_api_v3&utm_medium=api_v3_business_search&utm_source=HdhkN5EEH6lAqE3kwhsHEQ", "review_count": 14, "categories": [{"alias": "pizza", "title": "Pizza"}], "rating": 3.0, "coordinates": {"latitude": 42.269747, "longitude": -72.085661}, "transactions": [], "price": "$", "location": {"address1": "219 N Main St", "address2": "", "address3": "", "city": "North Brookfield", "zip_code": "01535", "country": "US", "state": "MA", "display_address": ["219 N Main St", "North Brookfield, MA 01535"]}, "phone": "+15088678373", "display_phone": "(508) 867-8373", "distance": 255.2226789282692}, {"id": "pMAyOdSf-r0M2Z2bdlpVQw", "alias": "yamato-asian-bistro-spencer", "name": "Yamato Asian Bistro", "image_url": "https://s3-media3.fl.yelpcdn.com/bphoto/-EGCOg_xmnRyvXecFXLq4g/o.jpg", "is_closed": false, "url": "https://www.yelp.com/biz/yamato-asian-bistro-spencer?adjust_creative=HdhkN5EEH6lAqE3kwhsHEQ&utm_campaign=yelp_api_v3&utm_medium=api_v3_business_search&utm_source=HdhkN5EEH6lAqE3kwhsHEQ", "review_count": 41, "categories": [{"alias": "asianfusion", "title": "Asian Fusion"}, {"alias": "sushi", "title": "Sushi Bars"}], "rating": 3.5, "coordinates": {"latitude": 42.23375, "longitude": -72.01408}, "transactions": [], "price": "$$", "location": {"address1": "62 West Main St", "address2": null, "address3": "", "city": "Spencer", "zip_code": "01562", "country": "US", "state": "MA", "display_address": ["62 West Main St", "Spencer, MA 01562"]}, "phone": "+15088855288", "display_phone": "(508) 885-5288", "distance": 6881.205389678459}, {"id": "t2YP9KwOFbufQ5CdDnGspw", "alias": "howards-drive-in-west-brookfield", "name": "Howards Drive In", "image_url": "https://s3-media1.fl.yelpcdn.com/bphoto/J29KRUefCK0T3bxmW4xEvw/o.jpg", "is_closed": false, "url": "https://www.yelp.com/biz/howards-drive-in-west-brookfield?adjust_creative=HdhkN5EEH6lAqE3kwhsHEQ&utm_campaign=yelp_api_v3&utm_medium=api_v3_business_search&utm_source=HdhkN5EEH6lAqE3kwhsHEQ", "review_count": 52, "categories": [{"alias": "tradamerican", "title": "American (Traditional)"}], "rating": 4.0, "coordinates": {"latitude": 42.2305, "longitude": -72.13282}, "transactions": [], "price": "$", "location": {"address1": "121 E Main St", "address2": "", "address3": "", "city": "West Brookfield", "zip_code": "01585", "country": "US", "state": "MA", "display_address": ["121 E Main St", "West Brookfield, MA 01585"]}, "phone": "+15088676504", "display_phone": "(508) 867-6504", "distance": 5950.05206906797}, {"id": "NMEGYN2drL_VPAUqu5fIbg", "alias": "spencer-country-inn-spencer", "name": "Spencer Country Inn", "image_url": "https://s3-media2.fl.yelpcdn.com/bphoto/3BGO0Zr2EpA4f7TvhONu9g/o.jpg", "is_closed": false, "url": "https://www.yelp.com/biz/spencer-country-inn-spencer?adjust_creative=HdhkN5EEH6lAqE3kwhsHEQ&utm_campaign=yelp_api_v3&utm_medium=api_v3_business_search&utm_source=HdhkN5EEH6lAqE3kwhsHEQ", "review_count": 20, "categories": [{"alias": "tradamerican", "title": "American (Traditional)"}, {"alias": "bedbreakfast", "title": "Bed & Breakfast"}], "rating": 3.5, "coordinates": {"latitude": 42.25504, "longitude": -71.95723}, "transactions": [], "price": "$$", "location": {"address1": "500 Main St", "address2": "", "address3": "", "city": "Spencer", "zip_code": "01562", "country": "US", "state": "MA", "display_address": ["500 Main St", "Spencer, MA 01562"]}, "phone": "+15088859036", "display_phone": "(508) 885-9036", "distance": 10417.300792785783}, {"id": "rNGs_-Ef-MWjnyQxMjarMw", "alias": "haymakers-grille-spencer", "name": "Haymakers Grille", "image_url": "https://s3-media4.fl.yelpcdn.com/bphoto/E72MqmerZQ4x1owwHKkuKQ/o.jpg", "is_closed": false, "url": "https://www.yelp.com/biz/haymakers-grille-spencer?adjust_creative=HdhkN5EEH6lAqE3kwhsHEQ&utm_campaign=yelp_api_v3&utm_medium=api_v3_business_search&utm_source=HdhkN5EEH6lAqE3kwhsHEQ", "review_count": 2, "categories": [{"alias": "tradamerican", "title": "American (Traditional)"}, {"alias": "breakfast_brunch", "title": "Breakfast & Brunch"}], "rating": 5.0, "coordinates": {"latitude": 42.243512, "longitude": -71.993321}, "transactions": [], "location": {"address1": "152 Main St", "address2": "", "address3": null, "city": "Spencer", "zip_code": "01562", "country": "US", "state": "MA", "display_address": ["152 Main St", "Spencer, MA 01562"]}, "phone": "+17747458095", "display_phone": "(774) 745-8095", "distance": 7881.173906867615}, {"id": "kRWGiUKxF_14PzZAgAo89A", "alias": "mexicali-cantina-grill-spencer", "name": "Mexicali Cantina Grill", "image_url": "https://s3-media1.fl.yelpcdn.com/bphoto/x0mEHm-y5XbQaW49354aIQ/o.jpg", "is_closed": false, "url": "https://www.yelp.com/biz/mexicali-cantina-grill-spencer?adjust_creative=HdhkN5EEH6lAqE3kwhsHEQ&utm_campaign=yelp_api_v3&utm_medium=api_v3_business_search&utm_source=HdhkN5EEH6lAqE3kwhsHEQ", "review_count": 103, "categories": [{"alias": "mexican", "title": "Mexican"}], "rating": 4.0, "coordinates": {"latitude": 42.244031, "longitude": -71.99444}, "transactions": ["delivery", "pickup"], "price": "$$", "location": {"address1": "117 Main St", "address2": "", "address3": "", "city": "Spencer", "zip_code": "01562", "country": "US", "state": "MA", "display_address": ["117 Main St", "Spencer, MA 01562"]}, "phone": "+17747458200", "display_phone": "(774) 745-8200", "distance": 7779.480359440688}, {"id": "KI0RQ0NbbiO7AM4I8fODxw", "alias": "still-four-corners-rutland", "name": "Still Four Corners", "image_url": "https://s3-media2.fl.yelpcdn.com/bphoto/sWMoxe_phH0KSQ0dBAewVg/o.jpg", "is_closed": false, "url": "https://www.yelp.com/biz/still-four-corners-rutland?adjust_creative=HdhkN5EEH6lAqE3kwhsHEQ&utm_campaign=yelp_api_v3&utm_medium=api_v3_business_search&utm_source=HdhkN5EEH6lAqE3kwhsHEQ", "review_count": 17, "categories": [{"alias": "seafood", "title": "Seafood"}, {"alias": "tradamerican", "title": "American (Traditional)"}], "rating": 4.0, "coordinates": {"latitude": 42.3497930914164, "longitude": -71.9850182533264}, "transactions": [], "price": "$", "location": {"address1": "224 Barre Paxton Rd", "address2": "", "address3": "", "city": "Rutland", "zip_code": "01543", "country": "US", "state": "MA", "display_address": ["224 Barre Paxton Rd", "Rutland, MA 01543"]}, "phone": "+15088866666", "display_phone": "(508) 886-6666", "distance": 12017.72628311696}, {"id": "77l6FoUUyafxTM1-c3SbJg", "alias": "chef-sau-restaurant-spencer", "name": "Chef Sau Restaurant", "image_url": "https://s3-media4.fl.yelpcdn.com/bphoto/bAZ4EsoOPNyBKn_Ex0UC4Q/o.jpg", "is_closed": false, "url": "https://www.yelp.com/biz/chef-sau-restaurant-spencer?adjust_creative=HdhkN5EEH6lAqE3kwhsHEQ&utm_campaign=yelp_api_v3&utm_medium=api_v3_business_search&utm_source=HdhkN5EEH6lAqE3kwhsHEQ", "review_count": 16, "categories": [{"alias": "chinese", "title": "Chinese"}], "rating": 4.0, "coordinates": {"latitude": 42.24369, "longitude": -71.99381}, "transactions": [], "price": "$$", "location": {"address1": "148 Main St", "address2": "", "address3": "", "city": "Spencer", "zip_code": "01562", "country": "US", "state": "MA", "display_address": ["148 Main St", "Spencer, MA 01562"]}, "phone": "+15088853995", "display_phone": "(508) 885-3995", "distance": 7842.617774534075}, {"id": "muaz7D4kw9jGxtkkO297mg", "alias": "five-loaves-bakery-spencer", "name": "Five Loaves Bakery", "image_url": "https://s3-media2.fl.yelpcdn.com/bphoto/ZmhW-JBIdDp6h0bQ9a6iTA/o.jpg", "is_closed": false, "url": "https://www.yelp.com/biz/five-loaves-bakery-spencer?adjust_creative=HdhkN5EEH6lAqE3kwhsHEQ&utm_campaign=yelp_api_v3&utm_medium=api_v3_business_search&utm_source=HdhkN5EEH6lAqE3kwhsHEQ", "review_count": 34, "categories": [{"alias": "bakeries", "title": "Bakeries"}, {"alias": "cafes", "title": "Cafes"}, {"alias": "tradamerican", "title": "American (Traditional)"}], "rating": 4.5, "coordinates": {"latitude": 42.2433319091797, "longitude": -71.9930953979492}, "transactions": [], "price": "$$", "location": {"address1": "13 Mechanic St", "address2": null, "address3": null, "city": "Spencer", "zip_code": "01562", "country": "US", "state": "MA", "display_address": ["13 Mechanic St", "Spencer, MA 01562"]}, "phone": "+15088853760", "display_phone": "(508) 885-3760", "distance": 7900.987671643183}, {"id": "J2AP-MgjxbhBr9ibXVvqWg", "alias": "harvest-grille-holden-2", "name": "Harvest Grille", "image_url": "https://s3-media2.fl.yelpcdn.com/bphoto/zSndpBCFSDAIuoVig4H4Gw/o.jpg", "is_closed": false, "url": "https://www.yelp.com/biz/harvest-grille-holden-2?adjust_creative=HdhkN5EEH6lAqE3kwhsHEQ&utm_campaign=yelp_api_v3&utm_medium=api_v3_business_search&utm_source=HdhkN5EEH6lAqE3kwhsHEQ", "review_count": 48, "categories": [{"alias": "seafood", "title": "Seafood"}, {"alias": "steak", "title": "Steakhouses"}, {"alias": "vegetarian", "title": "Vegetarian"}], "rating": 3.5, "coordinates": {"latitude": 42.3601057, "longitude": -71.8819848}, "transactions": [], "price": "$$", "location": {"address1": "1 Princeton St", "address2": "", "address3": "", "city": "Holden", "zip_code": "01522", "country": "US", "state": "MA", "display_address": ["1 Princeton St", "Holden, MA 01522"]}, "phone": "+17743454058", "display_phone": "(774) 345-4058", "distance": 19355.09144028242}, {"id": "ca3CuO8cgZFfGWYE-t25Qg", "alias": "lins-garden-west-brookfield", "name": "Lin's Garden", "image_url": "https://s3-media4.fl.yelpcdn.com/bphoto/rWLFqA6Nvg7NGPsGDcSTXw/o.jpg", "is_closed": false, "url": "https://www.yelp.com/biz/lins-garden-west-brookfield?adjust_creative=HdhkN5EEH6lAqE3kwhsHEQ&utm_campaign=yelp_api_v3&utm_medium=api_v3_business_search&utm_source=HdhkN5EEH6lAqE3kwhsHEQ", "review_count": 38, "categories": [{"alias": "chinese", "title": "Chinese"}, {"alias": "soup", "title": "Soup"}, {"alias": "ramen", "title": "Ramen"}], "rating": 3.5, "coordinates": {"latitude": 42.233873, "longitude": -72.157657}, "transactions": ["delivery", "pickup"], "price": "$$", "location": {"address1": "152 W Main St", "address2": null, "address3": null, "city": "West Brookfield", "zip_code": "01585", "country": "US", "state": "MA", "display_address": ["152 W Main St", "West Brookfield, MA 01585"]}, "phone": "+15088674499", "display_phone": "(508) 867-4499", "distance": 7290.868118476975}, {"id": "LMDM5k-YkN_rxeKHAFhXyQ", "alias": "e-b-flatts-east-brookfield", "name": "E.B. Flatts", "image_url": "https://s3-media2.fl.yelpcdn.com/bphoto/7dwd-U0nCvf74XXhwFKY2Q/o.jpg", "is_closed": false, "url": "https://www.yelp.com/biz/e-b-flatts-east-brookfield?adjust_creative=HdhkN5EEH6lAqE3kwhsHEQ&utm_campaign=yelp_api_v3&utm_medium=api_v3_business_search&utm_source=HdhkN5EEH6lAqE3kwhsHEQ", "review_count": 57, "categories": [{"alias": "tradamerican", "title": "American (Traditional)"}, {"alias": "breakfast_brunch", "title": "Breakfast & Brunch"}], "rating": 3.5, "coordinates": {"latitude": 42.2192947517887, "longitude": -72.0708427230705}, "transactions": [], "price": "$$", "location": {"address1": "245 W Main St Rte 9", "address2": "", "address3": "", "city": "East Brookfield", "zip_code": "01515", "country": "US", "state": "MA", "display_address": ["245 W Main St Rte 9", "East Brookfield, MA 01515"]}, "phone": "+15088676643", "display_phone": "(508) 867-6643", "distance": 5626.698518317258}, {"id": "yPx4L-3zWVT4bhD9wofJ0Q", "alias": "the-dashboard-diner-spencer", "name": "The Dashboard Diner", "image_url": "https://s3-media2.fl.yelpcdn.com/bphoto/eUHqsO9dzowr6TZxXLuwGg/o.jpg", "is_closed": false, "url": "https://www.yelp.com/biz/the-dashboard-diner-spencer?adjust_creative=HdhkN5EEH6lAqE3kwhsHEQ&utm_campaign=yelp_api_v3&utm_medium=api_v3_business_search&utm_source=HdhkN5EEH6lAqE3kwhsHEQ", "review_count": 7, "categories": [{"alias": "hotdog", "title": "Hot Dogs"}, {"alias": "burgers", "title": "Burgers"}, {"alias": "fishnchips", "title": "Fish & Chips"}], "rating": 5.0, "coordinates": {"latitude": 42.2376279610392, "longitude": -72.0048223919266}, "transactions": [], "price": "$", "location": {"address1": "6 W Main St", "address2": null, "address3": "", "city": "Spencer", "zip_code": "01562", "country": "US", "state": "MA", "display_address": ["6 W Main St", "Spencer, MA 01562"]}, "phone": "+15088645472", "display_phone": "(508) 864-5472", "distance": 7302.517196103748}, {"id": "Sp04BT3fIADzvBUnSHpMHg", "alias": "ladds-restaurant-rutland", "name": "Ladd's Restaurant", "image_url": "https://s3-media1.fl.yelpcdn.com/bphoto/NBRUhI-Xbl2Up5jzO5Gj1g/o.jpg", "is_closed": false, "url": "https://www.yelp.com/biz/ladds-restaurant-rutland?adjust_creative=HdhkN5EEH6lAqE3kwhsHEQ&utm_campaign=yelp_api_v3&utm_medium=api_v3_business_search&utm_source=HdhkN5EEH6lAqE3kwhsHEQ", "review_count": 43, "categories": [{"alias": "seafood", "title": "Seafood"}], "rating": 3.5, "coordinates": {"latitude": 42.33576, "longitude": -71.96584}, "transactions": [], "price": "$$", "location": {"address1": "64 Barre Paxton Rd", "address2": "", "address3": "", "city": "Rutland", "zip_code": "01543", "country": "US", "state": "MA", "display_address": ["64 Barre Paxton Rd", "Rutland, MA 01543"]}, "phone": "+15088864771", "display_phone": "(508) 886-4771", "distance": 12055.382752087366}, {"id": "Nb5fL0yMe1YUGQhMwEVsnA", "alias": "rise-n-shine-diner-east-brookfield", "name": "Rise N' Shine Diner", "image_url": "https://s3-media3.fl.yelpcdn.com/bphoto/pRz0fJ8uPJ4CgXUH9Wl-0w/o.jpg", "is_closed": false, "url": "https://www.yelp.com/biz/rise-n-shine-diner-east-brookfield?adjust_creative=HdhkN5EEH6lAqE3kwhsHEQ&utm_campaign=yelp_api_v3&utm_medium=api_v3_business_search&utm_source=HdhkN5EEH6lAqE3kwhsHEQ", "review_count": 6, "categories": [{"alias": "diners", "title": "Diners"}], "rating": 4.0, "coordinates": {"latitude": 42.219766, "longitude": -72.069581}, "transactions": [], "price": "$", "location": {"address1": "237 W Main St", "address2": null, "address3": null, "city": "East Brookfield", "zip_code": "01515", "country": "US", "state": "MA", "display_address": ["237 W Main St", "East Brookfield, MA 01515"]}, "phone": "+15088670034", "display_phone": "(508) 867-0034", "distance": 5594.170398374047}, {"id": "sv1DM6SpMcc2IdMCnqYZBg", "alias": "brookies-east-brookfield", "name": "Brookies", "image_url": "https://s3-media4.fl.yelpcdn.com/bphoto/2FfwT0DTSC7L6bNbZUIeKQ/o.jpg", "is_closed": false, "url": "https://www.yelp.com/biz/brookies-east-brookfield?adjust_creative=HdhkN5EEH6lAqE3kwhsHEQ&utm_campaign=yelp_api_v3&utm_medium=api_v3_business_search&utm_source=HdhkN5EEH6lAqE3kwhsHEQ", "review_count": 9, "categories": [{"alias": "burgers", "title": "Burgers"}], "rating": 5.0, "coordinates": {"latitude": 42.21592, "longitude": -72.07718}, "transactions": [], "price": "$$", "location": {"address1": "285 W Main St", "address2": "", "address3": "", "city": "East Brookfield", "zip_code": "01515", "country": "US", "state": "MA", "display_address": ["285 W Main St", "East Brookfield, MA 01515"]}, "phone": "+17742000537", "display_phone": "(774) 200-0537", "distance": 5933.835706386144}, {"id": "ydG7dmQFYzlPBzQuyTprXA", "alias": "the-clam-box-brookfield", "name": "The Clam Box", "image_url": "https://s3-media2.fl.yelpcdn.com/bphoto/Pqk2Fslfyhnap4IagwfaWA/o.jpg", "is_closed": false, "url": "https://www.yelp.com/biz/the-clam-box-brookfield?adjust_creative=HdhkN5EEH6lAqE3kwhsHEQ&utm_campaign=yelp_api_v3&utm_medium=api_v3_business_search&utm_source=HdhkN5EEH6lAqE3kwhsHEQ", "review_count": 55, "categories": [{"alias": "tradamerican", "title": "American (Traditional)"}, {"alias": "seafood", "title": "Seafood"}, {"alias": "burgers", "title": "Burgers"}], "rating": 3.0, "coordinates": {"latitude": 42.2111, "longitude": -72.085135}, "transactions": [], "price": "$$", "location": {"address1": "53 S Maple St", "address2": "", "address3": "", "city": "Brookfield", "zip_code": "01506", "country": "US", "state": "MA", "display_address": ["53 S Maple St", "Brookfield, MA 01506"]}, "phone": "+15086371790", "display_phone": "(508) 637-1790", "distance": 6449.897272990301}, {"id": "ldY_Cv8HJO2JO0XilE6SEQ", "alias": "schultz-country-store-and-barnside-cafe-rutland", "name": "Schultz Country Store and Barnside Cafe", "image_url": "https://s3-media2.fl.yelpcdn.com/bphoto/IuoYCq8rvfj4em-YsDN3AA/o.jpg", "is_closed": false, "url": "https://www.yelp.com/biz/schultz-country-store-and-barnside-cafe-rutland?adjust_creative=HdhkN5EEH6lAqE3kwhsHEQ&utm_campaign=yelp_api_v3&utm_medium=api_v3_business_search&utm_source=HdhkN5EEH6lAqE3kwhsHEQ", "review_count": 28, "categories": [{"alias": "attractionfarms", "title": "Attraction Farms"}, {"alias": "newamerican", "title": "American (New)"}], "rating": 4.5, "coordinates": {"latitude": 42.36017, "longitude": -71.9415}, "transactions": [], "price": "$", "location": {"address1": "163 Maple Ave", "address2": "", "address3": "", "city": "Rutland", "zip_code": "01543", "country": "US", "state": "MA", "display_address": ["163 Maple Ave", "Rutland, MA 01543"]}, "phone": "+17742340405", "display_phone": "(774) 234-0405", "distance": 15581.586763261013}, {"id": "_M9tO4EUkGSL4mtSnECcrA", "alias": "teresas-restaurant-ware", "name": "Teresa's Restaurant", "image_url": "https://s3-media2.fl.yelpcdn.com/bphoto/O7o53uFX5smk1gOJzuoCzw/o.jpg", "is_closed": false, "url": "https://www.yelp.com/biz/teresas-restaurant-ware?adjust_creative=HdhkN5EEH6lAqE3kwhsHEQ&utm_campaign=yelp_api_v3&utm_medium=api_v3_business_search&utm_source=HdhkN5EEH6lAqE3kwhsHEQ", "review_count": 48, "categories": [{"alias": "pizza", "title": "Pizza"}, {"alias": "italian", "title": "Italian"}, {"alias": "venues", "title": "Venues & Event Spaces"}], "rating": 3.5, "coordinates": {"latitude": 42.24245, "longitude": -72.274393}, "transactions": [], "price": "$$", "location": {"address1": "315 Palmer Rd", "address2": "", "address3": "", "city": "Ware", "zip_code": "01082", "country": "US", "state": "MA", "display_address": ["315 Palmer Rd", "Ware, MA 01082"]}, "phone": "+14139677601", "display_phone": "(413) 967-7601", "distance": 16055.334556077443}, {"id": "tDXg89_5CcaA1uw31YOgjg", "alias": "essence-of-india-ware", "name": "Essence Of India", "image_url": "", "is_closed": false, "url": "https://www.yelp.com/biz/essence-of-india-ware?adjust_creative=HdhkN5EEH6lAqE3kwhsHEQ&utm_campaign=yelp_api_v3&utm_medium=api_v3_business_search&utm_source=HdhkN5EEH6lAqE3kwhsHEQ", "review_count": 1, "categories": [{"alias": "hotdogs", "title": "Fast Food"}], "rating": 5.0, "coordinates": {"latitude": 51.8108, "longitude": -0.02983}, "transactions": [], "location": {"address1": "1A East Street", "address2": "", "address3": "", "city": "Ware", "zip_code": "SG12 9HJ", "country": "GB", "state": "HRT", "display_address": ["1A East Street", "Ware SG12 9HJ", "United Kingdom"]}, "phone": "+441920486148", "display_phone": "+44 1920 486148", "distance": 12571.649354590412}, {"id": "LHU-3f0kpPrG8cB7lkDhpw", "alias": "depot-square-deli-and-package-store-east-brookfield", "name": "Depot Square Deli &Package Store", "image_url": "https://s3-media3.fl.yelpcdn.com/bphoto/w5mkcnXJy8KCBx3a3AMLxw/o.jpg", "is_closed": false, "url": "https://www.yelp.com/biz/depot-square-deli-and-package-store-east-brookfield?adjust_creative=HdhkN5EEH6lAqE3kwhsHEQ&utm_campaign=yelp_api_v3&utm_medium=api_v3_business_search&utm_source=HdhkN5EEH6lAqE3kwhsHEQ", "review_count": 3, "categories": [{"alias": "desserts", "title": "Desserts"}, {"alias": "delis", "title": "Delis"}, {"alias": "sandwiches", "title": "Sandwiches"}], "rating": 5.0, "coordinates": {"latitude": 42.2256833290215, "longitude": -72.04646605713}, "transactions": [], "price": "$", "location": {"address1": "104 Pleasant St", "address2": "", "address3": "", "city": "East Brookfield", "zip_code": "01515", "country": "US", "state": "MA", "display_address": ["104 Pleasant St", "East Brookfield, MA 01515"]}, "phone": "+15088673412", "display_phone": "(508) 867-3412", "distance": 5676.632922987573}, {"id": "aGFyqgUCXsusLVNCxZCGBw", "alias": "apple-barn-cafe-brimfield", "name": "Apple Barn Cafe", "image_url": "https://s3-media4.fl.yelpcdn.com/bphoto/3I9H6VSB6Aj4r2Q4WefGhw/o.jpg", "is_closed": false, "url": "https://www.yelp.com/biz/apple-barn-cafe-brimfield?adjust_creative=HdhkN5EEH6lAqE3kwhsHEQ&utm_campaign=yelp_api_v3&utm_medium=api_v3_business_search&utm_source=HdhkN5EEH6lAqE3kwhsHEQ", "review_count": 31, "categories": [{"alias": "cafes", "title": "Cafes"}], "rating": 4.5, "coordinates": {"latitude": 42.120546, "longitude": -72.216371}, "transactions": [], "price": "$", "location": {"address1": "52 Palmer Rd", "address2": null, "address3": null, "city": "Brimfield", "zip_code": "01010", "country": "US", "state": "MA", "display_address": ["52 Palmer Rd", "Brimfield, MA 01010"]}, "phone": "+14132454575", "display_phone": "(413) 245-4575", "distance": 19856.80877737933}, {"id": "PtAMmv9zA1q6y2NuKQNtPA", "alias": "pig-park-bbq-ware", "name": "Pig Park BBQ", "image_url": "https://s3-media2.fl.yelpcdn.com/bphoto/Iwqx3PvTvW2yy2hGxH5R8Q/o.jpg", "is_closed": false, "url": "https://www.yelp.com/biz/pig-park-bbq-ware?adjust_creative=HdhkN5EEH6lAqE3kwhsHEQ&utm_campaign=yelp_api_v3&utm_medium=api_v3_business_search&utm_source=HdhkN5EEH6lAqE3kwhsHEQ", "review_count": 13, "categories": [{"alias": "bbq", "title": "Barbeque"}], "rating": 4.0, "coordinates": {"latitude": 42.2599379693609, "longitude": -72.2281836193848}, "transactions": [], "price": "$$", "location": {"address1": "97 East St Rt 9", "address2": "", "address3": "Various Locations", "city": "Ware", "zip_code": "01082", "country": "US", "state": "MA", "display_address": ["97 East St Rt 9", "Various Locations", "Ware, MA 01082"]}, "phone": "+14135444712", "display_phone": "(413) 544-4712", "distance": 12017.634885496329}, {"id": "nO0WHyU8hH-fZox4vFx_Tw", "alias": "trolley-stop-restaurant-east-brookfield", "name": "Trolley Stop Restaurant", "image_url": "https://s3-media3.fl.yelpcdn.com/bphoto/ssiKoGUtgz6GULs3biiPxw/o.jpg", "is_closed": false, "url": "https://www.yelp.com/biz/trolley-stop-restaurant-east-brookfield?adjust_creative=HdhkN5EEH6lAqE3kwhsHEQ&utm_campaign=yelp_api_v3&utm_medium=api_v3_business_search&utm_source=HdhkN5EEH6lAqE3kwhsHEQ", "review_count": 7, "categories": [{"alias": "breakfast_brunch", "title": "Breakfast & Brunch"}], "rating": 3.5, "coordinates": {"latitude": 42.226512, "longitude": -72.047706}, "transactions": [], "price": "$", "location": {"address1": "294 E Main St", "address2": "", "address3": "", "city": "East Brookfield", "zip_code": "01515", "country": "US", "state": "MA", "display_address": ["294 E Main St", "East Brookfield, MA 01515"]}, "phone": "+15088675995", "display_phone": "(508) 867-5995", "distance": 5547.194274005632}, {"id": "0u096yYEmPF_74mcDYKFOQ", "alias": "panda-garden-2-east-brookfield", "name": "Panda Garden 2", "image_url": "https://s3-media1.fl.yelpcdn.com/bphoto/F8G-Hgio3ROhaSmbX4d81w/o.jpg", "is_closed": false, "url": "https://www.yelp.com/biz/panda-garden-2-east-brookfield?adjust_creative=HdhkN5EEH6lAqE3kwhsHEQ&utm_campaign=yelp_api_v3&utm_medium=api_v3_business_search&utm_source=HdhkN5EEH6lAqE3kwhsHEQ", "review_count": 13, "categories": [{"alias": "chinese", "title": "Chinese"}], "rating": 3.0, "coordinates": {"latitude": 42.219459, "longitude": -72.070868}, "transactions": [], "location": {"address1": "237 W Main St", "address2": "", "address3": "", "city": "East Brookfield", "zip_code": "01515", "country": "US", "state": "MA", "display_address": ["237 W Main St", "East Brookfield, MA 01515"]}, "phone": "+15088673799", "display_phone": "(508) 867-3799", "distance": 5600.237597400549}, {"id": "ZNH4DMILk2mdeYDM5GDfVw", "alias": "wrights-fish-and-chips-ware", "name": "Wrights Fish & Chips", "image_url": "", "is_closed": false, "url": "https://www.yelp.com/biz/wrights-fish-and-chips-ware?adjust_creative=HdhkN5EEH6lAqE3kwhsHEQ&utm_campaign=yelp_api_v3&utm_medium=api_v3_business_search&utm_source=HdhkN5EEH6lAqE3kwhsHEQ", "review_count": 3, "categories": [{"alias": "fishnchips", "title": "Fish & Chips"}], "rating": 3.0, "coordinates": {"latitude": 51.8108, "longitude": -0.02983}, "transactions": [], "location": {"address1": "3 East Street", "address2": "", "address3": "", "city": "Ware", "zip_code": "SG12 9HJ", "country": "GB", "state": "HRT", "display_address": ["3 East Street", "Ware SG12 9HJ", "United Kingdom"]}, "phone": "+441920462888", "display_phone": "+44 1920 462888", "distance": 12975.793858128241}, {"id": "Ta3RtU27BULz8gypO2tz1g", "alias": "kostas-cafe-spencer", "name": "Kosta's Cafe", "image_url": "https://s3-media2.fl.yelpcdn.com/bphoto/dkpRMEOYS-1GgEgkVplqwA/o.jpg", "is_closed": false, "url": "https://www.yelp.com/biz/kostas-cafe-spencer?adjust_creative=HdhkN5EEH6lAqE3kwhsHEQ&utm_campaign=yelp_api_v3&utm_medium=api_v3_business_search&utm_source=HdhkN5EEH6lAqE3kwhsHEQ", "review_count": 40, "categories": [{"alias": "breakfast_brunch", "title": "Breakfast & Brunch"}, {"alias": "coffee", "title": "Coffee & Tea"}], "rating": 4.0, "coordinates": {"latitude": 42.246032, "longitude": -71.995498}, "transactions": [], "price": "$", "location": {"address1": "31 Pleasant St", "address2": "", "address3": "", "city": "Spencer", "zip_code": "01562", "country": "US", "state": "MA", "display_address": ["31 Pleasant St", "Spencer, MA 01562"]}, "phone": "+15088857705", "display_phone": "(508) 885-7705", "distance": 7620.308009436948}, {"id": "NPQI9o4Gru4P1FYqfJ_NcA", "alias": "yummy-garden-barre", "name": "Yummy Garden", "image_url": "https://s3-media4.fl.yelpcdn.com/bphoto/uGJpVlkiNkjd5rYt23MpRA/o.jpg", "is_closed": false, "url": "https://www.yelp.com/biz/yummy-garden-barre?adjust_creative=HdhkN5EEH6lAqE3kwhsHEQ&utm_campaign=yelp_api_v3&utm_medium=api_v3_business_search&utm_source=HdhkN5EEH6lAqE3kwhsHEQ", "review_count": 17, "categories": [{"alias": "chinese", "title": "Chinese"}], "rating": 4.0, "coordinates": {"latitude": 42.3842252790928, "longitude": -72.098863273859}, "transactions": [], "price": "$", "location": {"address1": "57 Main St", "address2": "", "address3": "", "city": "Barre", "zip_code": "01005", "country": "US", "state": "MA", "display_address": ["57 Main St", "Barre, MA 01005"]}, "phone": "+19783552022", "display_phone": "(978) 355-2022", "distance": 12831.158559695272}, {"id": "USutlpAeiWDKGUnbOxz_HA", "alias": "debbie-wong-ware", "name": "Debbie Wong", "image_url": "https://s3-media4.fl.yelpcdn.com/bphoto/e5sprMEJfRyWwY1CoJryiQ/o.jpg", "is_closed": false, "url": "https://www.yelp.com/biz/debbie-wong-ware?adjust_creative=HdhkN5EEH6lAqE3kwhsHEQ&utm_campaign=yelp_api_v3&utm_medium=api_v3_business_search&utm_source=HdhkN5EEH6lAqE3kwhsHEQ", "review_count": 24, "categories": [{"alias": "chinese", "title": "Chinese"}], "rating": 4.0, "coordinates": {"latitude": 42.2601, "longitude": -72.24562}, "transactions": [], "price": "$$", "location": {"address1": "54 W Main St", "address2": "", "address3": "", "city": "Ware", "zip_code": "01082", "country": "US", "state": "MA", "display_address": ["54 W Main St", "Ware, MA 01082"]}, "phone": "+14139673336", "display_phone": "(413) 967-3336", "distance": 13443.924817248477}, {"id": "Yom8r1dLF2HMO5aSwII0Lw", "alias": "charlies-diner-spencer", "name": "Charlies Diner", "image_url": "https://s3-media4.fl.yelpcdn.com/bphoto/Luprqfrv0Q_XSTQkE10zqQ/o.jpg", "is_closed": false, "url": "https://www.yelp.com/biz/charlies-diner-spencer?adjust_creative=HdhkN5EEH6lAqE3kwhsHEQ&utm_campaign=yelp_api_v3&utm_medium=api_v3_business_search&utm_source=HdhkN5EEH6lAqE3kwhsHEQ", "review_count": 99, "categories": [{"alias": "diners", "title": "Diners"}], "rating": 3.0, "coordinates": {"latitude": 42.237049280598, "longitude": -72.010635589954}, "transactions": [], "price": "$$", "location": {"address1": "5 Meadow Rd", "address2": null, "address3": null, "city": "Spencer", "zip_code": "01562", "country": "US", "state": "MA", "display_address": ["5 Meadow Rd", "Spencer, MA 01562"]}, "phone": "+15088854033", "display_phone": "(508) 885-4033", "distance": 6919.522851472695}, {"id": "nB8kYU2SLIJHpHy3HskVDA", "alias": "mexicali-cantina-grill-ware", "name": "Mexicali Cantina Grill", "image_url": "https://s3-media3.fl.yelpcdn.com/bphoto/--DwcVl27eu8ZhHc0vgjZg/o.jpg", "is_closed": false, "url": "https://www.yelp.com/biz/mexicali-cantina-grill-ware?adjust_creative=HdhkN5EEH6lAqE3kwhsHEQ&utm_campaign=yelp_api_v3&utm_medium=api_v3_business_search&utm_source=HdhkN5EEH6lAqE3kwhsHEQ", "review_count": 68, "categories": [{"alias": "mexican", "title": "Mexican"}], "rating": 4.0, "coordinates": {"latitude": 42.2555114, "longitude": -72.2521185}, "transactions": [], "price": "$$", "location": {"address1": "146 West St", "address2": "", "address3": "", "city": "Ware", "zip_code": "01082", "country": "US", "state": "MA", "display_address": ["146 West St", "Ware, MA 01082"]}, "phone": "+14132770925", "display_phone": "(413) 277-0925", "distance": 14026.161327121352}, {"id": "s8ifd_imgK2jH0m0eZDntQ", "alias": "georges-pizza-and-subs-west-brookfield", "name": "George's Pizza and Subs", "image_url": "https://s3-media4.fl.yelpcdn.com/bphoto/Ch0ooY7hZwaElbMHeHk4Yw/o.jpg", "is_closed": false, "url": "https://www.yelp.com/biz/georges-pizza-and-subs-west-brookfield?adjust_creative=HdhkN5EEH6lAqE3kwhsHEQ&utm_campaign=yelp_api_v3&utm_medium=api_v3_business_search&utm_source=HdhkN5EEH6lAqE3kwhsHEQ", "review_count": 27, "categories": [{"alias": "salad", "title": "Salad"}, {"alias": "pizza", "title": "Pizza"}, {"alias": "sandwiches", "title": "Sandwiches"}], "rating": 3.5, "coordinates": {"latitude": 42.2348093, "longitude": -72.1424106}, "transactions": [], "price": "$", "location": {"address1": "4 East Main St", "address2": "", "address3": "", "city": "West Brookfield", "zip_code": "01585", "country": "US", "state": "MA", "display_address": ["4 East Main St", "West Brookfield, MA 01585"]}, "phone": "+15088678100", "display_phone": "(508) 867-8100", "distance": 6224.314342558675}, {"id": "UDJ3fIh3TjsVrKBFDLzLKg", "alias": "spencer-pizza-house-spencer", "name": "Spencer Pizza House", "image_url": "https://s3-media1.fl.yelpcdn.com/bphoto/GiQku7izwr1tz1zuQliGOw/o.jpg", "is_closed": false, "url": "https://www.yelp.com/biz/spencer-pizza-house-spencer?adjust_creative=HdhkN5EEH6lAqE3kwhsHEQ&utm_campaign=yelp_api_v3&utm_medium=api_v3_business_search&utm_source=HdhkN5EEH6lAqE3kwhsHEQ", "review_count": 16, "categories": [{"alias": "pizza", "title": "Pizza"}, {"alias": "seafood", "title": "Seafood"}, {"alias": "sandwiches", "title": "Sandwiches"}], "rating": 4.5, "coordinates": {"latitude": 42.24288, "longitude": -71.99309}, "transactions": [], "price": "$", "location": {"address1": "19 Mechanic St", "address2": "", "address3": "", "city": "Spencer", "zip_code": "01562", "country": "US", "state": "MA", "display_address": ["19 Mechanic St", "Spencer, MA 01562"]}, "phone": "+15088850000", "display_phone": "(508) 885-0000", "distance": 7923.345580629755}, {"id": "vlFtM9aSiPijxP6nYuRHvA", "alias": "reeds-country-store-new-braintree", "name": "Reed's Country Store", "image_url": "", "is_closed": false, "url": "https://www.yelp.com/biz/reeds-country-store-new-braintree?adjust_creative=HdhkN5EEH6lAqE3kwhsHEQ&utm_campaign=yelp_api_v3&utm_medium=api_v3_business_search&utm_source=HdhkN5EEH6lAqE3kwhsHEQ", "review_count": 3, "categories": [{"alias": "tradamerican", "title": "American (Traditional)"}], "rating": 3.0, "coordinates": {"latitude": 42.3236541748047, "longitude": -72.1021881103516}, "transactions": [], "price": "$", "location": {"address1": "753 Barre Rd", "address2": "", "address3": "", "city": "New Braintree", "zip_code": "01531", "country": "US", "state": "MA", "display_address": ["753 Barre Rd", "New Braintree, MA 01531"]}, "phone": "+15088679512", "display_phone": "(508) 867-9512", "distance": 6271.432408011829}, {"id": "K0o9LxfijA6wNfKOBUdgVg", "alias": "j-and-j-family-restaurant-barre", "name": "J & J Family Restaurant", "image_url": "https://s3-media3.fl.yelpcdn.com/bphoto/hP0oshzQyKCXLeWljCmuMg/o.jpg", "is_closed": false, "url": "https://www.yelp.com/biz/j-and-j-family-restaurant-barre?adjust_creative=HdhkN5EEH6lAqE3kwhsHEQ&utm_campaign=yelp_api_v3&utm_medium=api_v3_business_search&utm_source=HdhkN5EEH6lAqE3kwhsHEQ", "review_count": 10, "categories": [{"alias": "tradamerican", "title": "American (Traditional)"}], "rating": 4.0, "coordinates": {"latitude": 42.391973, "longitude": -72.0819719}, "transactions": [], "price": "$$", "location": {"address1": "815 Worcester Rd", "address2": "", "address3": "", "city": "Barre", "zip_code": "01005", "country": "US", "state": "MA", "display_address": ["815 Worcester Rd", "Barre, MA 01005"]}, "phone": "+19783552122", "display_phone": "(978) 355-2122", "distance": 13659.244778470154}, {"id": "0GF5VFxjfJZqJ3lb69RZbQ", "alias": "uncle-sams-pizza-east-brookfield", "name": "Uncle Sam's Pizza", "image_url": "https://s3-media3.fl.yelpcdn.com/bphoto/rJTXt0bkE5p4q83tG5v0cw/o.jpg", "is_closed": false, "url": "https://www.yelp.com/biz/uncle-sams-pizza-east-brookfield?adjust_creative=HdhkN5EEH6lAqE3kwhsHEQ&utm_campaign=yelp_api_v3&utm_medium=api_v3_business_search&utm_source=HdhkN5EEH6lAqE3kwhsHEQ", "review_count": 11, "categories": [{"alias": "pizza", "title": "Pizza"}], "rating": 3.0, "coordinates": {"latitude": 42.22993, "longitude": -72.0374}, "transactions": [], "price": "$", "location": {"address1": "400 E Main St", "address2": "", "address3": "", "city": "East Brookfield", "zip_code": "01515", "country": "US", "state": "MA", "display_address": ["400 E Main St", "East Brookfield, MA 01515"]}, "phone": "+15088855019", "display_phone": "(508) 885-5019", "distance": 5781.338215702636}, {"id": "vmneGdXXMuwZ9lHfDAvtZg", "alias": "subway-north-brookfield-3", "name": "Subway", "image_url": "https://s3-media4.fl.yelpcdn.com/bphoto/9KjpYjzDWKMP1NWSCBnLYw/o.jpg", "is_closed": false, "url": "https://www.yelp.com/biz/subway-north-brookfield-3?adjust_creative=HdhkN5EEH6lAqE3kwhsHEQ&utm_campaign=yelp_api_v3&utm_medium=api_v3_business_search&utm_source=HdhkN5EEH6lAqE3kwhsHEQ", "review_count": 1, "categories": [{"alias": "sandwiches", "title": "Sandwiches"}], "rating": 5.0, "coordinates": {"latitude": 42.268020271248, "longitude": -72.0853124141208}, "transactions": [], "price": "$", "location": {"address1": "163 N Main St", "address2": "", "address3": "", "city": "North Brookfield", "zip_code": "01535", "country": "US", "state": "MA", "display_address": ["163 N Main St", "North Brookfield, MA 01535"]}, "phone": "+15088678800", "display_phone": "(508) 867-8800", "distance": 250.03989831179032}, {"id": "J5BRVzL0o2u4tCkUZUUM2Q", "alias": "kozy-kabin-restaurant-barre", "name": "Kozy Kabin Restaurant", "image_url": "https://s3-media2.fl.yelpcdn.com/bphoto/MCNZ8x6RognRL9SP6zIbPQ/o.jpg", "is_closed": false, "url": "https://www.yelp.com/biz/kozy-kabin-restaurant-barre?adjust_creative=HdhkN5EEH6lAqE3kwhsHEQ&utm_campaign=yelp_api_v3&utm_medium=api_v3_business_search&utm_source=HdhkN5EEH6lAqE3kwhsHEQ", "review_count": 3, "categories": [{"alias": "restaurants", "title": "Restaurants"}], "rating": 3.5, "coordinates": {"latitude": 42.3913459777832, "longitude": -72.0739517211914}, "transactions": [], "price": "$", "location": {"address1": "1067 Worcester Rd", "address2": "", "address3": "", "city": "Barre", "zip_code": "01005", "country": "US", "state": "MA", "display_address": ["1067 Worcester Rd", "Barre, MA 01005"]}, "phone": "+19783556264", "display_phone": "(978) 355-6264", "distance": 13608.42542005073}, {"id": "V8Bl2d1bY-F2RrqFUBheAQ", "alias": "barbers-crossing-roadhouse-leicester", "name": "Barbers Crossing Roadhouse", "image_url": "https://s3-media4.fl.yelpcdn.com/bphoto/pcDZwJpW-l1zlAEXoCXBug/o.jpg", "is_closed": false, "url": "https://www.yelp.com/biz/barbers-crossing-roadhouse-leicester?adjust_creative=HdhkN5EEH6lAqE3kwhsHEQ&utm_campaign=yelp_api_v3&utm_medium=api_v3_business_search&utm_source=HdhkN5EEH6lAqE3kwhsHEQ", "review_count": 38, "categories": [{"alias": "tradamerican", "title": "American (Traditional)"}], "rating": 2.5, "coordinates": {"latitude": 42.2457809, "longitude": -71.8983307}, "transactions": ["delivery"], "price": "$$", "location": {"address1": "861 Main St", "address2": null, "address3": null, "city": "Leicester", "zip_code": "01524", "country": "US", "state": "MA", "display_address": ["861 Main St", "Leicester, MA 01524"]}, "phone": "+15088927575", "display_phone": "(508) 892-7575", "distance": 15432.614451281455}, {"id": "1rd3Z8l2Ldh5GS2nhNintA", "alias": "rose32-bread-gilbertville", "name": "Rose32 Bread", "image_url": "https://s3-media1.fl.yelpcdn.com/bphoto/CYAKfGeh5XCrTses4exOhw/o.jpg", "is_closed": false, "url": "https://www.yelp.com/biz/rose32-bread-gilbertville?adjust_creative=HdhkN5EEH6lAqE3kwhsHEQ&utm_campaign=yelp_api_v3&utm_medium=api_v3_business_search&utm_source=HdhkN5EEH6lAqE3kwhsHEQ", "review_count": 85, "categories": [{"alias": "bakeries", "title": "Bakeries"}, {"alias": "breakfast_brunch", "title": "Breakfast & Brunch"}, {"alias": "tradamerican", "title": "American (Traditional)"}], "rating": 4.5, "coordinates": {"latitude": 42.304067, "longitude": -72.211452}, "transactions": [], "price": "$$", "location": {"address1": "412 Main St", "address2": "", "address3": "", "city": "Gilbertville", "zip_code": "01031", "country": "US", "state": "MA", "display_address": ["412 Main St", "Gilbertville, MA 01031"]}, "phone": "+14134779930", "display_phone": "(413) 477-9930", "distance": 11283.232643477759}, {"id": "4Jt27guQdNKXH3pJ9u1m5A", "alias": "barre-mill-restaurant-south-barre-3", "name": "Barre Mill Restaurant", "image_url": "https://s3-media4.fl.yelpcdn.com/bphoto/VIfSRtantMJBsa2O3hE2IQ/o.jpg", "is_closed": false, "url": "https://www.yelp.com/biz/barre-mill-restaurant-south-barre-3?adjust_creative=HdhkN5EEH6lAqE3kwhsHEQ&utm_campaign=yelp_api_v3&utm_medium=api_v3_business_search&utm_source=HdhkN5EEH6lAqE3kwhsHEQ", "review_count": 12, "categories": [{"alias": "italian", "title": "Italian"}, {"alias": "pizza", "title": "Pizza"}, {"alias": "tradamerican", "title": "American (Traditional)"}], "rating": 2.5, "coordinates": {"latitude": 42.3840348, "longitude": -72.1004294}, "transactions": [], "price": "$$", "location": {"address1": "90 Main St", "address2": null, "address3": null, "city": "South Barre", "zip_code": "01074", "country": "US", "state": "MA", "display_address": ["90 Main St", "South Barre, MA 01074"]}, "phone": "+19783552987", "display_phone": "(978) 355-2987", "distance": 12859.56247160723}, {"id": "ASqs5IuqWyJLaWwaup9O9A", "alias": "ronnies-seafood-charlton", "name": "Ronnie's Seafood", "image_url": "https://s3-media3.fl.yelpcdn.com/bphoto/ygwuQVkT925ZrZe9DXdPcg/o.jpg", "is_closed": false, "url": "https://www.yelp.com/biz/ronnies-seafood-charlton?adjust_creative=HdhkN5EEH6lAqE3kwhsHEQ&utm_campaign=yelp_api_v3&utm_medium=api_v3_business_search&utm_source=HdhkN5EEH6lAqE3kwhsHEQ", "review_count": 40, "categories": [{"alias": "seafood", "title": "Seafood"}], "rating": 4.0, "coordinates": {"latitude": 42.171999, "longitude": -71.977685}, "transactions": ["delivery"], "price": "$$", "location": {"address1": "208 City Depot Rd", "address2": "", "address3": "", "city": "Charlton", "zip_code": "01507", "country": "US", "state": "MA", "display_address": ["208 City Depot Rd", "Charlton, MA 01507"]}, "phone": "+15082485024", "display_phone": "(508) 248-5024", "distance": 13834.748419011406}, {"id": "LHP2JAuE1TK-XXxy-xJ1HQ", "alias": "j-anthonys-italian-grill-auburn", "name": "J Anthony's Italian Grill", "image_url": "https://s3-media2.fl.yelpcdn.com/bphoto/zajxnM2tzf3rkWRgSrdIdA/o.jpg", "is_closed": false, "url": "https://www.yelp.com/biz/j-anthonys-italian-grill-auburn?adjust_creative=HdhkN5EEH6lAqE3kwhsHEQ&utm_campaign=yelp_api_v3&utm_medium=api_v3_business_search&utm_source=HdhkN5EEH6lAqE3kwhsHEQ", "review_count": 98, "categories": [{"alias": "italian", "title": "Italian"}, {"alias": "venues", "title": "Venues & Event Spaces"}], "rating": 3.0, "coordinates": {"latitude": 42.17315, "longitude": -71.87819}, "transactions": ["delivery"], "price": "$$", "location": {"address1": "917 Southbridge St", "address2": null, "address3": "", "city": "Auburn", "zip_code": "01501", "country": "US", "state": "MA", "display_address": ["917 Southbridge St", "Auburn, MA 01501"]}, "phone": "+15088329705", "display_phone": "(508) 832-9705", "distance": 19936.457275519064}, {"id": "UP47x1auB-PfbtfdKrvzoA", "alias": "buddys-leicester", "name": "Buddy's", "image_url": "https://s3-media2.fl.yelpcdn.com/bphoto/nuOnR8z2P-OGmlZVTV6dgg/o.jpg", "is_closed": false, "url": "https://www.yelp.com/biz/buddys-leicester?adjust_creative=HdhkN5EEH6lAqE3kwhsHEQ&utm_campaign=yelp_api_v3&utm_medium=api_v3_business_search&utm_source=HdhkN5EEH6lAqE3kwhsHEQ", "review_count": 6, "categories": [{"alias": "tradamerican", "title": "American (Traditional)"}], "rating": 3.0, "coordinates": {"latitude": 42.19471, "longitude": -71.90606}, "transactions": [], "price": "$", "location": {"address1": "1080 Stafford St", "address2": "", "address3": null, "city": "Leicester", "zip_code": "01542", "country": "US", "state": "MA", "display_address": ["1080 Stafford St", "Leicester, MA 01542"]}, "phone": "+15088929087", "display_phone": "(508) 892-9087", "distance": 16731.199557106433}, {"id": "M5Simi8q6gjwA9yngORcwg", "alias": "lazers-pizza-and-roast-beef-ware-2", "name": "Lazer's Pizza & Roast Beef", "image_url": "https://s3-media3.fl.yelpcdn.com/bphoto/W3Nh_WssTaimpn0_96xA6w/o.jpg", "is_closed": false, "url": "https://www.yelp.com/biz/lazers-pizza-and-roast-beef-ware-2?adjust_creative=HdhkN5EEH6lAqE3kwhsHEQ&utm_campaign=yelp_api_v3&utm_medium=api_v3_business_search&utm_source=HdhkN5EEH6lAqE3kwhsHEQ", "review_count": 27, "categories": [{"alias": "pizza", "title": "Pizza"}], "rating": 4.5, "coordinates": {"latitude": 42.2599814229054, "longitude": -72.2400694034169}, "transactions": [], "price": "$", "location": {"address1": "41 Main St", "address2": "", "address3": "", "city": "Ware", "zip_code": "01082", "country": "US", "state": "MA", "display_address": ["41 Main St", "Ware, MA 01082"]}, "phone": "+14139673181", "display_phone": "(413) 967-3181", "distance": 12992.045136704002}, {"id": "pV8zeBYV-_DeOM-YoS6DGg", "alias": "kps-breakfast-and-lunch-rutland", "name": "Kp's Breakfast and Lunch", "image_url": "https://s3-media2.fl.yelpcdn.com/bphoto/Ir308fRcoOu7-mYiX8Qyqw/o.jpg", "is_closed": false, "url": "https://www.yelp.com/biz/kps-breakfast-and-lunch-rutland?adjust_creative=HdhkN5EEH6lAqE3kwhsHEQ&utm_campaign=yelp_api_v3&utm_medium=api_v3_business_search&utm_source=HdhkN5EEH6lAqE3kwhsHEQ", "review_count": 25, "categories": [{"alias": "breakfast_brunch", "title": "Breakfast & Brunch"}], "rating": 4.5, "coordinates": {"latitude": 42.379295, "longitude": -71.955873}, "transactions": [], "price": "$", "location": {"address1": "24 Pommogussett Rd", "address2": "", "address3": "", "city": "Rutland", "zip_code": "01543", "country": "US", "state": "MA", "display_address": ["24 Pommogussett Rd", "Rutland, MA 01543"]}, "phone": "+15088866408", "display_phone": "(508) 886-6408", "distance": 16086.231146620188}, {"id": "2BIeNbfudbD_sPWyDv0pNQ", "alias": "masons-grille-warren", "name": "Mason's Grille", "image_url": "https://s3-media2.fl.yelpcdn.com/bphoto/KA3N3PP2O1OO_iykU_NoDw/o.jpg", "is_closed": false, "url": "https://www.yelp.com/biz/masons-grille-warren?adjust_creative=HdhkN5EEH6lAqE3kwhsHEQ&utm_campaign=yelp_api_v3&utm_medium=api_v3_business_search&utm_source=HdhkN5EEH6lAqE3kwhsHEQ", "review_count": 15, "categories": [{"alias": "breakfast_brunch", "title": "Breakfast & Brunch"}], "rating": 4.0, "coordinates": {"latitude": 42.2128038938205, "longitude": -72.1945668384433}, "transactions": [], "price": "$", "location": {"address1": "14 Milton Fountain Way", "address2": "", "address3": null, "city": "Warren", "zip_code": "01083", "country": "US", "state": "MA", "display_address": ["14 Milton Fountain Way", "Warren, MA 01083"]}, "phone": "+14134368042", "display_phone": "(413) 436-8042", "distance": 11139.036489277678}, {"id": "weSMNlLoYuqL2wXmNHOsKQ", "alias": "paxton-house-of-pizza-paxton", "name": "Paxton House of Pizza", "image_url": "https://s3-media4.fl.yelpcdn.com/bphoto/7E5XtqnuTIER8n6jMCIG9Q/o.jpg", "is_closed": false, "url": "https://www.yelp.com/biz/paxton-house-of-pizza-paxton?adjust_creative=HdhkN5EEH6lAqE3kwhsHEQ&utm_campaign=yelp_api_v3&utm_medium=api_v3_business_search&utm_source=HdhkN5EEH6lAqE3kwhsHEQ", "review_count": 11, "categories": [{"alias": "pizza", "title": "Pizza"}], "rating": 4.5, "coordinates": {"latitude": 42.31029, "longitude": -71.92717}, "transactions": ["delivery"], "location": {"address1": "677 Pleasant St", "address2": "", "address3": "", "city": "Paxton", "zip_code": "01612", "country": "US", "state": "MA", "display_address": ["677 Pleasant St", "Paxton, MA 01612"]}, "phone": "+15087556680", "display_phone": "(508) 755-6680", "distance": 13575.332367261384}, {"id": "I0zvQlGF1--ymQeJcxTO2A", "alias": "nikos-pizza-ware", "name": "Niko's Pizza", "image_url": "https://s3-media4.fl.yelpcdn.com/bphoto/icDNBI1khs1fOAC3cVhvZw/o.jpg", "is_closed": false, "url": "https://www.yelp.com/biz/nikos-pizza-ware?adjust_creative=HdhkN5EEH6lAqE3kwhsHEQ&utm_campaign=yelp_api_v3&utm_medium=api_v3_business_search&utm_source=HdhkN5EEH6lAqE3kwhsHEQ", "review_count": 6, "categories": [{"alias": "pizza", "title": "Pizza"}, {"alias": "greek", "title": "Greek"}], "rating": 4.0, "coordinates": {"latitude": 42.260562, "longitude": -72.242328}, "transactions": [], "price": "$$", "location": {"address1": "118 Main St", "address2": "", "address3": null, "city": "Ware", "zip_code": "01082", "country": "US", "state": "MA", "display_address": ["118 Main St", "Ware, MA 01082"]}, "phone": "+14139670436", "display_phone": "(413) 967-0436", "distance": 13172.451972004317}, {"id": "5IZFgYz6DyePQmLgLc5d-A", "alias": "quarter-keg-pub-charlton", "name": "Quarter Keg Pub", "image_url": "", "is_closed": false, "url": "https://www.yelp.com/biz/quarter-keg-pub-charlton?adjust_creative=HdhkN5EEH6lAqE3kwhsHEQ&utm_campaign=yelp_api_v3&utm_medium=api_v3_business_search&utm_source=HdhkN5EEH6lAqE3kwhsHEQ", "review_count": 1, "categories": [{"alias": "restaurants", "title": "Restaurants"}], "rating": 3.0, "coordinates": {"latitude": 42.1543617248535, "longitude": -71.9163665771484}, "transactions": [], "price": "$", "location": {"address1": "443 Worcester Rd", "address2": "", "address3": "", "city": "Charlton", "zip_code": "01507", "country": "US", "state": "MA", "display_address": ["443 Worcester Rd", "Charlton, MA 01507"]}, "phone": "+15082483191", "display_phone": "(508) 248-3191", "distance": 18727.84728991283}, {"id": "ZrccFWIGcH3YEsu1sS5Efw", "alias": "meiji-asian-cuisine-north-oxford", "name": "Meiji Asian Cuisine", "image_url": "https://s3-media4.fl.yelpcdn.com/bphoto/eT0AvhVVvqIP8-y2P_f8ew/o.jpg", "is_closed": false, "url": "https://www.yelp.com/biz/meiji-asian-cuisine-north-oxford?adjust_creative=HdhkN5EEH6lAqE3kwhsHEQ&utm_campaign=yelp_api_v3&utm_medium=api_v3_business_search&utm_source=HdhkN5EEH6lAqE3kwhsHEQ", "review_count": 51, "categories": [{"alias": "japanese", "title": "Japanese"}, {"alias": "sushi", "title": "Sushi Bars"}, {"alias": "chinese", "title": "Chinese"}], "rating": 3.5, "coordinates": {"latitude": 42.1646220982075, "longitude": -71.8916565924883}, "transactions": ["delivery", "pickup"], "price": "$$", "location": {"address1": "24 Leicester St", "address2": "", "address3": "", "city": "North Oxford", "zip_code": "01537", "country": "US", "state": "MA", "display_address": ["24 Leicester St", "North Oxford, MA 01537"]}, "phone": "+15087310120", "display_phone": "(508) 731-0120", "distance": 19573.13262308773}, {"id": "49Hp1NIeXJD2GYOtcAqsLQ", "alias": "wings-and-company-leicester", "name": "Wings & Company", "image_url": "https://s3-media2.fl.yelpcdn.com/bphoto/OOgmmgsmNjFEfr1A_luvKg/o.jpg", "is_closed": false, "url": "https://www.yelp.com/biz/wings-and-company-leicester?adjust_creative=HdhkN5EEH6lAqE3kwhsHEQ&utm_campaign=yelp_api_v3&utm_medium=api_v3_business_search&utm_source=HdhkN5EEH6lAqE3kwhsHEQ", "review_count": 15, "categories": [{"alias": "chicken_wings", "title": "Chicken Wings"}, {"alias": "chickenshop", "title": "Chicken Shop"}, {"alias": "sandwiches", "title": "Sandwiches"}], "rating": 3.5, "coordinates": {"latitude": 42.2461340494495, "longitude": -71.908789537847}, "transactions": ["delivery"], "price": "$$", "location": {"address1": "1072 Main St", "address2": "", "address3": "", "city": "Leicester", "zip_code": "01524", "country": "US", "state": "MA", "display_address": ["1072 Main St", "Leicester, MA 01524"]}, "phone": "+15088925550", "display_phone": "(508) 892-5550", "distance": 14536.986996602178}, {"id": "5Reotu9GfyMCaMcAC4ET0w", "alias": "east-brookfield-pizza-east-brookfield", "name": "East Brookfield Pizza", "image_url": "https://s3-media1.fl.yelpcdn.com/bphoto/basBKLvUpIDlq39TVjad6w/o.jpg", "is_closed": false, "url": "https://www.yelp.com/biz/east-brookfield-pizza-east-brookfield?adjust_creative=HdhkN5EEH6lAqE3kwhsHEQ&utm_campaign=yelp_api_v3&utm_medium=api_v3_business_search&utm_source=HdhkN5EEH6lAqE3kwhsHEQ", "review_count": 8, "categories": [{"alias": "pizza", "title": "Pizza"}], "rating": 3.5, "coordinates": {"latitude": 42.226144, "longitude": -72.047749}, "transactions": [], "price": "$$", "location": {"address1": "289 East Main St", "address2": null, "address3": null, "city": "East Brookfield", "zip_code": "01515", "country": "US", "state": "MA", "display_address": ["289 East Main St", "East Brookfield, MA 01515"]}, "phone": "+15088678777", "display_phone": "(508) 867-8777", "distance": 5577.946015772095}, {"id": "sZ0p22_iFpei323pgUw8tQ", "alias": "old-village-grille-fiskdale", "name": "Old Village Grille", "image_url": "https://s3-media3.fl.yelpcdn.com/bphoto/RssS41UL5bJws7tgFmEnAA/o.jpg", "is_closed": false, "url": "https://www.yelp.com/biz/old-village-grille-fiskdale?adjust_creative=HdhkN5EEH6lAqE3kwhsHEQ&utm_campaign=yelp_api_v3&utm_medium=api_v3_business_search&utm_source=HdhkN5EEH6lAqE3kwhsHEQ", "review_count": 86, "categories": [{"alias": "breakfast_brunch", "title": "Breakfast & Brunch"}], "rating": 4.5, "coordinates": {"latitude": 42.1167144775391, "longitude": -72.1180419921875}, "transactions": [], "price": "$$", "location": {"address1": "25 Brookfield Rd", "address2": "", "address3": "", "city": "Fiskdale", "zip_code": "01518", "country": "US", "state": "MA", "display_address": ["25 Brookfield Rd", "Fiskdale, MA 01518"]}, "phone": "+15083472255", "display_phone": "(508) 347-2255", "distance": 17189.63895259747}, {"id": "CQ3cd6hWaPGm8JuLvTAgfg", "alias": "oxford-market-north-oxford-2", "name": "Oxford Market", "image_url": "https://s3-media3.fl.yelpcdn.com/bphoto/3zueavCiQ3SUinF0_l_uIA/o.jpg", "is_closed": false, "url": "https://www.yelp.com/biz/oxford-market-north-oxford-2?adjust_creative=HdhkN5EEH6lAqE3kwhsHEQ&utm_campaign=yelp_api_v3&utm_medium=api_v3_business_search&utm_source=HdhkN5EEH6lAqE3kwhsHEQ", "review_count": 5, "categories": [{"alias": "delis", "title": "Delis"}, {"alias": "convenience", "title": "Convenience Stores"}], "rating": 4.0, "coordinates": {"latitude": 42.1600687786239, "longitude": -71.8837795780417}, "transactions": [], "location": {"address1": "676 N Main St", "address2": "", "address3": null, "city": "North Oxford", "zip_code": "01537", "country": "US", "state": "MA", "display_address": ["676 N Main St", "North Oxford, MA 01537"]}, "phone": "+15087316042", "display_phone": "(508) 731-6042", "distance": 20380.6014678705}, {"id": "JDJEMD0M4Q0l31-YS0mC-w", "alias": "northeast-pizza-west-brookfield", "name": "Northeast Pizza", "image_url": "https://s3-media2.fl.yelpcdn.com/bphoto/JY4uYYJAdshPFLYGjWeFjw/o.jpg", "is_closed": false, "url": "https://www.yelp.com/biz/northeast-pizza-west-brookfield?adjust_creative=HdhkN5EEH6lAqE3kwhsHEQ&utm_campaign=yelp_api_v3&utm_medium=api_v3_business_search&utm_source=HdhkN5EEH6lAqE3kwhsHEQ", "review_count": 12, "categories": [{"alias": "pizza", "title": "Pizza"}], "rating": 2.0, "coordinates": {"latitude": 42.2389831542969, "longitude": -72.1653747558594}, "transactions": [], "price": "$", "location": {"address1": "208 W Main St", "address2": null, "address3": null, "city": "West Brookfield", "zip_code": "01585", "country": "US", "state": "MA", "display_address": ["208 W Main St", "West Brookfield, MA 01585"]}, "phone": "+15088679567", "display_phone": "(508) 867-9567", "distance": 7584.247870198777}, {"id": "8RnBXTS9l6P_J3YBFGP8tA", "alias": "milk-and-sugar-cafe-charlton", "name": "Milk & Sugar Cafe", "image_url": "https://s3-media4.fl.yelpcdn.com/bphoto/TvkLIvAFdqogjIYUSY2SiQ/o.jpg", "is_closed": false, "url": "https://www.yelp.com/biz/milk-and-sugar-cafe-charlton?adjust_creative=HdhkN5EEH6lAqE3kwhsHEQ&utm_campaign=yelp_api_v3&utm_medium=api_v3_business_search&utm_source=HdhkN5EEH6lAqE3kwhsHEQ", "review_count": 1, "categories": [{"alias": "cafes", "title": "Cafes"}, {"alias": "coffee", "title": "Coffee & Tea"}, {"alias": "breakfast_brunch", "title": "Breakfast & Brunch"}], "rating": 5.0, "coordinates": {"latitude": 42.146816, "longitude": -71.98802}, "transactions": [], "location": {"address1": "7 Brookfield Rd", "address2": "", "address3": null, "city": "Charlton", "zip_code": "01507", "country": "US", "state": "MA", "display_address": ["7 Brookfield Rd", "Charlton, MA 01507"]}, "phone": "+15084340727", "display_phone": "(508) 434-0727", "distance": 15676.865342120649}, {"id": "Oa9YXvAs50RB-Xhc2BwXlg", "alias": "mimis-coffeehouse-of-hardwick-hardwick", "name": "Mimi's CoffeeHouse Of Hardwick", "image_url": "https://s3-media4.fl.yelpcdn.com/bphoto/NMlDkOX7whn4nYEiejmeSg/o.jpg", "is_closed": false, "url": "https://www.yelp.com/biz/mimis-coffeehouse-of-hardwick-hardwick?adjust_creative=HdhkN5EEH6lAqE3kwhsHEQ&utm_campaign=yelp_api_v3&utm_medium=api_v3_business_search&utm_source=HdhkN5EEH6lAqE3kwhsHEQ", "review_count": 3, "categories": [{"alias": "coffee", "title": "Coffee & Tea"}, {"alias": "breakfast_brunch", "title": "Breakfast & Brunch"}, {"alias": "sandwiches", "title": "Sandwiches"}], "rating": 4.5, "coordinates": {"latitude": 42.3486171468542, "longitude": -72.1993167786787}, "transactions": [], "price": "$$", "location": {"address1": "14 Barre Rd", "address2": "", "address3": null, "city": "Hardwick", "zip_code": "01037", "country": "US", "state": "MA", "display_address": ["14 Barre Rd", "Hardwick, MA 01037"]}, "phone": "+14134771144", "display_phone": "(413) 477-1144", "distance": 13042.902103047989}, {"id": "AbtBV17tzg0-IqHnydKqsw", "alias": "francescos-restaurant-brimfield", "name": "Francesco's Restaurant", "image_url": "https://s3-media1.fl.yelpcdn.com/bphoto/1EZ14aKOmBthUK6d94z7Zg/o.jpg", "is_closed": false, "url": "https://www.yelp.com/biz/francescos-restaurant-brimfield?adjust_creative=HdhkN5EEH6lAqE3kwhsHEQ&utm_campaign=yelp_api_v3&utm_medium=api_v3_business_search&utm_source=HdhkN5EEH6lAqE3kwhsHEQ", "review_count": 42, "categories": [{"alias": "italian", "title": "Italian"}, {"alias": "pizza", "title": "Pizza"}], "rating": 3.5, "coordinates": {"latitude": 42.1200899, "longitude": -72.2150277}, "transactions": [], "price": "$$", "location": {"address1": "45 Palmer Rd", "address2": "", "address3": "", "city": "Brimfield", "zip_code": "01010", "country": "US", "state": "MA", "display_address": ["45 Palmer Rd", "Brimfield, MA 01010"]}, "phone": "+14132454640", "display_phone": "(413) 245-4640", "distance": 19838.01201135546}, {"id": "PWkP3vd_SJxEyh5xbYfJ-A", "alias": "pizza-hut-spencer-7", "name": "Pizza Hut", "image_url": "https://s3-media3.fl.yelpcdn.com/bphoto/hTGz8wP4UAjVvGJneraX9w/o.jpg", "is_closed": false, "url": "https://www.yelp.com/biz/pizza-hut-spencer-7?adjust_creative=HdhkN5EEH6lAqE3kwhsHEQ&utm_campaign=yelp_api_v3&utm_medium=api_v3_business_search&utm_source=HdhkN5EEH6lAqE3kwhsHEQ", "review_count": 3, "categories": [{"alias": "pizza", "title": "Pizza"}, {"alias": "italian", "title": "Italian"}], "rating": 4.0, "coordinates": {"latitude": 42.2333170257464, "longitude": -72.0150576948935}, "transactions": [], "price": "$", "location": {"address1": "62 W Main St", "address2": "", "address3": "", "city": "Spencer", "zip_code": "01562", "country": "US", "state": "MA", "display_address": ["62 W Main St", "Spencer, MA 01562"]}, "phone": "+15088855345", "display_phone": "(508) 885-5345", "distance": 6843.370054407605}, {"id": "uLvlyJle6VxAdZyw5wGqKg", "alias": "astronaut-pizza-house-ware", "name": "Astronaut Pizza House", "image_url": "https://s3-media1.fl.yelpcdn.com/bphoto/hnCmjlVlZG-RPFldt0QL7A/o.jpg", "is_closed": false, "url": "https://www.yelp.com/biz/astronaut-pizza-house-ware?adjust_creative=HdhkN5EEH6lAqE3kwhsHEQ&utm_campaign=yelp_api_v3&utm_medium=api_v3_business_search&utm_source=HdhkN5EEH6lAqE3kwhsHEQ", "review_count": 8, "categories": [{"alias": "pizza", "title": "Pizza"}], "rating": 2.5, "coordinates": {"latitude": 42.251477, "longitude": -72.258679}, "transactions": [], "price": "$$", "location": {"address1": "197 West St", "address2": "", "address3": "", "city": "Ware", "zip_code": "01082", "country": "US", "state": "MA", "display_address": ["197 West St", "Ware, MA 01082"]}, "phone": "+14139675685", "display_phone": "(413) 967-5685", "distance": 14616.929055535185}, {"id": "KnJIbX__Sh1jW2XOu1wfQA", "alias": "united-china-restaurant-ware", "name": "United China Restaurant", "image_url": "https://s3-media2.fl.yelpcdn.com/bphoto/uYRYVKANPSbSYi59nvdg-Q/o.jpg", "is_closed": false, "url": "https://www.yelp.com/biz/united-china-restaurant-ware?adjust_creative=HdhkN5EEH6lAqE3kwhsHEQ&utm_campaign=yelp_api_v3&utm_medium=api_v3_business_search&utm_source=HdhkN5EEH6lAqE3kwhsHEQ", "review_count": 10, "categories": [{"alias": "chinese", "title": "Chinese"}], "rating": 2.5, "coordinates": {"latitude": 42.25453, "longitude": -72.25311}, "transactions": [], "price": "$", "location": {"address1": "164 West St", "address2": "", "address3": "", "city": "Ware", "zip_code": "01082", "country": "US", "state": "MA", "display_address": ["164 West St", "Ware, MA 01082"]}, "phone": "+14139670311", "display_phone": "(413) 967-0311", "distance": 14134.882088283855}, {"id": "xuNN23A2qEoy3AkH7M6ytQ", "alias": "dairy-queen-grill-and-chill-spencer", "name": "Dairy Queen Grill & Chill", "image_url": "https://s3-media4.fl.yelpcdn.com/bphoto/jzL6q6MxKOihP9Yv4L5K_Q/o.jpg", "is_closed": false, "url": "https://www.yelp.com/biz/dairy-queen-grill-and-chill-spencer?adjust_creative=HdhkN5EEH6lAqE3kwhsHEQ&utm_campaign=yelp_api_v3&utm_medium=api_v3_business_search&utm_source=HdhkN5EEH6lAqE3kwhsHEQ", "review_count": 15, "categories": [{"alias": "icecream", "title": "Ice Cream & Frozen Yogurt"}, {"alias": "hotdogs", "title": "Fast Food"}, {"alias": "burgers", "title": "Burgers"}], "rating": 3.5, "coordinates": {"latitude": 42.2501839275466, "longitude": -71.9803109765053}, "transactions": [], "price": "$", "location": {"address1": "291 Main St", "address2": "", "address3": "", "city": "Spencer", "zip_code": "01562", "country": "US", "state": "MA", "display_address": ["291 Main St", "Spencer, MA 01562"]}, "phone": "+15088852748", "display_phone": "(508) 885-2748", "distance": 8683.418728852172}, {"id": "8r4ilmXIWyFI5Xu_zR5ILA", "alias": "asian-garden-ware", "name": "Asian Garden", "image_url": "https://s3-media4.fl.yelpcdn.com/bphoto/E45FppSufn2iRvshzJY6Yw/o.jpg", "is_closed": false, "url": "https://www.yelp.com/biz/asian-garden-ware?adjust_creative=HdhkN5EEH6lAqE3kwhsHEQ&utm_campaign=yelp_api_v3&utm_medium=api_v3_business_search&utm_source=HdhkN5EEH6lAqE3kwhsHEQ", "review_count": 24, "categories": [{"alias": "chinese", "title": "Chinese"}, {"alias": "asianfusion", "title": "Asian Fusion"}], "rating": 4.0, "coordinates": {"latitude": 42.255543, "longitude": -72.249445}, "transactions": [], "price": "$$", "location": {"address1": "124 West St", "address2": "Ste 4", "address3": "", "city": "Ware", "zip_code": "01082", "country": "US", "state": "MA", "display_address": ["124 West St", "Ste 4", "Ware, MA 01082"]}, "phone": "+14132770725", "display_phone": "(413) 277-0725", "distance": 13816.683030202026}, {"id": "rXAGuM-Kjt2pW8r4wk3TtA", "alias": "cheoylee-leicester-2", "name": "CheoyLee", "image_url": "https://s3-media2.fl.yelpcdn.com/bphoto/59aNekdPqmwG5ZnAYf_ooQ/o.jpg", "is_closed": false, "url": "https://www.yelp.com/biz/cheoylee-leicester-2?adjust_creative=HdhkN5EEH6lAqE3kwhsHEQ&utm_campaign=yelp_api_v3&utm_medium=api_v3_business_search&utm_source=HdhkN5EEH6lAqE3kwhsHEQ", "review_count": 14, "categories": [{"alias": "chinese", "title": "Chinese"}], "rating": 3.5, "coordinates": {"latitude": 42.244172, "longitude": -71.916669}, "transactions": ["delivery"], "price": "$$", "location": {"address1": "1205 Main St", "address2": null, "address3": null, "city": "Leicester", "zip_code": "01524", "country": "US", "state": "MA", "display_address": ["1205 Main St", "Leicester, MA 01524"]}, "phone": "+15088928441", "display_phone": "(508) 892-8441", "distance": 13941.102210398769}, {"id": "A14Eypr5kImN1lKqXeiMKQ", "alias": "charlton-house-of-pizza-and-seafood-charlton", "name": "Charlton House Of Pizza & Seafood", "image_url": "https://s3-media4.fl.yelpcdn.com/bphoto/JDkb410WWA3TZIPJ_DegqQ/o.jpg", "is_closed": false, "url": "https://www.yelp.com/biz/charlton-house-of-pizza-and-seafood-charlton?adjust_creative=HdhkN5EEH6lAqE3kwhsHEQ&utm_campaign=yelp_api_v3&utm_medium=api_v3_business_search&utm_source=HdhkN5EEH6lAqE3kwhsHEQ", "review_count": 6, "categories": [{"alias": "pizza", "title": "Pizza"}, {"alias": "seafood", "title": "Seafood"}], "rating": 3.5, "coordinates": {"latitude": 42.13713, "longitude": -71.97024}, "transactions": ["delivery"], "location": {"address1": "109 Masonic Home Rd", "address2": null, "address3": "", "city": "Charlton", "zip_code": "01507", "country": "US", "state": "MA", "display_address": ["109 Masonic Home Rd", "Charlton, MA 01507"]}, "phone": "+15084341666", "display_phone": "(508) 434-1666", "distance": 17322.27111341371}, {"id": "SAq6WWA5MZOd2kYdvAbq1g", "alias": "joes-drive-in-restaurant-leicester-2", "name": "Joe's Drive-In Restaurant", "image_url": "https://s3-media1.fl.yelpcdn.com/bphoto/woWYoNT40FBr5AVuaPJ1rw/o.jpg", "is_closed": false, "url": "https://www.yelp.com/biz/joes-drive-in-restaurant-leicester-2?adjust_creative=HdhkN5EEH6lAqE3kwhsHEQ&utm_campaign=yelp_api_v3&utm_medium=api_v3_business_search&utm_source=HdhkN5EEH6lAqE3kwhsHEQ", "review_count": 11, "categories": [{"alias": "icecream", "title": "Ice Cream & Frozen Yogurt"}, {"alias": "burgers", "title": "Burgers"}, {"alias": "fishnchips", "title": "Fish & Chips"}], "rating": 3.0, "coordinates": {"latitude": 42.249895, "longitude": -71.942238}, "transactions": [], "location": {"address1": "1673 Main St Rte 9", "address2": null, "address3": "", "city": "Leicester", "zip_code": "01524", "country": "US", "state": "MA", "display_address": ["1673 Main St Rte 9", "Leicester, MA 01524"]}, "phone": "+15088921900", "display_phone": "(508) 892-1900", "distance": 11753.478730260347}, {"id": "9UQg8YZ4jXCLz9tcShEDpw", "alias": "castle-restaurant-leicester", "name": "Castle Restaurant", "image_url": "https://s3-media3.fl.yelpcdn.com/bphoto/-7nsDnvr2kAFDSHYftrZ3w/o.jpg", "is_closed": false, "url": "https://www.yelp.com/biz/castle-restaurant-leicester?adjust_creative=HdhkN5EEH6lAqE3kwhsHEQ&utm_campaign=yelp_api_v3&utm_medium=api_v3_business_search&utm_source=HdhkN5EEH6lAqE3kwhsHEQ", "review_count": 80, "categories": [{"alias": "french", "title": "French"}, {"alias": "newamerican", "title": "American (New)"}, {"alias": "tradamerican", "title": "American (Traditional)"}], "rating": 3.5, "coordinates": {"latitude": 42.24453, "longitude": -71.91685}, "transactions": ["delivery"], "price": "$$", "location": {"address1": "1230 Main St", "address2": "", "address3": "", "city": "Leicester", "zip_code": "01524", "country": "US", "state": "MA", "display_address": ["1230 Main St", "Leicester, MA 01524"]}, "phone": "+15088929090", "display_phone": "(508) 892-9090", "distance": 13954.444969146372}, {"id": "korFZpunosGkNq5HYJkuhg", "alias": "johns-pizza-spencer", "name": "John's Pizza", "image_url": "https://s3-media2.fl.yelpcdn.com/bphoto/WK44ri8DaBsfonFXQwUrdg/o.jpg", "is_closed": false, "url": "https://www.yelp.com/biz/johns-pizza-spencer?adjust_creative=HdhkN5EEH6lAqE3kwhsHEQ&utm_campaign=yelp_api_v3&utm_medium=api_v3_business_search&utm_source=HdhkN5EEH6lAqE3kwhsHEQ", "review_count": 23, "categories": [{"alias": "pizza", "title": "Pizza"}], "rating": 3.0, "coordinates": {"latitude": 42.24354, "longitude": -71.99274}, "transactions": [], "price": "$$", "location": {"address1": "158 Main St", "address2": "Ste 3", "address3": "", "city": "Spencer", "zip_code": "01562", "country": "US", "state": "MA", "display_address": ["158 Main St", "Ste 3", "Spencer, MA 01562"]}, "phone": "+15088856936", "display_phone": "(508) 885-6936", "distance": 7938.630021612437}, {"id": "emJp6zdSuOZAofvjYunFRA", "alias": "farmhouse-diner-leicester", "name": "Farmhouse Diner", "image_url": "", "is_closed": false, "url": "https://www.yelp.com/biz/farmhouse-diner-leicester?adjust_creative=HdhkN5EEH6lAqE3kwhsHEQ&utm_campaign=yelp_api_v3&utm_medium=api_v3_business_search&utm_source=HdhkN5EEH6lAqE3kwhsHEQ", "review_count": 1, "categories": [{"alias": "diners", "title": "Diners"}], "rating": 1.0, "coordinates": {"latitude": 42.245451, "longitude": -71.907035}, "transactions": [], "location": {"address1": "15 S Main St", "address2": null, "address3": "", "city": "Leicester", "zip_code": "01524", "country": "US", "state": "MA", "display_address": ["15 S Main St", "Leicester, MA 01524"]}, "phone": "+15088923222", "display_phone": "(508) 892-3222", "distance": 14687.094282445347}, {"id": "zO6XVdcnBaFIiG9rxdKVrw", "alias": "heavy-evies-diner-rutland", "name": "Heavy Evie's Diner", "image_url": "https://s3-media4.fl.yelpcdn.com/bphoto/5l2DxKoKM-oothvoLdGDag/o.jpg", "is_closed": false, "url": "https://www.yelp.com/biz/heavy-evies-diner-rutland?adjust_creative=HdhkN5EEH6lAqE3kwhsHEQ&utm_campaign=yelp_api_v3&utm_medium=api_v3_business_search&utm_source=HdhkN5EEH6lAqE3kwhsHEQ", "review_count": 18, "categories": [{"alias": "diners", "title": "Diners"}], "rating": 4.0, "coordinates": {"latitude": 42.3768478631973, "longitude": -71.9532662630081}, "transactions": [], "price": "$", "location": {"address1": "2 Maple Ave", "address2": "", "address3": "", "city": "Rutland", "zip_code": "01543", "country": "US", "state": "MA", "display_address": ["2 Maple Ave", "Rutland, MA 01543"]}, "phone": "+17742340600", "display_phone": "(774) 234-0600", "distance": 16028.606968907994}, {"id": "caZ_VkDE5opTNQ_uHR-p9w", "alias": "yangs-kitchen-rutland", "name": "Yang's Kitchen", "image_url": "https://s3-media4.fl.yelpcdn.com/bphoto/u4SrZuWsCj2U69mblu8mVg/o.jpg", "is_closed": false, "url": "https://www.yelp.com/biz/yangs-kitchen-rutland?adjust_creative=HdhkN5EEH6lAqE3kwhsHEQ&utm_campaign=yelp_api_v3&utm_medium=api_v3_business_search&utm_source=HdhkN5EEH6lAqE3kwhsHEQ", "review_count": 16, "categories": [{"alias": "chinese", "title": "Chinese"}], "rating": 3.5, "coordinates": {"latitude": 42.3760185, "longitude": -71.954483}, "transactions": [], "price": "$", "location": {"address1": "249 Main St", "address2": "Ste 2", "address3": null, "city": "Rutland", "zip_code": "01543", "country": "US", "state": "MA", "display_address": ["249 Main St", "Ste 2", "Rutland, MA 01543"]}, "phone": "+15088862228", "display_phone": "(508) 886-2228", "distance": 15874.151019511417}, {"id": "r1C8KX4OhXsqePPEoaYEzQ", "alias": "hot-dog-annies-leicester-2", "name": "Hot Dog Annie's", "image_url": "https://s3-media2.fl.yelpcdn.com/bphoto/8hvm9DdLQhKP5kJWSinPQw/o.jpg", "is_closed": false, "url": "https://www.yelp.com/biz/hot-dog-annies-leicester-2?adjust_creative=HdhkN5EEH6lAqE3kwhsHEQ&utm_campaign=yelp_api_v3&utm_medium=api_v3_business_search&utm_source=HdhkN5EEH6lAqE3kwhsHEQ", "review_count": 87, "categories": [{"alias": "hotdog", "title": "Hot Dogs"}], "rating": 3.5, "coordinates": {"latitude": 42.2604565, "longitude": -71.9088738}, "transactions": ["delivery"], "price": "$", "location": {"address1": "244 Paxton St", "address2": "", "address3": "", "city": "Leicester", "zip_code": "01524", "country": "US", "state": "MA", "display_address": ["244 Paxton St", "Leicester, MA 01524"]}, "phone": "+15088929059", "display_phone": "(508) 892-9059", "distance": 14360.535810995625}, {"id": "5LnJZPd5i8WaQaZSyBzxlw", "alias": "georges-pizza-and-subs-charlton-2", "name": "George's Pizza & Subs", "image_url": "https://s3-media4.fl.yelpcdn.com/bphoto/yakVXZqs_knjbkKEe3wAcA/o.jpg", "is_closed": false, "url": "https://www.yelp.com/biz/georges-pizza-and-subs-charlton-2?adjust_creative=HdhkN5EEH6lAqE3kwhsHEQ&utm_campaign=yelp_api_v3&utm_medium=api_v3_business_search&utm_source=HdhkN5EEH6lAqE3kwhsHEQ", "review_count": 10, "categories": [{"alias": "pizza", "title": "Pizza"}, {"alias": "seafood", "title": "Seafood"}, {"alias": "chicken_wings", "title": "Chicken Wings"}], "rating": 2.5, "coordinates": {"latitude": 42.14948, "longitude": -71.98911}, "transactions": ["delivery"], "location": {"address1": "9 City Depot Rd", "address2": "", "address3": null, "city": "Charlton", "zip_code": "01507", "country": "US", "state": "MA", "display_address": ["9 City Depot Rd", "Charlton, MA 01507"]}, "phone": "+15082482048", "display_phone": "(508) 248-2048", "distance": 15374.258222040655}, {"id": "a337zkmoaGIJGUApn46wGA", "alias": "d-angelo-natick-2", "name": "D'Angelo", "image_url": "https://s3-media1.fl.yelpcdn.com/bphoto/uS3563JIhI5YPG4UJJNZHw/o.jpg", "is_closed": false, "url": "https://www.yelp.com/biz/d-angelo-natick-2?adjust_creative=HdhkN5EEH6lAqE3kwhsHEQ&utm_campaign=yelp_api_v3&utm_medium=api_v3_business_search&utm_source=HdhkN5EEH6lAqE3kwhsHEQ", "review_count": 2, "categories": [{"alias": "sandwiches", "title": "Sandwiches"}], "rating": 3.0, "coordinates": {"latitude": 42.1565304953665, "longitude": -71.9640567173507}, "transactions": [], "location": {"address1": "117 Mass Turnpike W", "address2": "", "address3": "", "city": "Natick", "zip_code": "02062", "country": "US", "state": "MA", "display_address": ["117 Mass Turnpike W", "Natick, MA 02062"]}, "phone": "+15086552958", "display_phone": "(508) 655-2958", "distance": 15880.84289812149}, {"id": "nyhbSselfpJd_ajuEVYNAw", "alias": "uno-pizzeria-and-grill-sturbridge", "name": "Uno Pizzeria & Grill", "image_url": "https://s3-media4.fl.yelpcdn.com/bphoto/kjxDZ4P5Gk_DHqC8H3RBXw/o.jpg", "is_closed": false, "url": "https://www.yelp.com/biz/uno-pizzeria-and-grill-sturbridge?adjust_creative=HdhkN5EEH6lAqE3kwhsHEQ&utm_campaign=yelp_api_v3&utm_medium=api_v3_business_search&utm_source=HdhkN5EEH6lAqE3kwhsHEQ", "review_count": 64, "categories": [{"alias": "pizza", "title": "Pizza"}, {"alias": "gluten_free", "title": "Gluten-Free"}, {"alias": "tradamerican", "title": "American (Traditional)"}], "rating": 3.0, "coordinates": {"latitude": 42.124927, "longitude": -72.058578}, "transactions": ["delivery", "pickup"], "price": "$$", "location": {"address1": "100 Charlton Rd", "address2": "", "address3": "", "city": "Sturbridge", "zip_code": "01566", "country": "US", "state": "MA", "display_address": ["100 Charlton Rd", "Sturbridge, MA 01566"]}, "phone": "+15083476420", "display_phone": "(508) 347-6420", "distance": 16157.37687689835}, {"id": "dS4Lx9m7zrHypNavr7UqGQ", "alias": "theos-breakfast-and-lunch-paxton", "name": "Theo's Breakfast & Lunch", "image_url": "https://s3-media3.fl.yelpcdn.com/bphoto/zK_hngL0DaX4UP3OiWFkTw/o.jpg", "is_closed": false, "url": "https://www.yelp.com/biz/theos-breakfast-and-lunch-paxton?adjust_creative=HdhkN5EEH6lAqE3kwhsHEQ&utm_campaign=yelp_api_v3&utm_medium=api_v3_business_search&utm_source=HdhkN5EEH6lAqE3kwhsHEQ", "review_count": 27, "categories": [{"alias": "breakfast_brunch", "title": "Breakfast & Brunch"}], "rating": 4.5, "coordinates": {"latitude": 42.310719, "longitude": -71.927681}, "transactions": ["delivery"], "price": "$", "location": {"address1": "681 Pleasant St", "address2": "", "address3": "", "city": "Paxton", "zip_code": "01612", "country": "US", "state": "MA", "display_address": ["681 Pleasant St", "Paxton, MA 01612"]}, "phone": "+15084591330", "display_phone": "(508) 459-1330", "distance": 13561.483507063083}, {"id": "EFpZHYF6TjVrXTXaWzjQ7A", "alias": "family-house-of-pizza-and-seafood-charlton", "name": "Family House of Pizza & Seafood", "image_url": "https://s3-media3.fl.yelpcdn.com/bphoto/Iz30Dowh5etAodvEKZrpdQ/o.jpg", "is_closed": false, "url": "https://www.yelp.com/biz/family-house-of-pizza-and-seafood-charlton?adjust_creative=HdhkN5EEH6lAqE3kwhsHEQ&utm_campaign=yelp_api_v3&utm_medium=api_v3_business_search&utm_source=HdhkN5EEH6lAqE3kwhsHEQ", "review_count": 10, "categories": [{"alias": "seafood", "title": "Seafood"}], "rating": 2.5, "coordinates": {"latitude": 42.1375465393066, "longitude": -71.9712905883789}, "transactions": ["delivery"], "price": "$$", "location": {"address1": "105 Masonic Home Rd", "address2": "", "address3": "", "city": "Charlton", "zip_code": "01507", "country": "US", "state": "MA", "display_address": ["105 Masonic Home Rd", "Charlton, MA 01507"]}, "phone": "+15082480666", "display_phone": "(508) 248-0666", "distance": 17272.912284370028}, {"id": "r9-dhj_D6aMgxqIEIIzxLQ", "alias": "hardwick-house-of-pizza-gilbertville", "name": "Hardwick House of Pizza", "image_url": "https://s3-media3.fl.yelpcdn.com/bphoto/U1v5kFxk8Fot1l3t8QEiWQ/o.jpg", "is_closed": false, "url": "https://www.yelp.com/biz/hardwick-house-of-pizza-gilbertville?adjust_creative=HdhkN5EEH6lAqE3kwhsHEQ&utm_campaign=yelp_api_v3&utm_medium=api_v3_business_search&utm_source=HdhkN5EEH6lAqE3kwhsHEQ", "review_count": 6, "categories": [{"alias": "pizza", "title": "Pizza"}], "rating": 2.0, "coordinates": {"latitude": 42.3129577, "longitude": -72.2049821}, "transactions": [], "price": "$", "location": {"address1": "2 Main", "address2": "", "address3": null, "city": "Gilbertville", "zip_code": "01031", "country": "US", "state": "MA", "display_address": ["2 Main", "Gilbertville, MA 01031"]}, "phone": "+14134776001", "display_phone": "(413) 477-6001", "distance": 11200.227503069078}, {"id": "eZe_SqA9OCE_UxBfnpIwAA", "alias": "d-angelo-sandwich-shop-charlton", "name": "D'Angelo Sandwich Shop", "image_url": "https://s3-media4.fl.yelpcdn.com/bphoto/UqpzoHw-svV_S_rdsgjLmQ/o.jpg", "is_closed": false, "url": "https://www.yelp.com/biz/d-angelo-sandwich-shop-charlton?adjust_creative=HdhkN5EEH6lAqE3kwhsHEQ&utm_campaign=yelp_api_v3&utm_medium=api_v3_business_search&utm_source=HdhkN5EEH6lAqE3kwhsHEQ", "review_count": 7, "categories": [{"alias": "sandwiches", "title": "Sandwiches"}], "rating": 2.0, "coordinates": {"latitude": 42.138691842556, "longitude": -72.0235615968704}, "transactions": ["delivery"], "location": {"address1": "166 Sturbridge Rd", "address2": "", "address3": "", "city": "Charlton", "zip_code": "01507", "country": "US", "state": "MA", "display_address": ["166 Sturbridge Rd", "Charlton, MA 01507"]}, "phone": "+15082481061", "display_phone": "(508) 248-1061", "distance": 15150.525732500855}, {"id": "HVqcCnaRGDOa5oOg2ZgHkg", "alias": "the-wellness-bar-princeton", "name": "The Wellness Bar", "image_url": "https://s3-media2.fl.yelpcdn.com/bphoto/tl0vwaMAapbIuGgpTJiRGQ/o.jpg", "is_closed": false, "url": "https://www.yelp.com/biz/the-wellness-bar-princeton?adjust_creative=HdhkN5EEH6lAqE3kwhsHEQ&utm_campaign=yelp_api_v3&utm_medium=api_v3_business_search&utm_source=HdhkN5EEH6lAqE3kwhsHEQ", "review_count": 5, "categories": [{"alias": "juicebars", "title": "Juice Bars & Smoothies"}, {"alias": "coffee", "title": "Coffee & Tea"}, {"alias": "sandwiches", "title": "Sandwiches"}], "rating": 4.5, "coordinates": {"latitude": 42.42134, "longitude": -71.87812}, "transactions": [], "price": "$$", "location": {"address1": "206 Worcester Rd", "address2": "", "address3": "The Thirsty Lab", "city": "Princeton", "zip_code": "01541", "country": "US", "state": "MA", "display_address": ["206 Worcester Rd", "The Thirsty Lab", "Princeton, MA 01541"]}, "phone": "+19784640600", "display_phone": "(978) 464-0600", "distance": 23847.01084257579}, {"id": "IRgfRxgOYrAUAKckb22N1A", "alias": "charlies-diner-brimfield", "name": "Charlie's Diner", "image_url": "https://s3-media1.fl.yelpcdn.com/bphoto/RU4nB5aESMd3EfQZjYzUUg/o.jpg", "is_closed": false, "url": "https://www.yelp.com/biz/charlies-diner-brimfield?adjust_creative=HdhkN5EEH6lAqE3kwhsHEQ&utm_campaign=yelp_api_v3&utm_medium=api_v3_business_search&utm_source=HdhkN5EEH6lAqE3kwhsHEQ", "review_count": 2, "categories": [{"alias": "tradamerican", "title": "American (Traditional)"}, {"alias": "breakfast_brunch", "title": "Breakfast & Brunch"}, {"alias": "diners", "title": "Diners"}], "rating": 4.0, "coordinates": {"latitude": 42.1219487485498, "longitude": -72.2029420360923}, "transactions": [], "location": {"address1": "17 Main St", "address2": "", "address3": null, "city": "Brimfield", "zip_code": "01010", "country": "US", "state": "MA", "display_address": ["17 Main St", "Brimfield, MA 01010"]}, "phone": "+14132457711", "display_phone": "(413) 245-7711", "distance": 19131.52315885321}, {"id": "l5EE7aSMsfHiXSu2f9l9Vw", "alias": "fresh-city-charlton", "name": "Fresh City", "image_url": "https://s3-media4.fl.yelpcdn.com/bphoto/nNL4HZRNF-wqCvZI5czxNw/o.jpg", "is_closed": false, "url": "https://www.yelp.com/biz/fresh-city-charlton?adjust_creative=HdhkN5EEH6lAqE3kwhsHEQ&utm_campaign=yelp_api_v3&utm_medium=api_v3_business_search&utm_source=HdhkN5EEH6lAqE3kwhsHEQ", "review_count": 31, "categories": [{"alias": "newamerican", "title": "American (New)"}], "rating": 2.0, "coordinates": {"latitude": 42.156628, "longitude": -71.964096}, "transactions": [], "price": "$", "location": {"address1": "1-90 Massachusetts Turnpike", "address2": "Charlton Mass Pike E", "address3": "", "city": "Charlton", "zip_code": "01507", "country": "US", "state": "MA", "display_address": ["1-90 Massachusetts Turnpike", "Charlton Mass Pike E", "Charlton, MA 01507"]}, "phone": "+15082480663", "display_phone": "(508) 248-0663", "distance": 15870.300618942012}, {"id": "Ul1WGrfWjffNRGfMmBkihg", "alias": "ware-cafe-and-catering-services-ware", "name": "Ware Cafe & Catering Services", "image_url": "https://s3-media3.fl.yelpcdn.com/bphoto/J9Tsr8IiCAe_0-QYes39-g/o.jpg", "is_closed": false, "url": "https://www.yelp.com/biz/ware-cafe-and-catering-services-ware?adjust_creative=HdhkN5EEH6lAqE3kwhsHEQ&utm_campaign=yelp_api_v3&utm_medium=api_v3_business_search&utm_source=HdhkN5EEH6lAqE3kwhsHEQ", "review_count": 15, "categories": [{"alias": "cafes", "title": "Cafes"}, {"alias": "catering", "title": "Caterers"}], "rating": 4.0, "coordinates": {"latitude": 42.26047, "longitude": -72.24379}, "transactions": [], "price": "$", "location": {"address1": "24 W Main St", "address2": "", "address3": "", "city": "Ware", "zip_code": "01082", "country": "US", "state": "MA", "display_address": ["24 W Main St", "Ware, MA 01082"]}, "phone": "+14139674611", "display_phone": "(413) 967-4611", "distance": 13296.878298377836}, {"id": "o-TMMW8o9tLLMzARuAXQ4A", "alias": "applebees-grill-bar-sturbridge", "name": "Applebee's Grill + Bar", "image_url": "https://s3-media1.fl.yelpcdn.com/bphoto/xHoYZjgTPr3rE7takCXSTA/o.jpg", "is_closed": false, "url": "https://www.yelp.com/biz/applebees-grill-bar-sturbridge?adjust_creative=HdhkN5EEH6lAqE3kwhsHEQ&utm_campaign=yelp_api_v3&utm_medium=api_v3_business_search&utm_source=HdhkN5EEH6lAqE3kwhsHEQ", "review_count": 29, "categories": [{"alias": "tradamerican", "title": "American (Traditional)"}, {"alias": "sportsbars", "title": "Sports Bars"}, {"alias": "burgers", "title": "Burgers"}], "rating": 2.5, "coordinates": {"latitude": 42.123408, "longitude": -72.058825}, "transactions": [], "price": "$$", "location": {"address1": "120 Charlton Rd", "address2": "", "address3": "", "city": "Sturbridge", "zip_code": "01566", "country": "US", "state": "MA", "display_address": ["120 Charlton Rd", "Sturbridge, MA 01566"]}, "phone": "+15083470174", "display_phone": "(508) 347-0174", "distance": 16322.557211267955}, {"id": "Z0-OVloiiicUx54Q_NlXeg", "alias": "papa-ginos-charlton-2", "name": "Papa Gino's", "image_url": "https://s3-media1.fl.yelpcdn.com/bphoto/XMfmh_v23h5Tf8FRb7jx4g/o.jpg", "is_closed": false, "url": "https://www.yelp.com/biz/papa-ginos-charlton-2?adjust_creative=HdhkN5EEH6lAqE3kwhsHEQ&utm_campaign=yelp_api_v3&utm_medium=api_v3_business_search&utm_source=HdhkN5EEH6lAqE3kwhsHEQ", "review_count": 5, "categories": [{"alias": "pizza", "title": "Pizza"}], "rating": 3.0, "coordinates": {"latitude": 42.1565865558527, "longitude": -71.9640472644289}, "transactions": ["delivery"], "location": {"address1": "Massachusetts Tpke", "address2": "", "address3": "", "city": "Charlton", "zip_code": "", "country": "US", "state": "MA", "display_address": ["Massachusetts Tpke", "Charlton, MA"]}, "phone": "", "display_phone": "", "distance": 15876.40498764409}, {"id": "CHSG_1GTPDJtbP7CMjNVVw", "alias": "toulas-house-of-pizza-rutland", "name": "Toula's House of Pizza", "image_url": "https://s3-media2.fl.yelpcdn.com/bphoto/piSL9596sSDhdrIR9AUy2g/o.jpg", "is_closed": false, "url": "https://www.yelp.com/biz/toulas-house-of-pizza-rutland?adjust_creative=HdhkN5EEH6lAqE3kwhsHEQ&utm_campaign=yelp_api_v3&utm_medium=api_v3_business_search&utm_source=HdhkN5EEH6lAqE3kwhsHEQ", "review_count": 17, "categories": [{"alias": "pizza", "title": "Pizza"}, {"alias": "seafood", "title": "Seafood"}], "rating": 3.5, "coordinates": {"latitude": 42.37652, "longitude": -71.93563}, "transactions": [], "price": "$", "location": {"address1": "87 Main St", "address2": "", "address3": "", "city": "Rutland", "zip_code": "01543", "country": "US", "state": "MA", "display_address": ["87 Main St", "Rutland, MA 01543"]}, "phone": "+15088868888", "display_phone": "(508) 886-8888", "distance": 17000.563387793394}, {"id": "d3kdqVe74sUBPio0fugN4w", "alias": "subway-leicester-11", "name": "Subway", "image_url": "https://s3-media1.fl.yelpcdn.com/bphoto/oAUVnb7sOuyF3ue2xeOtZw/o.jpg", "is_closed": false, "url": "https://www.yelp.com/biz/subway-leicester-11?adjust_creative=HdhkN5EEH6lAqE3kwhsHEQ&utm_campaign=yelp_api_v3&utm_medium=api_v3_business_search&utm_source=HdhkN5EEH6lAqE3kwhsHEQ", "review_count": 2, "categories": [{"alias": "sandwiches", "title": "Sandwiches"}], "rating": 4.0, "coordinates": {"latitude": 42.2447087976669, "longitude": -71.914986594792}, "transactions": [], "price": "$", "location": {"address1": "1199 Main St", "address2": "", "address3": "", "city": "Leicester", "zip_code": "01524", "country": "US", "state": "MA", "display_address": ["1199 Main St", "Leicester, MA 01524"]}, "phone": "+15088924421", "display_phone": "(508) 892-4421", "distance": 14065.11368779922}, {"id": "kF3P6nL9V-OmpPhOfHSdgQ", "alias": "dads-charlton", "name": "Dad's", "image_url": "https://s3-media1.fl.yelpcdn.com/bphoto/dfnn0SCQNovFuQNlIXDnSA/o.jpg", "is_closed": false, "url": "https://www.yelp.com/biz/dads-charlton?adjust_creative=HdhkN5EEH6lAqE3kwhsHEQ&utm_campaign=yelp_api_v3&utm_medium=api_v3_business_search&utm_source=HdhkN5EEH6lAqE3kwhsHEQ", "review_count": 33, "categories": [{"alias": "diners", "title": "Diners"}, {"alias": "breakfast_brunch", "title": "Breakfast & Brunch"}, {"alias": "tradamerican", "title": "American (Traditional)"}], "rating": 4.5, "coordinates": {"latitude": 42.152759552002, "longitude": -71.9210891723633}, "transactions": [], "price": "$", "location": {"address1": "417 Worcester Rd", "address2": "", "address3": "", "city": "Charlton", "zip_code": "01507", "country": "US", "state": "MA", "display_address": ["417 Worcester Rd", "Charlton, MA 01507"]}, "phone": "+15082489774", "display_phone": "(508) 248-9774", "distance": 18567.876153696267}, {"id": "Nwd8vF2dgSY5JP2zc0qMAQ", "alias": "rutland-house-of-pizza-rutland-2", "name": "Rutland House of Pizza", "image_url": "https://s3-media1.fl.yelpcdn.com/bphoto/xeybHAygluewNU7_7HM1wg/o.jpg", "is_closed": false, "url": "https://www.yelp.com/biz/rutland-house-of-pizza-rutland-2?adjust_creative=HdhkN5EEH6lAqE3kwhsHEQ&utm_campaign=yelp_api_v3&utm_medium=api_v3_business_search&utm_source=HdhkN5EEH6lAqE3kwhsHEQ", "review_count": 13, "categories": [{"alias": "pizza", "title": "Pizza"}], "rating": 3.0, "coordinates": {"latitude": 42.3766975, "longitude": -71.9528885}, "transactions": [], "price": "$$", "location": {"address1": "5 Maple Ave", "address2": null, "address3": null, "city": "Rutland", "zip_code": "01543", "country": "US", "state": "MA", "display_address": ["5 Maple Ave", "Rutland, MA 01543"]}, "phone": "+15088862500", "display_phone": "(508) 886-2500", "distance": 16030.197272845888}, {"id": "lQwRGkdMNvY6e_Zo1RSDVQ", "alias": "villas-pizza-restaurant-ware", "name": "Villa's Pizza Restaurant", "image_url": "https://s3-media2.fl.yelpcdn.com/bphoto/MHYLDAcp33fb74RF2IZojg/o.jpg", "is_closed": false, "url": "https://www.yelp.com/biz/villas-pizza-restaurant-ware?adjust_creative=HdhkN5EEH6lAqE3kwhsHEQ&utm_campaign=yelp_api_v3&utm_medium=api_v3_business_search&utm_source=HdhkN5EEH6lAqE3kwhsHEQ", "review_count": 4, "categories": [{"alias": "pizza", "title": "Pizza"}], "rating": 3.5, "coordinates": {"latitude": 42.26092, "longitude": -72.2427}, "transactions": [], "price": "$", "location": {"address1": "123 Main St", "address2": "", "address3": "", "city": "Ware", "zip_code": "01082", "country": "US", "state": "MA", "display_address": ["123 Main St", "Ware, MA 01082"]}, "phone": "+14139674490", "display_phone": "(413) 967-4490", "distance": 13198.502764279694}, {"id": "P3GSgNPUBIVmkGJTil5Wwg", "alias": "athens-pizza-brimfield", "name": "Athens Pizza", "image_url": "https://s3-media1.fl.yelpcdn.com/bphoto/jttJHc-xQMWnq1Zod5wIYA/o.jpg", "is_closed": false, "url": "https://www.yelp.com/biz/athens-pizza-brimfield?adjust_creative=HdhkN5EEH6lAqE3kwhsHEQ&utm_campaign=yelp_api_v3&utm_medium=api_v3_business_search&utm_source=HdhkN5EEH6lAqE3kwhsHEQ", "review_count": 10, "categories": [{"alias": "pizza", "title": "Pizza"}], "rating": 3.5, "coordinates": {"latitude": 42.11982, "longitude": -72.19916}, "transactions": [], "price": "$", "location": {"address1": "26 Sturbridge Rd", "address2": "", "address3": "", "city": "Brimfield", "zip_code": "01010", "country": "US", "state": "MA", "display_address": ["26 Sturbridge Rd", "Brimfield, MA 01010"]}, "phone": "+14132459437", "display_phone": "(413) 245-9437", "distance": 19156.62078308572}, {"id": "tvRhb4dXverm3watzDLtGw", "alias": "fresh-city-charlton-2", "name": "Fresh City", "image_url": "https://s3-media1.fl.yelpcdn.com/bphoto/qwDfueXdJ_j9rEKdRCaAVQ/o.jpg", "is_closed": false, "url": "https://www.yelp.com/biz/fresh-city-charlton-2?adjust_creative=HdhkN5EEH6lAqE3kwhsHEQ&utm_campaign=yelp_api_v3&utm_medium=api_v3_business_search&utm_source=HdhkN5EEH6lAqE3kwhsHEQ", "review_count": 14, "categories": [{"alias": "delis", "title": "Delis"}, {"alias": "sandwiches", "title": "Sandwiches"}], "rating": 1.5, "coordinates": {"latitude": 42.156434463791, "longitude": -71.9642174128566}, "transactions": [], "price": "$", "location": {"address1": "Massachusetts Turnpike", "address2": "", "address3": "", "city": "Charlton", "zip_code": "01508", "country": "US", "state": "MA", "display_address": ["Massachusetts Turnpike", "Charlton, MA 01508"]}, "phone": "+15082480663", "display_phone": "(508) 248-0663", "distance": 15881.134658875833}, {"id": "GevCzGJJNY7wggXDp-bdkg", "alias": "d-angelo-sandwich-shops-charlton", "name": "D'Angelo Sandwich Shops", "image_url": "https://s3-media2.fl.yelpcdn.com/bphoto/DOv0KrDMhZbPlp_qQIypuw/o.jpg", "is_closed": false, "url": "https://www.yelp.com/biz/d-angelo-sandwich-shops-charlton?adjust_creative=HdhkN5EEH6lAqE3kwhsHEQ&utm_campaign=yelp_api_v3&utm_medium=api_v3_business_search&utm_source=HdhkN5EEH6lAqE3kwhsHEQ", "review_count": 4, "categories": [{"alias": "sandwiches", "title": "Sandwiches"}], "rating": 2.0, "coordinates": {"latitude": 42.158604, "longitude": -71.965294}, "transactions": [], "location": {"address1": "Mass Pike Westbound", "address2": "", "address3": "", "city": "Charlton", "zip_code": "01507", "country": "US", "state": "MA", "display_address": ["Mass Pike Westbound", "Charlton, MA 01507"]}, "phone": "+15082485216", "display_phone": "(508) 248-5216", "distance": 15636.403166796232}, {"id": "ytaSuRAfFw7NyjugZlGSkQ", "alias": "crystal-springs-dairy-bar-ware", "name": "Crystal Springs Dairy Bar", "image_url": "https://s3-media4.fl.yelpcdn.com/bphoto/ByMuRu-K-s8EeeqHKW_BGA/o.jpg", "is_closed": false, "url": "https://www.yelp.com/biz/crystal-springs-dairy-bar-ware?adjust_creative=HdhkN5EEH6lAqE3kwhsHEQ&utm_campaign=yelp_api_v3&utm_medium=api_v3_business_search&utm_source=HdhkN5EEH6lAqE3kwhsHEQ", "review_count": 16, "categories": [{"alias": "icecream", "title": "Ice Cream & Frozen Yogurt"}, {"alias": "breakfast_brunch", "title": "Breakfast & Brunch"}], "rating": 4.0, "coordinates": {"latitude": 42.2543680923477, "longitude": -72.2541291419154}, "transactions": [], "price": "$", "location": {"address1": "166 West St", "address2": "", "address3": "", "city": "Ware", "zip_code": "01082", "country": "US", "state": "MA", "display_address": ["166 West St", "Ware, MA 01082"]}, "phone": "+14139676190", "display_phone": "(413) 967-6190", "distance": 14142.744040508538}, {"id": "JuRhlHEW3hF8kQgy4U5ScQ", "alias": "village-pizza-spencer", "name": "Village Pizza", "image_url": "https://s3-media2.fl.yelpcdn.com/bphoto/rJGgd3rsr_-bWlKI3W4Fsg/o.jpg", "is_closed": false, "url": "https://www.yelp.com/biz/village-pizza-spencer?adjust_creative=HdhkN5EEH6lAqE3kwhsHEQ&utm_campaign=yelp_api_v3&utm_medium=api_v3_business_search&utm_source=HdhkN5EEH6lAqE3kwhsHEQ", "review_count": 7, "categories": [{"alias": "pizza", "title": "Pizza"}], "rating": 3.0, "coordinates": {"latitude": 42.2514224052429, "longitude": -71.9771010428667}, "transactions": [], "location": {"address1": "320 Main St", "address2": "Ste 2", "address3": "", "city": "Spencer", "zip_code": "01562", "country": "US", "state": "MA", "display_address": ["320 Main St", "Ste 2", "Spencer, MA 01562"]}, "phone": "+15088851114", "display_phone": "(508) 885-1114", "distance": 8955.991373309576}, {"id": "6G7I24vIiyLp4_7nSNICew", "alias": "whistle-stop-restaurant-hardwick", "name": "Whistle Stop Restaurant", "image_url": "https://s3-media4.fl.yelpcdn.com/bphoto/co5S3IgUc4H4d2Nf597Nlw/o.jpg", "is_closed": false, "url": "https://www.yelp.com/biz/whistle-stop-restaurant-hardwick?adjust_creative=HdhkN5EEH6lAqE3kwhsHEQ&utm_campaign=yelp_api_v3&utm_medium=api_v3_business_search&utm_source=HdhkN5EEH6lAqE3kwhsHEQ", "review_count": 3, "categories": [{"alias": "tradamerican", "title": "American (Traditional)"}, {"alias": "breakfast_brunch", "title": "Breakfast & Brunch"}, {"alias": "sandwiches", "title": "Sandwiches"}], "rating": 2.0, "coordinates": {"latitude": 42.30823, "longitude": -72.21081}, "transactions": [], "price": "$", "location": {"address1": "248 Main", "address2": "", "address3": "", "city": "Hardwick", "zip_code": "01037", "country": "US", "state": "MA", "display_address": ["248 Main", "Hardwick, MA 01037"]}, "phone": "+14134778888", "display_phone": "(413) 477-8888", "distance": 11403.649207953784}, {"id": "wYKhpMsBZFpS-4wkN9nawg", "alias": "northeast-pizza-leicester", "name": "Northeast Pizza", "image_url": "https://s3-media4.fl.yelpcdn.com/bphoto/3jYNOiEFa-lLQtckTm_80w/o.jpg", "is_closed": false, "url": "https://www.yelp.com/biz/northeast-pizza-leicester?adjust_creative=HdhkN5EEH6lAqE3kwhsHEQ&utm_campaign=yelp_api_v3&utm_medium=api_v3_business_search&utm_source=HdhkN5EEH6lAqE3kwhsHEQ", "review_count": 16, "categories": [{"alias": "pizza", "title": "Pizza"}], "rating": 3.0, "coordinates": {"latitude": 42.2442284, "longitude": -71.9163132}, "transactions": ["delivery"], "price": "$", "location": {"address1": "1205 Main St", "address2": "", "address3": "", "city": "Leicester", "zip_code": "01524", "country": "US", "state": "MA", "display_address": ["1205 Main St", "Leicester, MA 01524"]}, "phone": "+15088929276", "display_phone": "(508) 892-9276", "distance": 13932.664501631785}, {"id": "z5SDOfUA5zNhGmyXIAXe8A", "alias": "northeast-pizza-barre", "name": "Northeast Pizza", "image_url": "https://s3-media1.fl.yelpcdn.com/bphoto/tNBoaH8M7BxY1upCowwS4A/o.jpg", "is_closed": false, "url": "https://www.yelp.com/biz/northeast-pizza-barre?adjust_creative=HdhkN5EEH6lAqE3kwhsHEQ&utm_campaign=yelp_api_v3&utm_medium=api_v3_business_search&utm_source=HdhkN5EEH6lAqE3kwhsHEQ", "review_count": 11, "categories": [{"alias": "pizza", "title": "Pizza"}], "rating": 2.5, "coordinates": {"latitude": 42.4102211, "longitude": -72.0980759}, "transactions": [], "price": "$", "location": {"address1": "570 Summer St", "address2": null, "address3": null, "city": "Barre", "zip_code": "01005", "country": "US", "state": "MA", "display_address": ["570 Summer St", "Barre, MA 01005"]}, "phone": "+19783554333", "display_phone": "(978) 355-4333", "distance": 15693.965110780255}, {"id": "0WQaFHl-lowsJHlt8kaDFA", "alias": "good-guys-pizza-leicester", "name": "Good Guys Pizza", "image_url": "https://s3-media1.fl.yelpcdn.com/bphoto/jOSblXT33-vTSC2SblTVjw/o.jpg", "is_closed": false, "url": "https://www.yelp.com/biz/good-guys-pizza-leicester?adjust_creative=HdhkN5EEH6lAqE3kwhsHEQ&utm_campaign=yelp_api_v3&utm_medium=api_v3_business_search&utm_source=HdhkN5EEH6lAqE3kwhsHEQ", "review_count": 16, "categories": [{"alias": "pizza", "title": "Pizza"}, {"alias": "desserts", "title": "Desserts"}, {"alias": "salad", "title": "Salad"}], "rating": 3.0, "coordinates": {"latitude": 42.2458763, "longitude": -71.898784}, "transactions": ["delivery"], "price": "$", "location": {"address1": "865 Main St", "address2": "", "address3": "", "city": "Leicester", "zip_code": "01524", "country": "US", "state": "MA", "display_address": ["865 Main St", "Leicester, MA 01524"]}, "phone": "+15088923200", "display_phone": "(508) 892-3200", "distance": 15359.826239818383}, {"id": "BioqAWmVFY8b8X_KzIlW2A", "alias": "pizza-17-jefferson", "name": "Pizza 17", "image_url": "https://s3-media2.fl.yelpcdn.com/bphoto/8pViup6AZHzwix-3eLafxw/o.jpg", "is_closed": false, "url": "https://www.yelp.com/biz/pizza-17-jefferson?adjust_creative=HdhkN5EEH6lAqE3kwhsHEQ&utm_campaign=yelp_api_v3&utm_medium=api_v3_business_search&utm_source=HdhkN5EEH6lAqE3kwhsHEQ", "review_count": 16, "categories": [{"alias": "pizza", "title": "Pizza"}], "rating": 2.0, "coordinates": {"latitude": 42.3592529296875, "longitude": -71.8823852539062}, "transactions": ["delivery"], "price": "$$", "location": {"address1": "1625 Main St", "address2": null, "address3": null, "city": "Jefferson", "zip_code": "01522", "country": "US", "state": "MA", "display_address": ["1625 Main St", "Jefferson, MA 01522"]}, "phone": "+15088291744", "display_phone": "(508) 829-1744", "distance": 19278.74892750743}, {"id": "FTTTC5zRb6Ze6E2ImSaCVA", "alias": "papa-ginos-pizzeria-charlton", "name": "Papa Gino's Pizzeria", "image_url": "https://s3-media2.fl.yelpcdn.com/bphoto/JEfWFgP1aeUg44dr3GvOEg/o.jpg", "is_closed": false, "url": "https://www.yelp.com/biz/papa-ginos-pizzeria-charlton?adjust_creative=HdhkN5EEH6lAqE3kwhsHEQ&utm_campaign=yelp_api_v3&utm_medium=api_v3_business_search&utm_source=HdhkN5EEH6lAqE3kwhsHEQ", "review_count": 6, "categories": [{"alias": "pizza", "title": "Pizza"}], "rating": 2.0, "coordinates": {"latitude": 42.138411, "longitude": -72.028237}, "transactions": ["delivery"], "location": {"address1": "166 Sturbridge Rd", "address2": null, "address3": null, "city": "Charlton", "zip_code": "01507", "country": "US", "state": "MA", "display_address": ["166 Sturbridge Rd", "Charlton, MA 01507"]}, "phone": "+15082481061", "display_phone": "(508) 248-1061", "distance": 15150.525732500855}, {"id": "vqp0j29yDKzpeSm-qPXAJQ", "alias": "bills-pizza-rochdale", "name": "Bill's Pizza", "image_url": "https://s3-media4.fl.yelpcdn.com/bphoto/bZ0bsdXPWToC5E7Ke_jLIg/o.jpg", "is_closed": false, "url": "https://www.yelp.com/biz/bills-pizza-rochdale?adjust_creative=HdhkN5EEH6lAqE3kwhsHEQ&utm_campaign=yelp_api_v3&utm_medium=api_v3_business_search&utm_source=HdhkN5EEH6lAqE3kwhsHEQ", "review_count": 22, "categories": [{"alias": "pizza", "title": "Pizza"}, {"alias": "beer_and_wine", "title": "Beer, Wine & Spirits"}], "rating": 3.0, "coordinates": {"latitude": 42.1917114, "longitude": -71.9091873}, "transactions": ["delivery"], "price": "$", "location": {"address1": "1141 Stafford St", "address2": null, "address3": null, "city": "Rochdale", "zip_code": "01542", "country": "US", "state": "MA", "display_address": ["1141 Stafford St", "Rochdale, MA 01542"]}, "phone": "+15088920082", "display_phone": "(508) 892-0082", "distance": 16687.817997722414}, {"id": "5cPBwjgg7WCa0SgYuocF6Q", "alias": "subway-sturbridge-7", "name": "Subway", "image_url": "https://s3-media3.fl.yelpcdn.com/bphoto/ZDFqf1z7iIVIU9PGhF9ABw/o.jpg", "is_closed": true, "url": "https://www.yelp.com/biz/subway-sturbridge-7?adjust_creative=HdhkN5EEH6lAqE3kwhsHEQ&utm_campaign=yelp_api_v3&utm_medium=api_v3_business_search&utm_source=HdhkN5EEH6lAqE3kwhsHEQ", "review_count": 5, "categories": [{"alias": "sandwiches", "title": "Sandwiches"}], "rating": 2.0, "coordinates": {"latitude": 42.1281663, "longitude": -72.060058}, "transactions": [], "price": "$", "location": {"address1": "100 Charlton Rd", "address2": null, "address3": null, "city": "Sturbridge", "zip_code": "01566", "country": "US", "state": "MA", "display_address": ["100 Charlton Rd", "Sturbridge, MA 01566"]}, "phone": "+15083475855", "display_phone": "(508) 347-5855", "distance": 15785.115766078748}, {"id": "a4BtLxq7zyevP_ceyFTTMA", "alias": "mcdonalds-spencer-2", "name": "McDonald's", "image_url": "https://s3-media1.fl.yelpcdn.com/bphoto/AkOAfQAISQcyF_nS7Rx2sw/o.jpg", "is_closed": false, "url": "https://www.yelp.com/biz/mcdonalds-spencer-2?adjust_creative=HdhkN5EEH6lAqE3kwhsHEQ&utm_campaign=yelp_api_v3&utm_medium=api_v3_business_search&utm_source=HdhkN5EEH6lAqE3kwhsHEQ", "review_count": 13, "categories": [{"alias": "hotdogs", "title": "Fast Food"}, {"alias": "burgers", "title": "Burgers"}, {"alias": "coffee", "title": "Coffee & Tea"}], "rating": 2.5, "coordinates": {"latitude": 42.233007, "longitude": -72.012469}, "transactions": [], "price": "$", "location": {"address1": "59 W Main St", "address2": "", "address3": "", "city": "Spencer", "zip_code": "01562", "country": "US", "state": "MA", "display_address": ["59 W Main St", "Spencer, MA 01562"]}, "phone": "+15088853355", "display_phone": "(508) 885-3355", "distance": 7037.367538350552}, {"id": "LtCwcvjmjXvEYnjnPtkNoA", "alias": "mcdonalds-charlton-8", "name": "McDonald's", "image_url": "https://s3-media1.fl.yelpcdn.com/bphoto/_kT0RkE8Ml38lP5xNfSOxA/o.jpg", "is_closed": false, "url": "https://www.yelp.com/biz/mcdonalds-charlton-8?adjust_creative=HdhkN5EEH6lAqE3kwhsHEQ&utm_campaign=yelp_api_v3&utm_medium=api_v3_business_search&utm_source=HdhkN5EEH6lAqE3kwhsHEQ", "review_count": 24, "categories": [{"alias": "hotdogs", "title": "Fast Food"}, {"alias": "burgers", "title": "Burgers"}, {"alias": "coffee", "title": "Coffee & Tea"}], "rating": 1.5, "coordinates": {"latitude": 42.15299, "longitude": -71.97941}, "transactions": [], "price": "$", "location": {"address1": "Mass Pike I-90 Service Area Milepost 89", "address2": null, "address3": null, "city": "Charlton", "zip_code": "01507", "country": "US", "state": "MA", "display_address": ["Mass Pike I-90 Service Area Milepost 89", "Charlton, MA 01507"]}, "phone": "+15082486788", "display_phone": "(508) 248-6788", "distance": 15881.517277928053}, {"id": "n_s_vnPID1VDUO53PGE7qQ", "alias": "mcdonalds-ware", "name": "McDonald's", "image_url": "https://s3-media3.fl.yelpcdn.com/bphoto/A9Nkl7yHbhRSf4DzmMWoTg/o.jpg", "is_closed": false, "url": "https://www.yelp.com/biz/mcdonalds-ware?adjust_creative=HdhkN5EEH6lAqE3kwhsHEQ&utm_campaign=yelp_api_v3&utm_medium=api_v3_business_search&utm_source=HdhkN5EEH6lAqE3kwhsHEQ", "review_count": 8, "categories": [{"alias": "coffee", "title": "Coffee & Tea"}, {"alias": "burgers", "title": "Burgers"}, {"alias": "hotdogs", "title": "Fast Food"}], "rating": 2.0, "coordinates": {"latitude": 42.2569839, "longitude": -72.2498621}, "transactions": [], "price": "$", "location": {"address1": "117 West St", "address2": "", "address3": "", "city": "Ware", "zip_code": "01082", "country": "US", "state": "MA", "display_address": ["117 West St", "Ware, MA 01082"]}, "phone": "+14139673485", "display_phone": "(413) 967-3485", "distance": 13824.45799095944}, {"id": "W84Be-TGzND8-MIfmwT8ow", "alias": "mcdonalds-charlton-2", "name": "McDonald's", "image_url": "https://s3-media4.fl.yelpcdn.com/bphoto/Pffw3GCKc7MDT7_30eHitA/o.jpg", "is_closed": false, "url": "https://www.yelp.com/biz/mcdonalds-charlton-2?adjust_creative=HdhkN5EEH6lAqE3kwhsHEQ&utm_campaign=yelp_api_v3&utm_medium=api_v3_business_search&utm_source=HdhkN5EEH6lAqE3kwhsHEQ", "review_count": 11, "categories": [{"alias": "hotdogs", "title": "Fast Food"}, {"alias": "burgers", "title": "Burgers"}, {"alias": "coffee", "title": "Coffee & Tea"}], "rating": 2.0, "coordinates": {"latitude": 42.145532, "longitude": -71.9873243}, "transactions": [], "price": "$", "location": {"address1": "38 Worcester Rd", "address2": "", "address3": "", "city": "Charlton", "zip_code": "01507", "country": "US", "state": "MA", "display_address": ["38 Worcester Rd", "Charlton, MA 01507"]}, "phone": "+15082487040", "display_phone": "(508) 248-7040", "distance": 15853.34721149026}, {"id": "QRYb653_lWE9Hf1KlzykNg", "alias": "mcdonalds-charlton-7", "name": "McDonald's", "image_url": "https://s3-media4.fl.yelpcdn.com/bphoto/KuCRqa0z50L4TM1QrE6L8A/o.jpg", "is_closed": false, "url": "https://www.yelp.com/biz/mcdonalds-charlton-7?adjust_creative=HdhkN5EEH6lAqE3kwhsHEQ&utm_campaign=yelp_api_v3&utm_medium=api_v3_business_search&utm_source=HdhkN5EEH6lAqE3kwhsHEQ", "review_count": 9, "categories": [{"alias": "hotdogs", "title": "Fast Food"}, {"alias": "burgers", "title": "Burgers"}, {"alias": "coffee", "title": "Coffee & Tea"}], "rating": 1.5, "coordinates": {"latitude": 42.15299, "longitude": -71.97941}, "transactions": [], "price": "$", "location": {"address1": "Mass Pike I-90 Service Area Eastbound", "address2": "", "address3": "", "city": "Charlton", "zip_code": "01508", "country": "US", "state": "MA", "display_address": ["Mass Pike I-90 Service Area Eastbound", "Charlton, MA 01508"]}, "phone": "+15082480517", "display_phone": "(508) 248-0517", "distance": 15863.831837595311}]