[{"id": "HKyN2UJvkakOCblSOKQLUQ", "alias": "gardner-ale-house-gardner-2", "name": "Gardner Ale House", "image_url": "https://s3-media2.fl.yelpcdn.com/bphoto/6DhrQB5Hr_Z6hj-dZTN0hw/o.jpg", "is_closed": false, "url": "https://www.yelp.com/biz/gardner-ale-house-gardner-2?adjust_creative=ywY5UnLZrNrRl2b93Ruy_g&utm_campaign=yelp_api_v3&utm_medium=api_v3_business_search&utm_source=ywY5UnLZrNrRl2b93Ruy_g", "review_count": 274, "categories": [{"alias": "pubs", "title": "Pubs"}, {"alias": "tradamerican", "title": "American (Traditional)"}, {"alias": "brewpubs", "title": "Brewpubs"}], "rating": 4.0, "coordinates": {"latitude": 42.575771, "longitude": -71.997131}, "transactions": [], "price": "$$", "location": {"address1": "74 Parker St", "address2": "", "address3": "", "city": "Gardner", "zip_code": "01440", "country": "US", "state": "MA", "display_address": ["74 Parker St", "Gardner, MA 01440"]}, "phone": "+19786690122", "display_phone": "(978) 669-0122", "distance": 6190.586667571283}, {"id": "mrnvGU8_BnE6uHKHEG5XYg", "alias": "picasso-restaurant-and-bar-barre", "name": "Picasso Restaurant & Bar", "image_url": "https://s3-media1.fl.yelpcdn.com/bphoto/osSGSQKk7zlNJaKO6gbqtg/o.jpg", "is_closed": false, "url": "https://www.yelp.com/biz/picasso-restaurant-and-bar-barre?adjust_creative=ywY5UnLZrNrRl2b93Ruy_g&utm_campaign=yelp_api_v3&utm_medium=api_v3_business_search&utm_source=ywY5UnLZrNrRl2b93Ruy_g", "review_count": 47, "categories": [{"alias": "newamerican", "title": "American (New)"}, {"alias": "seafood", "title": "Seafood"}], "rating": 4.5, "coordinates": {"latitude": 42.42277, "longitude": -72.1061299}, "transactions": [], "price": "$$", "location": {"address1": "2 Common St", "address2": null, "address3": "", "city": "Barre", "zip_code": "01005", "country": "US", "state": "MA", "display_address": ["2 Common St", "Barre, MA 01005"]}, "phone": "+19783553099", "display_phone": "(978) 355-3099", "distance": 14557.696514536112}, {"id": "6eDMigdX2fH32_2cuaHzpw", "alias": "jk-crossroads-east-templeton", "name": "JK Crossroads", "image_url": "https://s3-media3.fl.yelpcdn.com/bphoto/X9b-I_ndI2z1jI4m_Fh-4g/o.jpg", "is_closed": false, "url": "https://www.yelp.com/biz/jk-crossroads-east-templeton?adjust_creative=ywY5UnLZrNrRl2b93Ruy_g&utm_campaign=yelp_api_v3&utm_medium=api_v3_business_search&utm_source=ywY5UnLZrNrRl2b93Ruy_g", "review_count": 22, "categories": [{"alias": "tradamerican", "title": "American (Traditional)"}], "rating": 3.0, "coordinates": {"latitude": 42.56267, "longitude": -72.03679}, "transactions": [], "price": "$$", "location": {"address1": "119 Patriots Rd", "address2": "", "address3": "", "city": "East Templeton", "zip_code": "01438", "country": "US", "state": "MA", "display_address": ["119 Patriots Rd", "East Templeton, MA 01438"]}, "phone": "+19786327070", "display_phone": "(978) 632-7070", "distance": 2644.626651004986}, {"id": "gLsN78yTskhjpdHMa6HA3A", "alias": "ice-house-pub-barre", "name": "Ice House Pub", "image_url": "https://s3-media1.fl.yelpcdn.com/bphoto/lnDcvFdVS6GZoOB7_uRaqg/o.jpg", "is_closed": false, "url": "https://www.yelp.com/biz/ice-house-pub-barre?adjust_creative=ywY5UnLZrNrRl2b93Ruy_g&utm_campaign=yelp_api_v3&utm_medium=api_v3_business_search&utm_source=ywY5UnLZrNrRl2b93Ruy_g", "review_count": 41, "categories": [{"alias": "gastropubs", "title": "Gastropubs"}, {"alias": "newamerican", "title": "American (New)"}], "rating": 4.0, "coordinates": {"latitude": 42.4090505140105, "longitude": -72.0973576462425}, "transactions": [], "location": {"address1": "7 Worcester Rd", "address2": "", "address3": null, "city": "Barre", "zip_code": "01005", "country": "US", "state": "MA", "display_address": ["7 Worcester Rd", "Barre, MA 01005"]}, "phone": "+19783553000", "display_phone": "(978) 355-3000", "distance": 15907.843828135574}, {"id": "bSTIM0u6sZuMmS6GX0mTqA", "alias": "stone-cow-brewery-barre", "name": "Stone Cow Brewery", "image_url": "https://s3-media2.fl.yelpcdn.com/bphoto/jMxZg8Vqw33_6aBMFZElCQ/o.jpg", "is_closed": false, "url": "https://www.yelp.com/biz/stone-cow-brewery-barre?adjust_creative=ywY5UnLZrNrRl2b93Ruy_g&utm_campaign=yelp_api_v3&utm_medium=api_v3_business_search&utm_source=ywY5UnLZrNrRl2b93Ruy_g", "review_count": 67, "categories": [{"alias": "breweries", "title": "Breweries"}, {"alias": "tradamerican", "title": "American (Traditional)"}], "rating": 4.5, "coordinates": {"latitude": 42.4247357, "longitude": -72.1242577}, "transactions": [], "price": "$", "location": {"address1": "500 West St", "address2": "Ste B", "address3": null, "city": "Barre", "zip_code": "01005", "country": "US", "state": "MA", "display_address": ["500 West St", "Ste B", "Barre, MA 01005"]}, "phone": "+19782578600", "display_phone": "(978) 257-8600", "distance": 14775.432073679114}, {"id": "MsAsPmMTX5uPzvmVov6B9w", "alias": "king-phillip-restaurant-phillipston", "name": "King Phillip Restaurant", "image_url": "https://s3-media2.fl.yelpcdn.com/bphoto/ojO3BoLwHN2nkE1FRdJ5Qw/o.jpg", "is_closed": false, "url": "https://www.yelp.com/biz/king-phillip-restaurant-phillipston?adjust_creative=ywY5UnLZrNrRl2b93Ruy_g&utm_campaign=yelp_api_v3&utm_medium=api_v3_business_search&utm_source=ywY5UnLZrNrRl2b93Ruy_g", "review_count": 48, "categories": [{"alias": "tradamerican", "title": "American (Traditional)"}], "rating": 3.0, "coordinates": {"latitude": 42.5698651, "longitude": -72.1321599}, "transactions": [], "price": "$$", "location": {"address1": "35 State Rd", "address2": "", "address3": "", "city": "Phillipston", "zip_code": "01331", "country": "US", "state": "MA", "display_address": ["35 State Rd", "Phillipston, MA 01331"]}, "phone": "+19782496300", "display_phone": "(978) 249-6300", "distance": 5983.034700501163}, {"id": "XNhx5nEGbXKE4k0xXLijbw", "alias": "110-grill-athol", "name": "110 Grill", "image_url": "https://s3-media3.fl.yelpcdn.com/bphoto/_HxS-NfOJAqo0PFSUoOUxQ/o.jpg", "is_closed": false, "url": "https://www.yelp.com/biz/110-grill-athol?adjust_creative=ywY5UnLZrNrRl2b93Ruy_g&utm_campaign=yelp_api_v3&utm_medium=api_v3_business_search&utm_source=ywY5UnLZrNrRl2b93Ruy_g", "review_count": 57, "categories": [{"alias": "newamerican", "title": "American (New)"}, {"alias": "tradamerican", "title": "American (Traditional)"}, {"alias": "bars", "title": "Bars"}], "rating": 4.0, "coordinates": {"latitude": 42.580767, "longitude": -72.187031}, "transactions": [], "price": "$$", "location": {"address1": "307 Market Dr", "address2": null, "address3": "", "city": "Athol", "zip_code": "01331", "country": "US", "state": "MA", "display_address": ["307 Market Dr", "Athol, MA 01331"]}, "phone": "+19788304601", "display_phone": "(978) 830-4601", "distance": 10630.410045123956}, {"id": "wzs8aDcYZyAWOWghMoaGzw", "alias": "angler-fish-market-and-chowder-westminster-2", "name": "Angler Fish Market & Chowder", "image_url": "https://s3-media1.fl.yelpcdn.com/bphoto/rhCv_g0tD3O4VI19oGcsKA/o.jpg", "is_closed": false, "url": "https://www.yelp.com/biz/angler-fish-market-and-chowder-westminster-2?adjust_creative=ywY5UnLZrNrRl2b93Ruy_g&utm_campaign=yelp_api_v3&utm_medium=api_v3_business_search&utm_source=ywY5UnLZrNrRl2b93Ruy_g", "review_count": 105, "categories": [{"alias": "seafoodmarkets", "title": "Seafood Markets"}, {"alias": "seafood", "title": "Seafood"}], "rating": 4.0, "coordinates": {"latitude": 42.545545, "longitude": -71.914566}, "transactions": ["delivery", "pickup"], "price": "$$", "location": {"address1": "1 Village Sq", "address2": null, "address3": null, "city": "Westminster", "zip_code": "01473", "country": "US", "state": "MA", "display_address": ["1 Village Sq", "Westminster, MA 01473"]}, "phone": "+19788742202", "display_phone": "(978) 874-2202", "distance": 12262.32037805001}, {"id": "xd-G4ijhAy3m3UUwecSF8w", "alias": "albatross-westminster", "name": "Albatross", "image_url": "https://s3-media2.fl.yelpcdn.com/bphoto/zOECZh7kMbmGuuFDpk4NEg/o.jpg", "is_closed": false, "url": "https://www.yelp.com/biz/albatross-westminster?adjust_creative=ywY5UnLZrNrRl2b93Ruy_g&utm_campaign=yelp_api_v3&utm_medium=api_v3_business_search&utm_source=ywY5UnLZrNrRl2b93Ruy_g", "review_count": 5, "categories": [{"alias": "newamerican", "title": "American (New)"}, {"alias": "breakfast_brunch", "title": "Breakfast & Brunch"}, {"alias": "bars", "title": "Bars"}], "rating": 5.0, "coordinates": {"latitude": 42.54569, "longitude": -71.93143}, "transactions": [], "location": {"address1": "51 Ellis Rd", "address2": null, "address3": "", "city": "Westminster", "zip_code": "01473", "country": "US", "state": "MA", "display_address": ["51 Ellis Rd", "Westminster, MA 01473"]}, "phone": "+19788745900", "display_phone": "(978) 874-5900", "distance": 11148.093169810596}, {"id": "t7FbgEITiEReUrTte9mJiw", "alias": "clamber-hill-inn-and-restaurant-petersham-2", "name": "Clamber Hill Inn & Restaurant", "image_url": "https://s3-media1.fl.yelpcdn.com/bphoto/7rAzCt1SCY2BB_WPoLwT_g/o.jpg", "is_closed": false, "url": "https://www.yelp.com/biz/clamber-hill-inn-and-restaurant-petersham-2?adjust_creative=ywY5UnLZrNrRl2b93Ruy_g&utm_campaign=yelp_api_v3&utm_medium=api_v3_business_search&utm_source=ywY5UnLZrNrRl2b93Ruy_g", "review_count": 11, "categories": [{"alias": "tradamerican", "title": "American (Traditional)"}, {"alias": "whiskeybars", "title": "Whiskey Bars"}, {"alias": "winetasteclasses", "title": "Wine Tasting Classes"}], "rating": 4.0, "coordinates": {"latitude": 42.5031579313361, "longitude": -72.1865090608826}, "transactions": [], "price": "$$$", "location": {"address1": "111 N Main St", "address2": "", "address3": "", "city": "Petersham", "zip_code": "01366", "country": "US", "state": "MA", "display_address": ["111 N Main St", "Petersham, MA 01366"]}, "phone": "+19787248800", "display_phone": "(978) 724-8800", "distance": 11300.252789624445}, {"id": "jQV1x9aI6gfQLtlpUcj2FA", "alias": "duguays-chicken-and-seafood-gardner", "name": "Duguays Chicken & Seafood", "image_url": "https://s3-media2.fl.yelpcdn.com/bphoto/C1iDu-eEp0WuUJJP1eNjVA/o.jpg", "is_closed": false, "url": "https://www.yelp.com/biz/duguays-chicken-and-seafood-gardner?adjust_creative=ywY5UnLZrNrRl2b93Ruy_g&utm_campaign=yelp_api_v3&utm_medium=api_v3_business_search&utm_source=ywY5UnLZrNrRl2b93Ruy_g", "review_count": 47, "categories": [{"alias": "seafood", "title": "Seafood"}, {"alias": "burgers", "title": "Burgers"}, {"alias": "chickenshop", "title": "Chicken Shop"}], "rating": 4.0, "coordinates": {"latitude": 42.57311, "longitude": -72.01599}, "transactions": [], "price": "$$", "location": {"address1": "632 Parker St", "address2": "", "address3": "", "city": "Gardner", "zip_code": "01440", "country": "US", "state": "MA", "display_address": ["632 Parker St", "Gardner, MA 01440"]}, "phone": "+19786324493", "display_phone": "(978) 632-4493", "distance": 4744.121855506932}, {"id": "nfeb9YXVrPx1cJOlgOHDNA", "alias": "the-1761-old-mill-westminster", "name": "The 1761 Old Mill", "image_url": "https://s3-media2.fl.yelpcdn.com/bphoto/tdAVI4Xm0xA_WaHWSMPWfQ/o.jpg", "is_closed": false, "url": "https://www.yelp.com/biz/the-1761-old-mill-westminster?adjust_creative=ywY5UnLZrNrRl2b93Ruy_g&utm_campaign=yelp_api_v3&utm_medium=api_v3_business_search&utm_source=ywY5UnLZrNrRl2b93Ruy_g", "review_count": 204, "categories": [{"alias": "tradamerican", "title": "American (Traditional)"}], "rating": 3.5, "coordinates": {"latitude": 42.549262, "longitude": -71.885783}, "transactions": [], "price": "$$", "location": {"address1": "69 State Rd E", "address2": null, "address3": "", "city": "Westminster", "zip_code": "01473", "country": "US", "state": "MA", "display_address": ["69 State Rd E", "Westminster, MA 01473"]}, "phone": "+19788745941", "display_phone": "(978) 874-5941", "distance": 14585.282716981572}, {"id": "G_PPROO9ccur-m-GWzbZmA", "alias": "quabbin-woods-restaurant-petersham", "name": "Quabbin Woods Restaurant", "image_url": "https://s3-media3.fl.yelpcdn.com/bphoto/w6hsjy3EUcuAd17n0h42Eg/o.jpg", "is_closed": false, "url": "https://www.yelp.com/biz/quabbin-woods-restaurant-petersham?adjust_creative=ywY5UnLZrNrRl2b93Ruy_g&utm_campaign=yelp_api_v3&utm_medium=api_v3_business_search&utm_source=ywY5UnLZrNrRl2b93Ruy_g", "review_count": 15, "categories": [{"alias": "newamerican", "title": "American (New)"}, {"alias": "comfortfood", "title": "Comfort Food"}, {"alias": "burgers", "title": "Burgers"}], "rating": 4.0, "coordinates": {"latitude": 42.481931, "longitude": -72.183534}, "transactions": [], "price": "$", "location": {"address1": "8 Barre Rd", "address2": "Ste RT", "address3": "", "city": "Petersham", "zip_code": "01366", "country": "US", "state": "MA", "display_address": ["8 Barre Rd", "Ste RT", "Petersham, MA 01366"]}, "phone": "+19787243288", "display_phone": "(978) 724-3288", "distance": 12371.603962718304}, {"id": "pSBQkytH3cknYyZVcREyvg", "alias": "patriots-roast-beef-and-grill-templeton", "name": "Patriots Roast Beef and Grill", "image_url": "https://s3-media1.fl.yelpcdn.com/bphoto/jQT2dQaX-oAPGqS9MG8Mvg/o.jpg", "is_closed": false, "url": "https://www.yelp.com/biz/patriots-roast-beef-and-grill-templeton?adjust_creative=ywY5UnLZrNrRl2b93Ruy_g&utm_campaign=yelp_api_v3&utm_medium=api_v3_business_search&utm_source=ywY5UnLZrNrRl2b93Ruy_g", "review_count": 17, "categories": [{"alias": "pizza", "title": "Pizza"}, {"alias": "tradamerican", "title": "American (Traditional)"}], "rating": 3.5, "coordinates": {"latitude": 42.5615082, "longitude": -72.038887}, "transactions": ["delivery", "pickup"], "price": "$", "location": {"address1": "146 Patriots Rd", "address2": null, "address3": null, "city": "Templeton", "zip_code": "01468", "country": "US", "state": "MA", "display_address": ["146 Patriots Rd", "Templeton, MA 01468"]}, "phone": "+19786329951", "display_phone": "(978) 632-9951", "distance": 2427.7599084351127}, {"id": "jTPPscieN_KRrwxq3Cvoxg", "alias": "sawa-asian-bistro-gardner", "name": "Sawa Asian Bistro", "image_url": "https://s3-media3.fl.yelpcdn.com/bphoto/6OeCkKRnF5CX73drFhHyaw/o.jpg", "is_closed": false, "url": "https://www.yelp.com/biz/sawa-asian-bistro-gardner?adjust_creative=ywY5UnLZrNrRl2b93Ruy_g&utm_campaign=yelp_api_v3&utm_medium=api_v3_business_search&utm_source=ywY5UnLZrNrRl2b93Ruy_g", "review_count": 76, "categories": [{"alias": "asianfusion", "title": "Asian Fusion"}], "rating": 3.5, "coordinates": {"latitude": 42.559041712705, "longitude": -71.989148206288}, "transactions": ["pickup"], "price": "$$", "location": {"address1": "360 Timpany Blvd", "address2": "", "address3": "", "city": "Gardner", "zip_code": "01440", "country": "US", "state": "MA", "display_address": ["360 Timpany Blvd", "Gardner, MA 01440"]}, "phone": "+19786323888", "display_phone": "(978) 632-3888", "distance": 6223.7283855699725}, {"id": "TrnTjJ1-_E6C73HYGLwsKw", "alias": "renos-pizza-templeton", "name": "Reno's Pizza", "image_url": "https://s3-media3.fl.yelpcdn.com/bphoto/fqIJrOaa8cfgu-xw7htIzw/o.jpg", "is_closed": false, "url": "https://www.yelp.com/biz/renos-pizza-templeton?adjust_creative=ywY5UnLZrNrRl2b93Ruy_g&utm_campaign=yelp_api_v3&utm_medium=api_v3_business_search&utm_source=ywY5UnLZrNrRl2b93Ruy_g", "review_count": 2, "categories": [{"alias": "pizza", "title": "Pizza"}, {"alias": "burgers", "title": "Burgers"}, {"alias": "delis", "title": "Delis"}], "rating": 5.0, "coordinates": {"latitude": 42.5620072921407, "longitude": -72.0375560224056}, "transactions": [], "location": {"address1": "132 Patriots Rd", "address2": "", "address3": null, "city": "Templeton", "zip_code": "01438", "country": "US", "state": "MA", "display_address": ["132 Patriots Rd", "Templeton, MA 01438"]}, "phone": "+19786323200", "display_phone": "(978) 632-3200", "distance": 2553.7219495586633}, {"id": "YFUYllVibHXwawGD2WxG5g", "alias": "99-restaurants-gardner", "name": "99 Restaurants", "image_url": "https://s3-media3.fl.yelpcdn.com/bphoto/Z_yBm5P7QKjWhMHHvGTBcg/o.jpg", "is_closed": false, "url": "https://www.yelp.com/biz/99-restaurants-gardner?adjust_creative=ywY5UnLZrNrRl2b93Ruy_g&utm_campaign=yelp_api_v3&utm_medium=api_v3_business_search&utm_source=ywY5UnLZrNrRl2b93Ruy_g", "review_count": 10, "categories": [{"alias": "tradamerican", "title": "American (Traditional)"}, {"alias": "pubs", "title": "Pubs"}], "rating": 3.5, "coordinates": {"latitude": 42.5605143, "longitude": -71.9906149}, "transactions": [], "location": {"address1": "299 Timpany Blvd", "address2": null, "address3": "", "city": "Gardner", "zip_code": "01440", "country": "US", "state": "MA", "display_address": ["299 Timpany Blvd", "Gardner, MA 01440"]}, "phone": "+19789580399", "display_phone": "(978) 958-0399", "distance": 6079.482281982265}, {"id": "v_Hpc-MgJvfyKWSspDETlw", "alias": "taco-rey-coliman-gardner-2", "name": "Taco Rey Coliman", "image_url": "https://s3-media4.fl.yelpcdn.com/bphoto/FZ0gWTPf72YnsmmM6OQNuA/o.jpg", "is_closed": false, "url": "https://www.yelp.com/biz/taco-rey-coliman-gardner-2?adjust_creative=ywY5UnLZrNrRl2b93Ruy_g&utm_campaign=yelp_api_v3&utm_medium=api_v3_business_search&utm_source=ywY5UnLZrNrRl2b93Ruy_g", "review_count": 35, "categories": [{"alias": "tex-mex", "title": "Tex-Mex"}, {"alias": "mexican", "title": "Mexican"}, {"alias": "spanish", "title": "Spanish"}], "rating": 4.5, "coordinates": {"latitude": 42.5757434, "longitude": -71.9951119}, "transactions": [], "price": "$", "location": {"address1": "7 Pleasant St", "address2": "", "address3": "", "city": "Gardner", "zip_code": "01440", "country": "US", "state": "MA", "display_address": ["7 Pleasant St", "Gardner, MA 01440"]}, "phone": "+19786327400", "display_phone": "(978) 632-7400", "distance": 6336.2406864842915}, {"id": "UgstPkWGXVMhLagXG2sOZg", "alias": "tavern-on-central-ashburnham", "name": "Tavern on Central", "image_url": "https://s3-media3.fl.yelpcdn.com/bphoto/LPJsK0JrirZuwh0u049mmw/o.jpg", "is_closed": false, "url": "https://www.yelp.com/biz/tavern-on-central-ashburnham?adjust_creative=ywY5UnLZrNrRl2b93Ruy_g&utm_campaign=yelp_api_v3&utm_medium=api_v3_business_search&utm_source=ywY5UnLZrNrRl2b93Ruy_g", "review_count": 32, "categories": [{"alias": "bars", "title": "Bars"}, {"alias": "tradamerican", "title": "American (Traditional)"}], "rating": 4.0, "coordinates": {"latitude": 42.6352169, "longitude": -71.909670100163}, "transactions": [], "price": "$$", "location": {"address1": "3 Central St", "address2": "", "address3": "", "city": "Ashburnham", "zip_code": "01430", "country": "US", "state": "MA", "display_address": ["3 Central St", "Ashburnham, MA 01430"]}, "phone": "+19788271272", "display_phone": "(978) 827-1272", "distance": 15800.887819870937}, {"id": "3t_Qa1MxsD0KTBbvefT-hw", "alias": "great-wall-chinese-restaurant-templeton-2", "name": "Great Wall Chinese Restaurant", "image_url": "https://s3-media1.fl.yelpcdn.com/bphoto/xoVVGL1XAyzXWWCosHO5QQ/o.jpg", "is_closed": false, "url": "https://www.yelp.com/biz/great-wall-chinese-restaurant-templeton-2?adjust_creative=ywY5UnLZrNrRl2b93Ruy_g&utm_campaign=yelp_api_v3&utm_medium=api_v3_business_search&utm_source=ywY5UnLZrNrRl2b93Ruy_g", "review_count": 18, "categories": [{"alias": "chinese", "title": "Chinese"}], "rating": 4.0, "coordinates": {"latitude": 42.6069717, "longitude": -72.0744476}, "transactions": [], "price": "$$", "location": {"address1": "5 Central St", "address2": "", "address3": "", "city": "Templeton", "zip_code": "01436", "country": "US", "state": "MA", "display_address": ["5 Central St", "Templeton, MA 01436"]}, "phone": "+19789398600", "display_phone": "(978) 939-8600", "distance": 6397.461257019455}, {"id": "q0qhifHcJgTSAWMVAy4O-w", "alias": "old-time-new-england-seafood-company-athol-2", "name": "Old Time New England Seafood Company", "image_url": "https://s3-media1.fl.yelpcdn.com/bphoto/Sp6PDSBoupOkUCeEtuHD-g/o.jpg", "is_closed": false, "url": "https://www.yelp.com/biz/old-time-new-england-seafood-company-athol-2?adjust_creative=ywY5UnLZrNrRl2b93Ruy_g&utm_campaign=yelp_api_v3&utm_medium=api_v3_business_search&utm_source=ywY5UnLZrNrRl2b93Ruy_g", "review_count": 20, "categories": [{"alias": "seafood", "title": "Seafood"}], "rating": 4.0, "coordinates": {"latitude": 42.5840096, "longitude": -72.204467}, "transactions": [], "price": "$$", "location": {"address1": "2294 Main St", "address2": "", "address3": "", "city": "Athol", "zip_code": "01331", "country": "US", "state": "MA", "display_address": ["2294 Main St", "Athol, MA 01331"]}, "phone": "+19782495373", "display_phone": "(978) 249-5373", "distance": 12110.082561837311}, {"id": "6X755NM6my9JyexFB_XX_A", "alias": "kays-dairy-bar-westminster-2", "name": "Kay's Dairy Bar", "image_url": "https://s3-media1.fl.yelpcdn.com/bphoto/ancJPX2z7M0R9o0hEeMVVw/o.jpg", "is_closed": false, "url": "https://www.yelp.com/biz/kays-dairy-bar-westminster-2?adjust_creative=ywY5UnLZrNrRl2b93Ruy_g&utm_campaign=yelp_api_v3&utm_medium=api_v3_business_search&utm_source=ywY5UnLZrNrRl2b93Ruy_g", "review_count": 29, "categories": [{"alias": "icecream", "title": "Ice Cream & Frozen Yogurt"}, {"alias": "seafood", "title": "Seafood"}], "rating": 4.0, "coordinates": {"latitude": 42.5517, "longitude": -71.9587}, "transactions": [], "price": "$$", "location": {"address1": "196 State Rd W", "address2": "", "address3": null, "city": "Westminster", "zip_code": "01473", "country": "US", "state": "MA", "display_address": ["196 State Rd W", "Westminster, MA 01473"]}, "phone": "+19786327191", "display_phone": "(978) 632-7191", "distance": 8636.636748451532}, {"id": "PkUQS1Egv8vhxxJtDVjBaA", "alias": "asia-gourmet-athol", "name": "Asia Gourmet", "image_url": "https://s3-media1.fl.yelpcdn.com/bphoto/GjsJgR7BC4fSlGm2Eopppw/o.jpg", "is_closed": false, "url": "https://www.yelp.com/biz/asia-gourmet-athol?adjust_creative=ywY5UnLZrNrRl2b93Ruy_g&utm_campaign=yelp_api_v3&utm_medium=api_v3_business_search&utm_source=ywY5UnLZrNrRl2b93Ruy_g", "review_count": 7, "categories": [{"alias": "chinese", "title": "Chinese"}, {"alias": "sushi", "title": "Sushi Bars"}, {"alias": "thai", "title": "Thai"}], "rating": 3.5, "coordinates": {"latitude": 42.58012, "longitude": -72.18376}, "transactions": [], "location": {"address1": "144 Market Dr", "address2": "", "address3": null, "city": "Athol", "zip_code": "01331", "country": "US", "state": "MA", "display_address": ["144 Market Dr", "Athol, MA 01331"]}, "phone": "+19782493918", "display_phone": "(978) 249-3918", "distance": 10369.690380096246}, {"id": "KOmBaRuOp6ZrxiLC3hC-sw", "alias": "paramount-cafe-gardner", "name": "Paramount Cafe", "image_url": "https://s3-media2.fl.yelpcdn.com/bphoto/9ciEyCWZ1VdIAQoiqYjnfQ/o.jpg", "is_closed": false, "url": "https://www.yelp.com/biz/paramount-cafe-gardner?adjust_creative=ywY5UnLZrNrRl2b93Ruy_g&utm_campaign=yelp_api_v3&utm_medium=api_v3_business_search&utm_source=ywY5UnLZrNrRl2b93Ruy_g", "review_count": 5, "categories": [{"alias": "cafes", "title": "Cafes"}], "rating": 4.5, "coordinates": {"latitude": 42.575092, "longitude": -71.994545}, "transactions": [], "location": {"address1": "46 Main St", "address2": "", "address3": "", "city": "Gardner", "zip_code": "01440", "country": "US", "state": "MA", "display_address": ["46 Main St", "Gardner, MA 01440"]}, "phone": "+19786329869", "display_phone": "(978) 632-9869", "distance": 6345.540953845895}, {"id": "lfQN5QSEPMr4ng0eW3lvEA", "alias": "williams-restaurant-gardner", "name": "Williams Restaurant", "image_url": "https://s3-media2.fl.yelpcdn.com/bphoto/YEek_aEDa2SU79a1-TPvZA/o.jpg", "is_closed": false, "url": "https://www.yelp.com/biz/williams-restaurant-gardner?adjust_creative=ywY5UnLZrNrRl2b93Ruy_g&utm_campaign=yelp_api_v3&utm_medium=api_v3_business_search&utm_source=ywY5UnLZrNrRl2b93Ruy_g", "review_count": 38, "categories": [{"alias": "newamerican", "title": "American (New)"}, {"alias": "seafood", "title": "Seafood"}, {"alias": "sandwiches", "title": "Sandwiches"}], "rating": 3.5, "coordinates": {"latitude": 42.55953, "longitude": -71.98036}, "transactions": [], "price": "$$", "location": {"address1": "184 Pearson Blvd", "address2": "", "address3": "", "city": "Gardner", "zip_code": "01440", "country": "US", "state": "MA", "display_address": ["184 Pearson Blvd", "Gardner, MA 01440"]}, "phone": "+19786327794", "display_phone": "(978) 632-7794", "distance": 6925.8755881564975}, {"id": "mOPZj9Wrah-t79pwsqip6A", "alias": "mountain-barn-princeton", "name": "Mountain Barn", "image_url": "https://s3-media2.fl.yelpcdn.com/bphoto/_IKvWMHrRaNOi8i7frqdFA/o.jpg", "is_closed": false, "url": "https://www.yelp.com/biz/mountain-barn-princeton?adjust_creative=ywY5UnLZrNrRl2b93Ruy_g&utm_campaign=yelp_api_v3&utm_medium=api_v3_business_search&utm_source=ywY5UnLZrNrRl2b93Ruy_g", "review_count": 80, "categories": [{"alias": "tradamerican", "title": "American (Traditional)"}, {"alias": "salad", "title": "Salad"}, {"alias": "seafood", "title": "Seafood"}], "rating": 3.5, "coordinates": {"latitude": 42.425731, "longitude": -71.878366}, "transactions": [], "price": "$$", "location": {"address1": "174 Worcester Rd", "address2": "", "address3": "", "city": "Princeton", "zip_code": "01541", "country": "US", "state": "MA", "display_address": ["174 Worcester Rd", "Princeton, MA 01541"]}, "phone": "+19784642044", "display_phone": "(978) 464-2044", "distance": 20570.121644427898}, {"id": "EZhQ41NJaq4no3RTzs7cmw", "alias": "colonial-grille-gardner", "name": "Colonial Grille", "image_url": "https://s3-media1.fl.yelpcdn.com/bphoto/voCLPpE2SaAJdfbfn5BHRg/o.jpg", "is_closed": false, "url": "https://www.yelp.com/biz/colonial-grille-gardner?adjust_creative=ywY5UnLZrNrRl2b93Ruy_g&utm_campaign=yelp_api_v3&utm_medium=api_v3_business_search&utm_source=ywY5UnLZrNrRl2b93Ruy_g", "review_count": 22, "categories": [{"alias": "tradamerican", "title": "American (Traditional)"}, {"alias": "seafood", "title": "Seafood"}, {"alias": "pizza", "title": "Pizza"}], "rating": 3.5, "coordinates": {"latitude": 42.562668, "longitude": -71.949158}, "transactions": [], "price": "$$", "location": {"address1": "625 Betty Spring Rd", "address2": "", "address3": "", "city": "Gardner", "zip_code": "01440", "country": "US", "state": "MA", "display_address": ["625 Betty Spring Rd", "Gardner, MA 01440"]}, "phone": "+19786302500", "display_phone": "(978) 630-2500", "distance": 9522.068926048225}, {"id": "mxWNNxba4bmQ5ke5wQsQdw", "alias": "boiler-bar-and-grille-orange-2", "name": "Boiler Bar & Grille", "image_url": "https://s3-media2.fl.yelpcdn.com/bphoto/SxpP3zjHjOUTLdGZ_FWCXw/o.jpg", "is_closed": false, "url": "https://www.yelp.com/biz/boiler-bar-and-grille-orange-2?adjust_creative=ywY5UnLZrNrRl2b93Ruy_g&utm_campaign=yelp_api_v3&utm_medium=api_v3_business_search&utm_source=ywY5UnLZrNrRl2b93Ruy_g", "review_count": 33, "categories": [{"alias": "bars", "title": "Bars"}, {"alias": "tradamerican", "title": "American (Traditional)"}, {"alias": "bbq", "title": "Barbeque"}], "rating": 3.0, "coordinates": {"latitude": 42.636516, "longitude": -72.247943}, "transactions": [], "price": "$$", "location": {"address1": "245 Tully Rd", "address2": "", "address3": "", "city": "Orange", "zip_code": "01364", "country": "US", "state": "MA", "display_address": ["245 Tully Rd", "Orange, MA 01364"]}, "phone": "+19782489700", "display_phone": "(978) 248-9700", "distance": 17859.07473060002}, {"id": "QJYU56p7TYpLo_r61q0RZQ", "alias": "glen-caffe-winchendon", "name": "Glen Caffe", "image_url": "https://s3-media3.fl.yelpcdn.com/bphoto/hdLJzdQfBYu25yY9tFVkhg/o.jpg", "is_closed": false, "url": "https://www.yelp.com/biz/glen-caffe-winchendon?adjust_creative=ywY5UnLZrNrRl2b93Ruy_g&utm_campaign=yelp_api_v3&utm_medium=api_v3_business_search&utm_source=ywY5UnLZrNrRl2b93Ruy_g", "review_count": 5, "categories": [{"alias": "tradamerican", "title": "American (Traditional)"}], "rating": 5.0, "coordinates": {"latitude": 42.6826401, "longitude": -72.0235138}, "transactions": [], "location": {"address1": "63 Glenallen St", "address2": null, "address3": null, "city": "Winchendon", "zip_code": "01475", "country": "US", "state": "MA", "display_address": ["63 Glenallen St", "Winchendon, MA 01475"]}, "phone": "+19782970800", "display_phone": "(978) 297-0800", "distance": 15165.660256458152}, {"id": "RTLXoRUCWGbObYnKnRVZJg", "alias": "baldwinville-station-baldwinville", "name": "Baldwinville Station", "image_url": "https://s3-media1.fl.yelpcdn.com/bphoto/HXetzYz2BV8jltsAmMa1-g/o.jpg", "is_closed": false, "url": "https://www.yelp.com/biz/baldwinville-station-baldwinville?adjust_creative=ywY5UnLZrNrRl2b93Ruy_g&utm_campaign=yelp_api_v3&utm_medium=api_v3_business_search&utm_source=ywY5UnLZrNrRl2b93Ruy_g", "review_count": 18, "categories": [{"alias": "breakfast_brunch", "title": "Breakfast & Brunch"}, {"alias": "tradamerican", "title": "American (Traditional)"}], "rating": 3.5, "coordinates": {"latitude": 42.6078996849769, "longitude": -72.0744104798049}, "transactions": [], "price": "$", "location": {"address1": "9 Circle St", "address2": null, "address3": null, "city": "Baldwinville", "zip_code": "01436", "country": "US", "state": "MA", "display_address": ["9 Circle St", "Baldwinville, MA 01436"]}, "phone": "+19789394800", "display_phone": "(978) 939-4800", "distance": 6492.998011499813}, {"id": "OCz5muYPUncuu6_eTwY_aQ", "alias": "royalston-general-store-royalston", "name": "Royalston General Store", "image_url": "https://s3-media2.fl.yelpcdn.com/bphoto/dwJ29OIt0IIcgVpQOvnGPw/o.jpg", "is_closed": false, "url": "https://www.yelp.com/biz/royalston-general-store-royalston?adjust_creative=ywY5UnLZrNrRl2b93Ruy_g&utm_campaign=yelp_api_v3&utm_medium=api_v3_business_search&utm_source=ywY5UnLZrNrRl2b93Ruy_g", "review_count": 2, "categories": [{"alias": "breakfast_brunch", "title": "Breakfast & Brunch"}], "rating": 4.0, "coordinates": {"latitude": 42.63058, "longitude": -72.14802}, "transactions": [], "location": {"address1": "21 Main St", "address2": "", "address3": "", "city": "Royalston", "zip_code": "01368", "country": "US", "state": "MA", "display_address": ["21 Main St", "Royalston, MA 01368"]}, "phone": "+19782499798", "display_phone": "(978) 249-9798", "distance": 11301.85582054949}, {"id": "pFjkbm5Z5lYiaWHuOLRV8A", "alias": "little-anthonys-and-little-lizzys-winchendon", "name": "Little Anthonys & Little Lizzy's", "image_url": "https://s3-media3.fl.yelpcdn.com/bphoto/AYEd3ty3ul5yf4NuEUbz-g/o.jpg", "is_closed": false, "url": "https://www.yelp.com/biz/little-anthonys-and-little-lizzys-winchendon?adjust_creative=ywY5UnLZrNrRl2b93Ruy_g&utm_campaign=yelp_api_v3&utm_medium=api_v3_business_search&utm_source=ywY5UnLZrNrRl2b93Ruy_g", "review_count": 9, "categories": [{"alias": "seafood", "title": "Seafood"}, {"alias": "tradamerican", "title": "American (Traditional)"}, {"alias": "cocktailbars", "title": "Cocktail Bars"}], "rating": 4.0, "coordinates": {"latitude": 42.66681, "longitude": -72.00934}, "transactions": [], "price": "$$", "location": {"address1": "678 Spring St", "address2": null, "address3": null, "city": "Winchendon", "zip_code": "01475", "country": "US", "state": "MA", "display_address": ["678 Spring St", "Winchendon, MA 01475"]}, "phone": "+19782972669", "display_phone": "(978) 297-2669", "distance": 13717.112706239115}, {"id": "mRj1oNilgeEiMyTDE-XRFA", "alias": "sorrentos-brick-oven-pizza-gardner", "name": "Sorrento's Brick Oven Pizza", "image_url": "https://s3-media2.fl.yelpcdn.com/bphoto/r5nIeUKuciMl8LP5jSvaWw/o.jpg", "is_closed": false, "url": "https://www.yelp.com/biz/sorrentos-brick-oven-pizza-gardner?adjust_creative=ywY5UnLZrNrRl2b93Ruy_g&utm_campaign=yelp_api_v3&utm_medium=api_v3_business_search&utm_source=ywY5UnLZrNrRl2b93Ruy_g", "review_count": 32, "categories": [{"alias": "pizza", "title": "Pizza"}], "rating": 3.5, "coordinates": {"latitude": 42.56806, "longitude": -71.98405}, "transactions": [], "price": "$$", "location": {"address1": "487 Chestnut St", "address2": "", "address3": "", "city": "Gardner", "zip_code": "01440", "country": "US", "state": "MA", "display_address": ["487 Chestnut St", "Gardner, MA 01440"]}, "phone": "+19786300045", "display_phone": "(978) 630-0045", "distance": 6855.322930039747}, {"id": "ykJGWukwghYMNPwamxCj2A", "alias": "jenkins-inn-and-restaurant-barre", "name": "Jenkins Inn & Restaurant", "image_url": "https://s3-media2.fl.yelpcdn.com/bphoto/wkYdN4OoO_OY3LBUeV6v2Q/o.jpg", "is_closed": false, "url": "https://www.yelp.com/biz/jenkins-inn-and-restaurant-barre?adjust_creative=ywY5UnLZrNrRl2b93Ruy_g&utm_campaign=yelp_api_v3&utm_medium=api_v3_business_search&utm_source=ywY5UnLZrNrRl2b93Ruy_g", "review_count": 6, "categories": [{"alias": "newamerican", "title": "American (New)"}, {"alias": "bedbreakfast", "title": "Bed & Breakfast"}], "rating": 4.5, "coordinates": {"latitude": 42.423309, "longitude": -72.107398}, "transactions": [], "price": "$$", "location": {"address1": "7 West St", "address2": "", "address3": "", "city": "Barre", "zip_code": "01005", "country": "US", "state": "MA", "display_address": ["7 West St", "Barre, MA 01005"]}, "phone": "+19783556444", "display_phone": "(978) 355-6444", "distance": 14519.067072843047}, {"id": "Gfjq1BF0s1vocvs5GDBtiQ", "alias": "soup-on-the-fly-athol", "name": "Soup On The Fly", "image_url": "https://s3-media3.fl.yelpcdn.com/bphoto/pLSSAJEqXccZVoYjC3fxTg/o.jpg", "is_closed": false, "url": "https://www.yelp.com/biz/soup-on-the-fly-athol?adjust_creative=ywY5UnLZrNrRl2b93Ruy_g&utm_campaign=yelp_api_v3&utm_medium=api_v3_business_search&utm_source=ywY5UnLZrNrRl2b93Ruy_g", "review_count": 60, "categories": [{"alias": "soup", "title": "Soup"}, {"alias": "sandwiches", "title": "Sandwiches"}, {"alias": "burgers", "title": "Burgers"}], "rating": 5.0, "coordinates": {"latitude": 42.5901547959732, "longitude": -72.216189316008}, "transactions": [], "price": "$$", "location": {"address1": "1493 Main St", "address2": "", "address3": "", "city": "Athol", "zip_code": "01331", "country": "US", "state": "MA", "display_address": ["1493 Main St", "Athol, MA 01331"]}, "phone": "+19788304633", "display_phone": "(978) 830-4633", "distance": 13228.198302726078}, {"id": "Hb1WV-XO3pZYMpZ3HaMf0Q", "alias": "kennys-house-gardner", "name": "Kenny's House", "image_url": "https://s3-media3.fl.yelpcdn.com/bphoto/ulcP7iOkpNHWa9bouLZbrQ/o.jpg", "is_closed": false, "url": "https://www.yelp.com/biz/kennys-house-gardner?adjust_creative=ywY5UnLZrNrRl2b93Ruy_g&utm_campaign=yelp_api_v3&utm_medium=api_v3_business_search&utm_source=ywY5UnLZrNrRl2b93Ruy_g", "review_count": 18, "categories": [{"alias": "chinese", "title": "Chinese"}, {"alias": "seafood", "title": "Seafood"}, {"alias": "soup", "title": "Soup"}], "rating": 4.0, "coordinates": {"latitude": 42.5757372, "longitude": -71.9983973}, "transactions": [], "location": {"address1": "128 Parker St", "address2": "", "address3": "", "city": "Gardner", "zip_code": "01440", "country": "US", "state": "MA", "display_address": ["128 Parker St", "Gardner, MA 01440"]}, "phone": "+19786322888", "display_phone": "(978) 632-2888", "distance": 6103.903973308537}, {"id": "7x3ahfSXy7WIbiyTWXP9Ow", "alias": "blueprint-american-bar-and-grille-westminster", "name": "Blueprint American Bar And Grille", "image_url": "https://s3-media1.fl.yelpcdn.com/bphoto/RZ-2SoH1vHklaszInf0x_w/o.jpg", "is_closed": false, "url": "https://www.yelp.com/biz/blueprint-american-bar-and-grille-westminster?adjust_creative=ywY5UnLZrNrRl2b93Ruy_g&utm_campaign=yelp_api_v3&utm_medium=api_v3_business_search&utm_source=ywY5UnLZrNrRl2b93Ruy_g", "review_count": 84, "categories": [{"alias": "newamerican", "title": "American (New)"}, {"alias": "bars", "title": "Bars"}], "rating": 3.5, "coordinates": {"latitude": 42.5457633862712, "longitude": -71.9147932863456}, "transactions": [], "price": "$$", "location": {"address1": "10 Village Square", "address2": "", "address3": null, "city": "Westminster", "zip_code": "01473", "country": "US", "state": "MA", "display_address": ["10 Village Square", "Westminster, MA 01473"]}, "phone": "+19786685580", "display_phone": "(978) 668-5580", "distance": 12242.736938464248}, {"id": "nlaFN5Qx6OiwQfEZmaYYjw", "alias": "old-mill-restaurant-and-crackerbarrel-pub-and-lounge-westminster", "name": "Old Mill Restaurant & Crackerbarrel Pub & Lounge", "image_url": "https://s3-media1.fl.yelpcdn.com/bphoto/juP9N3sZcuP9IoYgwR62nw/o.jpg", "is_closed": false, "url": "https://www.yelp.com/biz/old-mill-restaurant-and-crackerbarrel-pub-and-lounge-westminster?adjust_creative=ywY5UnLZrNrRl2b93Ruy_g&utm_campaign=yelp_api_v3&utm_medium=api_v3_business_search&utm_source=ywY5UnLZrNrRl2b93Ruy_g", "review_count": 61, "categories": [{"alias": "newamerican", "title": "American (New)"}], "rating": 3.0, "coordinates": {"latitude": 42.5497726279832, "longitude": -71.8857302846505}, "transactions": [], "price": "$$", "location": {"address1": "Rt 2A", "address2": "", "address3": "", "city": "Westminster", "zip_code": "01473", "country": "US", "state": "MA", "display_address": ["Rt 2A", "Westminster, MA 01473"]}, "phone": "+19788745941", "display_phone": "(978) 874-5941", "distance": 14614.025234497416}, {"id": "Er46vYBcDS6EjNNSUkZymA", "alias": "southside-grille-and-margarita-factory-gardner", "name": "Southside Grille & Margarita Factory", "image_url": "https://s3-media2.fl.yelpcdn.com/bphoto/tikYPLIQMd0z1iQErdjLag/o.jpg", "is_closed": false, "url": "https://www.yelp.com/biz/southside-grille-and-margarita-factory-gardner?adjust_creative=ywY5UnLZrNrRl2b93Ruy_g&utm_campaign=yelp_api_v3&utm_medium=api_v3_business_search&utm_source=ywY5UnLZrNrRl2b93Ruy_g", "review_count": 49, "categories": [{"alias": "tradamerican", "title": "American (Traditional)"}, {"alias": "mexican", "title": "Mexican"}], "rating": 2.5, "coordinates": {"latitude": 42.56069, "longitude": -71.98926}, "transactions": [], "price": "$$", "location": {"address1": "242 W Broadway", "address2": "", "address3": "", "city": "Gardner", "zip_code": "01440", "country": "US", "state": "MA", "display_address": ["242 W Broadway", "Gardner, MA 01440"]}, "phone": "+19786321057", "display_phone": "(978) 632-1057", "distance": 6238.47509291395}, {"id": "KS7hkfBA2wvYH-lCqj2qJA", "alias": "waffle-cabin-princeton", "name": "Waffle Cabin", "image_url": "https://s3-media2.fl.yelpcdn.com/bphoto/1FIZrumSBd047c1l8Slixw/o.jpg", "is_closed": false, "url": "https://www.yelp.com/biz/waffle-cabin-princeton?adjust_creative=ywY5UnLZrNrRl2b93Ruy_g&utm_campaign=yelp_api_v3&utm_medium=api_v3_business_search&utm_source=ywY5UnLZrNrRl2b93Ruy_g", "review_count": 1, "categories": [{"alias": "waffles", "title": "Waffles"}], "rating": 5.0, "coordinates": {"latitude": 42.5021610258958, "longitude": -71.8870433580825}, "transactions": [], "location": {"address1": "499 Mountain Rd", "address2": "", "address3": null, "city": "Princeton", "zip_code": "01541", "country": "US", "state": "MA", "display_address": ["499 Mountain Rd", "Princeton, MA 01541"]}, "phone": "+19784642300", "display_phone": "(978) 464-2300", "distance": 15456.159386206646}, {"id": "P54MnoErmGdonro_OcbxCg", "alias": "gabbys-place-gardner", "name": "Gabbys Place", "image_url": "https://s3-media2.fl.yelpcdn.com/bphoto/UdASXZiw2uD8HiuyRbfmew/o.jpg", "is_closed": false, "url": "https://www.yelp.com/biz/gabbys-place-gardner?adjust_creative=ywY5UnLZrNrRl2b93Ruy_g&utm_campaign=yelp_api_v3&utm_medium=api_v3_business_search&utm_source=ywY5UnLZrNrRl2b93Ruy_g", "review_count": 34, "categories": [{"alias": "breakfast_brunch", "title": "Breakfast & Brunch"}], "rating": 4.5, "coordinates": {"latitude": 42.5602303, "longitude": -71.9806137}, "transactions": [], "price": "$", "location": {"address1": "173 Pearson Blvd", "address2": null, "address3": null, "city": "Gardner", "zip_code": "01440", "country": "US", "state": "MA", "display_address": ["173 Pearson Blvd", "Gardner, MA 01440"]}, "phone": "+19786322282", "display_phone": "(978) 632-2282", "distance": 6914.017349947781}, {"id": "a8wLG4HuNxWHoEYtNrYogw", "alias": "south-gardner-hotel-gardner", "name": "South Gardner Hotel", "image_url": "https://s3-media1.fl.yelpcdn.com/bphoto/iWdIsIGbCqXHbAVbQ7zyXw/o.jpg", "is_closed": false, "url": "https://www.yelp.com/biz/south-gardner-hotel-gardner?adjust_creative=ywY5UnLZrNrRl2b93Ruy_g&utm_campaign=yelp_api_v3&utm_medium=api_v3_business_search&utm_source=ywY5UnLZrNrRl2b93Ruy_g", "review_count": 5, "categories": [{"alias": "bars", "title": "Bars"}, {"alias": "tradamerican", "title": "American (Traditional)"}], "rating": 4.0, "coordinates": {"latitude": 42.557515, "longitude": -71.9801713}, "transactions": [], "price": "$", "location": {"address1": "8 E Broadway", "address2": "", "address3": "", "city": "Gardner", "zip_code": "01440", "country": "US", "state": "MA", "display_address": ["8 E Broadway", "Gardner, MA 01440"]}, "phone": "+19786301322", "display_phone": "(978) 630-1322", "distance": 6927.943132024217}, {"id": "wKX-Vhcx0bxLCFvoM-qy7A", "alias": "crusin-12-diner-winchendon-2", "name": "Crusin 12 Diner", "image_url": "https://s3-media2.fl.yelpcdn.com/bphoto/8bzCj-b9CgHL_Z3EQlkDMA/o.jpg", "is_closed": false, "url": "https://www.yelp.com/biz/crusin-12-diner-winchendon-2?adjust_creative=ywY5UnLZrNrRl2b93Ruy_g&utm_campaign=yelp_api_v3&utm_medium=api_v3_business_search&utm_source=ywY5UnLZrNrRl2b93Ruy_g", "review_count": 13, "categories": [{"alias": "diners", "title": "Diners"}], "rating": 4.0, "coordinates": {"latitude": 42.688899, "longitude": -72.057312}, "transactions": [], "price": "$", "location": {"address1": "241 School St", "address2": null, "address3": "", "city": "Winchendon", "zip_code": "01475", "country": "US", "state": "MA", "display_address": ["241 School St", "Winchendon, MA 01475"]}, "phone": "+19782972001", "display_phone": "(978) 297-2001", "distance": 15456.341711344337}, {"id": "3Y9OnIQ55G13AcdxFZkHjw", "alias": "high-tides-seafood-barre", "name": "High Tides Seafood", "image_url": "", "is_closed": false, "url": "https://www.yelp.com/biz/high-tides-seafood-barre?adjust_creative=ywY5UnLZrNrRl2b93Ruy_g&utm_campaign=yelp_api_v3&utm_medium=api_v3_business_search&utm_source=ywY5UnLZrNrRl2b93Ruy_g", "review_count": 7, "categories": [{"alias": "seafood", "title": "Seafood"}, {"alias": "beer_and_wine", "title": "Beer, Wine & Spirits"}, {"alias": "icecream", "title": "Ice Cream & Frozen Yogurt"}], "rating": 4.5, "coordinates": {"latitude": 42.442644144625, "longitude": -72.165020017677}, "transactions": [], "location": {"address1": "2291 West St", "address2": "", "address3": null, "city": "Barre", "zip_code": "01005", "country": "US", "state": "MA", "display_address": ["2291 West St", "Barre, MA 01005"]}, "phone": "+19783556715", "display_phone": "(978) 355-6715", "distance": 14522.919448350296}, {"id": "txZsuJHzyUuxauIRymkd1Q", "alias": "the-harbour-sports-bar-winchendon", "name": "The Harbour Sports Bar", "image_url": "https://s3-media2.fl.yelpcdn.com/bphoto/m-dA8xoxpq-BrqxttgifgA/o.jpg", "is_closed": false, "url": "https://www.yelp.com/biz/the-harbour-sports-bar-winchendon?adjust_creative=ywY5UnLZrNrRl2b93Ruy_g&utm_campaign=yelp_api_v3&utm_medium=api_v3_business_search&utm_source=ywY5UnLZrNrRl2b93Ruy_g", "review_count": 27, "categories": [{"alias": "newamerican", "title": "American (New)"}, {"alias": "sportsbars", "title": "Sports Bars"}, {"alias": "seafood", "title": "Seafood"}], "rating": 3.5, "coordinates": {"latitude": 42.6916458, "longitude": -72.0211916}, "transactions": [], "price": "$$", "location": {"address1": "456 Maple St", "address2": "", "address3": "", "city": "Winchendon", "zip_code": "01475", "country": "US", "state": "MA", "display_address": ["456 Maple St", "Winchendon, MA 01475"]}, "phone": "+19782972133", "display_phone": "(978) 297-2133", "distance": 16137.507682890946}, {"id": "TVd2898Jy_u8ro-GLrZEIQ", "alias": "green-tea-westminster", "name": "Green Tea", "image_url": "https://s3-media4.fl.yelpcdn.com/bphoto/mT4nA7r9_QfD0Nk7CiRqjg/o.jpg", "is_closed": false, "url": "https://www.yelp.com/biz/green-tea-westminster?adjust_creative=ywY5UnLZrNrRl2b93Ruy_g&utm_campaign=yelp_api_v3&utm_medium=api_v3_business_search&utm_source=ywY5UnLZrNrRl2b93Ruy_g", "review_count": 16, "categories": [{"alias": "chinese", "title": "Chinese"}], "rating": 4.5, "coordinates": {"latitude": 42.5467888580999, "longitude": -71.9142293930054}, "transactions": [], "price": "$$", "location": {"address1": "7 Village Sq", "address2": null, "address3": null, "city": "Westminster", "zip_code": "01473", "country": "US", "state": "MA", "display_address": ["7 Village Sq", "Westminster, MA 01473"]}, "phone": "+19788742288", "display_phone": "(978) 874-2288", "distance": 12284.953464588594}, {"id": "NSR3gnnaeCJfL99xif_PNQ", "alias": "petersham-country-store-petersham", "name": "Petersham Country Store", "image_url": "https://s3-media2.fl.yelpcdn.com/bphoto/MGNdpq_qs24ltsY9fBcmWQ/o.jpg", "is_closed": false, "url": "https://www.yelp.com/biz/petersham-country-store-petersham?adjust_creative=ywY5UnLZrNrRl2b93Ruy_g&utm_campaign=yelp_api_v3&utm_medium=api_v3_business_search&utm_source=ywY5UnLZrNrRl2b93Ruy_g", "review_count": 29, "categories": [{"alias": "grocery", "title": "Grocery"}, {"alias": "cafes", "title": "Cafes"}, {"alias": "artsandcrafts", "title": "Arts & Crafts"}], "rating": 4.5, "coordinates": {"latitude": 42.48871, "longitude": -72.18573}, "transactions": [], "price": "$$", "location": {"address1": "2 N Main St", "address2": "", "address3": "", "city": "Petersham", "zip_code": "01366", "country": "US", "state": "MA", "display_address": ["2 N Main St", "Petersham, MA 01366"]}, "phone": "+19787240000", "display_phone": "(978) 724-0000", "distance": 12096.011978338222}, {"id": "yHRurK18GoXezP5QuyI39w", "alias": "carriage-house-restaurant-winchendon", "name": "Carriage House Restaurant", "image_url": "", "is_closed": false, "url": "https://www.yelp.com/biz/carriage-house-restaurant-winchendon?adjust_creative=ywY5UnLZrNrRl2b93Ruy_g&utm_campaign=yelp_api_v3&utm_medium=api_v3_business_search&utm_source=ywY5UnLZrNrRl2b93Ruy_g", "review_count": 34, "categories": [{"alias": "seafood", "title": "Seafood"}, {"alias": "hotdogs", "title": "Fast Food"}, {"alias": "tradamerican", "title": "American (Traditional)"}], "rating": 3.0, "coordinates": {"latitude": 42.668126, "longitude": -72.014773}, "transactions": [], "price": "$$", "location": {"address1": "660 Spring St", "address2": "", "address3": "", "city": "Winchendon", "zip_code": "01475", "country": "US", "state": "MA", "display_address": ["660 Spring St", "Winchendon, MA 01475"]}, "phone": "+19782971089", "display_phone": "(978) 297-1089", "distance": 13742.20360451828}, {"id": "mPe60pDS3EXv22cdKwvBWg", "alias": "the-g-vegas-cafe-gardner-3", "name": "The G-Vegas Cafe", "image_url": "https://s3-media4.fl.yelpcdn.com/bphoto/J82gmv9lL6CPrBk8WMqzSg/o.jpg", "is_closed": false, "url": "https://www.yelp.com/biz/the-g-vegas-cafe-gardner-3?adjust_creative=ywY5UnLZrNrRl2b93Ruy_g&utm_campaign=yelp_api_v3&utm_medium=api_v3_business_search&utm_source=ywY5UnLZrNrRl2b93Ruy_g", "review_count": 41, "categories": [{"alias": "tradamerican", "title": "American (Traditional)"}, {"alias": "diners", "title": "Diners"}], "rating": 3.0, "coordinates": {"latitude": 42.57645, "longitude": -71.99463}, "transactions": [], "price": "$", "location": {"address1": "280 Central St", "address2": null, "address3": null, "city": "Gardner", "zip_code": "01440", "country": "US", "state": "MA", "display_address": ["280 Central St", "Gardner, MA 01440"]}, "phone": "+19786324040", "display_phone": "(978) 632-4040", "distance": 6418.350599385148}, {"id": "iVk5L0JWf_92isJK9JWpwA", "alias": "village-pizza-and-subs-baldwinville-2", "name": "Village Pizza & Subs", "image_url": "https://s3-media2.fl.yelpcdn.com/bphoto/MccvnRH-t1sS0jyeKzBrCQ/o.jpg", "is_closed": false, "url": "https://www.yelp.com/biz/village-pizza-and-subs-baldwinville-2?adjust_creative=ywY5UnLZrNrRl2b93Ruy_g&utm_campaign=yelp_api_v3&utm_medium=api_v3_business_search&utm_source=ywY5UnLZrNrRl2b93Ruy_g", "review_count": 6, "categories": [{"alias": "pizza", "title": "Pizza"}, {"alias": "seafood", "title": "Seafood"}], "rating": 4.0, "coordinates": {"latitude": 42.60683, "longitude": -72.07494}, "transactions": [], "price": "$", "location": {"address1": "5 Elm St", "address2": "", "address3": "", "city": "Baldwinville", "zip_code": "01436", "country": "US", "state": "MA", "display_address": ["5 Elm St", "Baldwinville, MA 01436"]}, "phone": "+19789394401", "display_phone": "(978) 939-4401", "distance": 6380.478677290197}, {"id": "1eB2vliYFtBP8or5oG5RuA", "alias": "the-hen-house-gardner", "name": "The Hen House", "image_url": "https://s3-media3.fl.yelpcdn.com/bphoto/w2gihixfKhsOAhUzKJPtSg/o.jpg", "is_closed": false, "url": "https://www.yelp.com/biz/the-hen-house-gardner?adjust_creative=ywY5UnLZrNrRl2b93Ruy_g&utm_campaign=yelp_api_v3&utm_medium=api_v3_business_search&utm_source=ywY5UnLZrNrRl2b93Ruy_g", "review_count": 21, "categories": [{"alias": "coffee", "title": "Coffee & Tea"}, {"alias": "breakfast_brunch", "title": "Breakfast & Brunch"}], "rating": 4.0, "coordinates": {"latitude": 42.576934, "longitude": -72.000701}, "transactions": [], "price": "$", "location": {"address1": "95 West St", "address2": null, "address3": null, "city": "Gardner", "zip_code": "01440", "country": "US", "state": "MA", "display_address": ["95 West St", "Gardner, MA 01440"]}, "phone": "+19786326322", "display_phone": "(978) 632-6322", "distance": 5999.493342396027}, {"id": "-6SXunk8sa57KHosd5CSYQ", "alias": "yen-yen-chinese-restaurant-gardner", "name": "Yen Yen Chinese Restaurant", "image_url": "https://s3-media1.fl.yelpcdn.com/bphoto/jIy4g7yVDJkBtuFpok2hVQ/o.jpg", "is_closed": false, "url": "https://www.yelp.com/biz/yen-yen-chinese-restaurant-gardner?adjust_creative=ywY5UnLZrNrRl2b93Ruy_g&utm_campaign=yelp_api_v3&utm_medium=api_v3_business_search&utm_source=ywY5UnLZrNrRl2b93Ruy_g", "review_count": 28, "categories": [{"alias": "chinese", "title": "Chinese"}], "rating": 3.0, "coordinates": {"latitude": 42.5662039, "longitude": -71.9769619}, "transactions": [], "price": "$$", "location": {"address1": "42 Pearson Blvd", "address2": "", "address3": "", "city": "Gardner", "zip_code": "01440", "country": "US", "state": "MA", "display_address": ["42 Pearson Blvd", "Gardner, MA 01440"]}, "phone": "+19786301535", "display_phone": "(978) 630-1535", "distance": 7363.603180280375}, {"id": "JsyervcPMfFnRwRbtdsIAg", "alias": "the-pizza-barn-baldwinville", "name": "The Pizza Barn", "image_url": "https://s3-media1.fl.yelpcdn.com/bphoto/Ce7-bTdAMVVbfEbue3hUog/o.jpg", "is_closed": false, "url": "https://www.yelp.com/biz/the-pizza-barn-baldwinville?adjust_creative=ywY5UnLZrNrRl2b93Ruy_g&utm_campaign=yelp_api_v3&utm_medium=api_v3_business_search&utm_source=ywY5UnLZrNrRl2b93Ruy_g", "review_count": 5, "categories": [{"alias": "pizza", "title": "Pizza"}, {"alias": "italian", "title": "Italian"}, {"alias": "mediterranean", "title": "Mediterranean"}], "rating": 2.0, "coordinates": {"latitude": 42.60673, "longitude": -72.07426}, "transactions": [], "price": "$$", "location": {"address1": "9 Central St", "address2": "", "address3": "", "city": "Baldwinville", "zip_code": "01436", "country": "US", "state": "MA", "display_address": ["9 Central St", "Baldwinville, MA 01436"]}, "phone": "+19789392156", "display_phone": "(978) 939-2156", "distance": 6379.635714034098}, {"id": "46HA2dX8l3KZWHdLmu-U8Q", "alias": "parker-house-of-pizza-gardner-2", "name": "Parker House Of Pizza", "image_url": "https://s3-media1.fl.yelpcdn.com/bphoto/MhE4Kqq3cklu9CpgnS90ng/o.jpg", "is_closed": false, "url": "https://www.yelp.com/biz/parker-house-of-pizza-gardner-2?adjust_creative=ywY5UnLZrNrRl2b93Ruy_g&utm_campaign=yelp_api_v3&utm_medium=api_v3_business_search&utm_source=ywY5UnLZrNrRl2b93Ruy_g", "review_count": 10, "categories": [{"alias": "pizza", "title": "Pizza"}, {"alias": "burgers", "title": "Burgers"}, {"alias": "wraps", "title": "Wraps"}], "rating": 4.5, "coordinates": {"latitude": 42.5753219691741, "longitude": -71.9953142025354}, "transactions": [], "price": "$", "location": {"address1": "17 Pleasant St", "address2": "", "address3": "", "city": "Gardner", "zip_code": "01440", "country": "US", "state": "MA", "display_address": ["17 Pleasant St", "Gardner, MA 01440"]}, "phone": "+19786329383", "display_phone": "(978) 632-9383", "distance": 6300.399036568421}, {"id": "C7ThqIKJfCAMEvReN7_MYg", "alias": "main-street-grill-athol", "name": "Main Street Grill", "image_url": "https://s3-media4.fl.yelpcdn.com/bphoto/qwvmLJSTR3M4l7j2Bg9Z6g/o.jpg", "is_closed": false, "url": "https://www.yelp.com/biz/main-street-grill-athol?adjust_creative=ywY5UnLZrNrRl2b93Ruy_g&utm_campaign=yelp_api_v3&utm_medium=api_v3_business_search&utm_source=ywY5UnLZrNrRl2b93Ruy_g", "review_count": 5, "categories": [{"alias": "tradamerican", "title": "American (Traditional)"}], "rating": 4.0, "coordinates": {"latitude": 42.5938164, "longitude": -72.2300407}, "transactions": [], "location": {"address1": "491 Main St", "address2": "", "address3": "", "city": "Athol", "zip_code": "01331", "country": "US", "state": "MA", "display_address": ["491 Main St", "Athol, MA 01331"]}, "phone": "+19788304374", "display_phone": "(978) 830-4374", "distance": 14432.964834185388}, {"id": "InO-YBiVrA6sBTU0nwzKlg", "alias": "zoes-restaurant-winchendon", "name": "Zoe's Restaurant", "image_url": "https://s3-media3.fl.yelpcdn.com/bphoto/w7KLHPgrEAbKwf9akJ8wtw/o.jpg", "is_closed": false, "url": "https://www.yelp.com/biz/zoes-restaurant-winchendon?adjust_creative=ywY5UnLZrNrRl2b93Ruy_g&utm_campaign=yelp_api_v3&utm_medium=api_v3_business_search&utm_source=ywY5UnLZrNrRl2b93Ruy_g", "review_count": 12, "categories": [{"alias": "pizza", "title": "Pizza"}], "rating": 3.0, "coordinates": {"latitude": 42.67668833, "longitude": -72.02859667}, "transactions": [], "location": {"address1": "435 Spring St", "address2": "", "address3": "", "city": "Winchendon", "zip_code": "01475", "country": "US", "state": "MA", "display_address": ["435 Spring St", "Winchendon, MA 01475"]}, "phone": "", "display_phone": "", "distance": 14384.92588403106}, {"id": "2LDyfeKYEV033znbbUjJTg", "alias": "harding-allen-estate-barre", "name": "Harding Allen Estate", "image_url": "https://s3-media3.fl.yelpcdn.com/bphoto/HOird8RBddI8wTn-8SFy2Q/o.jpg", "is_closed": false, "url": "https://www.yelp.com/biz/harding-allen-estate-barre?adjust_creative=ywY5UnLZrNrRl2b93Ruy_g&utm_campaign=yelp_api_v3&utm_medium=api_v3_business_search&utm_source=ywY5UnLZrNrRl2b93Ruy_g", "review_count": 15, "categories": [{"alias": "restaurants", "title": "Restaurants"}, {"alias": "venues", "title": "Venues & Event Spaces"}], "rating": 3.0, "coordinates": {"latitude": 42.42226, "longitude": -72.10778}, "transactions": [], "price": "$$", "location": {"address1": "59 Allen Dr", "address2": "", "address3": "", "city": "Barre", "zip_code": "01005", "country": "US", "state": "MA", "display_address": ["59 Allen Dr", "Barre, MA 01005"]}, "phone": "+19783554920", "display_phone": "(978) 355-4920", "distance": 14703.414422262107}, {"id": "HVqcCnaRGDOa5oOg2ZgHkg", "alias": "the-wellness-bar-princeton", "name": "The Wellness Bar", "image_url": "https://s3-media2.fl.yelpcdn.com/bphoto/tl0vwaMAapbIuGgpTJiRGQ/o.jpg", "is_closed": false, "url": "https://www.yelp.com/biz/the-wellness-bar-princeton?adjust_creative=ywY5UnLZrNrRl2b93Ruy_g&utm_campaign=yelp_api_v3&utm_medium=api_v3_business_search&utm_source=ywY5UnLZrNrRl2b93Ruy_g", "review_count": 5, "categories": [{"alias": "juicebars", "title": "Juice Bars & Smoothies"}, {"alias": "coffee", "title": "Coffee & Tea"}, {"alias": "sandwiches", "title": "Sandwiches"}], "rating": 4.5, "coordinates": {"latitude": 42.42134, "longitude": -71.87812}, "transactions": [], "price": "$$", "location": {"address1": "206 Worcester Rd", "address2": "", "address3": "The Thirsty Lab", "city": "Princeton", "zip_code": "01541", "country": "US", "state": "MA", "display_address": ["206 Worcester Rd", "The Thirsty Lab", "Princeton, MA 01541"]}, "phone": "+19784640600", "display_phone": "(978) 464-0600", "distance": 20909.36423966505}, {"id": "o1Xpz68xeOYNEvl132r79g", "alias": "domino-s-athol", "name": "Domino\u2019s", "image_url": "", "is_closed": false, "url": "https://www.yelp.com/biz/domino-s-athol?adjust_creative=ywY5UnLZrNrRl2b93Ruy_g&utm_campaign=yelp_api_v3&utm_medium=api_v3_business_search&utm_source=ywY5UnLZrNrRl2b93Ruy_g", "review_count": 1, "categories": [{"alias": "pizza", "title": "Pizza"}], "rating": 2.0, "coordinates": {"latitude": 42.593632, "longitude": -72.23293}, "transactions": [], "location": {"address1": "321 Main St", "address2": "", "address3": null, "city": "Athol", "zip_code": "01331", "country": "US", "state": "MA", "display_address": ["321 Main St", "Athol, MA 01331"]}, "phone": "+19783307676", "display_phone": "(978) 330-7676", "distance": 14649.105418997391}, {"id": "i6J8CBgNw1t6rF2RR1B2uw", "alias": "pizza-palace-hubbardston", "name": "Pizza Palace", "image_url": "https://s3-media2.fl.yelpcdn.com/bphoto/8-977kXHTOlx3iDg8iVzkA/o.jpg", "is_closed": false, "url": "https://www.yelp.com/biz/pizza-palace-hubbardston?adjust_creative=ywY5UnLZrNrRl2b93Ruy_g&utm_campaign=yelp_api_v3&utm_medium=api_v3_business_search&utm_source=ywY5UnLZrNrRl2b93Ruy_g", "review_count": 19, "categories": [{"alias": "pizza", "title": "Pizza"}], "rating": 4.5, "coordinates": {"latitude": 42.490675, "longitude": -72.013496}, "transactions": [], "price": "$$", "location": {"address1": "53 Gardner Rd", "address2": null, "address3": null, "city": "Hubbardston", "zip_code": "01452", "country": "US", "state": "MA", "display_address": ["53 Gardner Rd", "Hubbardston, MA 01452"]}, "phone": "+19789285454", "display_phone": "(978) 928-5454", "distance": 7793.340810193868}, {"id": "75a3UzxS-M6tL8W5Berg9g", "alias": "beckis-bistro-barre-2", "name": "Becki's Bistro", "image_url": "https://s3-media4.fl.yelpcdn.com/bphoto/8Ed8-teABQ7se6rO_cad3w/o.jpg", "is_closed": false, "url": "https://www.yelp.com/biz/beckis-bistro-barre-2?adjust_creative=ywY5UnLZrNrRl2b93Ruy_g&utm_campaign=yelp_api_v3&utm_medium=api_v3_business_search&utm_source=ywY5UnLZrNrRl2b93Ruy_g", "review_count": 27, "categories": [{"alias": "cafes", "title": "Cafes"}, {"alias": "breakfast_brunch", "title": "Breakfast & Brunch"}, {"alias": "burgers", "title": "Burgers"}], "rating": 4.5, "coordinates": {"latitude": 42.4224345, "longitude": -72.1044324}, "transactions": [], "price": "$$", "location": {"address1": "25 Exchange St", "address2": "", "address3": "", "city": "Barre", "zip_code": "01005", "country": "US", "state": "MA", "display_address": ["25 Exchange St", "Barre, MA 01005"]}, "phone": "+19783550012", "display_phone": "(978) 355-0012", "distance": 14564.373298812996}, {"id": "3PdRmNoO-NYX1eU3Zu3A1w", "alias": "jade-ii-gardner", "name": "Jade II", "image_url": "", "is_closed": false, "url": "https://www.yelp.com/biz/jade-ii-gardner?adjust_creative=ywY5UnLZrNrRl2b93Ruy_g&utm_campaign=yelp_api_v3&utm_medium=api_v3_business_search&utm_source=ywY5UnLZrNrRl2b93Ruy_g", "review_count": 4, "categories": [{"alias": "restaurants", "title": "Restaurants"}], "rating": 3.0, "coordinates": {"latitude": 42.567081451416, "longitude": -71.9835357666016}, "transactions": [], "location": {"address1": "19 Union Sq", "address2": null, "address3": null, "city": "Gardner", "zip_code": "01440", "country": "US", "state": "MA", "display_address": ["19 Union Sq", "Gardner, MA 01440"]}, "phone": "+19786308868", "display_phone": "(978) 630-8868", "distance": 6884.091787154725}, {"id": "Mip88PCakG5_gVLpi-jxXw", "alias": "yaka-sawa-sushi-and-grill-ashburnham", "name": "Yaka Sawa Sushi And Grill", "image_url": "https://s3-media1.fl.yelpcdn.com/bphoto/HB2TVqMlCxXp9nem4K2Ttw/o.jpg", "is_closed": false, "url": "https://www.yelp.com/biz/yaka-sawa-sushi-and-grill-ashburnham?adjust_creative=ywY5UnLZrNrRl2b93Ruy_g&utm_campaign=yelp_api_v3&utm_medium=api_v3_business_search&utm_source=ywY5UnLZrNrRl2b93Ruy_g", "review_count": 19, "categories": [{"alias": "sushi", "title": "Sushi Bars"}, {"alias": "japanese", "title": "Japanese"}, {"alias": "seafood", "title": "Seafood"}], "rating": 4.0, "coordinates": {"latitude": 42.6356778843989, "longitude": -71.9100105494592}, "transactions": [], "price": "$$", "location": {"address1": "57 Main St", "address2": "", "address3": "", "city": "Ashburnham", "zip_code": "01430", "country": "US", "state": "MA", "display_address": ["57 Main St", "Ashburnham, MA 01430"]}, "phone": "+19782525679", "display_phone": "(978) 252-5679", "distance": 15809.394344888311}, {"id": "Hy1POwROoA4iTsszJUHyFg", "alias": "blue-moon-diner-gardner", "name": "Blue Moon Diner", "image_url": "https://s3-media1.fl.yelpcdn.com/bphoto/eEMNRD6Zzb0WmuUSlybVVQ/o.jpg", "is_closed": false, "url": "https://www.yelp.com/biz/blue-moon-diner-gardner?adjust_creative=ywY5UnLZrNrRl2b93Ruy_g&utm_campaign=yelp_api_v3&utm_medium=api_v3_business_search&utm_source=ywY5UnLZrNrRl2b93Ruy_g", "review_count": 48, "categories": [{"alias": "diners", "title": "Diners"}, {"alias": "newamerican", "title": "American (New)"}], "rating": 3.5, "coordinates": {"latitude": 42.574156, "longitude": -71.994432}, "transactions": [], "price": "$", "location": {"address1": "102 Main St", "address2": "", "address3": "", "city": "Gardner", "zip_code": "01440", "country": "US", "state": "MA", "display_address": ["102 Main St", "Gardner, MA 01440"]}, "phone": "+19786324333", "display_phone": "(978) 632-4333", "distance": 6308.881667398297}, {"id": "boiEL8LxY8US_zN67Hd8gQ", "alias": "patriot-pizza-and-subs-gardner", "name": "Patriot Pizza & Subs", "image_url": "https://s3-media2.fl.yelpcdn.com/bphoto/9HO7wpIHyROEIqk9G2C_lw/o.jpg", "is_closed": false, "url": "https://www.yelp.com/biz/patriot-pizza-and-subs-gardner?adjust_creative=ywY5UnLZrNrRl2b93Ruy_g&utm_campaign=yelp_api_v3&utm_medium=api_v3_business_search&utm_source=ywY5UnLZrNrRl2b93Ruy_g", "review_count": 18, "categories": [{"alias": "pizza", "title": "Pizza"}], "rating": 3.5, "coordinates": {"latitude": 42.5662419, "longitude": -71.9800468}, "transactions": [], "price": "$$", "location": {"address1": "52 Pearson Blvd", "address2": "Ste 1", "address3": null, "city": "Gardner", "zip_code": "01440", "country": "US", "state": "MA", "display_address": ["52 Pearson Blvd", "Ste 1", "Gardner, MA 01440"]}, "phone": "+19786324500", "display_phone": "(978) 632-4500", "distance": 7372.387316797735}, {"id": "Kr3vRRhCDsLj6LY6OEaR5A", "alias": "king-phillip-motel-phillipston", "name": "King Phillip Motel", "image_url": "", "is_closed": false, "url": "https://www.yelp.com/biz/king-phillip-motel-phillipston?adjust_creative=ywY5UnLZrNrRl2b93Ruy_g&utm_campaign=yelp_api_v3&utm_medium=api_v3_business_search&utm_source=ywY5UnLZrNrRl2b93Ruy_g", "review_count": 3, "categories": [{"alias": "hotels", "title": "Hotels"}, {"alias": "restaurants", "title": "Restaurants"}], "rating": 3.0, "coordinates": {"latitude": 42.5698651, "longitude": -72.1321599}, "transactions": [], "location": {"address1": "35 State Rd", "address2": "", "address3": "", "city": "Phillipston", "zip_code": "01331", "country": "US", "state": "MA", "display_address": ["35 State Rd", "Phillipston, MA 01331"]}, "phone": "+19782495300", "display_phone": "(978) 249-5300", "distance": 5983.034700501163}, {"id": "tkD81L69HUt0ZUzvdSYNog", "alias": "monti-farms-and-deli-princeton", "name": "Monti Farms & Deli", "image_url": "", "is_closed": false, "url": "https://www.yelp.com/biz/monti-farms-and-deli-princeton?adjust_creative=ywY5UnLZrNrRl2b93Ruy_g&utm_campaign=yelp_api_v3&utm_medium=api_v3_business_search&utm_source=ywY5UnLZrNrRl2b93Ruy_g", "review_count": 3, "categories": [{"alias": "farmersmarket", "title": "Farmers Market"}, {"alias": "delis", "title": "Delis"}], "rating": 5.0, "coordinates": {"latitude": 42.4228106, "longitude": -71.8783023}, "transactions": [], "location": {"address1": "194 Worcester Rd", "address2": "", "address3": null, "city": "Princeton", "zip_code": "01541", "country": "US", "state": "MA", "display_address": ["194 Worcester Rd", "Princeton, MA 01541"]}, "phone": "+19194284758", "display_phone": "(919) 428-4758", "distance": 20789.682799614966}, {"id": "KIzGy3Vh5zYbB0AD3aV_6w", "alias": "village-grill-and-pizzeria-athol", "name": "Village Grill & Pizzeria", "image_url": "https://s3-media3.fl.yelpcdn.com/bphoto/mcattaeuVmzdUjgB3xs8_g/o.jpg", "is_closed": false, "url": "https://www.yelp.com/biz/village-grill-and-pizzeria-athol?adjust_creative=ywY5UnLZrNrRl2b93Ruy_g&utm_campaign=yelp_api_v3&utm_medium=api_v3_business_search&utm_source=ywY5UnLZrNrRl2b93Ruy_g", "review_count": 5, "categories": [{"alias": "pizza", "title": "Pizza"}, {"alias": "tradamerican", "title": "American (Traditional)"}, {"alias": "chicken_wings", "title": "Chicken Wings"}], "rating": 4.5, "coordinates": {"latitude": 42.5919225, "longitude": -72.2411213}, "transactions": [], "price": "$", "location": {"address1": "131 S Main St", "address2": "", "address3": "", "city": "Athol", "zip_code": "01331", "country": "US", "state": "MA", "display_address": ["131 S Main St", "Athol, MA 01331"]}, "phone": "+19785750058", "display_phone": "(978) 575-0058", "distance": 15224.538985518895}, {"id": "M5aNw3UEOPiibQ_zBw_Ohg", "alias": "lees-hot-dog-stand-baldwinville", "name": "Lee's Hot Dog Stand", "image_url": "https://s3-media1.fl.yelpcdn.com/bphoto/i-DbLkQboOz9my41GtJ_8g/o.jpg", "is_closed": false, "url": "https://www.yelp.com/biz/lees-hot-dog-stand-baldwinville?adjust_creative=ywY5UnLZrNrRl2b93Ruy_g&utm_campaign=yelp_api_v3&utm_medium=api_v3_business_search&utm_source=ywY5UnLZrNrRl2b93Ruy_g", "review_count": 5, "categories": [{"alias": "restaurants", "title": "Restaurants"}], "rating": 2.5, "coordinates": {"latitude": 42.60635, "longitude": -72.072093}, "transactions": [], "price": "$", "location": {"address1": "31 Central St", "address2": "", "address3": "", "city": "Baldwinville", "zip_code": "01436", "country": "US", "state": "MA", "display_address": ["31 Central St", "Baldwinville, MA 01436"]}, "phone": "+19789395346", "display_phone": "(978) 939-5346", "distance": 6299.710973900523}, {"id": "y7uF47HIjx7uAPiXSiVEOQ", "alias": "christos-place-winchendon", "name": "Christo's Place", "image_url": "https://s3-media1.fl.yelpcdn.com/bphoto/eONDEM9lZv_mrtIPdkTx8w/o.jpg", "is_closed": false, "url": "https://www.yelp.com/biz/christos-place-winchendon?adjust_creative=ywY5UnLZrNrRl2b93Ruy_g&utm_campaign=yelp_api_v3&utm_medium=api_v3_business_search&utm_source=ywY5UnLZrNrRl2b93Ruy_g", "review_count": 10, "categories": [{"alias": "pizza", "title": "Pizza"}], "rating": 3.0, "coordinates": {"latitude": 42.681835, "longitude": -72.047646}, "transactions": [], "price": "$$", "location": {"address1": "51 Central St", "address2": "", "address3": "", "city": "Winchendon", "zip_code": "01475", "country": "US", "state": "MA", "display_address": ["51 Central St", "Winchendon, MA 01475"]}, "phone": "+19782971142", "display_phone": "(978) 297-1142", "distance": 14721.40405262701}, {"id": "bxPkkUUZSgpcIECmiOVHBA", "alias": "westminster-cafe-westminster", "name": "Westminster Cafe", "image_url": "https://s3-media2.fl.yelpcdn.com/bphoto/oDlOcq4-1Lwei9pIqBrCIw/o.jpg", "is_closed": false, "url": "https://www.yelp.com/biz/westminster-cafe-westminster?adjust_creative=ywY5UnLZrNrRl2b93Ruy_g&utm_campaign=yelp_api_v3&utm_medium=api_v3_business_search&utm_source=ywY5UnLZrNrRl2b93Ruy_g", "review_count": 29, "categories": [{"alias": "breakfast_brunch", "title": "Breakfast & Brunch"}, {"alias": "seafood", "title": "Seafood"}, {"alias": "icecream", "title": "Ice Cream & Frozen Yogurt"}], "rating": 4.0, "coordinates": {"latitude": 42.548792, "longitude": -71.917325}, "transactions": [], "price": "$", "location": {"address1": "51 Main St", "address2": null, "address3": null, "city": "Westminster", "zip_code": "01473", "country": "US", "state": "MA", "display_address": ["51 Main St", "Westminster, MA 01473"]}, "phone": "+19788741833", "display_phone": "(978) 874-1833", "distance": 12026.73653428645}, {"id": "P3gCKTfiKvq8JhCiqI-XVg", "alias": "tea-garden-restaurant-athol", "name": "Tea Garden Restaurant", "image_url": "https://s3-media3.fl.yelpcdn.com/bphoto/YikdjBs7rlNRUh78y0HYEQ/o.jpg", "is_closed": false, "url": "https://www.yelp.com/biz/tea-garden-restaurant-athol?adjust_creative=ywY5UnLZrNrRl2b93Ruy_g&utm_campaign=yelp_api_v3&utm_medium=api_v3_business_search&utm_source=ywY5UnLZrNrRl2b93Ruy_g", "review_count": 12, "categories": [{"alias": "chinese", "title": "Chinese"}], "rating": 2.5, "coordinates": {"latitude": 42.5936470031738, "longitude": -72.2273483276367}, "transactions": [], "price": "$$", "location": {"address1": "631 Main St", "address2": null, "address3": null, "city": "Athol", "zip_code": "01331", "country": "US", "state": "MA", "display_address": ["631 Main St", "Athol, MA 01331"]}, "phone": "+19782498388", "display_phone": "(978) 249-8388", "distance": 14240.968852395887}, {"id": "MUs396IkY6SHf4pI0l9gnA", "alias": "tool-town-pizza-athol", "name": "Tool Town Pizza", "image_url": "https://s3-media3.fl.yelpcdn.com/bphoto/UGHTbZneNVMJgB1e2ziCow/o.jpg", "is_closed": false, "url": "https://www.yelp.com/biz/tool-town-pizza-athol?adjust_creative=ywY5UnLZrNrRl2b93Ruy_g&utm_campaign=yelp_api_v3&utm_medium=api_v3_business_search&utm_source=ywY5UnLZrNrRl2b93Ruy_g", "review_count": 11, "categories": [{"alias": "pizza", "title": "Pizza"}, {"alias": "italian", "title": "Italian"}], "rating": 3.5, "coordinates": {"latitude": 42.595664, "longitude": -72.232418}, "transactions": [], "price": "$", "location": {"address1": "246 Exchange St", "address2": "", "address3": "", "city": "Athol", "zip_code": "01331", "country": "US", "state": "MA", "display_address": ["246 Exchange St", "Athol, MA 01331"]}, "phone": "+19782493366", "display_phone": "(978) 249-3366", "distance": 14685.923699700075}, {"id": "6rcmMBO7GBGAB356Pw05IQ", "alias": "hometown-cafe-winchendon", "name": "Hometown Cafe", "image_url": "https://s3-media2.fl.yelpcdn.com/bphoto/dlyJrrhtQsq3izUyKGZsAg/o.jpg", "is_closed": false, "url": "https://www.yelp.com/biz/hometown-cafe-winchendon?adjust_creative=ywY5UnLZrNrRl2b93Ruy_g&utm_campaign=yelp_api_v3&utm_medium=api_v3_business_search&utm_source=ywY5UnLZrNrRl2b93Ruy_g", "review_count": 28, "categories": [{"alias": "cafes", "title": "Cafes"}, {"alias": "breakfast_brunch", "title": "Breakfast & Brunch"}], "rating": 5.0, "coordinates": {"latitude": 42.6869202, "longitude": -72.0442123}, "transactions": [], "price": "$", "location": {"address1": "314 Central St", "address2": "", "address3": "", "city": "Winchendon", "zip_code": "01475", "country": "US", "state": "MA", "display_address": ["314 Central St", "Winchendon, MA 01475"]}, "phone": "+19782972233", "display_phone": "(978) 297-2233", "distance": 15322.26350452788}, {"id": "LD-RgCjEvITIBLap0VuSeA", "alias": "cafe-edesia-gardner-2", "name": "Cafe Edesia", "image_url": "https://s3-media3.fl.yelpcdn.com/bphoto/gAjSkL4-WZC7unuxStflaQ/o.jpg", "is_closed": false, "url": "https://www.yelp.com/biz/cafe-edesia-gardner-2?adjust_creative=ywY5UnLZrNrRl2b93Ruy_g&utm_campaign=yelp_api_v3&utm_medium=api_v3_business_search&utm_source=ywY5UnLZrNrRl2b93Ruy_g", "review_count": 41, "categories": [{"alias": "cafes", "title": "Cafes"}], "rating": 3.5, "coordinates": {"latitude": 42.5682063218004, "longitude": -71.9837307929993}, "transactions": [], "price": "$", "location": {"address1": "486 Chestnut St", "address2": "Ste 2", "address3": "", "city": "Gardner", "zip_code": "01440", "country": "US", "state": "MA", "display_address": ["486 Chestnut St", "Ste 2", "Gardner, MA 01440"]}, "phone": "+19786301555", "display_phone": "(978) 630-1555", "distance": 6889.409626302903}, {"id": "yXkjcWlkcOCYP3CsfT-mEA", "alias": "red-tomato-barre", "name": "Red Tomato", "image_url": "", "is_closed": false, "url": "https://www.yelp.com/biz/red-tomato-barre?adjust_creative=ywY5UnLZrNrRl2b93Ruy_g&utm_campaign=yelp_api_v3&utm_medium=api_v3_business_search&utm_source=ywY5UnLZrNrRl2b93Ruy_g", "review_count": 1, "categories": [{"alias": "pizza", "title": "Pizza"}], "rating": 5.0, "coordinates": {"latitude": 42.42252, "longitude": -72.10426}, "transactions": [], "location": {"address1": "11 Exchange St", "address2": "", "address3": null, "city": "Barre", "zip_code": "01005", "country": "US", "state": "MA", "display_address": ["11 Exchange St", "Barre, MA 01005"]}, "phone": "+19783553536", "display_phone": "(978) 355-3536", "distance": 14563.020019066362}, {"id": "tR-90QTzmqgR9u2nHnz73A", "alias": "lucky-dragon-ii-ashburnham", "name": "Lucky Dragon II", "image_url": "https://s3-media4.fl.yelpcdn.com/bphoto/XQDljQI7rXmPqxpMWy852g/o.jpg", "is_closed": false, "url": "https://www.yelp.com/biz/lucky-dragon-ii-ashburnham?adjust_creative=ywY5UnLZrNrRl2b93Ruy_g&utm_campaign=yelp_api_v3&utm_medium=api_v3_business_search&utm_source=ywY5UnLZrNrRl2b93Ruy_g", "review_count": 5, "categories": [{"alias": "chinese", "title": "Chinese"}], "rating": 3.5, "coordinates": {"latitude": 42.60912, "longitude": -71.94059}, "transactions": ["delivery", "pickup"], "price": "$", "location": {"address1": "2 S Pleasant St", "address2": null, "address3": null, "city": "Ashburnham", "zip_code": "01430", "country": "US", "state": "MA", "display_address": ["2 S Pleasant St", "Ashburnham, MA 01430"]}, "phone": "+19788271318", "display_phone": "(978) 827-1318", "distance": 12053.822899334771}, {"id": "7BXlpaPDZcEgZGv80b_Pjg", "alias": "village-pizza-ashburnham", "name": "Village Pizza", "image_url": "", "is_closed": false, "url": "https://www.yelp.com/biz/village-pizza-ashburnham?adjust_creative=ywY5UnLZrNrRl2b93Ruy_g&utm_campaign=yelp_api_v3&utm_medium=api_v3_business_search&utm_source=ywY5UnLZrNrRl2b93Ruy_g", "review_count": 6, "categories": [{"alias": "pizza", "title": "Pizza"}], "rating": 4.0, "coordinates": {"latitude": 42.635459, "longitude": -71.910931}, "transactions": ["delivery", "pickup"], "price": "$$", "location": {"address1": "65 Main St", "address2": "", "address3": "", "city": "Ashburnham", "zip_code": "01430", "country": "US", "state": "MA", "display_address": ["65 Main St", "Ashburnham, MA 01430"]}, "phone": "+19788273007", "display_phone": "(978) 827-3007", "distance": 15733.378550642545}, {"id": "SB9nvFYt5w_dBqmblN9diQ", "alias": "c-and-s-pizza-of-winchendon-winchendon", "name": "C & S Pizza of Winchendon", "image_url": "https://s3-media2.fl.yelpcdn.com/bphoto/amwciQINWANoDPgIgLwlEw/o.jpg", "is_closed": false, "url": "https://www.yelp.com/biz/c-and-s-pizza-of-winchendon-winchendon?adjust_creative=ywY5UnLZrNrRl2b93Ruy_g&utm_campaign=yelp_api_v3&utm_medium=api_v3_business_search&utm_source=ywY5UnLZrNrRl2b93Ruy_g", "review_count": 20, "categories": [{"alias": "pizza", "title": "Pizza"}], "rating": 4.0, "coordinates": {"latitude": 42.68464, "longitude": -72.04595}, "transactions": [], "price": "$$", "location": {"address1": "188 Central St", "address2": "", "address3": "", "city": "Winchendon", "zip_code": "01475", "country": "US", "state": "MA", "display_address": ["188 Central St", "Winchendon, MA 01475"]}, "phone": "+19782972202", "display_phone": "(978) 297-2202", "distance": 15047.71906370747}, {"id": "DOw6h_K6tTafiWgR2bSufg", "alias": "hubb-town-diner-hubbardston", "name": "Hubb Town Diner", "image_url": "https://s3-media3.fl.yelpcdn.com/bphoto/Oaec6pAdS2SoUdRTyIIzAA/o.jpg", "is_closed": false, "url": "https://www.yelp.com/biz/hubb-town-diner-hubbardston?adjust_creative=ywY5UnLZrNrRl2b93Ruy_g&utm_campaign=yelp_api_v3&utm_medium=api_v3_business_search&utm_source=ywY5UnLZrNrRl2b93Ruy_g", "review_count": 10, "categories": [{"alias": "breakfast_brunch", "title": "Breakfast & Brunch"}, {"alias": "diners", "title": "Diners"}, {"alias": "sandwiches", "title": "Sandwiches"}], "rating": 3.5, "coordinates": {"latitude": 42.4781684875488, "longitude": -72.0094299316406}, "transactions": [], "price": "$$", "location": {"address1": "32 Main St", "address2": null, "address3": "", "city": "Hubbardston", "zip_code": "01452", "country": "US", "state": "MA", "display_address": ["32 Main St", "Hubbardston, MA 01452"]}, "phone": "+19788201600", "display_phone": "(978) 820-1600", "distance": 9178.58349850602}, {"id": "8LMS-2CQc5eU1Eg7OnDZng", "alias": "brothers-pizza-ashburnham", "name": "Brothers Pizza", "image_url": "", "is_closed": false, "url": "https://www.yelp.com/biz/brothers-pizza-ashburnham?adjust_creative=ywY5UnLZrNrRl2b93Ruy_g&utm_campaign=yelp_api_v3&utm_medium=api_v3_business_search&utm_source=ywY5UnLZrNrRl2b93Ruy_g", "review_count": 10, "categories": [{"alias": "pizza", "title": "Pizza"}], "rating": 4.5, "coordinates": {"latitude": 42.6355896, "longitude": -71.9095764}, "transactions": [], "location": {"address1": "47 Main St", "address2": null, "address3": "", "city": "Ashburnham", "zip_code": "01430", "country": "US", "state": "MA", "display_address": ["47 Main St", "Ashburnham, MA 01430"]}, "phone": "+19788271111", "display_phone": "(978) 827-1111", "distance": 15828.261110472293}, {"id": "-PRPQJUowAthn2mmh0_mbA", "alias": "garden-pizza-and-seafood-gardner", "name": "Garden Pizza & Seafood", "image_url": "https://s3-media1.fl.yelpcdn.com/bphoto/Ma_A1uu1KF8sKgnz3eVygA/o.jpg", "is_closed": false, "url": "https://www.yelp.com/biz/garden-pizza-and-seafood-gardner?adjust_creative=ywY5UnLZrNrRl2b93Ruy_g&utm_campaign=yelp_api_v3&utm_medium=api_v3_business_search&utm_source=ywY5UnLZrNrRl2b93Ruy_g", "review_count": 14, "categories": [{"alias": "seafood", "title": "Seafood"}, {"alias": "pizza", "title": "Pizza"}], "rating": 3.0, "coordinates": {"latitude": 42.5759978, "longitude": -71.995618}, "transactions": [], "price": "$$", "location": {"address1": "24 Parker St", "address2": "", "address3": "", "city": "Gardner", "zip_code": "01440", "country": "US", "state": "MA", "display_address": ["24 Parker St", "Gardner, MA 01440"]}, "phone": "+19786302424", "display_phone": "(978) 630-2424", "distance": 6312.185912160195}, {"id": "8UGk7xXWl2S1sukzncygOA", "alias": "friendly-town-pizza-athol", "name": "Friendly Town Pizza", "image_url": "https://s3-media2.fl.yelpcdn.com/bphoto/p3xHl6JjujdkBj7l85xrnw/o.jpg", "is_closed": false, "url": "https://www.yelp.com/biz/friendly-town-pizza-athol?adjust_creative=ywY5UnLZrNrRl2b93Ruy_g&utm_campaign=yelp_api_v3&utm_medium=api_v3_business_search&utm_source=ywY5UnLZrNrRl2b93Ruy_g", "review_count": 30, "categories": [{"alias": "pizza", "title": "Pizza"}], "rating": 4.5, "coordinates": {"latitude": 42.581438, "longitude": -72.261868}, "transactions": [], "price": "$$", "location": {"address1": "1604 S Main St", "address2": null, "address3": null, "city": "Athol", "zip_code": "01331", "country": "US", "state": "MA", "display_address": ["1604 S Main St", "Athol, MA 01331"]}, "phone": "+19782493651", "display_phone": "(978) 249-3651", "distance": 16566.60588011116}, {"id": "M4pDTg4c5gUmYsvHXpTllw", "alias": "friends-garden-winchendon", "name": "Friend's Garden", "image_url": "https://s3-media2.fl.yelpcdn.com/bphoto/jKW6chQtwYeR_MQZkExGIA/o.jpg", "is_closed": false, "url": "https://www.yelp.com/biz/friends-garden-winchendon?adjust_creative=ywY5UnLZrNrRl2b93Ruy_g&utm_campaign=yelp_api_v3&utm_medium=api_v3_business_search&utm_source=ywY5UnLZrNrRl2b93Ruy_g", "review_count": 10, "categories": [{"alias": "chinese", "title": "Chinese"}], "rating": 3.0, "coordinates": {"latitude": 42.6819683, "longitude": -72.04811}, "transactions": [], "price": "$$", "location": {"address1": "56 Central St", "address2": "", "address3": "", "city": "Winchendon", "zip_code": "01475", "country": "US", "state": "MA", "display_address": ["56 Central St", "Winchendon, MA 01475"]}, "phone": "+19782972277", "display_phone": "(978) 297-2277", "distance": 14745.761647595027}, {"id": "MMDcTPhGXYDu0-HhBHqMrw", "alias": "shanes-hot-dogs-gardner", "name": "Shane's Hot Dogs", "image_url": "", "is_closed": false, "url": "https://www.yelp.com/biz/shanes-hot-dogs-gardner?adjust_creative=ywY5UnLZrNrRl2b93Ruy_g&utm_campaign=yelp_api_v3&utm_medium=api_v3_business_search&utm_source=ywY5UnLZrNrRl2b93Ruy_g", "review_count": 1, "categories": [{"alias": "hotdog", "title": "Hot Dogs"}, {"alias": "foodstands", "title": "Food Stands"}], "rating": 2.0, "coordinates": {"latitude": 42.5677898, "longitude": -71.9836277}, "transactions": [], "price": "$", "location": {"address1": "500 Chestnut St", "address2": "", "address3": null, "city": "Gardner", "zip_code": "01440", "country": "US", "state": "MA", "display_address": ["500 Chestnut St", "Gardner, MA 01440"]}, "phone": "+19782735068", "display_phone": "(978) 273-5068", "distance": 6886.397563713005}, {"id": "OOfG7vHmJhU1ii-XvDu1oA", "alias": "nicks-breakfast-and-lunch-athol", "name": "Nicks Breakfast and Lunch", "image_url": "https://s3-media3.fl.yelpcdn.com/bphoto/DkQ81_0J-azZTYh2pL_hfg/o.jpg", "is_closed": false, "url": "https://www.yelp.com/biz/nicks-breakfast-and-lunch-athol?adjust_creative=ywY5UnLZrNrRl2b93Ruy_g&utm_campaign=yelp_api_v3&utm_medium=api_v3_business_search&utm_source=ywY5UnLZrNrRl2b93Ruy_g", "review_count": 16, "categories": [{"alias": "breakfast_brunch", "title": "Breakfast & Brunch"}], "rating": 3.5, "coordinates": {"latitude": 42.5937958, "longitude": -72.228775}, "transactions": [], "price": "$$", "location": {"address1": "567 Main St", "address2": "", "address3": "", "city": "Athol", "zip_code": "01331", "country": "US", "state": "MA", "display_address": ["567 Main St", "Athol, MA 01331"]}, "phone": "+19782498400", "display_phone": "(978) 249-8400", "distance": 14309.794177872483}, {"id": "ZotvCkZnaImGJUyIEBX4Mw", "alias": "gabbys-pizza-winchendon-2", "name": "Gabby's Pizza", "image_url": "https://s3-media4.fl.yelpcdn.com/bphoto/eb75nQNfktU1Fzfdz6ya4g/o.jpg", "is_closed": false, "url": "https://www.yelp.com/biz/gabbys-pizza-winchendon-2?adjust_creative=ywY5UnLZrNrRl2b93Ruy_g&utm_campaign=yelp_api_v3&utm_medium=api_v3_business_search&utm_source=ywY5UnLZrNrRl2b93Ruy_g", "review_count": 21, "categories": [{"alias": "pizza", "title": "Pizza"}], "rating": 4.0, "coordinates": {"latitude": 42.6858862, "longitude": -72.0447741}, "transactions": [], "price": "$", "location": {"address1": "255 Central St", "address2": "", "address3": "", "city": "Winchendon", "zip_code": "01475", "country": "US", "state": "MA", "display_address": ["255 Central St", "Winchendon, MA 01475"]}, "phone": "+19782973909", "display_phone": "(978) 297-3909", "distance": 15192.734307849438}, {"id": "aWYujjBXWiC-8oY7MrZG3w", "alias": "wild-child-express-princeton", "name": "Wild Child Express", "image_url": "", "is_closed": false, "url": "https://www.yelp.com/biz/wild-child-express-princeton?adjust_creative=ywY5UnLZrNrRl2b93Ruy_g&utm_campaign=yelp_api_v3&utm_medium=api_v3_business_search&utm_source=ywY5UnLZrNrRl2b93Ruy_g", "review_count": 2, "categories": [{"alias": "icecream", "title": "Ice Cream & Frozen Yogurt"}, {"alias": "foodstands", "title": "Food Stands"}], "rating": 5.0, "coordinates": {"latitude": 42.4229399, "longitude": -71.92728}, "transactions": [], "location": {"address1": "29 Dowds Ln", "address2": null, "address3": "", "city": "Princeton", "zip_code": "01541", "country": "US", "state": "MA", "display_address": ["29 Dowds Ln", "Princeton, MA 01541"]}, "phone": "+19784644570", "display_phone": "(978) 464-4570", "distance": 18042.715573789515}, {"id": "yeqwDdLvP_9693lzRpAPug", "alias": "zedas-athol", "name": "Zedas", "image_url": "https://s3-media2.fl.yelpcdn.com/bphoto/Vn1AWiq6c0ATtDW7Za8U8w/o.jpg", "is_closed": false, "url": "https://www.yelp.com/biz/zedas-athol?adjust_creative=ywY5UnLZrNrRl2b93Ruy_g&utm_campaign=yelp_api_v3&utm_medium=api_v3_business_search&utm_source=ywY5UnLZrNrRl2b93Ruy_g", "review_count": 11, "categories": [{"alias": "pizza", "title": "Pizza"}], "rating": 3.0, "coordinates": {"latitude": 42.5920096, "longitude": -72.2316385}, "transactions": [], "price": "$$", "location": {"address1": "11 Tunnel St", "address2": "", "address3": "", "city": "Athol", "zip_code": "01331", "country": "US", "state": "MA", "display_address": ["11 Tunnel St", "Athol, MA 01331"]}, "phone": "+19782499876", "display_phone": "(978) 249-9876", "distance": 14484.453622599438}, {"id": "3ejotiHbd3qB8M1ZSr6iuw", "alias": "friendlys-gardner", "name": "Friendly's", "image_url": "https://s3-media2.fl.yelpcdn.com/bphoto/wcoUh5wyZ3aTbl6usrO4Ww/o.jpg", "is_closed": false, "url": "https://www.yelp.com/biz/friendlys-gardner?adjust_creative=ywY5UnLZrNrRl2b93Ruy_g&utm_campaign=yelp_api_v3&utm_medium=api_v3_business_search&utm_source=ywY5UnLZrNrRl2b93Ruy_g", "review_count": 24, "categories": [{"alias": "icecream", "title": "Ice Cream & Frozen Yogurt"}, {"alias": "burgers", "title": "Burgers"}, {"alias": "tradamerican", "title": "American (Traditional)"}], "rating": 2.0, "coordinates": {"latitude": 42.566247470663, "longitude": -71.979320066874}, "transactions": [], "price": "$", "location": {"address1": "18 Pearson Blvd", "address2": "", "address3": "", "city": "Gardner", "zip_code": "01440", "country": "US", "state": "MA", "display_address": ["18 Pearson Blvd", "Gardner, MA 01440"]}, "phone": "+19786301821", "display_phone": "(978) 630-1821", "distance": 7177.700276653966}, {"id": "ulTdoEH6AfozwdGeAfHL0A", "alias": "pine-ridge-snack-bar-barre", "name": "Pine Ridge Snack Bar", "image_url": "", "is_closed": false, "url": "https://www.yelp.com/biz/pine-ridge-snack-bar-barre?adjust_creative=ywY5UnLZrNrRl2b93Ruy_g&utm_campaign=yelp_api_v3&utm_medium=api_v3_business_search&utm_source=ywY5UnLZrNrRl2b93Ruy_g", "review_count": 2, "categories": [{"alias": "breakfast_brunch", "title": "Breakfast & Brunch"}], "rating": 3.0, "coordinates": {"latitude": 42.4226265, "longitude": -72.1043243}, "transactions": [], "location": {"address1": "25 Exchange St", "address2": null, "address3": null, "city": "Barre", "zip_code": "01005", "country": "US", "state": "MA", "display_address": ["25 Exchange St", "Barre, MA 01005"]}, "phone": "+19783550012", "display_phone": "(978) 355-0012", "distance": 14549.252094405207}, {"id": "5um6bgKp_RBrNh3pyS5Gig", "alias": "family-kitchen-hubbardston", "name": "Family Kitchen", "image_url": "", "is_closed": false, "url": "https://www.yelp.com/biz/family-kitchen-hubbardston?adjust_creative=ywY5UnLZrNrRl2b93Ruy_g&utm_campaign=yelp_api_v3&utm_medium=api_v3_business_search&utm_source=ywY5UnLZrNrRl2b93Ruy_g", "review_count": 1, "categories": [{"alias": "pizza", "title": "Pizza"}], "rating": 1.0, "coordinates": {"latitude": 42.4784779082112, "longitude": -72.0091371899555}, "transactions": [], "location": {"address1": "32 Main Street", "address2": "", "address3": null, "city": "Hubbardston", "zip_code": "01452", "country": "US", "state": "MA", "display_address": ["32 Main Street", "Hubbardston, MA 01452"]}, "phone": "+19788201440", "display_phone": "(978) 820-1440", "distance": 9141.401703946129}, {"id": "BTJ-cXSsKXrXtSrhPFqD8A", "alias": "eight-dragons-take-out-restaurant-athol", "name": "Eight Dragons Take-Out Restaurant", "image_url": "https://s3-media3.fl.yelpcdn.com/bphoto/zJLO1P1o6vR28A5g2tRc0w/o.jpg", "is_closed": false, "url": "https://www.yelp.com/biz/eight-dragons-take-out-restaurant-athol?adjust_creative=ywY5UnLZrNrRl2b93Ruy_g&utm_campaign=yelp_api_v3&utm_medium=api_v3_business_search&utm_source=ywY5UnLZrNrRl2b93Ruy_g", "review_count": 17, "categories": [{"alias": "chinese", "title": "Chinese"}, {"alias": "seafood", "title": "Seafood"}], "rating": 2.5, "coordinates": {"latitude": 42.593049, "longitude": -72.234464}, "transactions": [], "price": "$$", "location": {"address1": "32 Freedom St", "address2": "", "address3": "", "city": "Athol", "zip_code": "01331", "country": "US", "state": "MA", "display_address": ["32 Freedom St", "Athol, MA 01331"]}, "phone": "+19782492777", "display_phone": "(978) 249-2777", "distance": 14747.697857217074}, {"id": "E2PBDgjjwdGvZPnFX8_P4A", "alias": "princeton-house-of-pizza-princeton", "name": "Princeton House of Pizza", "image_url": "https://s3-media2.fl.yelpcdn.com/bphoto/xo0WUiNcc8y2UMGDMwh6qg/o.jpg", "is_closed": false, "url": "https://www.yelp.com/biz/princeton-house-of-pizza-princeton?adjust_creative=ywY5UnLZrNrRl2b93Ruy_g&utm_campaign=yelp_api_v3&utm_medium=api_v3_business_search&utm_source=ywY5UnLZrNrRl2b93Ruy_g", "review_count": 13, "categories": [{"alias": "pizza", "title": "Pizza"}], "rating": 3.0, "coordinates": {"latitude": 42.4501459300518, "longitude": -71.8805374950171}, "transactions": [], "price": "$$", "location": {"address1": "25 Hubbardston Rd", "address2": "", "address3": "", "city": "Princeton", "zip_code": "01541", "country": "US", "state": "MA", "display_address": ["25 Hubbardston Rd", "Princeton, MA 01541"]}, "phone": "+19784645858", "display_phone": "(978) 464-5858", "distance": 18686.955479398166}, {"id": "eIRuELHslKEMAmHm0DHbxw", "alias": "pleasant-house-of-pizza-gardner", "name": "Pleasant House of Pizza", "image_url": "", "is_closed": false, "url": "https://www.yelp.com/biz/pleasant-house-of-pizza-gardner?adjust_creative=ywY5UnLZrNrRl2b93Ruy_g&utm_campaign=yelp_api_v3&utm_medium=api_v3_business_search&utm_source=ywY5UnLZrNrRl2b93Ruy_g", "review_count": 1, "categories": [{"alias": "pizza", "title": "Pizza"}], "rating": 3.0, "coordinates": {"latitude": 42.5748923481699, "longitude": -71.9946629036695}, "transactions": [], "location": {"address1": "68 Main St", "address2": "", "address3": "", "city": "Gardner", "zip_code": "01440", "country": "US", "state": "MA", "display_address": ["68 Main St", "Gardner, MA 01440"]}, "phone": "", "display_phone": "", "distance": 6327.1343064839275}, {"id": "kqir5dO2JZ5Y0HYO33wbCQ", "alias": "dominos-pizza-gardner", "name": "Domino's Pizza", "image_url": "https://s3-media1.fl.yelpcdn.com/bphoto/xblCtNJCS2ds7BgENryLEw/o.jpg", "is_closed": false, "url": "https://www.yelp.com/biz/dominos-pizza-gardner?adjust_creative=ywY5UnLZrNrRl2b93Ruy_g&utm_campaign=yelp_api_v3&utm_medium=api_v3_business_search&utm_source=ywY5UnLZrNrRl2b93Ruy_g", "review_count": 6, "categories": [{"alias": "pizza", "title": "Pizza"}, {"alias": "chicken_wings", "title": "Chicken Wings"}, {"alias": "sandwiches", "title": "Sandwiches"}], "rating": 2.5, "coordinates": {"latitude": 42.5749306, "longitude": -72.006989}, "transactions": [], "price": "$", "location": {"address1": "401 Parker St", "address2": "", "address3": "", "city": "Gardner", "zip_code": "01440", "country": "US", "state": "MA", "display_address": ["401 Parker St", "Gardner, MA 01440"]}, "phone": "+19786328170", "display_phone": "(978) 632-8170", "distance": 5448.302382689404}, {"id": "UobatlVMDwz7k_iYHqn8NQ", "alias": "ashburnham-wine-and-spirits-ashburnham", "name": "Ashburnham Wine & Spirits", "image_url": "", "is_closed": false, "url": "https://www.yelp.com/biz/ashburnham-wine-and-spirits-ashburnham?adjust_creative=ywY5UnLZrNrRl2b93Ruy_g&utm_campaign=yelp_api_v3&utm_medium=api_v3_business_search&utm_source=ywY5UnLZrNrRl2b93Ruy_g", "review_count": 4, "categories": [{"alias": "beer_and_wine", "title": "Beer, Wine & Spirits"}, {"alias": "delis", "title": "Delis"}], "rating": 5.0, "coordinates": {"latitude": 42.63619, "longitude": -71.90957}, "transactions": [], "price": "$", "location": {"address1": "3 Memorial Dr", "address2": "", "address3": "", "city": "Ashburnham", "zip_code": "01430", "country": "US", "state": "MA", "display_address": ["3 Memorial Dr", "Ashburnham, MA 01430"]}, "phone": "+19788275872", "display_phone": "(978) 827-5872", "distance": 15878.490225727186}, {"id": "Je1gbLcoqWn-R9Wsw09J2g", "alias": "burger-king-gardner-2", "name": "Burger King", "image_url": "https://s3-media4.fl.yelpcdn.com/bphoto/PtHJDw19UTmeX8yvo60qtw/o.jpg", "is_closed": false, "url": "https://www.yelp.com/biz/burger-king-gardner-2?adjust_creative=ywY5UnLZrNrRl2b93Ruy_g&utm_campaign=yelp_api_v3&utm_medium=api_v3_business_search&utm_source=ywY5UnLZrNrRl2b93Ruy_g", "review_count": 2, "categories": [{"alias": "burgers", "title": "Burgers"}, {"alias": "hotdogs", "title": "Fast Food"}], "rating": 1.0, "coordinates": {"latitude": 42.565589, "longitude": -71.991512}, "transactions": [], "price": "$", "location": {"address1": "9 Crawford Street", "address2": "", "address3": "", "city": "Gardner", "zip_code": "01440", "country": "US", "state": "MA", "display_address": ["9 Crawford Street", "Gardner, MA 01440"]}, "phone": "", "display_phone": "", "distance": 6191.9378371748}, {"id": "PhQ3uxMgUl-T6aAKhoQZ9A", "alias": "west-broadway-pizza-gardner", "name": "West Broadway Pizza", "image_url": "https://s3-media2.fl.yelpcdn.com/bphoto/ypGtnWkRqQLnXkiHN6nWHg/o.jpg", "is_closed": false, "url": "https://www.yelp.com/biz/west-broadway-pizza-gardner?adjust_creative=ywY5UnLZrNrRl2b93Ruy_g&utm_campaign=yelp_api_v3&utm_medium=api_v3_business_search&utm_source=ywY5UnLZrNrRl2b93Ruy_g", "review_count": 11, "categories": [{"alias": "pizza", "title": "Pizza"}], "rating": 3.5, "coordinates": {"latitude": 42.5579833984375, "longitude": -71.9809036254883}, "transactions": [], "price": "$$", "location": {"address1": "15 W Broadway", "address2": "", "address3": "", "city": "Gardner", "zip_code": "01440", "country": "US", "state": "MA", "display_address": ["15 W Broadway", "Gardner, MA 01440"]}, "phone": "+19786303111", "display_phone": "(978) 630-3111", "distance": 6874.905868660097}, {"id": "5ld1TVlEcddnCbeq0ulxkQ", "alias": "barre-pizza-barre", "name": "Barre Pizza", "image_url": "https://s3-media1.fl.yelpcdn.com/bphoto/Lk1bGeWFqv1WyoReOh9jyA/o.jpg", "is_closed": false, "url": "https://www.yelp.com/biz/barre-pizza-barre?adjust_creative=ywY5UnLZrNrRl2b93Ruy_g&utm_campaign=yelp_api_v3&utm_medium=api_v3_business_search&utm_source=ywY5UnLZrNrRl2b93Ruy_g", "review_count": 12, "categories": [{"alias": "pizza", "title": "Pizza"}, {"alias": "salad", "title": "Salad"}, {"alias": "sandwiches", "title": "Sandwiches"}], "rating": 3.0, "coordinates": {"latitude": 42.42168, "longitude": -72.10447}, "transactions": [], "price": "$$", "location": {"address1": "10 Moulton St", "address2": "", "address3": "", "city": "Barre", "zip_code": "01005", "country": "US", "state": "MA", "display_address": ["10 Moulton St", "Barre, MA 01005"]}, "phone": "+19783554595", "display_phone": "(978) 355-4595", "distance": 14646.145146432746}, {"id": "37gP7ifq1CpZz9L9Pz80YQ", "alias": "stefanos-house-of-pizza-westminster", "name": "Stefanos' House of Pizza", "image_url": "https://s3-media1.fl.yelpcdn.com/bphoto/tE-DWbxiKdwXZItchnG96w/o.jpg", "is_closed": false, "url": "https://www.yelp.com/biz/stefanos-house-of-pizza-westminster?adjust_creative=ywY5UnLZrNrRl2b93Ruy_g&utm_campaign=yelp_api_v3&utm_medium=api_v3_business_search&utm_source=ywY5UnLZrNrRl2b93Ruy_g", "review_count": 15, "categories": [{"alias": "pizza", "title": "Pizza"}, {"alias": "salad", "title": "Salad"}, {"alias": "sandwiches", "title": "Sandwiches"}], "rating": 3.0, "coordinates": {"latitude": 42.546079, "longitude": -71.91376}, "transactions": [], "price": "$", "location": {"address1": "105 Main St", "address2": "", "address3": "", "city": "Westminster", "zip_code": "01473", "country": "US", "state": "MA", "display_address": ["105 Main St", "Westminster, MA 01473"]}, "phone": "+19788741922", "display_phone": "(978) 874-1922", "distance": 12325.997925416868}, {"id": "kKKJ4J05Jii-oAc6oEJifg", "alias": "town-house-of-pizza-westminster", "name": "Town House of Pizza", "image_url": "https://s3-media3.fl.yelpcdn.com/bphoto/mJvtfHsssMJqGTvEAJ-uyw/o.jpg", "is_closed": false, "url": "https://www.yelp.com/biz/town-house-of-pizza-westminster?adjust_creative=ywY5UnLZrNrRl2b93Ruy_g&utm_campaign=yelp_api_v3&utm_medium=api_v3_business_search&utm_source=ywY5UnLZrNrRl2b93Ruy_g", "review_count": 23, "categories": [{"alias": "pizza", "title": "Pizza"}, {"alias": "italian", "title": "Italian"}, {"alias": "breakfast_brunch", "title": "Breakfast & Brunch"}], "rating": 3.5, "coordinates": {"latitude": 42.5484099, "longitude": -71.91575}, "transactions": [], "price": "$", "location": {"address1": "68 Main St", "address2": "", "address3": "", "city": "Westminster", "zip_code": "01473", "country": "US", "state": "MA", "display_address": ["68 Main St", "Westminster, MA 01473"]}, "phone": "+19788740326", "display_phone": "(978) 874-0326", "distance": 12156.321950165036}, {"id": "ca-cNiTee3s_oxTewG1CDg", "alias": "subway-gardner-7", "name": "Subway", "image_url": "https://s3-media3.fl.yelpcdn.com/bphoto/-GDNHfONoo-cnd-5mtzipg/o.jpg", "is_closed": false, "url": "https://www.yelp.com/biz/subway-gardner-7?adjust_creative=ywY5UnLZrNrRl2b93Ruy_g&utm_campaign=yelp_api_v3&utm_medium=api_v3_business_search&utm_source=ywY5UnLZrNrRl2b93Ruy_g", "review_count": 3, "categories": [{"alias": "sandwiches", "title": "Sandwiches"}], "rating": 3.5, "coordinates": {"latitude": 42.566047, "longitude": -71.977501}, "transactions": [], "price": "$", "location": {"address1": "30 Pearson Blvd", "address2": "", "address3": "", "city": "Gardner", "zip_code": "01440", "country": "US", "state": "MA", "display_address": ["30 Pearson Blvd", "Gardner, MA 01440"]}, "phone": "+19786325213", "display_phone": "(978) 632-5213", "distance": 7316.532515529143}, {"id": "o686NvNNRF8TecM4j0KxwQ", "alias": "lickity-splitz-winchendon", "name": "Lickity Splitz", "image_url": "https://s3-media3.fl.yelpcdn.com/bphoto/P12JecDQJnJB5lVQK8AepQ/o.jpg", "is_closed": false, "url": "https://www.yelp.com/biz/lickity-splitz-winchendon?adjust_creative=ywY5UnLZrNrRl2b93Ruy_g&utm_campaign=yelp_api_v3&utm_medium=api_v3_business_search&utm_source=ywY5UnLZrNrRl2b93Ruy_g", "review_count": 18, "categories": [{"alias": "icecream", "title": "Ice Cream & Frozen Yogurt"}, {"alias": "burgers", "title": "Burgers"}, {"alias": "hotdog", "title": "Hot Dogs"}], "rating": 4.0, "coordinates": {"latitude": 42.67049, "longitude": -72.07639}, "transactions": [], "price": "$", "location": {"address1": "231 Main St", "address2": "", "address3": "", "city": "Winchendon", "zip_code": "01475", "country": "US", "state": "MA", "display_address": ["231 Main St", "Winchendon, MA 01475"]}, "phone": "+19782971777", "display_phone": "(978) 297-1777", "distance": 13358.608345945506}, {"id": "hce2WyKR6p9j0zGa3cl1lg", "alias": "wendys-athol", "name": "Wendy's", "image_url": "https://s3-media1.fl.yelpcdn.com/bphoto/eVXgbWFKJOuB6TAuoTftyw/o.jpg", "is_closed": false, "url": "https://www.yelp.com/biz/wendys-athol?adjust_creative=ywY5UnLZrNrRl2b93Ruy_g&utm_campaign=yelp_api_v3&utm_medium=api_v3_business_search&utm_source=ywY5UnLZrNrRl2b93Ruy_g", "review_count": 1, "categories": [{"alias": "burgers", "title": "Burgers"}, {"alias": "hotdogs", "title": "Fast Food"}], "rating": 1.0, "coordinates": {"latitude": 42.58012, "longitude": -72.18376}, "transactions": [], "location": {"address1": "56 Market Dr", "address2": null, "address3": null, "city": "Athol", "zip_code": "01331", "country": "US", "state": "MA", "display_address": ["56 Market Dr", "Athol, MA 01331"]}, "phone": "", "display_phone": "", "distance": 10315.629262594344}, {"id": "F4yelOONhwZOpJIDLvnHMQ", "alias": "nikis-pizza-athol", "name": "Niki's Pizza", "image_url": "https://s3-media3.fl.yelpcdn.com/bphoto/9wYpf3PUarCCpmLsrm2dNg/o.jpg", "is_closed": false, "url": "https://www.yelp.com/biz/nikis-pizza-athol?adjust_creative=ywY5UnLZrNrRl2b93Ruy_g&utm_campaign=yelp_api_v3&utm_medium=api_v3_business_search&utm_source=ywY5UnLZrNrRl2b93Ruy_g", "review_count": 5, "categories": [{"alias": "pizza", "title": "Pizza"}], "rating": 2.5, "coordinates": {"latitude": 42.58874, "longitude": -72.215375}, "transactions": [], "price": "$", "location": {"address1": "1261 Chestnut St", "address2": null, "address3": null, "city": "Athol", "zip_code": "01331", "country": "US", "state": "MA", "display_address": ["1261 Chestnut St", "Athol, MA 01331"]}, "phone": "+19782492500", "display_phone": "(978) 249-2500", "distance": 13113.060460208751}, {"id": "iFhZ31feMlCA1F6H-rLVUA", "alias": "subway-westminster-42", "name": "Subway", "image_url": "https://s3-media3.fl.yelpcdn.com/bphoto/Q4DHyx93UuD2MKm09Qp6ZA/o.jpg", "is_closed": false, "url": "https://www.yelp.com/biz/subway-westminster-42?adjust_creative=ywY5UnLZrNrRl2b93Ruy_g&utm_campaign=yelp_api_v3&utm_medium=api_v3_business_search&utm_source=ywY5UnLZrNrRl2b93Ruy_g", "review_count": 4, "categories": [{"alias": "sandwiches", "title": "Sandwiches"}], "rating": 3.5, "coordinates": {"latitude": 42.5464934656065, "longitude": -71.9140293000952}, "transactions": [], "price": "$", "location": {"address1": "97 Main St", "address2": "", "address3": null, "city": "Westminster", "zip_code": "01473", "country": "US", "state": "MA", "display_address": ["97 Main St", "Westminster, MA 01473"]}, "phone": "+19788742185", "display_phone": "(978) 874-2185", "distance": 12302.363792034017}, {"id": "R-vkZRm9n6wLsApICyGAaw", "alias": "athol-house-of-pizza-restaurant-and-bakery-athol", "name": "Athol House of Pizza Restaurant & Bakery", "image_url": "https://s3-media4.fl.yelpcdn.com/bphoto/3FRiTWJglhE7qOR6gZdMTw/o.jpg", "is_closed": false, "url": "https://www.yelp.com/biz/athol-house-of-pizza-restaurant-and-bakery-athol?adjust_creative=ywY5UnLZrNrRl2b93Ruy_g&utm_campaign=yelp_api_v3&utm_medium=api_v3_business_search&utm_source=ywY5UnLZrNrRl2b93Ruy_g", "review_count": 25, "categories": [{"alias": "bakeries", "title": "Bakeries"}, {"alias": "pizza", "title": "Pizza"}], "rating": 3.0, "coordinates": {"latitude": 42.594047, "longitude": -72.229459}, "transactions": [], "price": "$$", "location": {"address1": "522 Main St", "address2": null, "address3": "", "city": "Athol", "zip_code": "01331", "country": "US", "state": "MA", "display_address": ["522 Main St", "Athol, MA 01331"]}, "phone": "+19782493762", "display_phone": "(978) 249-3762", "distance": 14396.815992704152}, {"id": "ybkcxwJrjVxwHu5LCWT71Q", "alias": "d-angelo-gardner", "name": "D'Angelo", "image_url": "", "is_closed": false, "url": "https://www.yelp.com/biz/d-angelo-gardner?adjust_creative=ywY5UnLZrNrRl2b93Ruy_g&utm_campaign=yelp_api_v3&utm_medium=api_v3_business_search&utm_source=ywY5UnLZrNrRl2b93Ruy_g", "review_count": 5, "categories": [{"alias": "sandwiches", "title": "Sandwiches"}], "rating": 2.5, "coordinates": {"latitude": 42.5666254, "longitude": -71.9823995}, "transactions": [], "location": {"address1": "43 Union Sq", "address2": "", "address3": "", "city": "Gardner", "zip_code": "01440", "country": "US", "state": "MA", "display_address": ["43 Union Sq", "Gardner, MA 01440"]}, "phone": "+19786327533", "display_phone": "(978) 632-7533", "distance": 6940.21374385687}, {"id": "F1K8iHcH22xWJoLHJ898sw", "alias": "mountainside-bakery-and-cafe-princeton-2", "name": "Mountainside Bakery & Cafe", "image_url": "https://s3-media2.fl.yelpcdn.com/bphoto/UagP18_tn441kCP6vNF6ag/o.jpg", "is_closed": false, "url": "https://www.yelp.com/biz/mountainside-bakery-and-cafe-princeton-2?adjust_creative=ywY5UnLZrNrRl2b93Ruy_g&utm_campaign=yelp_api_v3&utm_medium=api_v3_business_search&utm_source=ywY5UnLZrNrRl2b93Ruy_g", "review_count": 46, "categories": [{"alias": "bakeries", "title": "Bakeries"}, {"alias": "cafes", "title": "Cafes"}, {"alias": "communitycenters", "title": "Community Centers"}], "rating": 4.5, "coordinates": {"latitude": 42.475367139192, "longitude": -71.8835869731025}, "transactions": [], "price": "$$", "location": {"address1": "213 Mountain Rd", "address2": null, "address3": null, "city": "Princeton", "zip_code": "01541", "country": "US", "state": "MA", "display_address": ["213 Mountain Rd", "Princeton, MA 01541"]}, "phone": "+19784640300", "display_phone": "(978) 464-0300", "distance": 16926.440179376197}, {"id": "z5SDOfUA5zNhGmyXIAXe8A", "alias": "northeast-pizza-barre", "name": "Northeast Pizza", "image_url": "https://s3-media1.fl.yelpcdn.com/bphoto/tNBoaH8M7BxY1upCowwS4A/o.jpg", "is_closed": false, "url": "https://www.yelp.com/biz/northeast-pizza-barre?adjust_creative=ywY5UnLZrNrRl2b93Ruy_g&utm_campaign=yelp_api_v3&utm_medium=api_v3_business_search&utm_source=ywY5UnLZrNrRl2b93Ruy_g", "review_count": 11, "categories": [{"alias": "pizza", "title": "Pizza"}], "rating": 2.5, "coordinates": {"latitude": 42.4102211, "longitude": -72.0980759}, "transactions": [], "price": "$", "location": {"address1": "570 Summer St", "address2": null, "address3": null, "city": "Barre", "zip_code": "01005", "country": "US", "state": "MA", "display_address": ["570 Summer St", "Barre, MA 01005"]}, "phone": "+19783554333", "display_phone": "(978) 355-4333", "distance": 15842.081414925979}, {"id": "eIl4-S0XOnUZ4SLZrcaJgw", "alias": "papa-ginos-pizzeria-gardner", "name": "Papa Gino's Pizzeria", "image_url": "https://s3-media2.fl.yelpcdn.com/bphoto/k7kt3dUGqz2Ptw87y3fvtw/o.jpg", "is_closed": false, "url": "https://www.yelp.com/biz/papa-ginos-pizzeria-gardner?adjust_creative=ywY5UnLZrNrRl2b93Ruy_g&utm_campaign=yelp_api_v3&utm_medium=api_v3_business_search&utm_source=ywY5UnLZrNrRl2b93Ruy_g", "review_count": 14, "categories": [{"alias": "pizza", "title": "Pizza"}], "rating": 2.5, "coordinates": {"latitude": 42.55884, "longitude": -71.98973}, "transactions": [], "price": "$", "location": {"address1": "326 Timpany Blvd", "address2": "", "address3": "", "city": "Gardner", "zip_code": "01440", "country": "US", "state": "MA", "display_address": ["326 Timpany Blvd", "Gardner, MA 01440"]}, "phone": "+19786328051", "display_phone": "(978) 632-8051", "distance": 6256.233895517903}, {"id": "lBW15hrQi7ZmoviO03sEuw", "alias": "mikes-pizza-of-westminster-westminster-2", "name": "Mike's Pizza of Westminster", "image_url": "https://s3-media2.fl.yelpcdn.com/bphoto/DWQliLLzaiE-SAQ25l-70Q/o.jpg", "is_closed": false, "url": "https://www.yelp.com/biz/mikes-pizza-of-westminster-westminster-2?adjust_creative=ywY5UnLZrNrRl2b93Ruy_g&utm_campaign=yelp_api_v3&utm_medium=api_v3_business_search&utm_source=ywY5UnLZrNrRl2b93Ruy_g", "review_count": 14, "categories": [{"alias": "pizza", "title": "Pizza"}, {"alias": "salad", "title": "Salad"}, {"alias": "italian", "title": "Italian"}], "rating": 2.5, "coordinates": {"latitude": 42.5572891235352, "longitude": -71.8745956420898}, "transactions": [], "price": "$", "location": {"address1": "158 State Rd E", "address2": "", "address3": "", "city": "Westminster", "zip_code": "01473", "country": "US", "state": "MA", "display_address": ["158 State Rd E", "Westminster, MA 01473"]}, "phone": "+19788741800", "display_phone": "(978) 874-1800", "distance": 15536.66074321654}, {"id": "6zgm4JX3gyWFWXFktXHMbQ", "alias": "burger-king-restaurant-gardner", "name": "Burger King Restaurant", "image_url": "", "is_closed": false, "url": "https://www.yelp.com/biz/burger-king-restaurant-gardner?adjust_creative=ywY5UnLZrNrRl2b93Ruy_g&utm_campaign=yelp_api_v3&utm_medium=api_v3_business_search&utm_source=ywY5UnLZrNrRl2b93Ruy_g", "review_count": 5, "categories": [{"alias": "restaurants", "title": "Restaurants"}], "rating": 1.0, "coordinates": {"latitude": 42.5658, "longitude": -71.99153}, "transactions": [], "price": "$", "location": {"address1": "9 Crawford St", "address2": "", "address3": "", "city": "Gardner", "zip_code": "01440", "country": "US", "state": "MA", "display_address": ["9 Crawford St", "Gardner, MA 01440"]}, "phone": "+19786326015", "display_phone": "(978) 632-6015", "distance": 6191.9378371748}, {"id": "-K-JE-XwyrytnEQlSqJwXg", "alias": "subway-winchendon-2", "name": "Subway", "image_url": "https://s3-media1.fl.yelpcdn.com/bphoto/zYt-V8vyTjY46dvcLXezdg/o.jpg", "is_closed": false, "url": "https://www.yelp.com/biz/subway-winchendon-2?adjust_creative=ywY5UnLZrNrRl2b93Ruy_g&utm_campaign=yelp_api_v3&utm_medium=api_v3_business_search&utm_source=ywY5UnLZrNrRl2b93Ruy_g", "review_count": 3, "categories": [{"alias": "sandwiches", "title": "Sandwiches"}], "rating": 3.5, "coordinates": {"latitude": 42.6810712435512, "longitude": -72.0476153215999}, "transactions": [], "price": "$", "location": {"address1": "29 Central St", "address2": "", "address3": "", "city": "Winchendon", "zip_code": "01475", "country": "US", "state": "MA", "display_address": ["29 Central St", "Winchendon, MA 01475"]}, "phone": "+19782970011", "display_phone": "(978) 297-0011", "distance": 14637.070101361916}, {"id": "Z6I1yY7uBkBmaLe1L_3VJQ", "alias": "taco-bell-athol-2", "name": "Taco Bell", "image_url": "https://s3-media3.fl.yelpcdn.com/bphoto/BlCGgvYn63MYBYfFFhnDrg/o.jpg", "is_closed": false, "url": "https://www.yelp.com/biz/taco-bell-athol-2?adjust_creative=ywY5UnLZrNrRl2b93Ruy_g&utm_campaign=yelp_api_v3&utm_medium=api_v3_business_search&utm_source=ywY5UnLZrNrRl2b93Ruy_g", "review_count": 1, "categories": [{"alias": "tacos", "title": "Tacos"}, {"alias": "breakfast_brunch", "title": "Breakfast & Brunch"}], "rating": 4.0, "coordinates": {"latitude": 42.58012, "longitude": -72.18376}, "transactions": [], "location": {"address1": "79 Market Dr", "address2": null, "address3": null, "city": "Athol", "zip_code": "01331", "country": "US", "state": "MA", "display_address": ["79 Market Dr", "Athol, MA 01331"]}, "phone": "", "display_phone": "", "distance": 10399.900664543266}, {"id": "bVbAQw_laKoEw8HUBEdj5w", "alias": "mcdonalds-gardner-2", "name": "McDonald's", "image_url": "https://s3-media3.fl.yelpcdn.com/bphoto/tkmz1oWJb4xuSYkFE_absg/o.jpg", "is_closed": false, "url": "https://www.yelp.com/biz/mcdonalds-gardner-2?adjust_creative=ywY5UnLZrNrRl2b93Ruy_g&utm_campaign=yelp_api_v3&utm_medium=api_v3_business_search&utm_source=ywY5UnLZrNrRl2b93Ruy_g", "review_count": 15, "categories": [{"alias": "hotdogs", "title": "Fast Food"}, {"alias": "burgers", "title": "Burgers"}, {"alias": "coffee", "title": "Coffee & Tea"}], "rating": 2.5, "coordinates": {"latitude": 42.5632433186274, "longitude": -71.99085699943}, "transactions": [], "price": "$", "location": {"address1": "223 Timpany Blvd", "address2": "", "address3": "", "city": "Gardner", "zip_code": "01440", "country": "US", "state": "MA", "display_address": ["223 Timpany Blvd", "Gardner, MA 01440"]}, "phone": "+19786329859", "display_phone": "(978) 632-9859", "distance": 6179.838327327876}, {"id": "hDvkTp4bTKcR9AsXA-5_IQ", "alias": "subway-gardner-8", "name": "Subway", "image_url": "https://s3-media1.fl.yelpcdn.com/bphoto/WM4Y6gUg-7rY_jCSUH8bZw/o.jpg", "is_closed": false, "url": "https://www.yelp.com/biz/subway-gardner-8?adjust_creative=ywY5UnLZrNrRl2b93Ruy_g&utm_campaign=yelp_api_v3&utm_medium=api_v3_business_search&utm_source=ywY5UnLZrNrRl2b93Ruy_g", "review_count": 1, "categories": [{"alias": "sandwiches", "title": "Sandwiches"}], "rating": 1.0, "coordinates": {"latitude": 42.5514561, "longitude": -71.9946827}, "transactions": [], "price": "$", "location": {"address1": "677 Timpany Blvd", "address2": null, "address3": null, "city": "Gardner", "zip_code": "01440", "country": "US", "state": "MA", "display_address": ["677 Timpany Blvd", "Gardner, MA 01440"]}, "phone": "+19786301113", "display_phone": "(978) 630-1113", "distance": 5691.292617557748}, {"id": "Om8GYpWVr0YoGGCGXsgYCw", "alias": "taco-bell-gardner-3", "name": "Taco Bell", "image_url": "https://s3-media4.fl.yelpcdn.com/bphoto/w6z4YtPLkgbXbxvfC01nIw/o.jpg", "is_closed": false, "url": "https://www.yelp.com/biz/taco-bell-gardner-3?adjust_creative=ywY5UnLZrNrRl2b93Ruy_g&utm_campaign=yelp_api_v3&utm_medium=api_v3_business_search&utm_source=ywY5UnLZrNrRl2b93Ruy_g", "review_count": 2, "categories": [{"alias": "hotdogs", "title": "Fast Food"}, {"alias": "tacos", "title": "Tacos"}], "rating": 1.0, "coordinates": {"latitude": 42.566521, "longitude": -71.981384}, "transactions": [], "price": "$", "location": {"address1": "8 Pearson Blvd", "address2": null, "address3": null, "city": "Gardner", "zip_code": "01440", "country": "US", "state": "MA", "display_address": ["8 Pearson Blvd", "Gardner, MA 01440"]}, "phone": "+19786302011", "display_phone": "(978) 630-2011", "distance": 7022.107069271787}, {"id": "e331pQV1I-SSnWw_w0PfMA", "alias": "wendys-gardner", "name": "Wendy's", "image_url": "https://s3-media1.fl.yelpcdn.com/bphoto/yGojYMgHFk_orMJG7_CAdQ/o.jpg", "is_closed": false, "url": "https://www.yelp.com/biz/wendys-gardner?adjust_creative=ywY5UnLZrNrRl2b93Ruy_g&utm_campaign=yelp_api_v3&utm_medium=api_v3_business_search&utm_source=ywY5UnLZrNrRl2b93Ruy_g", "review_count": 5, "categories": [{"alias": "hotdogs", "title": "Fast Food"}, {"alias": "burgers", "title": "Burgers"}], "rating": 3.5, "coordinates": {"latitude": 42.56622, "longitude": -71.97991}, "transactions": [], "price": "$", "location": {"address1": "28 Pearson Blvd", "address2": "", "address3": "", "city": "Gardner", "zip_code": "01440", "country": "US", "state": "MA", "display_address": ["28 Pearson Blvd", "Gardner, MA 01440"]}, "phone": "+19786303490", "display_phone": "(978) 630-3490", "distance": 7264.757149432656}, {"id": "ZuiYzeLI0xkuaKtK344W7g", "alias": "mcdonalds-winchendon", "name": "McDonald's", "image_url": "https://s3-media3.fl.yelpcdn.com/bphoto/rvm1pTAhYvCSxMfjEkZ2Ig/o.jpg", "is_closed": false, "url": "https://www.yelp.com/biz/mcdonalds-winchendon?adjust_creative=ywY5UnLZrNrRl2b93Ruy_g&utm_campaign=yelp_api_v3&utm_medium=api_v3_business_search&utm_source=ywY5UnLZrNrRl2b93Ruy_g", "review_count": 10, "categories": [{"alias": "hotdogs", "title": "Fast Food"}, {"alias": "burgers", "title": "Burgers"}, {"alias": "coffee", "title": "Coffee & Tea"}], "rating": 3.0, "coordinates": {"latitude": 42.6788121982942, "longitude": -72.039158642292}, "transactions": [], "price": "$", "location": {"address1": "235 Spring St", "address2": "", "address3": "", "city": "Winchendon", "zip_code": "01475", "country": "US", "state": "MA", "display_address": ["235 Spring St", "Winchendon, MA 01475"]}, "phone": "+19782973528", "display_phone": "(978) 297-3528", "distance": 14468.397409314968}, {"id": "LyHOEwOxC1AhaI3WcWvHHw", "alias": "subway-athol-4", "name": "Subway", "image_url": "https://s3-media2.fl.yelpcdn.com/bphoto/Nx4UlEcn3DY-iWlOIEh7Pw/o.jpg", "is_closed": false, "url": "https://www.yelp.com/biz/subway-athol-4?adjust_creative=ywY5UnLZrNrRl2b93Ruy_g&utm_campaign=yelp_api_v3&utm_medium=api_v3_business_search&utm_source=ywY5UnLZrNrRl2b93Ruy_g", "review_count": 1, "categories": [{"alias": "sandwiches", "title": "Sandwiches"}], "rating": 1.0, "coordinates": {"latitude": 42.5844830027347, "longitude": -72.2049929815626}, "transactions": [], "price": "$", "location": {"address1": "2250 Main St", "address2": "", "address3": "", "city": "Athol", "zip_code": "01331", "country": "US", "state": "MA", "display_address": ["2250 Main St", "Athol, MA 01331"]}, "phone": "+19782495001", "display_phone": "(978) 249-5001", "distance": 12156.087715674154}, {"id": "Y-INEv-QS9f7qJVDe5HjTA", "alias": "kfc-gardner-4", "name": "KFC", "image_url": "https://s3-media2.fl.yelpcdn.com/bphoto/oUqXZ9cnIUXRt_Gkqj7t2Q/o.jpg", "is_closed": false, "url": "https://www.yelp.com/biz/kfc-gardner-4?adjust_creative=ywY5UnLZrNrRl2b93Ruy_g&utm_campaign=yelp_api_v3&utm_medium=api_v3_business_search&utm_source=ywY5UnLZrNrRl2b93Ruy_g", "review_count": 5, "categories": [{"alias": "hotdogs", "title": "Fast Food"}, {"alias": "chicken_wings", "title": "Chicken Wings"}, {"alias": "chickenshop", "title": "Chicken Shop"}], "rating": 2.0, "coordinates": {"latitude": 42.566685997889, "longitude": -71.980529}, "transactions": ["pickup"], "price": "$", "location": {"address1": "8 Pearson Blvd", "address2": "", "address3": "", "city": "Gardner", "zip_code": "01440", "country": "US", "state": "MA", "display_address": ["8 Pearson Blvd", "Gardner, MA 01440"]}, "phone": "+19786302011", "display_phone": "(978) 630-2011", "distance": 7094.487986641025}, {"id": "U4ZdIbDtIlwXYbEzzDtiCQ", "alias": "mcdonalds-athol", "name": "McDonald's", "image_url": "https://s3-media1.fl.yelpcdn.com/bphoto/FSBdlAPNx4Un2ivWTJTteA/o.jpg", "is_closed": false, "url": "https://www.yelp.com/biz/mcdonalds-athol?adjust_creative=ywY5UnLZrNrRl2b93Ruy_g&utm_campaign=yelp_api_v3&utm_medium=api_v3_business_search&utm_source=ywY5UnLZrNrRl2b93Ruy_g", "review_count": 16, "categories": [{"alias": "burgers", "title": "Burgers"}, {"alias": "hotdogs", "title": "Fast Food"}, {"alias": "coffee", "title": "Coffee & Tea"}], "rating": 2.5, "coordinates": {"latitude": 42.5814984273631, "longitude": -72.2548806667328}, "transactions": [], "price": "$", "location": {"address1": "100 Brookside Rd", "address2": "", "address3": "", "city": "Athol", "zip_code": "01331", "country": "US", "state": "MA", "display_address": ["100 Brookside Rd", "Athol, MA 01331"]}, "phone": "+19782499866", "display_phone": "(978) 249-9866", "distance": 16009.179255305362}]