[{"id": "stiXPmdazYbPuvk7-DZoXQ", "alias": "old-forge-restaurant-lanesborough", "name": "Old Forge Restaurant", "image_url": "https://s3-media3.fl.yelpcdn.com/bphoto/7KF1ed-S_RqxHV5qnj2qJQ/o.jpg", "is_closed": false, "url": "https://www.yelp.com/biz/old-forge-restaurant-lanesborough?adjust_creative=h5HwbyQ0TYvQjBo6Ys5Bgw&utm_campaign=yelp_api_v3&utm_medium=api_v3_business_search&utm_source=h5HwbyQ0TYvQjBo6Ys5Bgw", "review_count": 257, "categories": [{"alias": "tradamerican", "title": "American (Traditional)"}, {"alias": "chicken_wings", "title": "Chicken Wings"}], "rating": 3.5, "coordinates": {"latitude": 42.5254754817585, "longitude": -73.228554725647}, "transactions": [], "price": "$$", "location": {"address1": "125 N Main St", "address2": "", "address3": "", "city": "Lanesborough", "zip_code": "01237", "country": "US", "state": "MA", "display_address": ["125 N Main St", "Lanesborough, MA 01237"]}, "phone": "+14134426797", "display_phone": "(413) 442-6797", "distance": 3320.012001183939}, {"id": "LsBWcjUV9pWHx18TFHmgxw", "alias": "deweys-public-house-dalton", "name": "Dewey's Public House", "image_url": "https://s3-media1.fl.yelpcdn.com/bphoto/IexiQnkl0NHDCGObVhW8QQ/o.jpg", "is_closed": false, "url": "https://www.yelp.com/biz/deweys-public-house-dalton?adjust_creative=h5HwbyQ0TYvQjBo6Ys5Bgw&utm_campaign=yelp_api_v3&utm_medium=api_v3_business_search&utm_source=h5HwbyQ0TYvQjBo6Ys5Bgw", "review_count": 17, "categories": [{"alias": "bars", "title": "Bars"}, {"alias": "tradamerican", "title": "American (Traditional)"}], "rating": 4.0, "coordinates": {"latitude": 42.4734917, "longitude": -73.156044}, "transactions": [], "price": "$$", "location": {"address1": "16 Depot St", "address2": "", "address3": "", "city": "Dalton", "zip_code": "01226", "country": "US", "state": "MA", "display_address": ["16 Depot St", "Dalton, MA 01226"]}, "phone": "+14136840900", "display_phone": "(413) 684-0900", "distance": 4972.468019468426}, {"id": "nvn2Tly1BvlmglJ9p-4uDA", "alias": "mad-jacks-lanesborough", "name": "Mad Jack's", "image_url": "https://s3-media2.fl.yelpcdn.com/bphoto/BLw3pU5R6injfiUL6pCbwA/o.jpg", "is_closed": false, "url": "https://www.yelp.com/biz/mad-jacks-lanesborough?adjust_creative=h5HwbyQ0TYvQjBo6Ys5Bgw&utm_campaign=yelp_api_v3&utm_medium=api_v3_business_search&utm_source=h5HwbyQ0TYvQjBo6Ys5Bgw", "review_count": 11, "categories": [{"alias": "bbq", "title": "Barbeque"}, {"alias": "tradamerican", "title": "American (Traditional)"}, {"alias": "soulfood", "title": "Soul Food"}], "rating": 4.0, "coordinates": {"latitude": 42.51325, "longitude": -73.22938}, "transactions": ["delivery"], "location": {"address1": "126 S Main St", "address2": "", "address3": null, "city": "Lanesborough", "zip_code": "01237", "country": "US", "state": "MA", "display_address": ["126 S Main St", "Lanesborough, MA 01237"]}, "phone": "+14134422290", "display_phone": "(413) 442-2290", "distance": 2675.399914694178}, {"id": "qdEOFaDMWYcGqGFUTZa7IQ", "alias": "biggins-diggins-lanesborough", "name": "Biggins Diggins", "image_url": "https://s3-media2.fl.yelpcdn.com/bphoto/mIZVB-5aQcMT1KlXaK56Pg/o.jpg", "is_closed": false, "url": "https://www.yelp.com/biz/biggins-diggins-lanesborough?adjust_creative=h5HwbyQ0TYvQjBo6Ys5Bgw&utm_campaign=yelp_api_v3&utm_medium=api_v3_business_search&utm_source=h5HwbyQ0TYvQjBo6Ys5Bgw", "review_count": 16, "categories": [{"alias": "breakfast_brunch", "title": "Breakfast & Brunch"}], "rating": 4.0, "coordinates": {"latitude": 42.5008113, "longitude": -73.236971}, "transactions": ["delivery"], "location": {"address1": "543 S Main St", "address2": "", "address3": null, "city": "Lanesborough", "zip_code": "01237", "country": "US", "state": "MA", "display_address": ["543 S Main St", "Lanesborough, MA 01237"]}, "phone": "+14134963141", "display_phone": "(413) 496-3141", "distance": 3231.5572152616564}, {"id": "5fGDL6__gYOZ3aEqUrnprA", "alias": "dalton-restaurant-dalton", "name": "Dalton Restaurant", "image_url": "https://s3-media3.fl.yelpcdn.com/bphoto/s2zuMPhQulG1TNyWx1EfAg/o.jpg", "is_closed": false, "url": "https://www.yelp.com/biz/dalton-restaurant-dalton?adjust_creative=h5HwbyQ0TYvQjBo6Ys5Bgw&utm_campaign=yelp_api_v3&utm_medium=api_v3_business_search&utm_source=h5HwbyQ0TYvQjBo6Ys5Bgw", "review_count": 12, "categories": [{"alias": "diners", "title": "Diners"}], "rating": 4.0, "coordinates": {"latitude": 42.4734982, "longitude": -73.1721344}, "transactions": ["delivery"], "price": "$", "location": {"address1": "401 Main St", "address2": "", "address3": "", "city": "Dalton", "zip_code": "01226", "country": "US", "state": "MA", "display_address": ["401 Main St", "Dalton, MA 01226"]}, "phone": "+14136840414", "display_phone": "(413) 684-0414", "distance": 4171.83811283893}, {"id": "fffJgJEdkV01ods74qDKzA", "alias": "zucchinis-restaurant-and-wood-fired-pizza-pittsfield", "name": "Zucchini's Restaurant & Wood Fired Pizza", "image_url": "https://s3-media1.fl.yelpcdn.com/bphoto/RlF3NAEuS6E976AXD2lJcA/o.jpg", "is_closed": false, "url": "https://www.yelp.com/biz/zucchinis-restaurant-and-wood-fired-pizza-pittsfield?adjust_creative=h5HwbyQ0TYvQjBo6Ys5Bgw&utm_campaign=yelp_api_v3&utm_medium=api_v3_business_search&utm_source=h5HwbyQ0TYvQjBo6Ys5Bgw", "review_count": 64, "categories": [{"alias": "pizza", "title": "Pizza"}, {"alias": "italian", "title": "Italian"}, {"alias": "newamerican", "title": "American (New)"}], "rating": 3.5, "coordinates": {"latitude": 42.48183, "longitude": -73.24674}, "transactions": ["delivery"], "price": "$$", "location": {"address1": "1331 North St", "address2": "", "address3": "", "city": "Pittsfield", "zip_code": "01201", "country": "US", "state": "MA", "display_address": ["1331 North St", "Pittsfield, MA 01201"]}, "phone": "+14134422777", "display_phone": "(413) 442-2777", "distance": 4803.1386184204885}, {"id": "1vSpetXLeZnGEI-16WVUog", "alias": "the-brookhouse-sports-pub-and-restaurant-lanesborough", "name": "The Brookhouse Sports Pub & Restaurant", "image_url": "https://s3-media2.fl.yelpcdn.com/bphoto/U2Xz6KkR-gdwLE7XheFJAg/o.jpg", "is_closed": false, "url": "https://www.yelp.com/biz/the-brookhouse-sports-pub-and-restaurant-lanesborough?adjust_creative=h5HwbyQ0TYvQjBo6Ys5Bgw&utm_campaign=yelp_api_v3&utm_medium=api_v3_business_search&utm_source=h5HwbyQ0TYvQjBo6Ys5Bgw", "review_count": 18, "categories": [{"alias": "sportsbars", "title": "Sports Bars"}, {"alias": "tradamerican", "title": "American (Traditional)"}], "rating": 3.0, "coordinates": {"latitude": 42.492263, "longitude": -73.202163}, "transactions": ["delivery"], "price": "$$", "location": {"address1": "650 Chesire Rd", "address2": "", "address3": "", "city": "Lanesborough", "zip_code": "01237", "country": "US", "state": "MA", "display_address": ["650 Chesire Rd", "Lanesborough, MA 01237"]}, "phone": "+14134993331", "display_phone": "(413) 499-3331", "distance": 1525.433118122724}, {"id": "eblzT9dPUY68f-yTC8DWFg", "alias": "lanesboro-restaurant-and-pizzeria-lanesboro", "name": "Lanesboro Restaurant & Pizzeria", "image_url": "https://s3-media3.fl.yelpcdn.com/bphoto/kwWtdSZvleEEwHEowueLRw/o.jpg", "is_closed": false, "url": "https://www.yelp.com/biz/lanesboro-restaurant-and-pizzeria-lanesboro?adjust_creative=h5HwbyQ0TYvQjBo6Ys5Bgw&utm_campaign=yelp_api_v3&utm_medium=api_v3_business_search&utm_source=h5HwbyQ0TYvQjBo6Ys5Bgw", "review_count": 10, "categories": [{"alias": "pizza", "title": "Pizza"}], "rating": 4.0, "coordinates": {"latitude": 42.494332, "longitude": -73.237745}, "transactions": ["delivery"], "price": "$$", "location": {"address1": "739 S Main St", "address2": "", "address3": "", "city": "Lanesboro", "zip_code": "01237", "country": "US", "state": "MA", "display_address": ["739 S Main St", "Lanesboro, MA 01237"]}, "phone": "+14134420600", "display_phone": "(413) 442-0600", "distance": 3492.663336896485}, {"id": "WpF2gHsX2rjlTGj-ohGkNA", "alias": "the-garden-grill-and-tavern-lanesborough", "name": "The Garden Grill & Tavern", "image_url": "https://s3-media2.fl.yelpcdn.com/bphoto/hqhdVQJQNlR6bAOyEy9dKg/o.jpg", "is_closed": false, "url": "https://www.yelp.com/biz/the-garden-grill-and-tavern-lanesborough?adjust_creative=h5HwbyQ0TYvQjBo6Ys5Bgw&utm_campaign=yelp_api_v3&utm_medium=api_v3_business_search&utm_source=h5HwbyQ0TYvQjBo6Ys5Bgw", "review_count": 12, "categories": [{"alias": "tradamerican", "title": "American (Traditional)"}], "rating": 2.0, "coordinates": {"latitude": 42.4936729, "longitude": -73.2017712}, "transactions": [], "price": "$$", "location": {"address1": "655 Cheshire Rd", "address2": "", "address3": "Berkshire Mal", "city": "Lanesborough", "zip_code": "01237", "country": "US", "state": "MA", "display_address": ["655 Cheshire Rd", "Berkshire Mal", "Lanesborough, MA 01237"]}, "phone": "+14134455300", "display_phone": "(413) 445-5300", "distance": 1377.4096544836793}, {"id": "F1IYEjGBvRMUoCPk_CEQqA", "alias": "lakeside-bar-and-grill-lanesborough-2", "name": "Lakeside Bar & Grill", "image_url": "https://s3-media2.fl.yelpcdn.com/bphoto/xIgscHTIQ5ndaboqUOazcA/o.jpg", "is_closed": false, "url": "https://www.yelp.com/biz/lakeside-bar-and-grill-lanesborough-2?adjust_creative=h5HwbyQ0TYvQjBo6Ys5Bgw&utm_campaign=yelp_api_v3&utm_medium=api_v3_business_search&utm_source=h5HwbyQ0TYvQjBo6Ys5Bgw", "review_count": 20, "categories": [{"alias": "seafood", "title": "Seafood"}, {"alias": "tradamerican", "title": "American (Traditional)"}, {"alias": "bars", "title": "Bars"}], "rating": 2.5, "coordinates": {"latitude": 42.49434, "longitude": -73.23849}, "transactions": ["delivery", "pickup"], "location": {"address1": "750 S Main St", "address2": "", "address3": null, "city": "Lanesborough", "zip_code": "01237", "country": "US", "state": "MA", "display_address": ["750 S Main St", "Lanesborough, MA 01237"]}, "phone": "+14134479780", "display_phone": "(413) 447-9780", "distance": 3560.625153396782}, {"id": "1J02t_gsLt_Rq2x0xPOzzg", "alias": "vivaldis-pizzeria-pittsfield", "name": "Vivaldi's Pizzeria", "image_url": "https://s3-media1.fl.yelpcdn.com/bphoto/4qvGd-y7a3vrDYNcI4-Cmw/o.jpg", "is_closed": false, "url": "https://www.yelp.com/biz/vivaldis-pizzeria-pittsfield?adjust_creative=h5HwbyQ0TYvQjBo6Ys5Bgw&utm_campaign=yelp_api_v3&utm_medium=api_v3_business_search&utm_source=h5HwbyQ0TYvQjBo6Ys5Bgw", "review_count": 32, "categories": [{"alias": "italian", "title": "Italian"}, {"alias": "pizza", "title": "Pizza"}, {"alias": "salad", "title": "Salad"}], "rating": 4.0, "coordinates": {"latitude": 42.46832, "longitude": -73.2038}, "transactions": ["delivery"], "price": "$", "location": {"address1": "5 Cheshire Rd", "address2": "", "address3": null, "city": "Pittsfield", "zip_code": "01201", "country": "US", "state": "MA", "display_address": ["5 Cheshire Rd", "Pittsfield, MA 01201"]}, "phone": "+14132365633", "display_phone": "(413) 236-5633", "distance": 4058.0622363515413}, {"id": "qzb2lo-LNbUz2DaN6m5Qcw", "alias": "hot-harrys-fresh-burritos-dalton", "name": "Hot Harry's Fresh Burritos", "image_url": "https://s3-media1.fl.yelpcdn.com/bphoto/_LeE478T5T33qyGGCA9fgw/o.jpg", "is_closed": false, "url": "https://www.yelp.com/biz/hot-harrys-fresh-burritos-dalton?adjust_creative=h5HwbyQ0TYvQjBo6Ys5Bgw&utm_campaign=yelp_api_v3&utm_medium=api_v3_business_search&utm_source=h5HwbyQ0TYvQjBo6Ys5Bgw", "review_count": 5, "categories": [{"alias": "mexican", "title": "Mexican"}], "rating": 4.0, "coordinates": {"latitude": 42.4734965, "longitude": -73.1720944}, "transactions": ["delivery"], "location": {"address1": "403 Main St", "address2": "", "address3": null, "city": "Dalton", "zip_code": "01226", "country": "US", "state": "MA", "display_address": ["403 Main St", "Dalton, MA 01226"]}, "phone": "+14133000028", "display_phone": "(413) 300-0028", "distance": 4176.053574296542}, {"id": "zfMgkBaSVR9KucqK1mmkOg", "alias": "jacobs-restaurant-dalton", "name": "Jacob's Restaurant", "image_url": "https://s3-media3.fl.yelpcdn.com/bphoto/70XUhQbB7N2n7moFQ37NaA/o.jpg", "is_closed": false, "url": "https://www.yelp.com/biz/jacobs-restaurant-dalton?adjust_creative=h5HwbyQ0TYvQjBo6Ys5Bgw&utm_campaign=yelp_api_v3&utm_medium=api_v3_business_search&utm_source=h5HwbyQ0TYvQjBo6Ys5Bgw", "review_count": 11, "categories": [{"alias": "restaurants", "title": "Restaurants"}], "rating": 3.0, "coordinates": {"latitude": 42.47424, "longitude": -73.16418}, "transactions": [], "price": "$", "location": {"address1": "51 Daly Ave", "address2": "", "address3": "", "city": "Dalton", "zip_code": "01226", "country": "US", "state": "MA", "display_address": ["51 Daly Ave", "Dalton, MA 01226"]}, "phone": "+14136849766", "display_phone": "(413) 684-9766", "distance": 4469.535700389619}, {"id": "z0vWz6V94oaz4v9rKh3zdA", "alias": "bobs-country-kitchen-lanesborough", "name": "Bob's Country Kitchen", "image_url": "https://s3-media4.fl.yelpcdn.com/bphoto/Q6sjTVlnOlV8cLvEYUYeWQ/o.jpg", "is_closed": false, "url": "https://www.yelp.com/biz/bobs-country-kitchen-lanesborough?adjust_creative=h5HwbyQ0TYvQjBo6Ys5Bgw&utm_campaign=yelp_api_v3&utm_medium=api_v3_business_search&utm_source=h5HwbyQ0TYvQjBo6Ys5Bgw", "review_count": 84, "categories": [{"alias": "breakfast_brunch", "title": "Breakfast & Brunch"}, {"alias": "diners", "title": "Diners"}], "rating": 3.5, "coordinates": {"latitude": 42.51619, "longitude": -73.22827}, "transactions": [], "price": "$$", "location": {"address1": "42 S Main St", "address2": "", "address3": "", "city": "Lanesborough", "zip_code": "01237", "country": "US", "state": "MA", "display_address": ["42 S Main St", "Lanesborough, MA 01237"]}, "phone": "+14134993934", "display_phone": "(413) 499-3934", "distance": 2715.613413363535}, {"id": "sVoxGa8_98EdhBZObbZEBA", "alias": "zens-doghouse-lanesboro", "name": "Zen's Doghouse", "image_url": "", "is_closed": false, "url": "https://www.yelp.com/biz/zens-doghouse-lanesboro?adjust_creative=h5HwbyQ0TYvQjBo6Ys5Bgw&utm_campaign=yelp_api_v3&utm_medium=api_v3_business_search&utm_source=h5HwbyQ0TYvQjBo6Ys5Bgw", "review_count": 1, "categories": [{"alias": "newamerican", "title": "American (New)"}], "rating": 3.0, "coordinates": {"latitude": 42.492415, "longitude": -73.202326}, "transactions": [], "location": {"address1": "650 Cheshire Rd", "address2": null, "address3": null, "city": "Lanesboro", "zip_code": "01237", "country": "US", "state": "MA", "display_address": ["650 Cheshire Rd", "Lanesboro, MA 01237"]}, "phone": "+14134993331", "display_phone": "(413) 499-3331", "distance": 1523.8822195853343}, {"id": "6EQf1-9Jcha2gfDWTU2uCA", "alias": "hibachi-burffet-pittsfield", "name": "Hibachi Burffet", "image_url": "https://s3-media3.fl.yelpcdn.com/bphoto/Hw2AA6MhG3Xdq042h4nifA/o.jpg", "is_closed": false, "url": "https://www.yelp.com/biz/hibachi-burffet-pittsfield?adjust_creative=h5HwbyQ0TYvQjBo6Ys5Bgw&utm_campaign=yelp_api_v3&utm_medium=api_v3_business_search&utm_source=h5HwbyQ0TYvQjBo6Ys5Bgw", "review_count": 12, "categories": [{"alias": "chinese", "title": "Chinese"}], "rating": 3.0, "coordinates": {"latitude": 42.470356, "longitude": -73.2040024}, "transactions": [], "location": {"address1": "61 Cheshire Rd", "address2": "", "address3": "", "city": "Pittsfield", "zip_code": "01201", "country": "US", "state": "MA", "display_address": ["61 Cheshire Rd", "Pittsfield, MA 01201"]}, "phone": "", "display_phone": "", "distance": 4175.694571066933}, {"id": "oLaERtmDsjb6EUhEavOPWA", "alias": "angelinas-submarine-shops-dalton", "name": "Angelina's Submarine Shops", "image_url": "https://s3-media1.fl.yelpcdn.com/bphoto/lxov5wUSXOSsWqD-VHgOVQ/o.jpg", "is_closed": false, "url": "https://www.yelp.com/biz/angelinas-submarine-shops-dalton?adjust_creative=h5HwbyQ0TYvQjBo6Ys5Bgw&utm_campaign=yelp_api_v3&utm_medium=api_v3_business_search&utm_source=h5HwbyQ0TYvQjBo6Ys5Bgw", "review_count": 15, "categories": [{"alias": "sandwiches", "title": "Sandwiches"}], "rating": 3.5, "coordinates": {"latitude": 42.47359, "longitude": -73.16254}, "transactions": ["delivery", "pickup"], "price": "$", "location": {"address1": "657 Main St", "address2": "", "address3": "", "city": "Dalton", "zip_code": "01226", "country": "US", "state": "MA", "display_address": ["657 Main St", "Dalton, MA 01226"]}, "phone": "+14136841178", "display_phone": "(413) 684-1178", "distance": 4616.65181293195}, {"id": "PCeGA7kPoRSvYo7VNyotPA", "alias": "mannys-pizza-dalton", "name": "Manny's Pizza", "image_url": "https://s3-media2.fl.yelpcdn.com/bphoto/nq6wW8BPgLO2u5nSum8XPw/o.jpg", "is_closed": false, "url": "https://www.yelp.com/biz/mannys-pizza-dalton?adjust_creative=h5HwbyQ0TYvQjBo6Ys5Bgw&utm_campaign=yelp_api_v3&utm_medium=api_v3_business_search&utm_source=h5HwbyQ0TYvQjBo6Ys5Bgw", "review_count": 7, "categories": [{"alias": "pizza", "title": "Pizza"}], "rating": 3.5, "coordinates": {"latitude": 42.4811831058193, "longitude": -73.1548690795898}, "transactions": ["delivery", "pickup"], "price": "$$", "location": {"address1": "302 North St", "address2": "", "address3": "", "city": "Dalton", "zip_code": "01226", "country": "US", "state": "MA", "display_address": ["302 North St", "Dalton, MA 01226"]}, "phone": "+14138425289", "display_phone": "(413) 842-5289", "distance": 4477.865494206838}, {"id": "_UOV6TpTX9oGunNqFNBT0g", "alias": "kellys-diner-pittsfield", "name": "Kelly's Diner", "image_url": "https://s3-media4.fl.yelpcdn.com/bphoto/dPhDpYeK2lP-PD8Qn1iPRA/o.jpg", "is_closed": false, "url": "https://www.yelp.com/biz/kellys-diner-pittsfield?adjust_creative=h5HwbyQ0TYvQjBo6Ys5Bgw&utm_campaign=yelp_api_v3&utm_medium=api_v3_business_search&utm_source=h5HwbyQ0TYvQjBo6Ys5Bgw", "review_count": 30, "categories": [{"alias": "breakfast_brunch", "title": "Breakfast & Brunch"}], "rating": 3.5, "coordinates": {"latitude": 42.467871, "longitude": -73.202713}, "transactions": ["delivery"], "price": "$", "location": {"address1": "860 Dalton Ave", "address2": "", "address3": "", "city": "Pittsfield", "zip_code": "01201", "country": "US", "state": "MA", "display_address": ["860 Dalton Ave", "Pittsfield, MA 01201"]}, "phone": "+14134421875", "display_phone": "(413) 442-1875", "distance": 4230.4113342435}, {"id": "CpZElk-i1bCuyEU_jTOazg", "alias": "piece-o-pizza-pittsfield", "name": "Piece O'pizza", "image_url": "", "is_closed": false, "url": "https://www.yelp.com/biz/piece-o-pizza-pittsfield?adjust_creative=h5HwbyQ0TYvQjBo6Ys5Bgw&utm_campaign=yelp_api_v3&utm_medium=api_v3_business_search&utm_source=h5HwbyQ0TYvQjBo6Ys5Bgw", "review_count": 1, "categories": [{"alias": "pizza", "title": "Pizza"}], "rating": 5.0, "coordinates": {"latitude": 42.4760894775391, "longitude": -73.2444534301758}, "transactions": [], "location": {"address1": "1206 North St", "address2": "", "address3": "", "city": "Pittsfield", "zip_code": "01201", "country": "US", "state": "MA", "display_address": ["1206 North St", "Pittsfield, MA 01201"]}, "phone": "+14134996567", "display_phone": "(413) 499-6567", "distance": 5034.363457711664}, {"id": "pmy-RkBV3NjQYW2pQl9mQQ", "alias": "grand-buffet-star-chinese-restaurant-pittsfield", "name": "Grand Buffet Star Chinese Restaurant", "image_url": "https://s3-media2.fl.yelpcdn.com/bphoto/vZpisPXNq97CDzq8d_vqbA/o.jpg", "is_closed": false, "url": "https://www.yelp.com/biz/grand-buffet-star-chinese-restaurant-pittsfield?adjust_creative=h5HwbyQ0TYvQjBo6Ys5Bgw&utm_campaign=yelp_api_v3&utm_medium=api_v3_business_search&utm_source=h5HwbyQ0TYvQjBo6Ys5Bgw", "review_count": 11, "categories": [{"alias": "chinese", "title": "Chinese"}], "rating": 2.0, "coordinates": {"latitude": 42.470423, "longitude": -73.204747}, "transactions": [], "price": "$", "location": {"address1": "61 Cheshire Rd", "address2": "", "address3": "", "city": "Pittsfield", "zip_code": "01201", "country": "US", "state": "MA", "display_address": ["61 Cheshire Rd", "Pittsfield, MA 01201"]}, "phone": "+14134427000", "display_phone": "(413) 442-7000", "distance": 3967.2041457010914}, {"id": "hMY9WV4Z8BKgIWwHgnL01g", "alias": "applebees-grill-bar-pittsfield", "name": "Applebee's Grill + Bar", "image_url": "https://s3-media3.fl.yelpcdn.com/bphoto/lcgH8oFDmmaKXUDt_OBFfg/o.jpg", "is_closed": false, "url": "https://www.yelp.com/biz/applebees-grill-bar-pittsfield?adjust_creative=h5HwbyQ0TYvQjBo6Ys5Bgw&utm_campaign=yelp_api_v3&utm_medium=api_v3_business_search&utm_source=h5HwbyQ0TYvQjBo6Ys5Bgw", "review_count": 29, "categories": [{"alias": "tradamerican", "title": "American (Traditional)"}, {"alias": "sportsbars", "title": "Sports Bars"}, {"alias": "burgers", "title": "Burgers"}], "rating": 2.5, "coordinates": {"latitude": 42.468614, "longitude": -73.198755}, "transactions": [], "price": "$$", "location": {"address1": "555 Hubbard Ave", "address2": "Berkshire Crossing Shopping Center", "address3": "", "city": "Pittsfield", "zip_code": "01201", "country": "US", "state": "MA", "display_address": ["555 Hubbard Ave", "Berkshire Crossing Shopping Center", "Pittsfield, MA 01201"]}, "phone": "+14134995157", "display_phone": "(413) 499-5157", "distance": 4131.372514108816}, {"id": "9KNacuxUSbU6_v10Jn8Npg", "alias": "friendlys-pittsfield", "name": "Friendly's", "image_url": "https://s3-media3.fl.yelpcdn.com/bphoto/DAdk5s3FnedyuVpFxs0jfw/o.jpg", "is_closed": false, "url": "https://www.yelp.com/biz/friendlys-pittsfield?adjust_creative=h5HwbyQ0TYvQjBo6Ys5Bgw&utm_campaign=yelp_api_v3&utm_medium=api_v3_business_search&utm_source=h5HwbyQ0TYvQjBo6Ys5Bgw", "review_count": 22, "categories": [{"alias": "icecream", "title": "Ice Cream & Frozen Yogurt"}, {"alias": "burgers", "title": "Burgers"}, {"alias": "tradamerican", "title": "American (Traditional)"}], "rating": 2.5, "coordinates": {"latitude": 42.4683225899935, "longitude": -73.2024212926626}, "transactions": ["delivery"], "price": "$$", "location": {"address1": "841 Dalton Ave", "address2": "", "address3": "", "city": "Pittsfield", "zip_code": "01201", "country": "US", "state": "MA", "display_address": ["841 Dalton Ave", "Pittsfield, MA 01201"]}, "phone": "+14134430282", "display_phone": "(413) 443-0282", "distance": 4220.796493742776}, {"id": "j9UeZCXnFfeMlwqFnIXfCw", "alias": "wendys-pittsfield-2", "name": "Wendy's", "image_url": "https://s3-media1.fl.yelpcdn.com/bphoto/PXtaHMk789N-we_ZBFnlhQ/o.jpg", "is_closed": false, "url": "https://www.yelp.com/biz/wendys-pittsfield-2?adjust_creative=h5HwbyQ0TYvQjBo6Ys5Bgw&utm_campaign=yelp_api_v3&utm_medium=api_v3_business_search&utm_source=h5HwbyQ0TYvQjBo6Ys5Bgw", "review_count": 17, "categories": [{"alias": "hotdogs", "title": "Fast Food"}, {"alias": "burgers", "title": "Burgers"}], "rating": 2.5, "coordinates": {"latitude": 42.468646, "longitude": -73.195668}, "transactions": ["delivery"], "price": "$", "location": {"address1": "556 Hubbard Avenue", "address2": "", "address3": "", "city": "Pittsfield", "zip_code": "01201", "country": "US", "state": "MA", "display_address": ["556 Hubbard Avenue", "Pittsfield, MA 01201"]}, "phone": "+14134422053", "display_phone": "(413) 442-2053", "distance": 4131.170192149658}, {"id": "XvvFFVTRyb9-8OZPUVRSqw", "alias": "ginos-pizza-and-grill-pittsfield", "name": "Ginos Pizza and Grill", "image_url": "https://s3-media3.fl.yelpcdn.com/bphoto/2zq5ieHpYjnGxFee6p7YVw/o.jpg", "is_closed": false, "url": "https://www.yelp.com/biz/ginos-pizza-and-grill-pittsfield?adjust_creative=h5HwbyQ0TYvQjBo6Ys5Bgw&utm_campaign=yelp_api_v3&utm_medium=api_v3_business_search&utm_source=h5HwbyQ0TYvQjBo6Ys5Bgw", "review_count": 7, "categories": [{"alias": "pizza", "title": "Pizza"}, {"alias": "hotdogs", "title": "Fast Food"}, {"alias": "italian", "title": "Italian"}], "rating": 2.5, "coordinates": {"latitude": 42.4760729, "longitude": -73.2444672}, "transactions": ["delivery"], "price": "$$", "location": {"address1": "1206 North St", "address2": "", "address3": "", "city": "Pittsfield", "zip_code": "01201", "country": "US", "state": "MA", "display_address": ["1206 North St", "Pittsfield, MA 01201"]}, "phone": "+14134424466", "display_phone": "(413) 442-4466", "distance": 5033.622889910916}, {"id": "JdgwEC4QOezifl1_1dtCXA", "alias": "taco-bell-pittsfield-2", "name": "Taco Bell", "image_url": "https://s3-media1.fl.yelpcdn.com/bphoto/SDdSHQO3GYmXloHlSlEiKQ/o.jpg", "is_closed": false, "url": "https://www.yelp.com/biz/taco-bell-pittsfield-2?adjust_creative=h5HwbyQ0TYvQjBo6Ys5Bgw&utm_campaign=yelp_api_v3&utm_medium=api_v3_business_search&utm_source=h5HwbyQ0TYvQjBo6Ys5Bgw", "review_count": 15, "categories": [{"alias": "hotdogs", "title": "Fast Food"}, {"alias": "tacos", "title": "Tacos"}], "rating": 2.5, "coordinates": {"latitude": 42.4690315746512, "longitude": -73.1969030708575}, "transactions": ["delivery"], "price": "$", "location": {"address1": "555 Hubbard Ave", "address2": "", "address3": "", "city": "Pittsfield", "zip_code": "01201", "country": "US", "state": "MA", "display_address": ["555 Hubbard Ave", "Pittsfield, MA 01201"]}, "phone": "+14134421007", "display_phone": "(413) 442-1007", "distance": 4085.8544510026386}, {"id": "5MUciMsGKM5fvGpkxadGuw", "alias": "dominos-pizza-pittsfield-2", "name": "Domino's Pizza", "image_url": "", "is_closed": false, "url": "https://www.yelp.com/biz/dominos-pizza-pittsfield-2?adjust_creative=h5HwbyQ0TYvQjBo6Ys5Bgw&utm_campaign=yelp_api_v3&utm_medium=api_v3_business_search&utm_source=h5HwbyQ0TYvQjBo6Ys5Bgw", "review_count": 4, "categories": [{"alias": "pizza", "title": "Pizza"}, {"alias": "chicken_wings", "title": "Chicken Wings"}, {"alias": "sandwiches", "title": "Sandwiches"}], "rating": 4.0, "coordinates": {"latitude": 42.47718, "longitude": -73.245323}, "transactions": [], "price": "$", "location": {"address1": "1229 North St", "address2": null, "address3": null, "city": "Pittsfield", "zip_code": "01201", "country": "US", "state": "MA", "display_address": ["1229 North St", "Pittsfield, MA 01201"]}, "phone": "+14134997979", "display_phone": "(413) 499-7979", "distance": 5005.5219813706135}, {"id": "3TyINqqzEADspKjjStQOsQ", "alias": "mcdonalds-pittsfield", "name": "McDonald's", "image_url": "https://s3-media3.fl.yelpcdn.com/bphoto/JeCD1DpJ1rrasg9aYG7Eew/o.jpg", "is_closed": false, "url": "https://www.yelp.com/biz/mcdonalds-pittsfield?adjust_creative=h5HwbyQ0TYvQjBo6Ys5Bgw&utm_campaign=yelp_api_v3&utm_medium=api_v3_business_search&utm_source=h5HwbyQ0TYvQjBo6Ys5Bgw", "review_count": 5, "categories": [{"alias": "coffee", "title": "Coffee & Tea"}, {"alias": "burgers", "title": "Burgers"}, {"alias": "hotdogs", "title": "Fast Food"}], "rating": 3.0, "coordinates": {"latitude": 42.468519, "longitude": -73.2040031329598}, "transactions": [], "price": "$", "location": {"address1": "61 Cheshire Rd", "address2": "", "address3": "", "city": "Pittsfield", "zip_code": "01201", "country": "US", "state": "MA", "display_address": ["61 Cheshire Rd", "Pittsfield, MA 01201"]}, "phone": "+14134424602", "display_phone": "(413) 442-4602", "distance": 4169.542606703836}, {"id": "qqA8YX58xnmEXLyanHfdUg", "alias": "stufd-food-truck-brooklyn", "name": "Stuf'd Food Truck", "image_url": "https://s3-media2.fl.yelpcdn.com/bphoto/_Wn0i-tLIOFinw8BPAqxPA/o.jpg", "is_closed": false, "url": "https://www.yelp.com/biz/stufd-food-truck-brooklyn?adjust_creative=h5HwbyQ0TYvQjBo6Ys5Bgw&utm_campaign=yelp_api_v3&utm_medium=api_v3_business_search&utm_source=h5HwbyQ0TYvQjBo6Ys5Bgw", "review_count": 4, "categories": [{"alias": "sandwiches", "title": "Sandwiches"}, {"alias": "foodtrucks", "title": "Food Trucks"}], "rating": 4.0, "coordinates": {"latitude": 40.7124539, "longitude": -73.9287374}, "transactions": [], "location": {"address1": "178 Varick Ave", "address2": "", "address3": null, "city": "Brooklyn", "zip_code": "11237", "country": "US", "state": "NY", "display_address": ["178 Varick Ave", "Brooklyn, NY 11237"]}, "phone": "+18457091808", "display_phone": "(845) 709-1808", "distance": 208450.81739196408}]