[{"id": "6eDMigdX2fH32_2cuaHzpw", "alias": "jk-crossroads-east-templeton", "name": "JK Crossroads", "image_url": "https://s3-media3.fl.yelpcdn.com/bphoto/X9b-I_ndI2z1jI4m_Fh-4g/o.jpg", "is_closed": false, "url": "https://www.yelp.com/biz/jk-crossroads-east-templeton?adjust_creative=h5HwbyQ0TYvQjBo6Ys5Bgw&utm_campaign=yelp_api_v3&utm_medium=api_v3_business_search&utm_source=h5HwbyQ0TYvQjBo6Ys5Bgw", "review_count": 22, "categories": [{"alias": "tradamerican", "title": "American (Traditional)"}], "rating": 3.0, "coordinates": {"latitude": 42.56267, "longitude": -72.03679}, "transactions": [], "price": "$$", "location": {"address1": "119 Patriots Rd", "address2": "", "address3": "", "city": "East Templeton", "zip_code": "01438", "country": "US", "state": "MA", "display_address": ["119 Patriots Rd", "East Templeton, MA 01438"]}, "phone": "+19786327070", "display_phone": "(978) 632-7070", "distance": 472.7438641696411}, {"id": "jQV1x9aI6gfQLtlpUcj2FA", "alias": "duguays-chicken-and-seafood-gardner", "name": "Duguays Chicken & Seafood", "image_url": "https://s3-media2.fl.yelpcdn.com/bphoto/C1iDu-eEp0WuUJJP1eNjVA/o.jpg", "is_closed": false, "url": "https://www.yelp.com/biz/duguays-chicken-and-seafood-gardner?adjust_creative=h5HwbyQ0TYvQjBo6Ys5Bgw&utm_campaign=yelp_api_v3&utm_medium=api_v3_business_search&utm_source=h5HwbyQ0TYvQjBo6Ys5Bgw", "review_count": 47, "categories": [{"alias": "seafood", "title": "Seafood"}, {"alias": "burgers", "title": "Burgers"}, {"alias": "chickenshop", "title": "Chicken Shop"}], "rating": 4.0, "coordinates": {"latitude": 42.57311, "longitude": -72.01599}, "transactions": [], "price": "$$", "location": {"address1": "632 Parker St", "address2": "", "address3": "", "city": "Gardner", "zip_code": "01440", "country": "US", "state": "MA", "display_address": ["632 Parker St", "Gardner, MA 01440"]}, "phone": "+19786324493", "display_phone": "(978) 632-4493", "distance": 1736.9499757862507}, {"id": "pSBQkytH3cknYyZVcREyvg", "alias": "patriots-roast-beef-and-grill-templeton", "name": "Patriots Roast Beef and Grill", "image_url": "https://s3-media1.fl.yelpcdn.com/bphoto/jQT2dQaX-oAPGqS9MG8Mvg/o.jpg", "is_closed": false, "url": "https://www.yelp.com/biz/patriots-roast-beef-and-grill-templeton?adjust_creative=h5HwbyQ0TYvQjBo6Ys5Bgw&utm_campaign=yelp_api_v3&utm_medium=api_v3_business_search&utm_source=h5HwbyQ0TYvQjBo6Ys5Bgw", "review_count": 17, "categories": [{"alias": "pizza", "title": "Pizza"}, {"alias": "tradamerican", "title": "American (Traditional)"}], "rating": 3.5, "coordinates": {"latitude": 42.5615082, "longitude": -72.038887}, "transactions": ["pickup", "delivery"], "price": "$", "location": {"address1": "146 Patriots Rd", "address2": null, "address3": null, "city": "Templeton", "zip_code": "01468", "country": "US", "state": "MA", "display_address": ["146 Patriots Rd", "Templeton, MA 01468"]}, "phone": "+19786329951", "display_phone": "(978) 632-9951", "distance": 657.8332737279815}, {"id": "TrnTjJ1-_E6C73HYGLwsKw", "alias": "renos-pizza-templeton", "name": "Reno's Pizza", "image_url": "https://s3-media3.fl.yelpcdn.com/bphoto/fqIJrOaa8cfgu-xw7htIzw/o.jpg", "is_closed": false, "url": "https://www.yelp.com/biz/renos-pizza-templeton?adjust_creative=h5HwbyQ0TYvQjBo6Ys5Bgw&utm_campaign=yelp_api_v3&utm_medium=api_v3_business_search&utm_source=h5HwbyQ0TYvQjBo6Ys5Bgw", "review_count": 2, "categories": [{"alias": "pizza", "title": "Pizza"}, {"alias": "burgers", "title": "Burgers"}, {"alias": "delis", "title": "Delis"}], "rating": 5.0, "coordinates": {"latitude": 42.5620072921407, "longitude": -72.0375560224056}, "transactions": [], "location": {"address1": "132 Patriots Rd", "address2": "", "address3": null, "city": "Templeton", "zip_code": "01438", "country": "US", "state": "MA", "display_address": ["132 Patriots Rd", "Templeton, MA 01438"]}, "phone": "+19786323200", "display_phone": "(978) 632-3200", "distance": 540.3129814971409}, {"id": "kqir5dO2JZ5Y0HYO33wbCQ", "alias": "dominos-pizza-gardner", "name": "Domino's Pizza", "image_url": "https://s3-media1.fl.yelpcdn.com/bphoto/xblCtNJCS2ds7BgENryLEw/o.jpg", "is_closed": false, "url": "https://www.yelp.com/biz/dominos-pizza-gardner?adjust_creative=h5HwbyQ0TYvQjBo6Ys5Bgw&utm_campaign=yelp_api_v3&utm_medium=api_v3_business_search&utm_source=h5HwbyQ0TYvQjBo6Ys5Bgw", "review_count": 6, "categories": [{"alias": "pizza", "title": "Pizza"}, {"alias": "chicken_wings", "title": "Chicken Wings"}, {"alias": "sandwiches", "title": "Sandwiches"}], "rating": 2.5, "coordinates": {"latitude": 42.5749306, "longitude": -72.006989}, "transactions": [], "price": "$", "location": {"address1": "401 Parker St", "address2": "", "address3": "", "city": "Gardner", "zip_code": "01440", "country": "US", "state": "MA", "display_address": ["401 Parker St", "Gardner, MA 01440"]}, "phone": "+19786328170", "display_phone": "(978) 632-8170", "distance": 2408.2608253307385}]