[{"id": "xkKYVwDYXzUV62udwUaboQ", "alias": "bass-water-grill-cheshire", "name": "Bass Water Grill", "image_url": "https://s3-media2.fl.yelpcdn.com/bphoto/eq2hPkZOGZ8t5uzrOQQuPQ/o.jpg", "is_closed": false, "url": "https://www.yelp.com/biz/bass-water-grill-cheshire?adjust_creative=h5HwbyQ0TYvQjBo6Ys5Bgw&utm_campaign=yelp_api_v3&utm_medium=api_v3_business_search&utm_source=h5HwbyQ0TYvQjBo6Ys5Bgw", "review_count": 23, "categories": [{"alias": "newamerican", "title": "American (New)"}, {"alias": "salad", "title": "Salad"}, {"alias": "burgers", "title": "Burgers"}], "rating": 4.0, "coordinates": {"latitude": 42.554713, "longitude": -73.165292}, "transactions": [], "price": "$$", "location": {"address1": "287 S State Rd", "address2": null, "address3": null, "city": "Cheshire", "zip_code": "01225", "country": "US", "state": "MA", "display_address": ["287 S State Rd", "Cheshire, MA 01225"]}, "phone": "+14137431911", "display_phone": "(413) 743-1911", "distance": 1561.4294029588934}, {"id": "T2y6Cue1SkDt55lSNkmrIg", "alias": "district-kitchen-and-bar-pittsfield", "name": "District Kitchen & Bar", "image_url": "https://s3-media4.fl.yelpcdn.com/bphoto/1S7pKPfaGwGh6wWd9MorYQ/o.jpg", "is_closed": false, "url": "https://www.yelp.com/biz/district-kitchen-and-bar-pittsfield?adjust_creative=h5HwbyQ0TYvQjBo6Ys5Bgw&utm_campaign=yelp_api_v3&utm_medium=api_v3_business_search&utm_source=h5HwbyQ0TYvQjBo6Ys5Bgw", "review_count": 202, "categories": [{"alias": "newamerican", "title": "American (New)"}, {"alias": "gastropubs", "title": "Gastropubs"}], "rating": 4.5, "coordinates": {"latitude": 42.4487065, "longitude": -73.2547291}, "transactions": ["delivery"], "price": "$$", "location": {"address1": "40 West St", "address2": null, "address3": "", "city": "Pittsfield", "zip_code": "01201", "country": "US", "state": "MA", "display_address": ["40 West St", "Pittsfield, MA 01201"]}, "phone": "+14134420303", "display_phone": "(413) 442-0303", "distance": 15065.640805827761}, {"id": "FzEewR1sdPRNgIqTvxfh7Q", "alias": "haflinger-haus-restaurant-tavern-and-inn-adams", "name": "Haflinger Haus Restaurant Tavern & Inn", "image_url": "https://s3-media2.fl.yelpcdn.com/bphoto/mNj8-QpVU52UbZt8wOqZ8A/o.jpg", "is_closed": false, "url": "https://www.yelp.com/biz/haflinger-haus-restaurant-tavern-and-inn-adams?adjust_creative=h5HwbyQ0TYvQjBo6Ys5Bgw&utm_campaign=yelp_api_v3&utm_medium=api_v3_business_search&utm_source=h5HwbyQ0TYvQjBo6Ys5Bgw", "review_count": 40, "categories": [{"alias": "austrian", "title": "Austrian"}, {"alias": "tradamerican", "title": "American (Traditional)"}], "rating": 4.0, "coordinates": {"latitude": 42.618738, "longitude": -73.121827}, "transactions": [], "price": "$$", "location": {"address1": "17 Commercial St", "address2": null, "address3": "", "city": "Adams", "zip_code": "01220", "country": "US", "state": "MA", "display_address": ["17 Commercial St", "Adams, MA 01220"]}, "phone": "+14137432221", "display_phone": "(413) 743-2221", "distance": 6989.446312563206}, {"id": "GOSPUVUnUCo-msm0Udb1Vw", "alias": "public-eat-drink-north-adams-3", "name": "PUBLIC eat+drink", "image_url": "https://s3-media1.fl.yelpcdn.com/bphoto/4S3BwlzeE8UEAAtNp9x7Sg/o.jpg", "is_closed": false, "url": "https://www.yelp.com/biz/public-eat-drink-north-adams-3?adjust_creative=h5HwbyQ0TYvQjBo6Ys5Bgw&utm_campaign=yelp_api_v3&utm_medium=api_v3_business_search&utm_source=h5HwbyQ0TYvQjBo6Ys5Bgw", "review_count": 384, "categories": [{"alias": "newamerican", "title": "American (New)"}, {"alias": "gastropubs", "title": "Gastropubs"}], "rating": 4.0, "coordinates": {"latitude": 42.700058, "longitude": -73.1118079}, "transactions": ["delivery"], "price": "$$", "location": {"address1": "34 Holden St", "address2": "", "address3": "", "city": "North Adams", "zip_code": "01247", "country": "US", "state": "MA", "display_address": ["34 Holden St", "North Adams, MA 01247"]}, "phone": "+14136644444", "display_phone": "(413) 664-4444", "distance": 15990.546613983595}, {"id": "x3-jvYZX8SyNa0szugmiEQ", "alias": "powder-hounds-hancock", "name": "Powder Hounds", "image_url": "https://s3-media1.fl.yelpcdn.com/bphoto/v3ighIHFRideJ3wRho8ArA/o.jpg", "is_closed": false, "url": "https://www.yelp.com/biz/powder-hounds-hancock?adjust_creative=h5HwbyQ0TYvQjBo6Ys5Bgw&utm_campaign=yelp_api_v3&utm_medium=api_v3_business_search&utm_source=h5HwbyQ0TYvQjBo6Ys5Bgw", "review_count": 93, "categories": [{"alias": "tradamerican", "title": "American (Traditional)"}, {"alias": "italian", "title": "Italian"}, {"alias": "cocktailbars", "title": "Cocktail Bars"}], "rating": 4.0, "coordinates": {"latitude": 42.5695066053232, "longitude": -73.251499}, "transactions": [], "price": "$$", "location": {"address1": "137 Brodie Mountain Rd", "address2": "", "address3": "", "city": "Hancock", "zip_code": "01237", "country": "US", "state": "MA", "display_address": ["137 Brodie Mountain Rd", "Hancock, MA 01237"]}, "phone": "+14137385660", "display_phone": "(413) 738-5660", "distance": 8645.944189080572}, {"id": "stiXPmdazYbPuvk7-DZoXQ", "alias": "old-forge-restaurant-lanesborough", "name": "Old Forge Restaurant", "image_url": "https://s3-media3.fl.yelpcdn.com/bphoto/7KF1ed-S_RqxHV5qnj2qJQ/o.jpg", "is_closed": false, "url": "https://www.yelp.com/biz/old-forge-restaurant-lanesborough?adjust_creative=h5HwbyQ0TYvQjBo6Ys5Bgw&utm_campaign=yelp_api_v3&utm_medium=api_v3_business_search&utm_source=h5HwbyQ0TYvQjBo6Ys5Bgw", "review_count": 257, "categories": [{"alias": "tradamerican", "title": "American (Traditional)"}, {"alias": "chicken_wings", "title": "Chicken Wings"}], "rating": 3.5, "coordinates": {"latitude": 42.5254754817585, "longitude": -73.228554725647}, "transactions": [], "price": "$$", "location": {"address1": "125 N Main St", "address2": "", "address3": "", "city": "Lanesborough", "zip_code": "01237", "country": "US", "state": "MA", "display_address": ["125 N Main St", "Lanesborough, MA 01237"]}, "phone": "+14134426797", "display_phone": "(413) 442-6797", "distance": 7631.306672654755}, {"id": "3NAIHF4RIidr2oBsr2j5CA", "alias": "a-ok-berkshire-bbq-north-adams", "name": "A-ok Berkshire BBQ", "image_url": "https://s3-media1.fl.yelpcdn.com/bphoto/R9kPAb8K-iQz4aANB80wdw/o.jpg", "is_closed": false, "url": "https://www.yelp.com/biz/a-ok-berkshire-bbq-north-adams?adjust_creative=h5HwbyQ0TYvQjBo6Ys5Bgw&utm_campaign=yelp_api_v3&utm_medium=api_v3_business_search&utm_source=h5HwbyQ0TYvQjBo6Ys5Bgw", "review_count": 43, "categories": [{"alias": "bbq", "title": "Barbeque"}], "rating": 5.0, "coordinates": {"latitude": 42.7017006126745, "longitude": -73.1138479803765}, "transactions": [], "location": {"address1": "2601 Mass MoCA Way", "address2": "", "address3": null, "city": "North Adams", "zip_code": "01247", "country": "US", "state": "MA", "display_address": ["2601 Mass MoCA Way", "North Adams, MA 01247"]}, "phone": "+14133985079", "display_phone": "(413) 398-5079", "distance": 16141.385322668455}, {"id": "iiwtOLU7p4M_Sq56kvhJGw", "alias": "trail-house-kitchen-and-bar-north-adams", "name": "Trail House Kitchen & Bar", "image_url": "https://s3-media3.fl.yelpcdn.com/bphoto/ByRVQu0kRDlMabBfOx-B8w/o.jpg", "is_closed": false, "url": "https://www.yelp.com/biz/trail-house-kitchen-and-bar-north-adams?adjust_creative=h5HwbyQ0TYvQjBo6Ys5Bgw&utm_campaign=yelp_api_v3&utm_medium=api_v3_business_search&utm_source=h5HwbyQ0TYvQjBo6Ys5Bgw", "review_count": 32, "categories": [{"alias": "bars", "title": "Bars"}, {"alias": "newamerican", "title": "American (New)"}], "rating": 4.0, "coordinates": {"latitude": 42.7003099630627, "longitude": -73.1668474897742}, "transactions": ["restaurant_reservation"], "price": "$$$", "location": {"address1": "896 State Rd", "address2": "", "address3": null, "city": "North Adams", "zip_code": "01247", "country": "US", "state": "MA", "display_address": ["896 State Rd", "North Adams, MA 01247"]}, "phone": "+14134121090", "display_phone": "(413) 412-1090", "distance": 15841.31107907746}, {"id": "C4skTr66kKHctEQH7U-T7Q", "alias": "elizabeths-pittsfield", "name": "Elizabeth's", "image_url": "https://s3-media1.fl.yelpcdn.com/bphoto/H8Vn6lhIqFVPIqEuOkGohA/o.jpg", "is_closed": false, "url": "https://www.yelp.com/biz/elizabeths-pittsfield?adjust_creative=h5HwbyQ0TYvQjBo6Ys5Bgw&utm_campaign=yelp_api_v3&utm_medium=api_v3_business_search&utm_source=h5HwbyQ0TYvQjBo6Ys5Bgw", "review_count": 111, "categories": [{"alias": "italian", "title": "Italian"}, {"alias": "newamerican", "title": "American (New)"}], "rating": 4.5, "coordinates": {"latitude": 42.453037, "longitude": -73.224449}, "transactions": ["delivery"], "price": "$$", "location": {"address1": "1264 East St", "address2": "", "address3": "", "city": "Pittsfield", "zip_code": "01201", "country": "US", "state": "MA", "display_address": ["1264 East St", "Pittsfield, MA 01201"]}, "phone": "+14134488244", "display_phone": "(413) 448-8244", "distance": 13343.867975531568}, {"id": "W98ipXrk73IKpQWCSzyxVA", "alias": "berkshire-palate-williamstown", "name": "Berkshire Palate", "image_url": "https://s3-media1.fl.yelpcdn.com/bphoto/IVVcXSz-eRkxRMsHyNDEyQ/o.jpg", "is_closed": false, "url": "https://www.yelp.com/biz/berkshire-palate-williamstown?adjust_creative=h5HwbyQ0TYvQjBo6Ys5Bgw&utm_campaign=yelp_api_v3&utm_medium=api_v3_business_search&utm_source=h5HwbyQ0TYvQjBo6Ys5Bgw", "review_count": 19, "categories": [{"alias": "newamerican", "title": "American (New)"}, {"alias": "gastropubs", "title": "Gastropubs"}, {"alias": "catering", "title": "Caterers"}], "rating": 4.0, "coordinates": {"latitude": 42.7024796, "longitude": -73.1843073}, "transactions": [], "price": "$$", "location": {"address1": "234 Main St", "address2": null, "address3": "", "city": "Williamstown", "zip_code": "01267", "country": "US", "state": "MA", "display_address": ["234 Main St", "Williamstown, MA 01267"]}, "phone": "+14134586304", "display_phone": "(413) 458-6304", "distance": 16287.83806098202}, {"id": "-wEHUZya-95Am6VEefkTTQ", "alias": "mill-on-the-floss-new-ashford-2", "name": "Mill On The Floss", "image_url": "https://s3-media1.fl.yelpcdn.com/bphoto/FWB9hebv5YeViPGxHm16BQ/o.jpg", "is_closed": false, "url": "https://www.yelp.com/biz/mill-on-the-floss-new-ashford-2?adjust_creative=h5HwbyQ0TYvQjBo6Ys5Bgw&utm_campaign=yelp_api_v3&utm_medium=api_v3_business_search&utm_source=h5HwbyQ0TYvQjBo6Ys5Bgw", "review_count": 33, "categories": [{"alias": "french", "title": "French"}], "rating": 4.0, "coordinates": {"latitude": 42.6063261876284, "longitude": -73.2351315705922}, "transactions": [], "price": "$$$", "location": {"address1": "342 New Ashford Rd", "address2": "", "address3": "", "city": "New Ashford", "zip_code": "01237", "country": "US", "state": "MA", "display_address": ["342 New Ashford Rd", "New Ashford, MA 01237"]}, "phone": "+14134589123", "display_phone": "(413) 458-9123", "distance": 8958.965828270155}, {"id": "nZztWkUMy5g6dYdVaOe-0Q", "alias": "grazie-italian-ristorante-north-adams", "name": "Grazie Italian Ristorante", "image_url": "https://s3-media4.fl.yelpcdn.com/bphoto/oE43GAJeMPNhkCmVD99dnA/o.jpg", "is_closed": false, "url": "https://www.yelp.com/biz/grazie-italian-ristorante-north-adams?adjust_creative=h5HwbyQ0TYvQjBo6Ys5Bgw&utm_campaign=yelp_api_v3&utm_medium=api_v3_business_search&utm_source=h5HwbyQ0TYvQjBo6Ys5Bgw", "review_count": 51, "categories": [{"alias": "italian", "title": "Italian"}], "rating": 4.0, "coordinates": {"latitude": 42.7000664437915, "longitude": -73.1135589022095}, "transactions": [], "price": "$$", "location": {"address1": "26 Marshall St", "address2": "", "address3": "", "city": "North Adams", "zip_code": "01247", "country": "US", "state": "MA", "display_address": ["26 Marshall St", "North Adams, MA 01247"]}, "phone": "+14136640044", "display_phone": "(413) 664-0044", "distance": 15966.320785723721}, {"id": "f1SCA_ua5SrnH4o-GC_frg", "alias": "la-fogata-pittsfield-3", "name": "La Fogata", "image_url": "https://s3-media3.fl.yelpcdn.com/bphoto/fO86g0LI2WiwS-HWZPKjIA/o.jpg", "is_closed": false, "url": "https://www.yelp.com/biz/la-fogata-pittsfield-3?adjust_creative=h5HwbyQ0TYvQjBo6Ys5Bgw&utm_campaign=yelp_api_v3&utm_medium=api_v3_business_search&utm_source=h5HwbyQ0TYvQjBo6Ys5Bgw", "review_count": 84, "categories": [{"alias": "colombian", "title": "Colombian"}], "rating": 4.5, "coordinates": {"latitude": 42.4564261392309, "longitude": -73.2350534294449}, "transactions": ["delivery"], "price": "$$", "location": {"address1": "770 Tyler St", "address2": null, "address3": null, "city": "Pittsfield", "zip_code": "01201", "country": "US", "state": "MA", "display_address": ["770 Tyler St", "Pittsfield, MA 01201"]}, "phone": "+14134436969", "display_phone": "(413) 443-6969", "distance": 13479.372375382414}, {"id": "LjIq-9U-bmB-yoBzip4qLA", "alias": "mezze-bistro-bar-williamstown", "name": "Mezze Bistro + Bar", "image_url": "https://s3-media3.fl.yelpcdn.com/bphoto/VV1En774j6XPAOkz4MB1hA/o.jpg", "is_closed": false, "url": "https://www.yelp.com/biz/mezze-bistro-bar-williamstown?adjust_creative=h5HwbyQ0TYvQjBo6Ys5Bgw&utm_campaign=yelp_api_v3&utm_medium=api_v3_business_search&utm_source=h5HwbyQ0TYvQjBo6Ys5Bgw", "review_count": 141, "categories": [{"alias": "bars", "title": "Bars"}, {"alias": "tradamerican", "title": "American (Traditional)"}, {"alias": "venues", "title": "Venues & Event Spaces"}], "rating": 4.0, "coordinates": {"latitude": 42.6973, "longitude": -73.22639}, "transactions": [], "price": "$$$", "location": {"address1": "777 Cold Spring Road Route 7", "address2": null, "address3": "", "city": "Williamstown", "zip_code": "01267", "country": "US", "state": "MA", "display_address": ["777 Cold Spring Road Route 7", "Williamstown, MA 01267"]}, "phone": "+14134580123", "display_phone": "(413) 458-0123", "distance": 16728.85327143698}, {"id": "CJ4IxtpJ1M34DLidfnmaoA", "alias": "water-street-grill-williamstown", "name": "Water Street Grill", "image_url": "https://s3-media3.fl.yelpcdn.com/bphoto/_QToyvujUOHgqNJdcAuIrw/o.jpg", "is_closed": false, "url": "https://www.yelp.com/biz/water-street-grill-williamstown?adjust_creative=h5HwbyQ0TYvQjBo6Ys5Bgw&utm_campaign=yelp_api_v3&utm_medium=api_v3_business_search&utm_source=h5HwbyQ0TYvQjBo6Ys5Bgw", "review_count": 89, "categories": [{"alias": "tradamerican", "title": "American (Traditional)"}], "rating": 4.0, "coordinates": {"latitude": 42.7077855169773, "longitude": -73.2007073611021}, "transactions": [], "price": "$$", "location": {"address1": "123 Water St", "address2": "", "address3": "", "city": "Williamstown", "zip_code": "01267", "country": "US", "state": "MA", "display_address": ["123 Water St", "Williamstown, MA 01267"]}, "phone": "+14134582175", "display_phone": "(413) 458-2175", "distance": 17171.331212959267}, {"id": "LsBWcjUV9pWHx18TFHmgxw", "alias": "deweys-public-house-dalton", "name": "Dewey's Public House", "image_url": "https://s3-media1.fl.yelpcdn.com/bphoto/IexiQnkl0NHDCGObVhW8QQ/o.jpg", "is_closed": false, "url": "https://www.yelp.com/biz/deweys-public-house-dalton?adjust_creative=h5HwbyQ0TYvQjBo6Ys5Bgw&utm_campaign=yelp_api_v3&utm_medium=api_v3_business_search&utm_source=h5HwbyQ0TYvQjBo6Ys5Bgw", "review_count": 17, "categories": [{"alias": "bars", "title": "Bars"}, {"alias": "tradamerican", "title": "American (Traditional)"}], "rating": 4.0, "coordinates": {"latitude": 42.4734917, "longitude": -73.156044}, "transactions": [], "price": "$$", "location": {"address1": "16 Depot St", "address2": "", "address3": "", "city": "Dalton", "zip_code": "01226", "country": "US", "state": "MA", "display_address": ["16 Depot St", "Dalton, MA 01226"]}, "phone": "+14136840900", "display_phone": "(413) 684-0900", "distance": 9474.874785639922}, {"id": "qdEOFaDMWYcGqGFUTZa7IQ", "alias": "biggins-diggins-lanesborough", "name": "Biggins Diggins", "image_url": "https://s3-media2.fl.yelpcdn.com/bphoto/mIZVB-5aQcMT1KlXaK56Pg/o.jpg", "is_closed": false, "url": "https://www.yelp.com/biz/biggins-diggins-lanesborough?adjust_creative=h5HwbyQ0TYvQjBo6Ys5Bgw&utm_campaign=yelp_api_v3&utm_medium=api_v3_business_search&utm_source=h5HwbyQ0TYvQjBo6Ys5Bgw", "review_count": 16, "categories": [{"alias": "breakfast_brunch", "title": "Breakfast & Brunch"}], "rating": 4.0, "coordinates": {"latitude": 42.5008113, "longitude": -73.236971}, "transactions": ["delivery"], "location": {"address1": "543 S Main St", "address2": "", "address3": null, "city": "Lanesborough", "zip_code": "01237", "country": "US", "state": "MA", "display_address": ["543 S Main St", "Lanesborough, MA 01237"]}, "phone": "+14134963141", "display_phone": "(413) 496-3141", "distance": 9781.305181047815}, {"id": "evqim7GCUmXaIXYon482IQ", "alias": "korean-garden-north-adams", "name": "Korean Garden", "image_url": "https://s3-media4.fl.yelpcdn.com/bphoto/MsgpxFwZ8Cog4BgwVZyyDA/o.jpg", "is_closed": false, "url": "https://www.yelp.com/biz/korean-garden-north-adams?adjust_creative=h5HwbyQ0TYvQjBo6Ys5Bgw&utm_campaign=yelp_api_v3&utm_medium=api_v3_business_search&utm_source=h5HwbyQ0TYvQjBo6Ys5Bgw", "review_count": 76, "categories": [{"alias": "korean", "title": "Korean"}, {"alias": "asianfusion", "title": "Asian Fusion"}], "rating": 4.5, "coordinates": {"latitude": 42.694896697998, "longitude": -73.1101608276367}, "transactions": [], "price": "$$", "location": {"address1": "139 Ashland St", "address2": "", "address3": "", "city": "North Adams", "zip_code": "01247", "country": "US", "state": "MA", "display_address": ["139 Ashland St", "North Adams, MA 01247"]}, "phone": "+14133464097", "display_phone": "(413) 346-4097", "distance": 15448.021736991692}, {"id": "cCrInUewlA89sDza70MvCA", "alias": "vongs-pittsfield-2", "name": "Vongs", "image_url": "https://s3-media3.fl.yelpcdn.com/bphoto/ldVZ4TDrHmFZhoBD_uSEqg/o.jpg", "is_closed": false, "url": "https://www.yelp.com/biz/vongs-pittsfield-2?adjust_creative=h5HwbyQ0TYvQjBo6Ys5Bgw&utm_campaign=yelp_api_v3&utm_medium=api_v3_business_search&utm_source=h5HwbyQ0TYvQjBo6Ys5Bgw", "review_count": 63, "categories": [{"alias": "vietnamese", "title": "Vietnamese"}, {"alias": "thai", "title": "Thai"}], "rating": 4.0, "coordinates": {"latitude": 42.4608192996704, "longitude": -73.2507721752335}, "transactions": ["delivery"], "price": "$$", "location": {"address1": "157 Seymour St", "address2": "", "address3": "", "city": "Pittsfield", "zip_code": "01201", "country": "US", "state": "MA", "display_address": ["157 Seymour St", "Pittsfield, MA 01201"]}, "phone": "+14134426000", "display_phone": "(413) 442-6000", "distance": 13805.866919781072}, {"id": "b__Dz9yt1BUcKlfwH02hng", "alias": "mazzeos-ristorante-pittsfield", "name": "Mazzeo's Ristorante", "image_url": "https://s3-media4.fl.yelpcdn.com/bphoto/qbpAa7i58lM4a8VQ5RYRjA/o.jpg", "is_closed": false, "url": "https://www.yelp.com/biz/mazzeos-ristorante-pittsfield?adjust_creative=h5HwbyQ0TYvQjBo6Ys5Bgw&utm_campaign=yelp_api_v3&utm_medium=api_v3_business_search&utm_source=h5HwbyQ0TYvQjBo6Ys5Bgw", "review_count": 142, "categories": [{"alias": "italian", "title": "Italian"}, {"alias": "gluten_free", "title": "Gluten-Free"}, {"alias": "bars", "title": "Bars"}], "rating": 3.5, "coordinates": {"latitude": 42.413089, "longitude": -73.260826}, "transactions": ["delivery", "restaurant_reservation"], "price": "$$$", "location": {"address1": "1015 South St", "address2": "", "address3": "", "city": "Pittsfield", "zip_code": "01201", "country": "US", "state": "MA", "display_address": ["1015 South St", "Pittsfield, MA 01201"]}, "phone": "+14134482095", "display_phone": "(413) 448-2095", "distance": 18786.46937687672}, {"id": "IaujkYzYVYjwN4LNSZGWNg", "alias": "chees-chinese-cuisine-adams", "name": "Chee's Chinese Cuisine", "image_url": "https://s3-media1.fl.yelpcdn.com/bphoto/Txxm5ALf_ACvq2O4pkNR5g/o.jpg", "is_closed": false, "url": "https://www.yelp.com/biz/chees-chinese-cuisine-adams?adjust_creative=h5HwbyQ0TYvQjBo6Ys5Bgw&utm_campaign=yelp_api_v3&utm_medium=api_v3_business_search&utm_source=h5HwbyQ0TYvQjBo6Ys5Bgw", "review_count": 38, "categories": [{"alias": "chinese", "title": "Chinese"}], "rating": 4.0, "coordinates": {"latitude": 42.6247978, "longitude": -73.1190299}, "transactions": [], "price": "$$", "location": {"address1": "13 Columbia St", "address2": "", "address3": "", "city": "Adams", "zip_code": "01220", "country": "US", "state": "MA", "display_address": ["13 Columbia St", "Adams, MA 01220"]}, "phone": "+14137437270", "display_phone": "(413) 743-7270", "distance": 7708.1144714576}, {"id": "5fGDL6__gYOZ3aEqUrnprA", "alias": "dalton-restaurant-dalton", "name": "Dalton Restaurant", "image_url": "https://s3-media3.fl.yelpcdn.com/bphoto/s2zuMPhQulG1TNyWx1EfAg/o.jpg", "is_closed": false, "url": "https://www.yelp.com/biz/dalton-restaurant-dalton?adjust_creative=h5HwbyQ0TYvQjBo6Ys5Bgw&utm_campaign=yelp_api_v3&utm_medium=api_v3_business_search&utm_source=h5HwbyQ0TYvQjBo6Ys5Bgw", "review_count": 12, "categories": [{"alias": "diners", "title": "Diners"}], "rating": 4.0, "coordinates": {"latitude": 42.4734982, "longitude": -73.1721344}, "transactions": ["delivery"], "price": "$", "location": {"address1": "401 Main St", "address2": "", "address3": "", "city": "Dalton", "zip_code": "01226", "country": "US", "state": "MA", "display_address": ["401 Main St", "Dalton, MA 01226"]}, "phone": "+14136840414", "display_phone": "(413) 684-0414", "distance": 9682.319029751809}, {"id": "VU3s1OoN4ShEcKlc_Iz3AA", "alias": "freight-yard-pub-and-restaurant-north-adams", "name": "Freight Yard Pub & Restaurant", "image_url": "https://s3-media3.fl.yelpcdn.com/bphoto/uw51e0o54gszEoMyX9Gt9w/o.jpg", "is_closed": false, "url": "https://www.yelp.com/biz/freight-yard-pub-and-restaurant-north-adams?adjust_creative=h5HwbyQ0TYvQjBo6Ys5Bgw&utm_campaign=yelp_api_v3&utm_medium=api_v3_business_search&utm_source=h5HwbyQ0TYvQjBo6Ys5Bgw", "review_count": 106, "categories": [{"alias": "tradamerican", "title": "American (Traditional)"}, {"alias": "pubs", "title": "Pubs"}], "rating": 3.5, "coordinates": {"latitude": 42.6967626878444, "longitude": -73.1140930606933}, "transactions": ["pickup"], "price": "$$", "location": {"address1": "1 Furnace St", "address2": "", "address3": "", "city": "North Adams", "zip_code": "01247", "country": "US", "state": "MA", "display_address": ["1 Furnace St", "North Adams, MA 01247"]}, "phone": "+14136636547", "display_phone": "(413) 663-6547", "distance": 15596.92759717016}, {"id": "aw0FDqkiYDIE33KmHW7YHQ", "alias": "listons-bar-and-grill-worthington", "name": "Listons Bar & Grill", "image_url": "https://s3-media2.fl.yelpcdn.com/bphoto/Zw2va6P_vOdum1skN8J6cQ/o.jpg", "is_closed": false, "url": "https://www.yelp.com/biz/listons-bar-and-grill-worthington?adjust_creative=h5HwbyQ0TYvQjBo6Ys5Bgw&utm_campaign=yelp_api_v3&utm_medium=api_v3_business_search&utm_source=h5HwbyQ0TYvQjBo6Ys5Bgw", "review_count": 7, "categories": [{"alias": "sportsbars", "title": "Sports Bars"}, {"alias": "tradamerican", "title": "American (Traditional)"}], "rating": 4.5, "coordinates": {"latitude": 42.42713, "longitude": -72.95322}, "transactions": [], "location": {"address1": "324 Old North Rd Rte 143", "address2": "", "address3": null, "city": "Worthington", "zip_code": "01098", "country": "US", "state": "MA", "display_address": ["324 Old North Rd Rte 143", "Worthington, MA 01098"]}, "phone": "+14132385353", "display_phone": "(413) 238-5353", "distance": 21551.04898437952}, {"id": "5SEv6lCoqsHuIvd5bseAPw", "alias": "thrive-diner-pittsfield", "name": "Thrive Diner", "image_url": "https://s3-media3.fl.yelpcdn.com/bphoto/tXURYKnF1UmV5Mlw6XyiTg/o.jpg", "is_closed": false, "url": "https://www.yelp.com/biz/thrive-diner-pittsfield?adjust_creative=h5HwbyQ0TYvQjBo6Ys5Bgw&utm_campaign=yelp_api_v3&utm_medium=api_v3_business_search&utm_source=h5HwbyQ0TYvQjBo6Ys5Bgw", "review_count": 43, "categories": [{"alias": "vegan", "title": "Vegan"}], "rating": 4.5, "coordinates": {"latitude": 42.4625, "longitude": -73.25181}, "transactions": ["delivery"], "price": "$$", "location": {"address1": "145 Wahconah St", "address2": null, "address3": "", "city": "Pittsfield", "zip_code": "01201", "country": "US", "state": "MA", "display_address": ["145 Wahconah St", "Pittsfield, MA 01201"]}, "phone": "+14133449353", "display_phone": "(413) 344-9353", "distance": 13701.571324843268}, {"id": "30xbqOCYLbCo841PyZFv6w", "alias": "bounti-fare-restaurant-adams", "name": "Bounti-Fare Restaurant", "image_url": "https://s3-media2.fl.yelpcdn.com/bphoto/Ynn4fqHMBNhd4iKc4T4JBQ/o.jpg", "is_closed": false, "url": "https://www.yelp.com/biz/bounti-fare-restaurant-adams?adjust_creative=h5HwbyQ0TYvQjBo6Ys5Bgw&utm_campaign=yelp_api_v3&utm_medium=api_v3_business_search&utm_source=h5HwbyQ0TYvQjBo6Ys5Bgw", "review_count": 11, "categories": [{"alias": "newamerican", "title": "American (New)"}], "rating": 4.0, "coordinates": {"latitude": 42.6568459876221, "longitude": -73.1102218017408}, "transactions": [], "price": "$$", "location": {"address1": "200 Howland Ave", "address2": "", "address3": "", "city": "Adams", "zip_code": "01220", "country": "US", "state": "MA", "display_address": ["200 Howland Ave", "Adams, MA 01220"]}, "phone": "+14137430193", "display_phone": "(413) 743-0193", "distance": 11331.138832731229}, {"id": "0eMkyB2D0Cw3gszNyAaUdQ", "alias": "mission-restaurant-pittsfield", "name": "Mission Restaurant", "image_url": "https://s3-media3.fl.yelpcdn.com/bphoto/p81W3A_1VlHAeJlbkuw96Q/o.jpg", "is_closed": false, "url": "https://www.yelp.com/biz/mission-restaurant-pittsfield?adjust_creative=h5HwbyQ0TYvQjBo6Ys5Bgw&utm_campaign=yelp_api_v3&utm_medium=api_v3_business_search&utm_source=h5HwbyQ0TYvQjBo6Ys5Bgw", "review_count": 125, "categories": [{"alias": "spanish", "title": "Spanish"}, {"alias": "tapasmallplates", "title": "Tapas/Small Plates"}, {"alias": "musicvenues", "title": "Music Venues"}], "rating": 4.0, "coordinates": {"latitude": 42.4548334, "longitude": -73.2518942}, "transactions": ["delivery"], "price": "$$", "location": {"address1": "438 N St", "address2": "", "address3": "", "city": "Pittsfield", "zip_code": "01201", "country": "US", "state": "MA", "display_address": ["438 N St", "Pittsfield, MA 01201"]}, "phone": "+14134991736", "display_phone": "(413) 499-1736", "distance": 14380.379974147216}, {"id": "QbDOsebLf7kr-VDWFmvokg", "alias": "flavours-of-malaysia-pittsfield", "name": "Flavours of Malaysia", "image_url": "https://s3-media1.fl.yelpcdn.com/bphoto/Rfxdg9pbecME0tkZnkLAEA/o.jpg", "is_closed": false, "url": "https://www.yelp.com/biz/flavours-of-malaysia-pittsfield?adjust_creative=h5HwbyQ0TYvQjBo6Ys5Bgw&utm_campaign=yelp_api_v3&utm_medium=api_v3_business_search&utm_source=h5HwbyQ0TYvQjBo6Ys5Bgw", "review_count": 204, "categories": [{"alias": "asianfusion", "title": "Asian Fusion"}, {"alias": "malaysian", "title": "Malaysian"}], "rating": 4.0, "coordinates": {"latitude": 42.449903, "longitude": -73.254548}, "transactions": ["delivery"], "price": "$$", "location": {"address1": "75 North St", "address2": null, "address3": null, "city": "Pittsfield", "zip_code": "01201", "country": "US", "state": "MA", "display_address": ["75 North St", "Pittsfield, MA 01201"]}, "phone": "+14134433188", "display_phone": "(413) 443-3188", "distance": 14961.488444604725}, {"id": "rCi5XRAlbjFJBD05OWfR1A", "alias": "velvet-restaurant-worthington-2", "name": "Velvet Restaurant", "image_url": "https://s3-media3.fl.yelpcdn.com/bphoto/UlVYHq_A04HTAXFdC6ALBA/o.jpg", "is_closed": false, "url": "https://www.yelp.com/biz/velvet-restaurant-worthington-2?adjust_creative=h5HwbyQ0TYvQjBo6Ys5Bgw&utm_campaign=yelp_api_v3&utm_medium=api_v3_business_search&utm_source=h5HwbyQ0TYvQjBo6Ys5Bgw", "review_count": 7, "categories": [{"alias": "bars", "title": "Bars"}, {"alias": "newamerican", "title": "American (New)"}], "rating": 4.0, "coordinates": {"latitude": 42.40855, "longitude": -72.94236}, "transactions": [], "location": {"address1": "113 Ridge Rd", "address2": null, "address3": "", "city": "Worthington", "zip_code": "01098", "country": "US", "state": "MA", "display_address": ["113 Ridge Rd", "Worthington, MA 01098"]}, "phone": "+14132384492", "display_phone": "(413) 238-4492", "distance": 23661.70946480544}, {"id": "CmetvmovgfbsDICV_eKrCw", "alias": "battistas-international-house-of-tacos-pittsfield-2", "name": "Battista's International House of Tacos", "image_url": "https://s3-media1.fl.yelpcdn.com/bphoto/mzrKTjU0GxOy0JRvsLv4JA/o.jpg", "is_closed": false, "url": "https://www.yelp.com/biz/battistas-international-house-of-tacos-pittsfield-2?adjust_creative=h5HwbyQ0TYvQjBo6Ys5Bgw&utm_campaign=yelp_api_v3&utm_medium=api_v3_business_search&utm_source=h5HwbyQ0TYvQjBo6Ys5Bgw", "review_count": 93, "categories": [{"alias": "tacos", "title": "Tacos"}], "rating": 4.5, "coordinates": {"latitude": 42.436264997064, "longitude": -73.3062452450395}, "transactions": ["delivery"], "price": "$", "location": {"address1": "1231 W Housatonic St", "address2": "", "address3": null, "city": "Pittsfield", "zip_code": "01201", "country": "US", "state": "MA", "display_address": ["1231 W Housatonic St", "Pittsfield, MA 01201"]}, "phone": "+14134648654", "display_phone": "(413) 464-8654", "distance": 18855.900020892746}, {"id": "oCsKQ2Ns4NZtIjvu4PODBg", "alias": "the-roasted-garlic-pittsfield", "name": "The Roasted Garlic", "image_url": "https://s3-media3.fl.yelpcdn.com/bphoto/9u5QaUpT90u9r2vCPL_oGA/o.jpg", "is_closed": false, "url": "https://www.yelp.com/biz/the-roasted-garlic-pittsfield?adjust_creative=h5HwbyQ0TYvQjBo6Ys5Bgw&utm_campaign=yelp_api_v3&utm_medium=api_v3_business_search&utm_source=h5HwbyQ0TYvQjBo6Ys5Bgw", "review_count": 116, "categories": [{"alias": "tradamerican", "title": "American (Traditional)"}, {"alias": "sportsbars", "title": "Sports Bars"}], "rating": 3.5, "coordinates": {"latitude": 42.44215, "longitude": -73.27677}, "transactions": ["delivery"], "price": "$$", "location": {"address1": "483 W Housatonic St", "address2": "", "address3": "", "city": "Pittsfield", "zip_code": "01201", "country": "US", "state": "MA", "display_address": ["483 W Housatonic St", "Pittsfield, MA 01201"]}, "phone": "+14134999910", "display_phone": "(413) 499-9910", "distance": 16753.57048380994}, {"id": "eblzT9dPUY68f-yTC8DWFg", "alias": "lanesboro-restaurant-and-pizzeria-lanesboro", "name": "Lanesboro Restaurant & Pizzeria", "image_url": "https://s3-media3.fl.yelpcdn.com/bphoto/kwWtdSZvleEEwHEowueLRw/o.jpg", "is_closed": false, "url": "https://www.yelp.com/biz/lanesboro-restaurant-and-pizzeria-lanesboro?adjust_creative=h5HwbyQ0TYvQjBo6Ys5Bgw&utm_campaign=yelp_api_v3&utm_medium=api_v3_business_search&utm_source=h5HwbyQ0TYvQjBo6Ys5Bgw", "review_count": 10, "categories": [{"alias": "pizza", "title": "Pizza"}], "rating": 4.0, "coordinates": {"latitude": 42.494332, "longitude": -73.237745}, "transactions": ["delivery"], "price": "$$", "location": {"address1": "739 S Main St", "address2": "", "address3": "", "city": "Lanesboro", "zip_code": "01237", "country": "US", "state": "MA", "display_address": ["739 S Main St", "Lanesboro, MA 01237"]}, "phone": "+14134420600", "display_phone": "(413) 442-0600", "distance": 10318.481823101663}, {"id": "1J02t_gsLt_Rq2x0xPOzzg", "alias": "vivaldis-pizzeria-pittsfield", "name": "Vivaldi's Pizzeria", "image_url": "https://s3-media1.fl.yelpcdn.com/bphoto/4qvGd-y7a3vrDYNcI4-Cmw/o.jpg", "is_closed": false, "url": "https://www.yelp.com/biz/vivaldis-pizzeria-pittsfield?adjust_creative=h5HwbyQ0TYvQjBo6Ys5Bgw&utm_campaign=yelp_api_v3&utm_medium=api_v3_business_search&utm_source=h5HwbyQ0TYvQjBo6Ys5Bgw", "review_count": 32, "categories": [{"alias": "italian", "title": "Italian"}, {"alias": "pizza", "title": "Pizza"}, {"alias": "salad", "title": "Salad"}], "rating": 4.0, "coordinates": {"latitude": 42.46832, "longitude": -73.2038}, "transactions": ["delivery"], "price": "$", "location": {"address1": "5 Cheshire Rd", "address2": "", "address3": null, "city": "Pittsfield", "zip_code": "01201", "country": "US", "state": "MA", "display_address": ["5 Cheshire Rd", "Pittsfield, MA 01201"]}, "phone": "+14132365633", "display_phone": "(413) 236-5633", "distance": 10993.533289730598}, {"id": "mgAui_vAKr-B-dhyAGruWg", "alias": "the-store-at-five-corners-williamstown-2", "name": "The Store at Five Corners", "image_url": "https://s3-media2.fl.yelpcdn.com/bphoto/i4QxUE21cd1uDnpoNbj_9Q/o.jpg", "is_closed": false, "url": "https://www.yelp.com/biz/the-store-at-five-corners-williamstown-2?adjust_creative=h5HwbyQ0TYvQjBo6Ys5Bgw&utm_campaign=yelp_api_v3&utm_medium=api_v3_business_search&utm_source=h5HwbyQ0TYvQjBo6Ys5Bgw", "review_count": 35, "categories": [{"alias": "bakeries", "title": "Bakeries"}, {"alias": "cafes", "title": "Cafes"}], "rating": 4.0, "coordinates": {"latitude": 42.660637, "longitude": -73.241059}, "transactions": [], "price": "$$", "location": {"address1": "6 New Ashford Rd", "address2": "", "address3": "Rte 7 & 43", "city": "Williamstown", "zip_code": "01267", "country": "US", "state": "MA", "display_address": ["6 New Ashford Rd", "Rte 7 & 43", "Williamstown, MA 01267"]}, "phone": "+14134586105", "display_phone": "(413) 458-6105", "distance": 13712.161587391778}, {"id": "U2zoVAZs8xYVuBW7tyDquA", "alias": "angelinas-submarine-shop-adams", "name": "Angelina's Submarine Shop", "image_url": "https://s3-media3.fl.yelpcdn.com/bphoto/7qF4VGEMh4WqzYTZ7XAsmA/o.jpg", "is_closed": false, "url": "https://www.yelp.com/biz/angelinas-submarine-shop-adams?adjust_creative=h5HwbyQ0TYvQjBo6Ys5Bgw&utm_campaign=yelp_api_v3&utm_medium=api_v3_business_search&utm_source=h5HwbyQ0TYvQjBo6Ys5Bgw", "review_count": 7, "categories": [{"alias": "sandwiches", "title": "Sandwiches"}], "rating": 5.0, "coordinates": {"latitude": 42.628297, "longitude": -73.116417}, "transactions": [], "price": "$", "location": {"address1": "34 1/2 Columbia St", "address2": "", "address3": "", "city": "Adams", "zip_code": "01220", "country": "US", "state": "MA", "display_address": ["34 1/2 Columbia St", "Adams, MA 01220"]}, "phone": "+14137439744", "display_phone": "(413) 743-9744", "distance": 8143.812478721455}, {"id": "q_XWxF3s5hTEnPiLbgmzjQ", "alias": "ajs-trailside-pub-adams", "name": "AJs trailside pub", "image_url": "https://s3-media2.fl.yelpcdn.com/bphoto/3soC_sfncbguc2LWX6Y1UQ/o.jpg", "is_closed": false, "url": "https://www.yelp.com/biz/ajs-trailside-pub-adams?adjust_creative=h5HwbyQ0TYvQjBo6Ys5Bgw&utm_campaign=yelp_api_v3&utm_medium=api_v3_business_search&utm_source=h5HwbyQ0TYvQjBo6Ys5Bgw", "review_count": 5, "categories": [{"alias": "tradamerican", "title": "American (Traditional)"}, {"alias": "pubs", "title": "Pubs"}], "rating": 3.0, "coordinates": {"latitude": 42.6217931885812, "longitude": -73.1190310791135}, "transactions": [], "location": {"address1": "12 Pleasant St", "address2": "", "address3": null, "city": "Adams", "zip_code": "01220", "country": "US", "state": "MA", "display_address": ["12 Pleasant St", "Adams, MA 01220"]}, "phone": "+14137437831", "display_phone": "(413) 743-7831", "distance": 7389.901224811436}, {"id": "BF9xYXqTP6_PRj8PBZKbyA", "alias": "hot-tomatoes-neopolitan-pizza-williamstown", "name": "Hot Tomatoes Neopolitan Pizza", "image_url": "https://s3-media2.fl.yelpcdn.com/bphoto/SoKdlxMTiCOn5TmOphjl9g/o.jpg", "is_closed": false, "url": "https://www.yelp.com/biz/hot-tomatoes-neopolitan-pizza-williamstown?adjust_creative=h5HwbyQ0TYvQjBo6Ys5Bgw&utm_campaign=yelp_api_v3&utm_medium=api_v3_business_search&utm_source=h5HwbyQ0TYvQjBo6Ys5Bgw", "review_count": 69, "categories": [{"alias": "pizza", "title": "Pizza"}], "rating": 4.5, "coordinates": {"latitude": 42.7085494995117, "longitude": -73.2002639770508}, "transactions": [], "price": "$$", "location": {"address1": "100 Water St", "address2": "", "address3": "", "city": "Williamstown", "zip_code": "01267", "country": "US", "state": "MA", "display_address": ["100 Water St", "Williamstown, MA 01267"]}, "phone": "+14134582722", "display_phone": "(413) 458-2722", "distance": 17236.95906693004}, {"id": "RtMPXedJocZX0VyTB3o6dQ", "alias": "smokey-divas-pittsfield", "name": "Smokey Divas", "image_url": "https://s3-media2.fl.yelpcdn.com/bphoto/eR_ibLv6mWTkZxRqHrL_FQ/o.jpg", "is_closed": false, "url": "https://www.yelp.com/biz/smokey-divas-pittsfield?adjust_creative=h5HwbyQ0TYvQjBo6Ys5Bgw&utm_campaign=yelp_api_v3&utm_medium=api_v3_business_search&utm_source=h5HwbyQ0TYvQjBo6Ys5Bgw", "review_count": 22, "categories": [{"alias": "bbq", "title": "Barbeque"}], "rating": 4.5, "coordinates": {"latitude": 42.4589165630306, "longitude": -73.2636564597487}, "transactions": ["delivery"], "location": {"address1": "239 Onota St", "address2": "", "address3": null, "city": "Pittsfield", "zip_code": "01201", "country": "US", "state": "MA", "display_address": ["239 Onota St", "Pittsfield, MA 01201"]}, "phone": "+14133444206", "display_phone": "(413) 344-4206", "distance": 14640.249555136119}, {"id": "jkYGwogtKOwlNhz8juiGWQ", "alias": "daily-grind-adams", "name": "Daily Grind", "image_url": "https://s3-media3.fl.yelpcdn.com/bphoto/pTIbqnNn-8fbakgAdoCjIA/o.jpg", "is_closed": false, "url": "https://www.yelp.com/biz/daily-grind-adams?adjust_creative=h5HwbyQ0TYvQjBo6Ys5Bgw&utm_campaign=yelp_api_v3&utm_medium=api_v3_business_search&utm_source=h5HwbyQ0TYvQjBo6Ys5Bgw", "review_count": 18, "categories": [{"alias": "delis", "title": "Delis"}], "rating": 4.0, "coordinates": {"latitude": 42.6220003995806, "longitude": -73.1200815902789}, "transactions": [], "price": "$", "location": {"address1": "57 Park St", "address2": "", "address3": "", "city": "Adams", "zip_code": "01220", "country": "US", "state": "MA", "display_address": ["57 Park St", "Adams, MA 01220"]}, "phone": "+14137439577", "display_phone": "(413) 743-9577", "distance": 7385.725713964014}, {"id": "OcBZ6kfanU8lvBuYKgnjCg", "alias": "coyote-flaco-williamstown", "name": "Coyote Flaco", "image_url": "https://s3-media4.fl.yelpcdn.com/bphoto/rOc3rHkT2y8QH2-WPdlAhA/o.jpg", "is_closed": false, "url": "https://www.yelp.com/biz/coyote-flaco-williamstown?adjust_creative=h5HwbyQ0TYvQjBo6Ys5Bgw&utm_campaign=yelp_api_v3&utm_medium=api_v3_business_search&utm_source=h5HwbyQ0TYvQjBo6Ys5Bgw", "review_count": 112, "categories": [{"alias": "mexican", "title": "Mexican"}], "rating": 4.0, "coordinates": {"latitude": 42.704206, "longitude": -73.222765}, "transactions": [], "price": "$$", "location": {"address1": "505 Cold Spring Rd", "address2": "", "address3": "", "city": "Williamstown", "zip_code": "01267", "country": "US", "state": "MA", "display_address": ["505 Cold Spring Rd", "Williamstown, MA 01267"]}, "phone": "+14134584240", "display_phone": "(413) 458-4240", "distance": 17337.531192426733}, {"id": "z7YgVWr4CI_SOOmdHH-ddQ", "alias": "lees-dynasty-adams", "name": "Lee's Dynasty", "image_url": "https://s3-media1.fl.yelpcdn.com/bphoto/AzqvxgGqymm2CP-B-dV-KA/o.jpg", "is_closed": false, "url": "https://www.yelp.com/biz/lees-dynasty-adams?adjust_creative=h5HwbyQ0TYvQjBo6Ys5Bgw&utm_campaign=yelp_api_v3&utm_medium=api_v3_business_search&utm_source=h5HwbyQ0TYvQjBo6Ys5Bgw", "review_count": 13, "categories": [{"alias": "chinese", "title": "Chinese"}, {"alias": "sushi", "title": "Sushi Bars"}], "rating": 4.5, "coordinates": {"latitude": 42.63389, "longitude": -73.1135}, "transactions": [], "location": {"address1": "131 Columbia St", "address2": "", "address3": null, "city": "Adams", "zip_code": "01220", "country": "US", "state": "MA", "display_address": ["131 Columbia St", "Adams, MA 01220"]}, "phone": "+14137433333", "display_phone": "(413) 743-3333", "distance": 8809.320691234076}, {"id": "fffJgJEdkV01ods74qDKzA", "alias": "zucchinis-restaurant-and-wood-fired-pizza-pittsfield", "name": "Zucchini's Restaurant & Wood Fired Pizza", "image_url": "https://s3-media1.fl.yelpcdn.com/bphoto/RlF3NAEuS6E976AXD2lJcA/o.jpg", "is_closed": false, "url": "https://www.yelp.com/biz/zucchinis-restaurant-and-wood-fired-pizza-pittsfield?adjust_creative=h5HwbyQ0TYvQjBo6Ys5Bgw&utm_campaign=yelp_api_v3&utm_medium=api_v3_business_search&utm_source=h5HwbyQ0TYvQjBo6Ys5Bgw", "review_count": 64, "categories": [{"alias": "pizza", "title": "Pizza"}, {"alias": "italian", "title": "Italian"}, {"alias": "newamerican", "title": "American (New)"}], "rating": 3.5, "coordinates": {"latitude": 42.48183, "longitude": -73.24674}, "transactions": ["delivery"], "price": "$$", "location": {"address1": "1331 North St", "address2": "", "address3": "", "city": "Pittsfield", "zip_code": "01201", "country": "US", "state": "MA", "display_address": ["1331 North St", "Pittsfield, MA 01201"]}, "phone": "+14134422777", "display_phone": "(413) 442-2777", "distance": 11839.434363492079}, {"id": "2HNQ52VIATkFhvYvXIVkxg", "alias": "bascom-lodge-cheshire", "name": "Bascom Lodge", "image_url": "https://s3-media2.fl.yelpcdn.com/bphoto/OqAT0Zo-aER3M6sHxFMhWQ/o.jpg", "is_closed": false, "url": "https://www.yelp.com/biz/bascom-lodge-cheshire?adjust_creative=h5HwbyQ0TYvQjBo6Ys5Bgw&utm_campaign=yelp_api_v3&utm_medium=api_v3_business_search&utm_source=h5HwbyQ0TYvQjBo6Ys5Bgw", "review_count": 4, "categories": [{"alias": "bedbreakfast", "title": "Bed & Breakfast"}, {"alias": "tradamerican", "title": "American (Traditional)"}], "rating": 3.0, "coordinates": {"latitude": 42.5524235867851, "longitude": -73.2149627026462}, "transactions": [], "price": "$$", "location": {"address1": "30 Rockwell Rd", "address2": "", "address3": "", "city": "Cheshire", "zip_code": "01225", "country": "US", "state": "MA", "display_address": ["30 Rockwell Rd", "Cheshire, MA 01225"]}, "phone": "+14137431591", "display_phone": "(413) 743-1591", "distance": 5489.146236036512}, {"id": "wzSu93NPvW0DiSXABoAM8w", "alias": "methuselah-bar-and-lounge-pittsfield", "name": "Methuselah Bar and Lounge", "image_url": "https://s3-media2.fl.yelpcdn.com/bphoto/iZxRn6irr7IdDvV5mkCRtw/o.jpg", "is_closed": false, "url": "https://www.yelp.com/biz/methuselah-bar-and-lounge-pittsfield?adjust_creative=h5HwbyQ0TYvQjBo6Ys5Bgw&utm_campaign=yelp_api_v3&utm_medium=api_v3_business_search&utm_source=h5HwbyQ0TYvQjBo6Ys5Bgw", "review_count": 57, "categories": [{"alias": "lounges", "title": "Lounges"}, {"alias": "tacos", "title": "Tacos"}, {"alias": "tapas", "title": "Tapas Bars"}], "rating": 4.0, "coordinates": {"latitude": 42.4542253216836, "longitude": -73.2525427266955}, "transactions": ["delivery", "pickup"], "price": "$$", "location": {"address1": "391 N St", "address2": "", "address3": "", "city": "Pittsfield", "zip_code": "01201", "country": "US", "state": "MA", "display_address": ["391 N St", "Pittsfield, MA 01201"]}, "phone": "+14133472888", "display_phone": "(413) 347-2888", "distance": 14476.943120187567}, {"id": "VPDBd1fuy7kp2tQ9cFlkgQ", "alias": "trattoria-rustica-pittsfield", "name": "Trattoria Rustica", "image_url": "https://s3-media1.fl.yelpcdn.com/bphoto/pGGZRqKuxQa3ODa3gWDIxQ/o.jpg", "is_closed": false, "url": "https://www.yelp.com/biz/trattoria-rustica-pittsfield?adjust_creative=h5HwbyQ0TYvQjBo6Ys5Bgw&utm_campaign=yelp_api_v3&utm_medium=api_v3_business_search&utm_source=h5HwbyQ0TYvQjBo6Ys5Bgw", "review_count": 77, "categories": [{"alias": "italian", "title": "Italian"}], "rating": 4.0, "coordinates": {"latitude": 42.449648597523, "longitude": -73.254720133583}, "transactions": ["delivery"], "price": "$$$", "location": {"address1": "27 McKay St", "address2": null, "address3": "", "city": "Pittsfield", "zip_code": "01201", "country": "US", "state": "MA", "display_address": ["27 McKay St", "Pittsfield, MA 01201"]}, "phone": "+14134991192", "display_phone": "(413) 499-1192", "distance": 14992.66912888367}, {"id": "pPXCDn7nz2etvVF6Fyh2Cg", "alias": "golden-eagle-restaurant-and-gift-shoppe-clarksburg", "name": "Golden Eagle Restaurant & Gift Shoppe", "image_url": "https://s3-media1.fl.yelpcdn.com/bphoto/bYQ4eTMepsXBC7AwFAj6Eg/o.jpg", "is_closed": false, "url": "https://www.yelp.com/biz/golden-eagle-restaurant-and-gift-shoppe-clarksburg?adjust_creative=h5HwbyQ0TYvQjBo6Ys5Bgw&utm_campaign=yelp_api_v3&utm_medium=api_v3_business_search&utm_source=h5HwbyQ0TYvQjBo6Ys5Bgw", "review_count": 47, "categories": [{"alias": "tradamerican", "title": "American (Traditional)"}, {"alias": "seafood", "title": "Seafood"}], "rating": 3.5, "coordinates": {"latitude": 42.7093690129757, "longitude": -73.0626602891234}, "transactions": [], "price": "$$", "location": {"address1": "1935 Mohawk Trl", "address2": "", "address3": "", "city": "Clarksburg", "zip_code": "01247", "country": "US", "state": "MA", "display_address": ["1935 Mohawk Trl", "Clarksburg, MA 01247"]}, "phone": "+14136639834", "display_phone": "(413) 663-9834", "distance": 18128.305003094534}, {"id": "IgKsujHXUMKmSrDko-VzSA", "alias": "the-barn-kitchen-and-bar-williamstown", "name": "The Barn Kitchen & Bar", "image_url": "https://s3-media2.fl.yelpcdn.com/bphoto/fUiEkYbJIZIsDSmjS3-XJg/o.jpg", "is_closed": false, "url": "https://www.yelp.com/biz/the-barn-kitchen-and-bar-williamstown?adjust_creative=h5HwbyQ0TYvQjBo6Ys5Bgw&utm_campaign=yelp_api_v3&utm_medium=api_v3_business_search&utm_source=h5HwbyQ0TYvQjBo6Ys5Bgw", "review_count": 13, "categories": [{"alias": "desserts", "title": "Desserts"}, {"alias": "salad", "title": "Salad"}, {"alias": "breakfast_brunch", "title": "Breakfast & Brunch"}], "rating": 3.5, "coordinates": {"latitude": 42.708405, "longitude": -73.2052743}, "transactions": [], "location": {"address1": "103 Spring St", "address2": null, "address3": "", "city": "Williamstown", "zip_code": "01267", "country": "US", "state": "MA", "display_address": ["103 Spring St", "Williamstown, MA 01267"]}, "phone": "+19787847602", "display_phone": "(978) 784-7602", "distance": 17327.108807321427}, {"id": "11wecSBDA36kJoXAxA8Lew", "alias": "empire-cafe-north-adams", "name": "Empire Cafe", "image_url": "https://s3-media1.fl.yelpcdn.com/bphoto/_A_e_8XBVD34vdVccy4EhQ/o.jpg", "is_closed": false, "url": "https://www.yelp.com/biz/empire-cafe-north-adams?adjust_creative=h5HwbyQ0TYvQjBo6Ys5Bgw&utm_campaign=yelp_api_v3&utm_medium=api_v3_business_search&utm_source=h5HwbyQ0TYvQjBo6Ys5Bgw", "review_count": 34, "categories": [{"alias": "cafes", "title": "Cafes"}], "rating": 4.5, "coordinates": {"latitude": 42.699362, "longitude": -73.112506}, "transactions": [], "price": "$", "location": {"address1": "57 Main St", "address2": "", "address3": null, "city": "North Adams", "zip_code": "01247", "country": "US", "state": "MA", "display_address": ["57 Main St", "North Adams, MA 01247"]}, "phone": "+14133985666", "display_phone": "(413) 398-5666", "distance": 15904.201559118115}, {"id": "1tZUNzRCkpwHkerqyHpIyg", "alias": "capitol-restaurant-north-adams-2", "name": "Capitol Restaurant", "image_url": "https://s3-media1.fl.yelpcdn.com/bphoto/-hCC_IQ8hY4YT7l_j_O2SA/o.jpg", "is_closed": false, "url": "https://www.yelp.com/biz/capitol-restaurant-north-adams-2?adjust_creative=h5HwbyQ0TYvQjBo6Ys5Bgw&utm_campaign=yelp_api_v3&utm_medium=api_v3_business_search&utm_source=h5HwbyQ0TYvQjBo6Ys5Bgw", "review_count": 16, "categories": [{"alias": "tradamerican", "title": "American (Traditional)"}], "rating": 2.5, "coordinates": {"latitude": 42.699381, "longitude": -73.112614}, "transactions": [], "location": {"address1": "55 Main St", "address2": "", "address3": null, "city": "North Adams", "zip_code": "01247", "country": "US", "state": "MA", "display_address": ["55 Main St", "North Adams, MA 01247"]}, "phone": "+14136622500", "display_phone": "(413) 662-2500", "distance": 15904.252114444025}, {"id": "6ZbYMF2jIN9ougQjf_1gDA", "alias": "cafe-seven-williamstown-2", "name": "Cafe Seven", "image_url": "https://s3-media3.fl.yelpcdn.com/bphoto/lIXRLiYwe34FBgVQyYIKMg/o.jpg", "is_closed": false, "url": "https://www.yelp.com/biz/cafe-seven-williamstown-2?adjust_creative=h5HwbyQ0TYvQjBo6Ys5Bgw&utm_campaign=yelp_api_v3&utm_medium=api_v3_business_search&utm_source=h5HwbyQ0TYvQjBo6Ys5Bgw", "review_count": 4, "categories": [{"alias": "cafes", "title": "Cafes"}], "rating": 4.0, "coordinates": {"latitude": 42.707868, "longitude": -73.213536}, "transactions": [], "location": {"address1": "225 South St", "address2": "", "address3": null, "city": "Williamstown", "zip_code": "01267", "country": "US", "state": "MA", "display_address": ["225 South St", "Williamstown, MA 01267"]}, "phone": "", "display_phone": "", "distance": 17468.45395967841}, {"id": "eyXCrSkfRHrxFnfU3uw2gA", "alias": "gramercy-bistro-north-adams", "name": "Gramercy Bistro", "image_url": "https://s3-media4.fl.yelpcdn.com/bphoto/2cuMaIkRSZVVFOlXxW8WHw/o.jpg", "is_closed": false, "url": "https://www.yelp.com/biz/gramercy-bistro-north-adams?adjust_creative=h5HwbyQ0TYvQjBo6Ys5Bgw&utm_campaign=yelp_api_v3&utm_medium=api_v3_business_search&utm_source=h5HwbyQ0TYvQjBo6Ys5Bgw", "review_count": 81, "categories": [{"alias": "tradamerican", "title": "American (Traditional)"}, {"alias": "breakfast_brunch", "title": "Breakfast & Brunch"}], "rating": 3.5, "coordinates": {"latitude": 42.7021799, "longitude": -73.1137849}, "transactions": [], "price": "$$$", "location": {"address1": "87 Marshall St", "address2": "", "address3": "", "city": "North Adams", "zip_code": "01247", "country": "US", "state": "MA", "display_address": ["87 Marshall St", "North Adams, MA 01247"]}, "phone": "+14136635300", "display_phone": "(413) 663-5300", "distance": 16141.475250910487}, {"id": "UtloTG5msKniX74Gll1GEw", "alias": "brooklyns-best-pittsfield", "name": "Brooklyn's Best", "image_url": "https://s3-media2.fl.yelpcdn.com/bphoto/D7moExjZjNntQ_t-RBRUaQ/o.jpg", "is_closed": false, "url": "https://www.yelp.com/biz/brooklyns-best-pittsfield?adjust_creative=h5HwbyQ0TYvQjBo6Ys5Bgw&utm_campaign=yelp_api_v3&utm_medium=api_v3_business_search&utm_source=h5HwbyQ0TYvQjBo6Ys5Bgw", "review_count": 20, "categories": [{"alias": "pizza", "title": "Pizza"}, {"alias": "italian", "title": "Italian"}], "rating": 4.0, "coordinates": {"latitude": 42.4491, "longitude": -73.2534}, "transactions": [], "price": "$$", "location": {"address1": "48 North St", "address2": "Unit A", "address3": null, "city": "Pittsfield", "zip_code": "01201", "country": "US", "state": "MA", "display_address": ["48 North St", "Unit A", "Pittsfield, MA 01201"]}, "phone": "+14132429050", "display_phone": "(413) 242-9050", "distance": 14982.090047395213}, {"id": "1vSpetXLeZnGEI-16WVUog", "alias": "the-brookhouse-sports-pub-and-restaurant-lanesborough", "name": "The Brookhouse Sports Pub & Restaurant", "image_url": "https://s3-media2.fl.yelpcdn.com/bphoto/U2Xz6KkR-gdwLE7XheFJAg/o.jpg", "is_closed": false, "url": "https://www.yelp.com/biz/the-brookhouse-sports-pub-and-restaurant-lanesborough?adjust_creative=h5HwbyQ0TYvQjBo6Ys5Bgw&utm_campaign=yelp_api_v3&utm_medium=api_v3_business_search&utm_source=h5HwbyQ0TYvQjBo6Ys5Bgw", "review_count": 18, "categories": [{"alias": "sportsbars", "title": "Sports Bars"}, {"alias": "tradamerican", "title": "American (Traditional)"}], "rating": 3.0, "coordinates": {"latitude": 42.492263, "longitude": -73.202163}, "transactions": ["delivery"], "price": "$$", "location": {"address1": "650 Chesire Rd", "address2": "", "address3": "", "city": "Lanesborough", "zip_code": "01237", "country": "US", "state": "MA", "display_address": ["650 Chesire Rd", "Lanesborough, MA 01237"]}, "phone": "+14134993331", "display_phone": "(413) 499-3331", "distance": 8646.23617266495}, {"id": "nvn2Tly1BvlmglJ9p-4uDA", "alias": "mad-jacks-lanesborough", "name": "Mad Jack's", "image_url": "https://s3-media2.fl.yelpcdn.com/bphoto/BLw3pU5R6injfiUL6pCbwA/o.jpg", "is_closed": false, "url": "https://www.yelp.com/biz/mad-jacks-lanesborough?adjust_creative=h5HwbyQ0TYvQjBo6Ys5Bgw&utm_campaign=yelp_api_v3&utm_medium=api_v3_business_search&utm_source=h5HwbyQ0TYvQjBo6Ys5Bgw", "review_count": 11, "categories": [{"alias": "bbq", "title": "Barbeque"}, {"alias": "tradamerican", "title": "American (Traditional)"}, {"alias": "soulfood", "title": "Soul Food"}], "rating": 4.0, "coordinates": {"latitude": 42.51325, "longitude": -73.22938}, "transactions": ["delivery"], "location": {"address1": "126 S Main St", "address2": "", "address3": null, "city": "Lanesborough", "zip_code": "01237", "country": "US", "state": "MA", "display_address": ["126 S Main St", "Lanesborough, MA 01237"]}, "phone": "+14134422290", "display_phone": "(413) 442-2290", "distance": 8426.700572651736}, {"id": "llUzaHlkasDeXANKWHdjnw", "alias": "the-6-house-pub-williamstown", "name": "The '6 House Pub", "image_url": "https://s3-media2.fl.yelpcdn.com/bphoto/SBcr6mQ8oDrjnGqvKRvbmg/o.jpg", "is_closed": false, "url": "https://www.yelp.com/biz/the-6-house-pub-williamstown?adjust_creative=h5HwbyQ0TYvQjBo6Ys5Bgw&utm_campaign=yelp_api_v3&utm_medium=api_v3_business_search&utm_source=h5HwbyQ0TYvQjBo6Ys5Bgw", "review_count": 69, "categories": [{"alias": "tradamerican", "title": "American (Traditional)"}, {"alias": "pubs", "title": "Pubs"}], "rating": 3.0, "coordinates": {"latitude": 42.6945968681668, "longitude": -73.2261698519241}, "transactions": [], "price": "$$", "location": {"address1": "866 Cold Spring Rd", "address2": "", "address3": "", "city": "Williamstown", "zip_code": "01267", "country": "US", "state": "MA", "display_address": ["866 Cold Spring Rd", "Williamstown, MA 01267"]}, "phone": "+14134581896", "display_phone": "(413) 458-1896", "distance": 16452.06907344897}, {"id": "jDuxiHujWqUpUsDraF7Otg", "alias": "berkshire-mountain-bakery-pizza-cafe-pittsfield-4", "name": "Berkshire Mountain Bakery Pizza Cafe", "image_url": "https://s3-media3.fl.yelpcdn.com/bphoto/ZoSISihxrgNQ0WaPpTgKUA/o.jpg", "is_closed": false, "url": "https://www.yelp.com/biz/berkshire-mountain-bakery-pizza-cafe-pittsfield-4?adjust_creative=h5HwbyQ0TYvQjBo6Ys5Bgw&utm_campaign=yelp_api_v3&utm_medium=api_v3_business_search&utm_source=h5HwbyQ0TYvQjBo6Ys5Bgw", "review_count": 60, "categories": [{"alias": "pizza", "title": "Pizza"}, {"alias": "bakeries", "title": "Bakeries"}, {"alias": "vegan", "title": "Vegan"}], "rating": 4.0, "coordinates": {"latitude": 42.4430597991196, "longitude": -73.2378399823491}, "transactions": ["delivery"], "price": "$", "location": {"address1": "180 Elm St", "address2": "Ste A", "address3": "", "city": "Pittsfield", "zip_code": "01201", "country": "US", "state": "MA", "display_address": ["180 Elm St", "Ste A", "Pittsfield, MA 01201"]}, "phone": "+14134649394", "display_phone": "(413) 464-9394", "distance": 14850.724881811333}, {"id": "h45SX9FI1QTRc7j7xsa-tg", "alias": "new-asian-garden-pittsfield", "name": "New Asian Garden", "image_url": "https://s3-media1.fl.yelpcdn.com/bphoto/v7lWcE-J_kbRTWZaqDNGcQ/o.jpg", "is_closed": false, "url": "https://www.yelp.com/biz/new-asian-garden-pittsfield?adjust_creative=h5HwbyQ0TYvQjBo6Ys5Bgw&utm_campaign=yelp_api_v3&utm_medium=api_v3_business_search&utm_source=h5HwbyQ0TYvQjBo6Ys5Bgw", "review_count": 14, "categories": [{"alias": "chinese", "title": "Chinese"}, {"alias": "japanese", "title": "Japanese"}, {"alias": "thai", "title": "Thai"}], "rating": 3.5, "coordinates": {"latitude": 42.4443758279085, "longitude": -73.2394176721573}, "transactions": ["delivery"], "price": "$", "location": {"address1": "1-3 Newell St", "address2": "", "address3": null, "city": "Pittsfield", "zip_code": "01201", "country": "US", "state": "MA", "display_address": ["1-3 Newell St", "Pittsfield, MA 01201"]}, "phone": "+14133449428", "display_phone": "(413) 344-9428", "distance": 14790.129567527856}, {"id": "xYYYNn4zVVrCfqpzjp9fog", "alias": "chopsticks-williamstown", "name": "Chopsticks", "image_url": "https://s3-media4.fl.yelpcdn.com/bphoto/kMKh9gw11u8H9s4DZ_Tsyw/o.jpg", "is_closed": false, "url": "https://www.yelp.com/biz/chopsticks-williamstown?adjust_creative=h5HwbyQ0TYvQjBo6Ys5Bgw&utm_campaign=yelp_api_v3&utm_medium=api_v3_business_search&utm_source=h5HwbyQ0TYvQjBo6Ys5Bgw", "review_count": 56, "categories": [{"alias": "chinese", "title": "Chinese"}, {"alias": "japanese", "title": "Japanese"}], "rating": 3.5, "coordinates": {"latitude": 42.7056045532227, "longitude": -73.1888198852539}, "transactions": [], "price": "$$", "location": {"address1": "412 Main St", "address2": "", "address3": "", "city": "Williamstown", "zip_code": "01267", "country": "US", "state": "MA", "display_address": ["412 Main St", "Williamstown, MA 01267"]}, "phone": "+14134585750", "display_phone": "(413) 458-5750", "distance": 16714.242293406784}, {"id": "4HK4TXQO376kFpcHpsCfcQ", "alias": "ramuntos-pizza-and-pub-north-adams-2", "name": "Ramunto's Pizza & Pub", "image_url": "https://s3-media4.fl.yelpcdn.com/bphoto/03gCRpSaOd8wkRGjWShkig/o.jpg", "is_closed": false, "url": "https://www.yelp.com/biz/ramuntos-pizza-and-pub-north-adams-2?adjust_creative=h5HwbyQ0TYvQjBo6Ys5Bgw&utm_campaign=yelp_api_v3&utm_medium=api_v3_business_search&utm_source=h5HwbyQ0TYvQjBo6Ys5Bgw", "review_count": 38, "categories": [{"alias": "pizza", "title": "Pizza"}, {"alias": "beerbar", "title": "Beer Bar"}, {"alias": "burgers", "title": "Burgers"}], "rating": 3.5, "coordinates": {"latitude": 42.699289, "longitude": -73.112021}, "transactions": [], "price": "$$", "location": {"address1": "67 Main St", "address2": "", "address3": null, "city": "North Adams", "zip_code": "01247", "country": "US", "state": "MA", "display_address": ["67 Main St", "North Adams, MA 01247"]}, "phone": "+14133985152", "display_phone": "(413) 398-5152", "distance": 15903.299768496048}, {"id": "NXgDH-jG3KxXqKofvuHipg", "alias": "pedrins-dairy-bar-north-adams", "name": "Pedrin's Dairy Bar", "image_url": "https://s3-media2.fl.yelpcdn.com/bphoto/Byk9aRu_ZHRfUc7vcRCytA/o.jpg", "is_closed": false, "url": "https://www.yelp.com/biz/pedrins-dairy-bar-north-adams?adjust_creative=h5HwbyQ0TYvQjBo6Ys5Bgw&utm_campaign=yelp_api_v3&utm_medium=api_v3_business_search&utm_source=h5HwbyQ0TYvQjBo6Ys5Bgw", "review_count": 22, "categories": [{"alias": "tradamerican", "title": "American (Traditional)"}, {"alias": "hotdogs", "title": "Fast Food"}], "rating": 4.0, "coordinates": {"latitude": 42.6653894372648, "longitude": -73.1076757717891}, "transactions": [], "price": "$", "location": {"address1": "1360 Curran Hwy", "address2": "", "address3": "", "city": "North Adams", "zip_code": "01247", "country": "US", "state": "MA", "display_address": ["1360 Curran Hwy", "North Adams, MA 01247"]}, "phone": "+14136649540", "display_phone": "(413) 664-9540", "distance": 12349.83338979441}, {"id": "bcJyzsejMPVlVLCjFJJDfw", "alias": "corner-lunch-adams", "name": "Corner Lunch", "image_url": "https://s3-media3.fl.yelpcdn.com/bphoto/cYVpOToipW6un16LK7S1FQ/o.jpg", "is_closed": false, "url": "https://www.yelp.com/biz/corner-lunch-adams?adjust_creative=h5HwbyQ0TYvQjBo6Ys5Bgw&utm_campaign=yelp_api_v3&utm_medium=api_v3_business_search&utm_source=h5HwbyQ0TYvQjBo6Ys5Bgw", "review_count": 5, "categories": [{"alias": "newamerican", "title": "American (New)"}], "rating": 4.0, "coordinates": {"latitude": 42.62182, "longitude": -73.11519}, "transactions": [], "price": "$", "location": {"address1": "50 Summer St", "address2": "", "address3": "", "city": "Adams", "zip_code": "01220", "country": "US", "state": "MA", "display_address": ["50 Summer St", "Adams, MA 01220"]}, "phone": "+14137439725", "display_phone": "(413) 743-9725", "distance": 7495.955741855762}, {"id": "5pMuo6RdZ6JZF0E_Dl1eDQ", "alias": "home-club-hinsdale", "name": "Home Club", "image_url": "", "is_closed": false, "url": "https://www.yelp.com/biz/home-club-hinsdale?adjust_creative=h5HwbyQ0TYvQjBo6Ys5Bgw&utm_campaign=yelp_api_v3&utm_medium=api_v3_business_search&utm_source=h5HwbyQ0TYvQjBo6Ys5Bgw", "review_count": 1, "categories": [{"alias": "restaurants", "title": "Restaurants"}], "rating": 5.0, "coordinates": {"latitude": 42.4343329668045, "longitude": -73.1187625229359}, "transactions": [], "price": "$", "location": {"address1": "213 South St", "address2": "", "address3": "", "city": "Hinsdale", "zip_code": "01235", "country": "US", "state": "MA", "display_address": ["213 South St", "Hinsdale, MA 01235"]}, "phone": "+14136550167", "display_phone": "(413) 655-0167", "distance": 13995.183114025447}, {"id": "p00CE0nPV3M4WrermlsBgQ", "alias": "john-harvards-brew-house-hancock", "name": "John Harvard's Brew House", "image_url": "https://s3-media3.fl.yelpcdn.com/bphoto/cNeyK9CtJaZ4nl5S9_S3Dg/o.jpg", "is_closed": false, "url": "https://www.yelp.com/biz/john-harvards-brew-house-hancock?adjust_creative=h5HwbyQ0TYvQjBo6Ys5Bgw&utm_campaign=yelp_api_v3&utm_medium=api_v3_business_search&utm_source=h5HwbyQ0TYvQjBo6Ys5Bgw", "review_count": 74, "categories": [{"alias": "tradamerican", "title": "American (Traditional)"}, {"alias": "pubs", "title": "Pubs"}], "rating": 2.5, "coordinates": {"latitude": 42.55585, "longitude": -73.29097}, "transactions": [], "price": "$$", "location": {"address1": "37 Corey Rd", "address2": "", "address3": "Country Inn", "city": "Hancock", "zip_code": "01237", "country": "US", "state": "MA", "display_address": ["37 Corey Rd", "Country Inn", "Hancock, MA 01237"]}, "phone": "+14137385500", "display_phone": "(413) 738-5500", "distance": 11881.8481986927}, {"id": "ZREJXvUqQZD4xKI7UD878Q", "alias": "jaes-pittsfield-3", "name": "Jae's", "image_url": "https://s3-media3.fl.yelpcdn.com/bphoto/1RvlUWeAMCIEYNASpntHCg/o.jpg", "is_closed": false, "url": "https://www.yelp.com/biz/jaes-pittsfield-3?adjust_creative=h5HwbyQ0TYvQjBo6Ys5Bgw&utm_campaign=yelp_api_v3&utm_medium=api_v3_business_search&utm_source=h5HwbyQ0TYvQjBo6Ys5Bgw", "review_count": 32, "categories": [{"alias": "sushi", "title": "Sushi Bars"}, {"alias": "korean", "title": "Korean"}], "rating": 3.5, "coordinates": {"latitude": 42.407877, "longitude": -73.265441}, "transactions": ["delivery"], "location": {"address1": "1032 South St", "address2": "", "address3": "The Hilton Garden Inn", "city": "Pittsfield", "zip_code": "01201", "country": "US", "state": "MA", "display_address": ["1032 South St", "The Hilton Garden Inn", "Pittsfield, MA 01201"]}, "phone": "+14134648791", "display_phone": "(413) 464-8791", "distance": 19371.47784937374}, {"id": "N__y-HScFV08c6Hqs0U_BA", "alias": "eat-on-north-pittsfield", "name": "Eat on North", "image_url": "https://s3-media3.fl.yelpcdn.com/bphoto/FemTnXD2uVJEHK8gMjT6tg/o.jpg", "is_closed": false, "url": "https://www.yelp.com/biz/eat-on-north-pittsfield?adjust_creative=h5HwbyQ0TYvQjBo6Ys5Bgw&utm_campaign=yelp_api_v3&utm_medium=api_v3_business_search&utm_source=h5HwbyQ0TYvQjBo6Ys5Bgw", "review_count": 97, "categories": [{"alias": "newamerican", "title": "American (New)"}, {"alias": "bars", "title": "Bars"}, {"alias": "breakfast_brunch", "title": "Breakfast & Brunch"}], "rating": 3.5, "coordinates": {"latitude": 42.452699, "longitude": -73.253238}, "transactions": ["delivery"], "price": "$$", "location": {"address1": "297 North St", "address2": "", "address3": "", "city": "Pittsfield", "zip_code": "01201", "country": "US", "state": "MA", "display_address": ["297 North St", "Pittsfield, MA 01201"]}, "phone": "+14135534210", "display_phone": "(413) 553-4210", "distance": 14653.239222254622}, {"id": "6nTQ0bwWViNAKMD-mG645w", "alias": "titos-mexican-grill-pittsfield", "name": "Tito's Mexican Grill", "image_url": "https://s3-media3.fl.yelpcdn.com/bphoto/UG6sk3_G3wDB-5l4kqZXFQ/o.jpg", "is_closed": false, "url": "https://www.yelp.com/biz/titos-mexican-grill-pittsfield?adjust_creative=h5HwbyQ0TYvQjBo6Ys5Bgw&utm_campaign=yelp_api_v3&utm_medium=api_v3_business_search&utm_source=h5HwbyQ0TYvQjBo6Ys5Bgw", "review_count": 64, "categories": [{"alias": "mexican", "title": "Mexican"}, {"alias": "salad", "title": "Salad"}, {"alias": "seafood", "title": "Seafood"}], "rating": 3.5, "coordinates": {"latitude": 42.4507595, "longitude": -73.2542174}, "transactions": ["delivery"], "price": "$$", "location": {"address1": "34 Depot St", "address2": "", "address3": null, "city": "Pittsfield", "zip_code": "01201", "country": "US", "state": "MA", "display_address": ["34 Depot St", "Pittsfield, MA 01201"]}, "phone": "+14134649468", "display_phone": "(413) 464-9468", "distance": 14868.582161940114}, {"id": "7RBjiuk4ZufiwelJsMNPVQ", "alias": "mengs-pan-asian-north-adams", "name": "Mengs Pan Asian", "image_url": "https://s3-media4.fl.yelpcdn.com/bphoto/a3oMozJXzAl3kAlUU2WD8w/o.jpg", "is_closed": false, "url": "https://www.yelp.com/biz/mengs-pan-asian-north-adams?adjust_creative=h5HwbyQ0TYvQjBo6Ys5Bgw&utm_campaign=yelp_api_v3&utm_medium=api_v3_business_search&utm_source=h5HwbyQ0TYvQjBo6Ys5Bgw", "review_count": 11, "categories": [{"alias": "panasian", "title": "Pan Asian"}], "rating": 3.5, "coordinates": {"latitude": 42.6996197981797, "longitude": -73.1126092001796}, "transactions": [], "location": {"address1": "41 Main St", "address2": "", "address3": null, "city": "North Adams", "zip_code": "01247", "country": "US", "state": "MA", "display_address": ["41 Main St", "North Adams, MA 01247"]}, "phone": "", "display_phone": "", "distance": 15930.920897403344}, {"id": "qzb2lo-LNbUz2DaN6m5Qcw", "alias": "hot-harrys-fresh-burritos-dalton", "name": "Hot Harry's Fresh Burritos", "image_url": "https://s3-media1.fl.yelpcdn.com/bphoto/_LeE478T5T33qyGGCA9fgw/o.jpg", "is_closed": false, "url": "https://www.yelp.com/biz/hot-harrys-fresh-burritos-dalton?adjust_creative=h5HwbyQ0TYvQjBo6Ys5Bgw&utm_campaign=yelp_api_v3&utm_medium=api_v3_business_search&utm_source=h5HwbyQ0TYvQjBo6Ys5Bgw", "review_count": 5, "categories": [{"alias": "mexican", "title": "Mexican"}], "rating": 4.0, "coordinates": {"latitude": 42.4734965, "longitude": -73.1720944}, "transactions": ["delivery"], "location": {"address1": "403 Main St", "address2": "", "address3": null, "city": "Dalton", "zip_code": "01226", "country": "US", "state": "MA", "display_address": ["403 Main St", "Dalton, MA 01226"]}, "phone": "+14133000028", "display_phone": "(413) 300-0028", "distance": 9677.341844349066}, {"id": "2JMFNYFBji7Uy0K2Ir1sBg", "alias": "desperados-north-adams", "name": "Desperados", "image_url": "https://s3-media2.fl.yelpcdn.com/bphoto/8p90k1nihXrCf-hzruYgag/o.jpg", "is_closed": false, "url": "https://www.yelp.com/biz/desperados-north-adams?adjust_creative=h5HwbyQ0TYvQjBo6Ys5Bgw&utm_campaign=yelp_api_v3&utm_medium=api_v3_business_search&utm_source=h5HwbyQ0TYvQjBo6Ys5Bgw", "review_count": 51, "categories": [{"alias": "mexican", "title": "Mexican"}, {"alias": "desserts", "title": "Desserts"}, {"alias": "soup", "title": "Soup"}], "rating": 3.5, "coordinates": {"latitude": 42.6993597407468, "longitude": -73.1096453390626}, "transactions": [], "price": "$$", "location": {"address1": "23 Eagle St", "address2": "", "address3": "", "city": "North Adams", "zip_code": "01247", "country": "US", "state": "MA", "display_address": ["23 Eagle St", "North Adams, MA 01247"]}, "phone": "+14133464664", "display_phone": "(413) 346-4664", "distance": 15947.112659020757}, {"id": "qHMmlshiWT3hFX-kPOxIEw", "alias": "international-house-of-tacos-pittsfield-3", "name": "international house of tacos", "image_url": "https://s3-media3.fl.yelpcdn.com/bphoto/snGz7Vw6jD7eYNatk_NWgg/o.jpg", "is_closed": false, "url": "https://www.yelp.com/biz/international-house-of-tacos-pittsfield-3?adjust_creative=h5HwbyQ0TYvQjBo6Ys5Bgw&utm_campaign=yelp_api_v3&utm_medium=api_v3_business_search&utm_source=h5HwbyQ0TYvQjBo6Ys5Bgw", "review_count": 0, "categories": [], "rating": 0.0, "coordinates": {"latitude": 42.43616, "longitude": -73.30618}, "transactions": [], "location": {"address1": "1231 W Housatonic St", "address2": "", "address3": null, "city": "Pittsfield", "zip_code": "01201", "country": "US", "state": "MA", "display_address": ["1231 W Housatonic St", "Pittsfield, MA 01201"]}, "phone": "", "display_phone": "", "distance": 18855.37783248103}, {"id": "zjc3l6BggbOGOy9j0g5_lg", "alias": "christiansens-hancock", "name": "Christiansen's", "image_url": "https://s3-media2.fl.yelpcdn.com/bphoto/c51RDNLSPm5b916fnXVCfA/o.jpg", "is_closed": false, "url": "https://www.yelp.com/biz/christiansens-hancock?adjust_creative=h5HwbyQ0TYvQjBo6Ys5Bgw&utm_campaign=yelp_api_v3&utm_medium=api_v3_business_search&utm_source=h5HwbyQ0TYvQjBo6Ys5Bgw", "review_count": 36, "categories": [{"alias": "tradamerican", "title": "American (Traditional)"}], "rating": 3.0, "coordinates": {"latitude": 42.55585, "longitude": -73.29097}, "transactions": [], "price": "$$", "location": {"address1": "37 Corey Rd", "address2": "", "address3": "", "city": "Hancock", "zip_code": "01237", "country": "US", "state": "MA", "display_address": ["37 Corey Rd", "Hancock, MA 01237"]}, "phone": "+14137385500", "display_phone": "(413) 738-5500", "distance": 11881.8481986927}, {"id": "dTPRhcx8OZw-LhH1wlGuoQ", "alias": "koto-hibachi-steak-house-pittsfield", "name": "Koto Hibachi Steak House", "image_url": "https://s3-media1.fl.yelpcdn.com/bphoto/PC1JPjHBxzdpIZ5uDnjRpQ/o.jpg", "is_closed": false, "url": "https://www.yelp.com/biz/koto-hibachi-steak-house-pittsfield?adjust_creative=h5HwbyQ0TYvQjBo6Ys5Bgw&utm_campaign=yelp_api_v3&utm_medium=api_v3_business_search&utm_source=h5HwbyQ0TYvQjBo6Ys5Bgw", "review_count": 50, "categories": [{"alias": "sushi", "title": "Sushi Bars"}, {"alias": "japanese", "title": "Japanese"}, {"alias": "steak", "title": "Steakhouses"}], "rating": 3.0, "coordinates": {"latitude": 42.4674977, "longitude": -73.2051329}, "transactions": ["delivery"], "price": "$$", "location": {"address1": "795 Dalton Ave", "address2": "", "address3": "", "city": "Pittsfield", "zip_code": "01201", "country": "US", "state": "MA", "display_address": ["795 Dalton Ave", "Pittsfield, MA 01201"]}, "phone": "+14137707128", "display_phone": "(413) 770-7128", "distance": 11195.497679743377}, {"id": "EXx30QU0coEL_9svJPJwqw", "alias": "cims-tavern-pittsfield", "name": "Cim's Tavern", "image_url": "https://s3-media3.fl.yelpcdn.com/bphoto/CLgvUalKco1bW9an_6tTxA/o.jpg", "is_closed": false, "url": "https://www.yelp.com/biz/cims-tavern-pittsfield?adjust_creative=h5HwbyQ0TYvQjBo6Ys5Bgw&utm_campaign=yelp_api_v3&utm_medium=api_v3_business_search&utm_source=h5HwbyQ0TYvQjBo6Ys5Bgw", "review_count": 20, "categories": [{"alias": "tradamerican", "title": "American (Traditional)"}, {"alias": "sportsbars", "title": "Sports Bars"}], "rating": 4.0, "coordinates": {"latitude": 42.4491653442383, "longitude": -73.244987487793}, "transactions": ["delivery"], "price": "$", "location": {"address1": "429 Fenn St", "address2": "", "address3": "", "city": "Pittsfield", "zip_code": "01201", "country": "US", "state": "MA", "display_address": ["429 Fenn St", "Pittsfield, MA 01201"]}, "phone": "+14134429430", "display_phone": "(413) 442-9430", "distance": 14589.248218173447}, {"id": "W5mDQx_2NBwOFeFy2N6M8A", "alias": "the-lantern-bar-and-grill-pittsfield", "name": "The Lantern Bar & Grill", "image_url": "https://s3-media3.fl.yelpcdn.com/bphoto/Nqvaw5Ysth6P3e26Endz3A/o.jpg", "is_closed": false, "url": "https://www.yelp.com/biz/the-lantern-bar-and-grill-pittsfield?adjust_creative=h5HwbyQ0TYvQjBo6Ys5Bgw&utm_campaign=yelp_api_v3&utm_medium=api_v3_business_search&utm_source=h5HwbyQ0TYvQjBo6Ys5Bgw", "review_count": 55, "categories": [{"alias": "bars", "title": "Bars"}, {"alias": "newamerican", "title": "American (New)"}, {"alias": "tradamerican", "title": "American (Traditional)"}], "rating": 3.5, "coordinates": {"latitude": 42.4551194, "longitude": -73.2521345}, "transactions": ["delivery"], "price": "$$", "location": {"address1": "455 North St", "address2": "", "address3": "", "city": "Pittsfield", "zip_code": "01201", "country": "US", "state": "MA", "display_address": ["455 North St", "Pittsfield, MA 01201"]}, "phone": "+14133449227", "display_phone": "(413) 344-9227", "distance": 14362.314883582501}, {"id": "IsTXPIvjOApzL-C8NsbjjA", "alias": "the-parlor-cafe-north-adams-2", "name": "The Parlor Cafe", "image_url": "https://s3-media3.fl.yelpcdn.com/bphoto/n3WlThKWZ9yCu826W6Aw5A/o.jpg", "is_closed": false, "url": "https://www.yelp.com/biz/the-parlor-cafe-north-adams-2?adjust_creative=h5HwbyQ0TYvQjBo6Ys5Bgw&utm_campaign=yelp_api_v3&utm_medium=api_v3_business_search&utm_source=h5HwbyQ0TYvQjBo6Ys5Bgw", "review_count": 18, "categories": [{"alias": "coffee", "title": "Coffee & Tea"}, {"alias": "bakeries", "title": "Bakeries"}, {"alias": "cafes", "title": "Cafes"}], "rating": 4.5, "coordinates": {"latitude": 42.6912231, "longitude": -73.1063552}, "transactions": [], "price": "$", "location": {"address1": "303 Ashland St", "address2": "", "address3": "", "city": "North Adams", "zip_code": "01247", "country": "US", "state": "MA", "display_address": ["303 Ashland St", "North Adams, MA 01247"]}, "phone": "+14133985554", "display_phone": "(413) 398-5554", "distance": 15117.028827884362}, {"id": "PCeGA7kPoRSvYo7VNyotPA", "alias": "mannys-pizza-dalton", "name": "Manny's Pizza", "image_url": "https://s3-media2.fl.yelpcdn.com/bphoto/nq6wW8BPgLO2u5nSum8XPw/o.jpg", "is_closed": false, "url": "https://www.yelp.com/biz/mannys-pizza-dalton?adjust_creative=h5HwbyQ0TYvQjBo6Ys5Bgw&utm_campaign=yelp_api_v3&utm_medium=api_v3_business_search&utm_source=h5HwbyQ0TYvQjBo6Ys5Bgw", "review_count": 7, "categories": [{"alias": "pizza", "title": "Pizza"}], "rating": 3.5, "coordinates": {"latitude": 42.4811831058193, "longitude": -73.1548690795898}, "transactions": ["pickup", "delivery"], "price": "$$", "location": {"address1": "302 North St", "address2": "", "address3": "", "city": "Dalton", "zip_code": "01226", "country": "US", "state": "MA", "display_address": ["302 North St", "Dalton, MA 01226"]}, "phone": "+14138425289", "display_phone": "(413) 842-5289", "distance": 8632.41723836712}, {"id": "zfMgkBaSVR9KucqK1mmkOg", "alias": "jacobs-restaurant-dalton", "name": "Jacob's Restaurant", "image_url": "https://s3-media3.fl.yelpcdn.com/bphoto/70XUhQbB7N2n7moFQ37NaA/o.jpg", "is_closed": false, "url": "https://www.yelp.com/biz/jacobs-restaurant-dalton?adjust_creative=h5HwbyQ0TYvQjBo6Ys5Bgw&utm_campaign=yelp_api_v3&utm_medium=api_v3_business_search&utm_source=h5HwbyQ0TYvQjBo6Ys5Bgw", "review_count": 11, "categories": [{"alias": "restaurants", "title": "Restaurants"}], "rating": 3.0, "coordinates": {"latitude": 42.47424, "longitude": -73.16418}, "transactions": [], "price": "$", "location": {"address1": "51 Daly Ave", "address2": "", "address3": "", "city": "Dalton", "zip_code": "01226", "country": "US", "state": "MA", "display_address": ["51 Daly Ave", "Dalton, MA 01226"]}, "phone": "+14136849766", "display_phone": "(413) 684-9766", "distance": 9479.873345995225}, {"id": "O7MPn_Uo1M1t6AR3zccRow", "alias": "the-spot-pittsfield", "name": "The Spot", "image_url": "https://s3-media2.fl.yelpcdn.com/bphoto/7FULniBvy4K903dIIwnJCA/o.jpg", "is_closed": false, "url": "https://www.yelp.com/biz/the-spot-pittsfield?adjust_creative=h5HwbyQ0TYvQjBo6Ys5Bgw&utm_campaign=yelp_api_v3&utm_medium=api_v3_business_search&utm_source=h5HwbyQ0TYvQjBo6Ys5Bgw", "review_count": 10, "categories": [{"alias": "acaibowls", "title": "Acai Bowls"}, {"alias": "juicebars", "title": "Juice Bars & Smoothies"}, {"alias": "vegan", "title": "Vegan"}], "rating": 5.0, "coordinates": {"latitude": 42.4577047648292, "longitude": -73.2419114559889}, "transactions": ["delivery"], "location": {"address1": "381 Tyler St", "address2": "", "address3": null, "city": "Pittsfield", "zip_code": "01201", "country": "US", "state": "MA", "display_address": ["381 Tyler St", "Pittsfield, MA 01201"]}, "phone": "+14133444128", "display_phone": "(413) 344-4128", "distance": 13653.715898849743}, {"id": "jJi_0_zVAENFO1jNHFr2QA", "alias": "ozzies-steak-and-eggs-hinsdale", "name": "Ozzie's Steak & Eggs", "image_url": "https://s3-media2.fl.yelpcdn.com/bphoto/HmbCm2yJiHYPp3ccuEY5Tg/o.jpg", "is_closed": false, "url": "https://www.yelp.com/biz/ozzies-steak-and-eggs-hinsdale?adjust_creative=h5HwbyQ0TYvQjBo6Ys5Bgw&utm_campaign=yelp_api_v3&utm_medium=api_v3_business_search&utm_source=h5HwbyQ0TYvQjBo6Ys5Bgw", "review_count": 51, "categories": [{"alias": "newamerican", "title": "American (New)"}, {"alias": "breakfast_brunch", "title": "Breakfast & Brunch"}, {"alias": "seafood", "title": "Seafood"}], "rating": 4.5, "coordinates": {"latitude": 42.43803, "longitude": -73.125002}, "transactions": [], "price": "$$", "location": {"address1": "26 Maple St", "address2": "", "address3": "", "city": "Hinsdale", "zip_code": "01235", "country": "US", "state": "MA", "display_address": ["26 Maple St", "Hinsdale, MA 01235"]}, "phone": "+14136558309", "display_phone": "(413) 655-8309", "distance": 13526.653982951499}, {"id": "z0vWz6V94oaz4v9rKh3zdA", "alias": "bobs-country-kitchen-lanesborough", "name": "Bob's Country Kitchen", "image_url": "https://s3-media4.fl.yelpcdn.com/bphoto/Q6sjTVlnOlV8cLvEYUYeWQ/o.jpg", "is_closed": false, "url": "https://www.yelp.com/biz/bobs-country-kitchen-lanesborough?adjust_creative=h5HwbyQ0TYvQjBo6Ys5Bgw&utm_campaign=yelp_api_v3&utm_medium=api_v3_business_search&utm_source=h5HwbyQ0TYvQjBo6Ys5Bgw", "review_count": 84, "categories": [{"alias": "breakfast_brunch", "title": "Breakfast & Brunch"}, {"alias": "diners", "title": "Diners"}], "rating": 3.5, "coordinates": {"latitude": 42.51619, "longitude": -73.22827}, "transactions": [], "price": "$$", "location": {"address1": "42 S Main St", "address2": "", "address3": "", "city": "Lanesborough", "zip_code": "01237", "country": "US", "state": "MA", "display_address": ["42 S Main St", "Lanesborough, MA 01237"]}, "phone": "+14134993934", "display_phone": "(413) 499-3934", "distance": 8156.444119777267}, {"id": "6rXIezwsJbdUrAqDLgm6PA", "alias": "the-marketplace-caf\u00e9-pittsfield", "name": "The Marketplace Caf\u00e9", "image_url": "https://s3-media1.fl.yelpcdn.com/bphoto/sx2PUcmmvyRxIl3des99rA/o.jpg", "is_closed": false, "url": "https://www.yelp.com/biz/the-marketplace-caf%C3%A9-pittsfield?adjust_creative=h5HwbyQ0TYvQjBo6Ys5Bgw&utm_campaign=yelp_api_v3&utm_medium=api_v3_business_search&utm_source=h5HwbyQ0TYvQjBo6Ys5Bgw", "review_count": 154, "categories": [{"alias": "sandwiches", "title": "Sandwiches"}, {"alias": "coffee", "title": "Coffee & Tea"}, {"alias": "cafes", "title": "Cafes"}], "rating": 4.5, "coordinates": {"latitude": 42.4491299206995, "longitude": -73.2539157755931}, "transactions": [], "price": "$$", "location": {"address1": "53 North St", "address2": "", "address3": "", "city": "Pittsfield", "zip_code": "01201", "country": "US", "state": "MA", "display_address": ["53 North St", "Pittsfield, MA 01201"]}, "phone": "+14133584777", "display_phone": "(413) 358-4777", "distance": 15000.700512576952}, {"id": "2fENUg-xGYj6CbvLZYZ2kA", "alias": "renees-diner-north-adams", "name": "Renee's Diner", "image_url": "https://s3-media1.fl.yelpcdn.com/bphoto/aPA3-PipK53Q76eW_DlM3g/o.jpg", "is_closed": false, "url": "https://www.yelp.com/biz/renees-diner-north-adams?adjust_creative=h5HwbyQ0TYvQjBo6Ys5Bgw&utm_campaign=yelp_api_v3&utm_medium=api_v3_business_search&utm_source=h5HwbyQ0TYvQjBo6Ys5Bgw", "review_count": 170, "categories": [{"alias": "tradamerican", "title": "American (Traditional)"}, {"alias": "breakfast_brunch", "title": "Breakfast & Brunch"}], "rating": 4.0, "coordinates": {"latitude": 42.701341, "longitude": -73.1422212}, "transactions": [], "price": "$", "location": {"address1": "780 Massachusetts Ave", "address2": null, "address3": null, "city": "North Adams", "zip_code": "01247", "country": "US", "state": "MA", "display_address": ["780 Massachusetts Ave", "North Adams, MA 01247"]}, "phone": "+14136642070", "display_phone": "(413) 664-2070", "distance": 15877.047804284193}, {"id": "b5dwwLNwKstRwY78mxS0nQ", "alias": "hinsdale-trading-company-hinsdale", "name": "Hinsdale Trading Company", "image_url": "https://s3-media1.fl.yelpcdn.com/bphoto/HpL6CkqF7IWTTOzbUp6WWA/o.jpg", "is_closed": false, "url": "https://www.yelp.com/biz/hinsdale-trading-company-hinsdale?adjust_creative=h5HwbyQ0TYvQjBo6Ys5Bgw&utm_campaign=yelp_api_v3&utm_medium=api_v3_business_search&utm_source=h5HwbyQ0TYvQjBo6Ys5Bgw", "review_count": 2, "categories": [{"alias": "pizza", "title": "Pizza"}, {"alias": "sandwiches", "title": "Sandwiches"}], "rating": 4.0, "coordinates": {"latitude": 42.4469440430403, "longitude": -73.1244655698538}, "transactions": [], "location": {"address1": "371 Old Dalton Rd", "address2": "", "address3": "", "city": "Hinsdale", "zip_code": "01235", "country": "US", "state": "MA", "display_address": ["371 Old Dalton Rd", "Hinsdale, MA 01235"]}, "phone": "+14136550161", "display_phone": "(413) 655-0161", "distance": 12441.48160937066}, {"id": "z4A_a7AY4DLCufdHFgt_1Q", "alias": "tres-ni\u00f1os-taqueria-north-adams", "name": "Tres Ni\u00f1os Taqueria", "image_url": "https://s3-media1.fl.yelpcdn.com/bphoto/vDMDtAUkcTliI_eaKCszGA/o.jpg", "is_closed": false, "url": "https://www.yelp.com/biz/tres-ni%C3%B1os-taqueria-north-adams?adjust_creative=h5HwbyQ0TYvQjBo6Ys5Bgw&utm_campaign=yelp_api_v3&utm_medium=api_v3_business_search&utm_source=h5HwbyQ0TYvQjBo6Ys5Bgw", "review_count": 11, "categories": [{"alias": "mexican", "title": "Mexican"}], "rating": 3.5, "coordinates": {"latitude": 42.6999034048848, "longitude": -73.1135157868266}, "transactions": [], "location": {"address1": "20 Marshall St", "address2": "", "address3": null, "city": "North Adams", "zip_code": "01247", "country": "US", "state": "MA", "display_address": ["20 Marshall St", "North Adams, MA 01247"]}, "phone": "+14133464000", "display_phone": "(413) 346-4000", "distance": 15949.065294498063}, {"id": "PXjxZjO1oGol0bsaDNmV-Q", "alias": "sen-sushi-pittsfield", "name": "Sen Sushi", "image_url": "https://s3-media3.fl.yelpcdn.com/bphoto/O8cbrAl2zzXQqee_3SGYqw/o.jpg", "is_closed": false, "url": "https://www.yelp.com/biz/sen-sushi-pittsfield?adjust_creative=h5HwbyQ0TYvQjBo6Ys5Bgw&utm_campaign=yelp_api_v3&utm_medium=api_v3_business_search&utm_source=h5HwbyQ0TYvQjBo6Ys5Bgw", "review_count": 8, "categories": [{"alias": "sushi", "title": "Sushi Bars"}, {"alias": "japanese", "title": "Japanese"}], "rating": 4.0, "coordinates": {"latitude": 42.4490299853721, "longitude": -73.2536453621473}, "transactions": ["delivery"], "location": {"address1": "48B N St", "address2": "", "address3": null, "city": "Pittsfield", "zip_code": "01201", "country": "US", "state": "MA", "display_address": ["48B N St", "Pittsfield, MA 01201"]}, "phone": "+14132368111", "display_phone": "(413) 236-8111", "distance": 14996.78634098007}, {"id": "4dhv5RSlcL7Eh61WydcjKg", "alias": "red-carpet-restaurant-adams", "name": "Red Carpet Restaurant", "image_url": "https://s3-media4.fl.yelpcdn.com/bphoto/WUODya8jL1WfLvOYffBxEw/o.jpg", "is_closed": false, "url": "https://www.yelp.com/biz/red-carpet-restaurant-adams?adjust_creative=h5HwbyQ0TYvQjBo6Ys5Bgw&utm_campaign=yelp_api_v3&utm_medium=api_v3_business_search&utm_source=h5HwbyQ0TYvQjBo6Ys5Bgw", "review_count": 7, "categories": [{"alias": "newamerican", "title": "American (New)"}], "rating": 3.0, "coordinates": {"latitude": 42.62308, "longitude": -73.11963}, "transactions": ["delivery"], "price": "$", "location": {"address1": "69 Park St", "address2": "", "address3": "", "city": "Adams", "zip_code": "01220", "country": "US", "state": "MA", "display_address": ["69 Park St", "Adams, MA 01220"]}, "phone": "+14137439781", "display_phone": "(413) 743-9781", "distance": 7507.729917708985}, {"id": "HtGs8PlVveQGveMNfdLEDA", "alias": "hermanns-restaurant-pittsfield", "name": "Hermann's Restaurant", "image_url": "", "is_closed": false, "url": "https://www.yelp.com/biz/hermanns-restaurant-pittsfield?adjust_creative=h5HwbyQ0TYvQjBo6Ys5Bgw&utm_campaign=yelp_api_v3&utm_medium=api_v3_business_search&utm_source=h5HwbyQ0TYvQjBo6Ys5Bgw", "review_count": 1, "categories": [{"alias": "tradamerican", "title": "American (Traditional)"}], "rating": 5.0, "coordinates": {"latitude": 42.4483213, "longitude": -73.2384886}, "transactions": [], "location": {"address1": "24 Lyman St", "address2": "", "address3": "", "city": "Pittsfield", "zip_code": "01201", "country": "US", "state": "MA", "display_address": ["24 Lyman St", "Pittsfield, MA 01201"]}, "phone": "+14134439859", "display_phone": "(413) 443-9859", "distance": 14430.176054388356}, {"id": "8BimRgsU8PEwHpZlhy8dNw", "alias": "seeds-market-cafe-pittsfield", "name": "Seeds Market Cafe", "image_url": "https://s3-media1.fl.yelpcdn.com/bphoto/On11X6p5n3rxOGqSW8qMrg/o.jpg", "is_closed": false, "url": "https://www.yelp.com/biz/seeds-market-cafe-pittsfield?adjust_creative=h5HwbyQ0TYvQjBo6Ys5Bgw&utm_campaign=yelp_api_v3&utm_medium=api_v3_business_search&utm_source=h5HwbyQ0TYvQjBo6Ys5Bgw", "review_count": 5, "categories": [{"alias": "newamerican", "title": "American (New)"}, {"alias": "salad", "title": "Salad"}, {"alias": "sandwiches", "title": "Sandwiches"}], "rating": 4.5, "coordinates": {"latitude": 42.42638, "longitude": -73.33549}, "transactions": [], "location": {"address1": "1843 W Housatonic St", "address2": "", "address3": null, "city": "Pittsfield", "zip_code": "01201", "country": "US", "state": "MA", "display_address": ["1843 W Housatonic St", "Pittsfield, MA 01201"]}, "phone": "+14134430188", "display_phone": "(413) 443-0188", "distance": 21274.16683041402}, {"id": "HdqIODZiSRUzJ7WHfQepjw", "alias": "teos-hot-dogs-pittsfield", "name": "Teo's Hot Dogs", "image_url": "https://s3-media3.fl.yelpcdn.com/bphoto/IO73zBPj6a3UkTo4HDDjFA/o.jpg", "is_closed": false, "url": "https://www.yelp.com/biz/teos-hot-dogs-pittsfield?adjust_creative=h5HwbyQ0TYvQjBo6Ys5Bgw&utm_campaign=yelp_api_v3&utm_medium=api_v3_business_search&utm_source=h5HwbyQ0TYvQjBo6Ys5Bgw", "review_count": 108, "categories": [{"alias": "hotdog", "title": "Hot Dogs"}, {"alias": "bars", "title": "Bars"}], "rating": 4.0, "coordinates": {"latitude": 42.4539231, "longitude": -73.2175222}, "transactions": ["pickup", "delivery"], "price": "$", "location": {"address1": "1410 East St", "address2": "", "address3": "", "city": "Pittsfield", "zip_code": "01201", "country": "US", "state": "MA", "display_address": ["1410 East St", "Pittsfield, MA 01201"]}, "phone": "+14134479592", "display_phone": "(413) 447-9592", "distance": 12996.855672815665}, {"id": "Oj3t1oGqak2dxj6_WaehzA", "alias": "sideline-saloon-pittsfield-2", "name": "Sideline Saloon", "image_url": "https://s3-media3.fl.yelpcdn.com/bphoto/Wun5JrsjfMoLwAFvcTO4nw/o.jpg", "is_closed": false, "url": "https://www.yelp.com/biz/sideline-saloon-pittsfield-2?adjust_creative=h5HwbyQ0TYvQjBo6Ys5Bgw&utm_campaign=yelp_api_v3&utm_medium=api_v3_business_search&utm_source=h5HwbyQ0TYvQjBo6Ys5Bgw", "review_count": 1, "categories": [{"alias": "cocktailbars", "title": "Cocktail Bars"}, {"alias": "diners", "title": "Diners"}], "rating": 5.0, "coordinates": {"latitude": 42.4491628888418, "longitude": -73.2464299723506}, "transactions": [], "location": {"address1": "423 Fenn St", "address2": "", "address3": "", "city": "Pittsfield", "zip_code": "01201", "country": "US", "state": "MA", "display_address": ["423 Fenn St", "Pittsfield, MA 01201"]}, "phone": "+14134997337", "display_phone": "(413) 499-7337", "distance": 14647.480544621565}, {"id": "426aRoowpWia0UcI3Go0SA", "alias": "freddies-place-olde-fashion-soda-shoppe-pittsfield-2", "name": "Freddie's Place Olde Fashion Soda Shoppe", "image_url": "https://s3-media2.fl.yelpcdn.com/bphoto/7zrdAjMwteO_w73oY0zhTA/o.jpg", "is_closed": false, "url": "https://www.yelp.com/biz/freddies-place-olde-fashion-soda-shoppe-pittsfield-2?adjust_creative=h5HwbyQ0TYvQjBo6Ys5Bgw&utm_campaign=yelp_api_v3&utm_medium=api_v3_business_search&utm_source=h5HwbyQ0TYvQjBo6Ys5Bgw", "review_count": 57, "categories": [{"alias": "diners", "title": "Diners"}, {"alias": "breakfast_brunch", "title": "Breakfast & Brunch"}, {"alias": "cafes", "title": "Cafes"}], "rating": 4.5, "coordinates": {"latitude": 42.45002, "longitude": -73.25102}, "transactions": ["delivery"], "price": "$", "location": {"address1": "117 Fenn St", "address2": "", "address3": "", "city": "Pittsfield", "zip_code": "01201", "country": "US", "state": "MA", "display_address": ["117 Fenn St", "Pittsfield, MA 01201"]}, "phone": "+14134992014", "display_phone": "(413) 499-2014", "distance": 14781.919260921515}, {"id": "0VAkYUcPyFvhr62FVzbpZg", "alias": "99-restaurants-pittsfield-2", "name": "99 Restaurants", "image_url": "https://s3-media3.fl.yelpcdn.com/bphoto/mKSEJrY9DvPWBM9rtWzllQ/o.jpg", "is_closed": false, "url": "https://www.yelp.com/biz/99-restaurants-pittsfield-2?adjust_creative=h5HwbyQ0TYvQjBo6Ys5Bgw&utm_campaign=yelp_api_v3&utm_medium=api_v3_business_search&utm_source=h5HwbyQ0TYvQjBo6Ys5Bgw", "review_count": 31, "categories": [{"alias": "tradamerican", "title": "American (Traditional)"}, {"alias": "seafood", "title": "Seafood"}, {"alias": "pubs", "title": "Pubs"}], "rating": 2.5, "coordinates": {"latitude": 42.4663972, "longitude": -73.2058286}, "transactions": [], "price": "$$", "location": {"address1": "609 Merrill Rd", "address2": "", "address3": "", "city": "Pittsfield", "zip_code": "01201", "country": "US", "state": "MA", "display_address": ["609 Merrill Rd", "Pittsfield, MA 01201"]}, "phone": "+14132360980", "display_phone": "(413) 236-0980", "distance": 11330.518337791895}, {"id": "-hkuDHIQGUQ6Zm0KoVyRVA", "alias": "friends-grille-pittsfield", "name": "Friends Grille", "image_url": "https://s3-media4.fl.yelpcdn.com/bphoto/68BujOlXTppe2jtmefgkDw/o.jpg", "is_closed": false, "url": "https://www.yelp.com/biz/friends-grille-pittsfield?adjust_creative=h5HwbyQ0TYvQjBo6Ys5Bgw&utm_campaign=yelp_api_v3&utm_medium=api_v3_business_search&utm_source=h5HwbyQ0TYvQjBo6Ys5Bgw", "review_count": 5, "categories": [{"alias": "pizza", "title": "Pizza"}, {"alias": "sportsbars", "title": "Sports Bars"}, {"alias": "tradamerican", "title": "American (Traditional)"}], "rating": 4.5, "coordinates": {"latitude": 42.4595794677734, "longitude": -73.2519683837891}, "transactions": ["delivery"], "price": "$", "location": {"address1": "117 Seymour St", "address2": "", "address3": "", "city": "Pittsfield", "zip_code": "01201", "country": "US", "state": "MA", "display_address": ["117 Seymour St", "Pittsfield, MA 01201"]}, "phone": "+14134434477", "display_phone": "(413) 443-4477", "distance": 13974.919522706885}, {"id": "F1IYEjGBvRMUoCPk_CEQqA", "alias": "lakeside-bar-and-grill-lanesborough-2", "name": "Lakeside Bar & Grill", "image_url": "https://s3-media2.fl.yelpcdn.com/bphoto/xIgscHTIQ5ndaboqUOazcA/o.jpg", "is_closed": false, "url": "https://www.yelp.com/biz/lakeside-bar-and-grill-lanesborough-2?adjust_creative=h5HwbyQ0TYvQjBo6Ys5Bgw&utm_campaign=yelp_api_v3&utm_medium=api_v3_business_search&utm_source=h5HwbyQ0TYvQjBo6Ys5Bgw", "review_count": 20, "categories": [{"alias": "seafood", "title": "Seafood"}, {"alias": "tradamerican", "title": "American (Traditional)"}, {"alias": "bars", "title": "Bars"}], "rating": 2.5, "coordinates": {"latitude": 42.49434, "longitude": -73.23849}, "transactions": ["pickup", "delivery"], "location": {"address1": "750 S Main St", "address2": "", "address3": null, "city": "Lanesborough", "zip_code": "01237", "country": "US", "state": "MA", "display_address": ["750 S Main St", "Lanesborough, MA 01237"]}, "phone": "+14134479780", "display_phone": "(413) 447-9780", "distance": 10368.22253546382}, {"id": "WpF2gHsX2rjlTGj-ohGkNA", "alias": "the-garden-grill-and-tavern-lanesborough", "name": "The Garden Grill & Tavern", "image_url": "https://s3-media2.fl.yelpcdn.com/bphoto/hqhdVQJQNlR6bAOyEy9dKg/o.jpg", "is_closed": false, "url": "https://www.yelp.com/biz/the-garden-grill-and-tavern-lanesborough?adjust_creative=h5HwbyQ0TYvQjBo6Ys5Bgw&utm_campaign=yelp_api_v3&utm_medium=api_v3_business_search&utm_source=h5HwbyQ0TYvQjBo6Ys5Bgw", "review_count": 12, "categories": [{"alias": "tradamerican", "title": "American (Traditional)"}], "rating": 2.0, "coordinates": {"latitude": 42.4936729, "longitude": -73.2017712}, "transactions": [], "price": "$$", "location": {"address1": "655 Cheshire Rd", "address2": "", "address3": "Berkshire Mal", "city": "Lanesborough", "zip_code": "01237", "country": "US", "state": "MA", "display_address": ["655 Cheshire Rd", "Berkshire Mal", "Lanesborough, MA 01237"]}, "phone": "+14134455300", "display_phone": "(413) 445-5300", "distance": 8501.998920912885}, {"id": "6EQf1-9Jcha2gfDWTU2uCA", "alias": "hibachi-burffet-pittsfield", "name": "Hibachi Burffet", "image_url": "https://s3-media3.fl.yelpcdn.com/bphoto/Hw2AA6MhG3Xdq042h4nifA/o.jpg", "is_closed": false, "url": "https://www.yelp.com/biz/hibachi-burffet-pittsfield?adjust_creative=h5HwbyQ0TYvQjBo6Ys5Bgw&utm_campaign=yelp_api_v3&utm_medium=api_v3_business_search&utm_source=h5HwbyQ0TYvQjBo6Ys5Bgw", "review_count": 12, "categories": [{"alias": "chinese", "title": "Chinese"}], "rating": 3.0, "coordinates": {"latitude": 42.470356, "longitude": -73.2040024}, "transactions": [], "location": {"address1": "61 Cheshire Rd", "address2": "", "address3": "", "city": "Pittsfield", "zip_code": "01201", "country": "US", "state": "MA", "display_address": ["61 Cheshire Rd", "Pittsfield, MA 01201"]}, "phone": "", "display_phone": "", "distance": 11062.02786808592}, {"id": "oLaERtmDsjb6EUhEavOPWA", "alias": "angelinas-submarine-shops-dalton", "name": "Angelina's Submarine Shops", "image_url": "https://s3-media1.fl.yelpcdn.com/bphoto/lxov5wUSXOSsWqD-VHgOVQ/o.jpg", "is_closed": false, "url": "https://www.yelp.com/biz/angelinas-submarine-shops-dalton?adjust_creative=h5HwbyQ0TYvQjBo6Ys5Bgw&utm_campaign=yelp_api_v3&utm_medium=api_v3_business_search&utm_source=h5HwbyQ0TYvQjBo6Ys5Bgw", "review_count": 15, "categories": [{"alias": "sandwiches", "title": "Sandwiches"}], "rating": 3.5, "coordinates": {"latitude": 42.47359, "longitude": -73.16254}, "transactions": ["pickup", "delivery"], "price": "$", "location": {"address1": "657 Main St", "address2": "", "address3": "", "city": "Dalton", "zip_code": "01226", "country": "US", "state": "MA", "display_address": ["657 Main St", "Dalton, MA 01226"]}, "phone": "+14136841178", "display_phone": "(413) 684-1178", "distance": 9538.22467305717}, {"id": "BCiMAzkoIdl2QzKfSXRw4A", "alias": "boston-seafood-restaurant-north-adams", "name": "Boston Seafood Restaurant", "image_url": "https://s3-media3.fl.yelpcdn.com/bphoto/G-7ncHb3ZSr7LTf7PfQKZQ/o.jpg", "is_closed": false, "url": "https://www.yelp.com/biz/boston-seafood-restaurant-north-adams?adjust_creative=h5HwbyQ0TYvQjBo6Ys5Bgw&utm_campaign=yelp_api_v3&utm_medium=api_v3_business_search&utm_source=h5HwbyQ0TYvQjBo6Ys5Bgw", "review_count": 14, "categories": [{"alias": "seafoodmarkets", "title": "Seafood Markets"}, {"alias": "seafood", "title": "Seafood"}], "rating": 3.5, "coordinates": {"latitude": 42.695859, "longitude": -73.110216}, "transactions": [], "price": "$$", "location": {"address1": "160 American Legion Dr", "address2": "", "address3": "", "city": "North Adams", "zip_code": "01247", "country": "US", "state": "MA", "display_address": ["160 American Legion Dr", "North Adams, MA 01247"]}, "phone": "+14136638740", "display_phone": "(413) 663-8740", "distance": 15556.154991142468}, {"id": "WpkbEYbNkC252tMTmhFAKg", "alias": "chilis-pittsfield", "name": "Chili's", "image_url": "https://s3-media2.fl.yelpcdn.com/bphoto/Jm4gEu-XCkmcC5Fql-XDTA/o.jpg", "is_closed": false, "url": "https://www.yelp.com/biz/chilis-pittsfield?adjust_creative=h5HwbyQ0TYvQjBo6Ys5Bgw&utm_campaign=yelp_api_v3&utm_medium=api_v3_business_search&utm_source=h5HwbyQ0TYvQjBo6Ys5Bgw", "review_count": 20, "categories": [{"alias": "tex-mex", "title": "Tex-Mex"}, {"alias": "bars", "title": "Bars"}, {"alias": "tradamerican", "title": "American (Traditional)"}], "rating": 2.5, "coordinates": {"latitude": 42.46652, "longitude": -73.19619}, "transactions": [], "location": {"address1": "555 Hubbard Ave", "address2": "", "address3": null, "city": "Pittsfield", "zip_code": "01201", "country": "US", "state": "MA", "display_address": ["555 Hubbard Ave", "Pittsfield, MA 01201"]}, "phone": "", "display_phone": "", "distance": 11317.768252578262}, {"id": "S_NIgGNygGNQHUE0X4IkVw", "alias": "highland-restaurant-pittsfield", "name": "Highland Restaurant", "image_url": "https://s3-media2.fl.yelpcdn.com/bphoto/ZGfcnSA20to4zy-6Xwgiew/o.jpg", "is_closed": false, "url": "https://www.yelp.com/biz/highland-restaurant-pittsfield?adjust_creative=h5HwbyQ0TYvQjBo6Ys5Bgw&utm_campaign=yelp_api_v3&utm_medium=api_v3_business_search&utm_source=h5HwbyQ0TYvQjBo6Ys5Bgw", "review_count": 34, "categories": [{"alias": "italian", "title": "Italian"}], "rating": 3.5, "coordinates": {"latitude": 42.4497, "longitude": -73.25133}, "transactions": ["delivery"], "price": "$$", "location": {"address1": "100 Fenn St", "address2": "", "address3": "", "city": "Pittsfield", "zip_code": "01201", "country": "US", "state": "MA", "display_address": ["100 Fenn St", "Pittsfield, MA 01201"]}, "phone": "+14134422457", "display_phone": "(413) 442-2457", "distance": 14826.270737773497}, {"id": "sVoxGa8_98EdhBZObbZEBA", "alias": "zens-doghouse-lanesboro", "name": "Zen's Doghouse", "image_url": "", "is_closed": false, "url": "https://www.yelp.com/biz/zens-doghouse-lanesboro?adjust_creative=h5HwbyQ0TYvQjBo6Ys5Bgw&utm_campaign=yelp_api_v3&utm_medium=api_v3_business_search&utm_source=h5HwbyQ0TYvQjBo6Ys5Bgw", "review_count": 1, "categories": [{"alias": "newamerican", "title": "American (New)"}], "rating": 3.0, "coordinates": {"latitude": 42.492415, "longitude": -73.202326}, "transactions": [], "location": {"address1": "650 Cheshire Rd", "address2": null, "address3": null, "city": "Lanesboro", "zip_code": "01237", "country": "US", "state": "MA", "display_address": ["650 Cheshire Rd", "Lanesboro, MA 01237"]}, "phone": "+14134993331", "display_phone": "(413) 499-3331", "distance": 8644.877955555152}, {"id": "07wqPb4wNqoiUNiqtnFUbA", "alias": "oriental-buffet-north-adams", "name": "Oriental Buffet", "image_url": "https://s3-media1.fl.yelpcdn.com/bphoto/_UIYT1elIYIkesjFM3FX8w/o.jpg", "is_closed": false, "url": "https://www.yelp.com/biz/oriental-buffet-north-adams?adjust_creative=h5HwbyQ0TYvQjBo6Ys5Bgw&utm_campaign=yelp_api_v3&utm_medium=api_v3_business_search&utm_source=h5HwbyQ0TYvQjBo6Ys5Bgw", "review_count": 11, "categories": [{"alias": "buffets", "title": "Buffets"}], "rating": 3.5, "coordinates": {"latitude": 42.6980798, "longitude": -73.1428616}, "transactions": [], "price": "$", "location": {"address1": "245 State Rd", "address2": "", "address3": "", "city": "North Adams", "zip_code": "01247", "country": "US", "state": "MA", "display_address": ["245 State Rd", "North Adams, MA 01247"]}, "phone": "+14136632888", "display_phone": "(413) 663-2888", "distance": 15615.74945157067}, {"id": "5drtlSos0Ek4-IvUn3vtVg", "alias": "marias-european-delights-pittsfield", "name": "Maria's European Delights", "image_url": "https://s3-media1.fl.yelpcdn.com/bphoto/T-OcmgD59df0jO7GerM3Cw/o.jpg", "is_closed": false, "url": "https://www.yelp.com/biz/marias-european-delights-pittsfield?adjust_creative=h5HwbyQ0TYvQjBo6Ys5Bgw&utm_campaign=yelp_api_v3&utm_medium=api_v3_business_search&utm_source=h5HwbyQ0TYvQjBo6Ys5Bgw", "review_count": 8, "categories": [{"alias": "delis", "title": "Delis"}, {"alias": "grocery", "title": "Grocery"}], "rating": 5.0, "coordinates": {"latitude": 42.450717, "longitude": -73.2527099}, "transactions": ["delivery"], "location": {"address1": "146 North St", "address2": "", "address3": "", "city": "Pittsfield", "zip_code": "01201", "country": "US", "state": "MA", "display_address": ["146 North St", "Pittsfield, MA 01201"]}, "phone": "+14134425100", "display_phone": "(413) 442-5100", "distance": 14799.681440707938}, {"id": "MA2NlasKq1PYg-qeLqC-PA", "alias": "samels-deli-and-catering-pittsfield", "name": "Samel's Deli and Catering", "image_url": "https://s3-media4.fl.yelpcdn.com/bphoto/gBT6E8fKIo-R5m5Ay6VzRA/o.jpg", "is_closed": false, "url": "https://www.yelp.com/biz/samels-deli-and-catering-pittsfield?adjust_creative=h5HwbyQ0TYvQjBo6Ys5Bgw&utm_campaign=yelp_api_v3&utm_medium=api_v3_business_search&utm_source=h5HwbyQ0TYvQjBo6Ys5Bgw", "review_count": 11, "categories": [{"alias": "delis", "title": "Delis"}], "rating": 4.0, "coordinates": {"latitude": 42.4447784, "longitude": -73.2409363}, "transactions": ["delivery"], "price": "$", "location": {"address1": "115 Elm St", "address2": "", "address3": "", "city": "Pittsfield", "zip_code": "01201", "country": "US", "state": "MA", "display_address": ["115 Elm St", "Pittsfield, MA 01201"]}, "phone": "+14134425927", "display_phone": "(413) 442-5927", "distance": 14840.346594893146}, {"id": "K7vJzL3zCvO2n8aXPts8xA", "alias": "golden-phoenix-pittsfield", "name": "Golden Phoenix", "image_url": "https://s3-media2.fl.yelpcdn.com/bphoto/Aew6caOCMiJ39AAAVxjO2Q/o.jpg", "is_closed": false, "url": "https://www.yelp.com/biz/golden-phoenix-pittsfield?adjust_creative=h5HwbyQ0TYvQjBo6Ys5Bgw&utm_campaign=yelp_api_v3&utm_medium=api_v3_business_search&utm_source=h5HwbyQ0TYvQjBo6Ys5Bgw", "review_count": 17, "categories": [{"alias": "chinese", "title": "Chinese"}], "rating": 3.5, "coordinates": {"latitude": 42.4550904, "longitude": -73.2521456}, "transactions": ["delivery"], "price": "$", "location": {"address1": "445 North St", "address2": null, "address3": null, "city": "Pittsfield", "zip_code": "01201", "country": "US", "state": "MA", "display_address": ["445 North St", "Pittsfield, MA 01201"]}, "phone": "+14132368688", "display_phone": "(413) 236-8688", "distance": 14380.367932924843}, {"id": "n274ZafbV_1QppGfziIhtg", "alias": "village-harvest-cafe-pittsfield", "name": "Village Harvest Cafe", "image_url": "", "is_closed": false, "url": "https://www.yelp.com/biz/village-harvest-cafe-pittsfield?adjust_creative=h5HwbyQ0TYvQjBo6Ys5Bgw&utm_campaign=yelp_api_v3&utm_medium=api_v3_business_search&utm_source=h5HwbyQ0TYvQjBo6Ys5Bgw", "review_count": 5, "categories": [{"alias": "restaurants", "title": "Restaurants"}], "rating": 4.0, "coordinates": {"latitude": 42.4283104, "longitude": -73.3410721}, "transactions": [], "location": {"address1": "34 Lebanon Mtn Rd", "address2": null, "address3": null, "city": "Pittsfield", "zip_code": "01201", "country": "US", "state": "MA", "display_address": ["34 Lebanon Mtn Rd", "Pittsfield, MA 01201"]}, "phone": "+14134993434", "display_phone": "(413) 499-3434", "distance": 22257.139734413075}, {"id": "PU85GdWhuT7Ucs8hefsDYQ", "alias": "stacies-corner-cafe-dalton", "name": "Stacie's Corner Cafe", "image_url": "https://s3-media1.fl.yelpcdn.com/bphoto/CwxXz-MYsKkEWZNhwaaP9g/o.jpg", "is_closed": false, "url": "https://www.yelp.com/biz/stacies-corner-cafe-dalton?adjust_creative=h5HwbyQ0TYvQjBo6Ys5Bgw&utm_campaign=yelp_api_v3&utm_medium=api_v3_business_search&utm_source=h5HwbyQ0TYvQjBo6Ys5Bgw", "review_count": 13, "categories": [{"alias": "cafes", "title": "Cafes"}, {"alias": "bakeries", "title": "Bakeries"}, {"alias": "breakfast_brunch", "title": "Breakfast & Brunch"}], "rating": 5.0, "coordinates": {"latitude": 42.43011, "longitude": -73.19659}, "transactions": ["delivery"], "location": {"address1": "813 Dalton Division Rd", "address2": null, "address3": "", "city": "Dalton", "zip_code": "01226", "country": "US", "state": "MA", "display_address": ["813 Dalton Division Rd", "Dalton, MA 01226"]}, "phone": "+14133444179", "display_phone": "(413) 344-4179", "distance": 14867.876093670371}, {"id": "IaXoc2JQs-4CYd3P2YA6FA", "alias": "o-laughlins-restaurant-pittsfield", "name": "O'laughlin's Restaurant", "image_url": "https://s3-media4.fl.yelpcdn.com/bphoto/kt_rEUI0423gfdSTtKxL_g/o.jpg", "is_closed": false, "url": "https://www.yelp.com/biz/o-laughlins-restaurant-pittsfield?adjust_creative=h5HwbyQ0TYvQjBo6Ys5Bgw&utm_campaign=yelp_api_v3&utm_medium=api_v3_business_search&utm_source=h5HwbyQ0TYvQjBo6Ys5Bgw", "review_count": 2, "categories": [{"alias": "tradamerican", "title": "American (Traditional)"}, {"alias": "irish_pubs", "title": "Irish Pub"}], "rating": 4.0, "coordinates": {"latitude": 42.4568138122559, "longitude": -73.212158203125}, "transactions": ["delivery"], "location": {"address1": "342 Merrill Rd", "address2": "", "address3": "", "city": "Pittsfield", "zip_code": "01201", "country": "US", "state": "MA", "display_address": ["342 Merrill Rd", "Pittsfield, MA 01201"]}, "phone": "+14134479507", "display_phone": "(413) 447-9507", "distance": 12515.979000748277}, {"id": "Ueg3DJxVNy2eTK4eqTReCQ", "alias": "panchos-mexican-restaurant-pittsfield", "name": "Panchos Mexican Restaurant", "image_url": "https://s3-media2.fl.yelpcdn.com/bphoto/dEgcAH4eH1WgDsVZJRWtVg/o.jpg", "is_closed": false, "url": "https://www.yelp.com/biz/panchos-mexican-restaurant-pittsfield?adjust_creative=h5HwbyQ0TYvQjBo6Ys5Bgw&utm_campaign=yelp_api_v3&utm_medium=api_v3_business_search&utm_source=h5HwbyQ0TYvQjBo6Ys5Bgw", "review_count": 82, "categories": [{"alias": "mexican", "title": "Mexican"}], "rating": 3.5, "coordinates": {"latitude": 42.4508775, "longitude": -73.2530541}, "transactions": ["delivery"], "price": "$$", "location": {"address1": "154 North St", "address2": "", "address3": "", "city": "Pittsfield", "zip_code": "01201", "country": "US", "state": "MA", "display_address": ["154 North St", "Pittsfield, MA 01201"]}, "phone": "+14134992266", "display_phone": "(413) 499-2266", "distance": 14801.772204157194}, {"id": "QYo9nCzJXx_0RFi8ejepqg", "alias": "the-richmond-grille-north-adams", "name": "The Richmond Grille", "image_url": "https://s3-media4.fl.yelpcdn.com/bphoto/Wg3yTyRBJYglgMga3ZlH0Q/o.jpg", "is_closed": false, "url": "https://www.yelp.com/biz/the-richmond-grille-north-adams?adjust_creative=h5HwbyQ0TYvQjBo6Ys5Bgw&utm_campaign=yelp_api_v3&utm_medium=api_v3_business_search&utm_source=h5HwbyQ0TYvQjBo6Ys5Bgw", "review_count": 13, "categories": [{"alias": "breakfast_brunch", "title": "Breakfast & Brunch"}, {"alias": "tradamerican", "title": "American (Traditional)"}, {"alias": "bars", "title": "Bars"}], "rating": 3.5, "coordinates": {"latitude": 42.6988606, "longitude": -73.113338}, "transactions": [], "price": "$", "location": {"address1": "40 Main St", "address2": null, "address3": "", "city": "North Adams", "zip_code": "01247", "country": "US", "state": "MA", "display_address": ["40 Main St", "North Adams, MA 01247"]}, "phone": "+14136636500", "display_phone": "(413) 663-6500", "distance": 15837.368385325484}, {"id": "QxaEKl0KlP1RHGWh-xkFOw", "alias": "olympic-pizza-williamstown-2", "name": "Olympic Pizza", "image_url": "https://s3-media1.fl.yelpcdn.com/bphoto/eL6Nj6LQq0eFW87B0eTyFQ/o.jpg", "is_closed": false, "url": "https://www.yelp.com/biz/olympic-pizza-williamstown-2?adjust_creative=h5HwbyQ0TYvQjBo6Ys5Bgw&utm_campaign=yelp_api_v3&utm_medium=api_v3_business_search&utm_source=h5HwbyQ0TYvQjBo6Ys5Bgw", "review_count": 17, "categories": [{"alias": "pizza", "title": "Pizza"}, {"alias": "greek", "title": "Greek"}, {"alias": "mediterranean", "title": "Mediterranean"}], "rating": 4.0, "coordinates": {"latitude": 42.706596, "longitude": -73.190014}, "transactions": [], "price": "$$", "location": {"address1": "460 Main Rd", "address2": "", "address3": "", "city": "Williamstown", "zip_code": "01267", "country": "US", "state": "MA", "display_address": ["460 Main Rd", "Williamstown, MA 01267"]}, "phone": "+14134580055", "display_phone": "(413) 458-0055", "distance": 16829.09253275175}, {"id": "HAdx8Iff2N1Q2jRTBv628A", "alias": "christos-famous-pizza-north-adams", "name": "Christos Famous Pizza", "image_url": "https://s3-media1.fl.yelpcdn.com/bphoto/Xnz-ndui5xSpoLIDeAerGg/o.jpg", "is_closed": false, "url": "https://www.yelp.com/biz/christos-famous-pizza-north-adams?adjust_creative=h5HwbyQ0TYvQjBo6Ys5Bgw&utm_campaign=yelp_api_v3&utm_medium=api_v3_business_search&utm_source=h5HwbyQ0TYvQjBo6Ys5Bgw", "review_count": 31, "categories": [{"alias": "pizza", "title": "Pizza"}], "rating": 4.0, "coordinates": {"latitude": 42.6997849888107, "longitude": -73.1119646804661}, "transactions": [], "price": "$$", "location": {"address1": "20 Holden St", "address2": null, "address3": null, "city": "North Adams", "zip_code": "01247", "country": "US", "state": "MA", "display_address": ["20 Holden St", "North Adams, MA 01247"]}, "phone": "+14136623500", "display_phone": "(413) 662-3500", "distance": 15958.37964311694}, {"id": "hgYwnq3p01n3_siL1NUWcw", "alias": "jacks-hot-dog-stand-north-adams", "name": "Jack's Hot Dog Stand", "image_url": "https://s3-media1.fl.yelpcdn.com/bphoto/YCuGEg-PEV1SWQpjtidPCg/o.jpg", "is_closed": false, "url": "https://www.yelp.com/biz/jacks-hot-dog-stand-north-adams?adjust_creative=h5HwbyQ0TYvQjBo6Ys5Bgw&utm_campaign=yelp_api_v3&utm_medium=api_v3_business_search&utm_source=h5HwbyQ0TYvQjBo6Ys5Bgw", "review_count": 56, "categories": [{"alias": "hotdog", "title": "Hot Dogs"}], "rating": 4.5, "coordinates": {"latitude": 42.699104309082, "longitude": -73.1096878051758}, "transactions": [], "price": "$", "location": {"address1": "12 Eagle St", "address2": "", "address3": "", "city": "North Adams", "zip_code": "01247", "country": "US", "state": "MA", "display_address": ["12 Eagle St", "North Adams, MA 01247"]}, "phone": "+14136649006", "display_phone": "(413) 664-9006", "distance": 15921.845919030364}, {"id": "qp_z-BkrY0rQyK-8tCsICg", "alias": "house-of-india-pittsfield", "name": "House of India", "image_url": "https://s3-media1.fl.yelpcdn.com/bphoto/Xon56vXNA329CPdB9s4I3g/o.jpg", "is_closed": false, "url": "https://www.yelp.com/biz/house-of-india-pittsfield?adjust_creative=h5HwbyQ0TYvQjBo6Ys5Bgw&utm_campaign=yelp_api_v3&utm_medium=api_v3_business_search&utm_source=h5HwbyQ0TYvQjBo6Ys5Bgw", "review_count": 49, "categories": [{"alias": "indpak", "title": "Indian"}, {"alias": "salad", "title": "Salad"}, {"alias": "seafood", "title": "Seafood"}], "rating": 3.5, "coordinates": {"latitude": 42.4522856, "longitude": -73.253047}, "transactions": ["delivery"], "price": "$$", "location": {"address1": "261 North St", "address2": "", "address3": "", "city": "Pittsfield", "zip_code": "01201", "country": "US", "state": "MA", "display_address": ["261 North St", "Pittsfield, MA 01201"]}, "phone": "+14134433262", "display_phone": "(413) 443-3262", "distance": 14671.477725877865}, {"id": "u4dQZNZnZ_POC9FF3uL3AQ", "alias": "joannes-elm-street-luncheonette-pittsfield", "name": "Joanne's Elm Street Luncheonette", "image_url": "https://s3-media1.fl.yelpcdn.com/bphoto/rbQzISlzuLPsWIW2CHIdoQ/o.jpg", "is_closed": false, "url": "https://www.yelp.com/biz/joannes-elm-street-luncheonette-pittsfield?adjust_creative=h5HwbyQ0TYvQjBo6Ys5Bgw&utm_campaign=yelp_api_v3&utm_medium=api_v3_business_search&utm_source=h5HwbyQ0TYvQjBo6Ys5Bgw", "review_count": 7, "categories": [{"alias": "diners", "title": "Diners"}, {"alias": "breakfast_brunch", "title": "Breakfast & Brunch"}], "rating": 4.5, "coordinates": {"latitude": 42.4444, "longitude": -73.2403099}, "transactions": [], "location": {"address1": "123 Elm St", "address2": "", "address3": "", "city": "Pittsfield", "zip_code": "01201", "country": "US", "state": "MA", "display_address": ["123 Elm St", "Pittsfield, MA 01201"]}, "phone": "+14134479375", "display_phone": "(413) 447-9375", "distance": 14835.850586330558}, {"id": "5CXWAMF6RsmDg5MFMpMkCg", "alias": "romans-restaurant-and-ccuchifritos-pittsfield", "name": "Romans Restaurant and Ccuchifritos", "image_url": "https://s3-media1.fl.yelpcdn.com/bphoto/EE3xiWqHbUl5Ou_W3H1SBg/o.jpg", "is_closed": false, "url": "https://www.yelp.com/biz/romans-restaurant-and-ccuchifritos-pittsfield?adjust_creative=h5HwbyQ0TYvQjBo6Ys5Bgw&utm_campaign=yelp_api_v3&utm_medium=api_v3_business_search&utm_source=h5HwbyQ0TYvQjBo6Ys5Bgw", "review_count": 7, "categories": [{"alias": "puertorican", "title": "Puerto Rican"}, {"alias": "salad", "title": "Salad"}], "rating": 3.5, "coordinates": {"latitude": 42.4570997226981, "longitude": -73.2401690259576}, "transactions": ["delivery", "pickup"], "location": {"address1": "496 Tyler St", "address2": "", "address3": null, "city": "Pittsfield", "zip_code": "01201", "country": "US", "state": "MA", "display_address": ["496 Tyler St", "Pittsfield, MA 01201"]}, "phone": "+14133449166", "display_phone": "(413) 344-9166", "distance": 13628.498087228816}, {"id": "DtvBqKyG3RGwuR2kKlQDIg", "alias": "liberty-pizza-pittsfield", "name": "Liberty Pizza", "image_url": "https://s3-media4.fl.yelpcdn.com/bphoto/WkGRUbLAUhTKPbP8ap_MxQ/o.jpg", "is_closed": false, "url": "https://www.yelp.com/biz/liberty-pizza-pittsfield?adjust_creative=h5HwbyQ0TYvQjBo6Ys5Bgw&utm_campaign=yelp_api_v3&utm_medium=api_v3_business_search&utm_source=h5HwbyQ0TYvQjBo6Ys5Bgw", "review_count": 34, "categories": [{"alias": "pizza", "title": "Pizza"}], "rating": 4.0, "coordinates": {"latitude": 42.4526978, "longitude": -73.2525711}, "transactions": ["delivery", "pickup"], "price": "$", "location": {"address1": "308 North St", "address2": null, "address3": null, "city": "Pittsfield", "zip_code": "01201", "country": "US", "state": "MA", "display_address": ["308 North St", "Pittsfield, MA 01201"]}, "phone": "+14134997779", "display_phone": "(413) 499-7779", "distance": 14575.699218494163}, {"id": "wxQ4WF6IOxObxPXJM6AlYw", "alias": "misty-moonlight-diner-pittsfield", "name": "Misty Moonlight Diner", "image_url": "https://s3-media1.fl.yelpcdn.com/bphoto/HxRE5Va6F7N8hV8WYBNU2A/o.jpg", "is_closed": false, "url": "https://www.yelp.com/biz/misty-moonlight-diner-pittsfield?adjust_creative=h5HwbyQ0TYvQjBo6Ys5Bgw&utm_campaign=yelp_api_v3&utm_medium=api_v3_business_search&utm_source=h5HwbyQ0TYvQjBo6Ys5Bgw", "review_count": 49, "categories": [{"alias": "diners", "title": "Diners"}], "rating": 3.5, "coordinates": {"latitude": 42.4656219482422, "longitude": -73.2095642089844}, "transactions": ["delivery"], "price": "$$", "location": {"address1": "565 Dalton Ave", "address2": "", "address3": "", "city": "Pittsfield", "zip_code": "01201", "country": "US", "state": "MA", "display_address": ["565 Dalton Ave", "Pittsfield, MA 01201"]}, "phone": "+14134992483", "display_phone": "(413) 499-2483", "distance": 11542.033320794362}, {"id": "WA3AjbPkZAy1V5ytokIrAQ", "alias": "hot-dog-ranch-pittsfield", "name": "Hot Dog Ranch", "image_url": "https://s3-media1.fl.yelpcdn.com/bphoto/S_hO2aJxj2YR4ZkjRCycJQ/o.jpg", "is_closed": false, "url": "https://www.yelp.com/biz/hot-dog-ranch-pittsfield?adjust_creative=h5HwbyQ0TYvQjBo6Ys5Bgw&utm_campaign=yelp_api_v3&utm_medium=api_v3_business_search&utm_source=h5HwbyQ0TYvQjBo6Ys5Bgw", "review_count": 43, "categories": [{"alias": "hotdog", "title": "Hot Dogs"}], "rating": 3.5, "coordinates": {"latitude": 42.4441632, "longitude": -73.2606906}, "transactions": ["delivery"], "price": "$", "location": {"address1": "114 W Housatonic St", "address2": "", "address3": "", "city": "Pittsfield", "zip_code": "01201", "country": "US", "state": "MA", "display_address": ["114 W Housatonic St", "Pittsfield, MA 01201"]}, "phone": "+14134990055", "display_phone": "(413) 499-0055", "distance": 15774.153816990507}, {"id": "YbAhWTAlPjBbxFb8Lp84fg", "alias": "daddyos-diner-pittsfield", "name": "Daddyo's Diner", "image_url": "https://s3-media4.fl.yelpcdn.com/bphoto/xU3zkFM1AR3dxOo3kMoIpQ/o.jpg", "is_closed": false, "url": "https://www.yelp.com/biz/daddyos-diner-pittsfield?adjust_creative=h5HwbyQ0TYvQjBo6Ys5Bgw&utm_campaign=yelp_api_v3&utm_medium=api_v3_business_search&utm_source=h5HwbyQ0TYvQjBo6Ys5Bgw", "review_count": 21, "categories": [{"alias": "diners", "title": "Diners"}], "rating": 3.5, "coordinates": {"latitude": 42.447735, "longitude": -73.244076}, "transactions": [], "price": "$", "location": {"address1": "505 East St", "address2": null, "address3": null, "city": "Pittsfield", "zip_code": "01201", "country": "US", "state": "MA", "display_address": ["505 East St", "Pittsfield, MA 01201"]}, "phone": "+14134991180", "display_phone": "(413) 499-1180", "distance": 14664.3455873964}, {"id": "CoFihDflA9ff6k_s6QgMBA", "alias": "hot-tomatoes-neopolitan-pizza-pittsfield", "name": "Hot Tomatoes Neopolitan Pizza", "image_url": "https://s3-media2.fl.yelpcdn.com/bphoto/wJM9Yhn2QIUQRVFv4JOyCg/o.jpg", "is_closed": false, "url": "https://www.yelp.com/biz/hot-tomatoes-neopolitan-pizza-pittsfield?adjust_creative=h5HwbyQ0TYvQjBo6Ys5Bgw&utm_campaign=yelp_api_v3&utm_medium=api_v3_business_search&utm_source=h5HwbyQ0TYvQjBo6Ys5Bgw", "review_count": 30, "categories": [{"alias": "pizza", "title": "Pizza"}], "rating": 3.5, "coordinates": {"latitude": 42.4569893, "longitude": -73.2392578}, "transactions": ["delivery", "pickup"], "price": "$$", "location": {"address1": "542 Tyler St", "address2": null, "address3": null, "city": "Pittsfield", "zip_code": "01201", "country": "US", "state": "MA", "display_address": ["542 Tyler St", "Pittsfield, MA 01201"]}, "phone": "+14134436500", "display_phone": "(413) 443-6500", "distance": 13598.704832676005}, {"id": "_4k5a9V9p6oDd0h8kCJbgg", "alias": "zuccos-family-restaurant-pittsfield", "name": "Zucco's Family Restaurant", "image_url": "https://s3-media3.fl.yelpcdn.com/bphoto/8kDDvVuGiEDPXeMZBNEPXA/o.jpg", "is_closed": false, "url": "https://www.yelp.com/biz/zuccos-family-restaurant-pittsfield?adjust_creative=h5HwbyQ0TYvQjBo6Ys5Bgw&utm_campaign=yelp_api_v3&utm_medium=api_v3_business_search&utm_source=h5HwbyQ0TYvQjBo6Ys5Bgw", "review_count": 24, "categories": [{"alias": "mediterranean", "title": "Mediterranean"}, {"alias": "italian", "title": "Italian"}, {"alias": "gluten_free", "title": "Gluten-Free"}], "rating": 3.0, "coordinates": {"latitude": 42.4633698981432, "longitude": -73.2147974686028}, "transactions": ["delivery", "pickup"], "price": "$$", "location": {"address1": "451 Dalton Ave", "address2": "", "address3": "", "city": "Pittsfield", "zip_code": "01201", "country": "US", "state": "MA", "display_address": ["451 Dalton Ave", "Pittsfield, MA 01201"]}, "phone": "+14134438112", "display_phone": "(413) 443-8112", "distance": 11959.550571201931}, {"id": "fOEP_20-oZ-bihof_jQdJA", "alias": "papa-joes-ristorante-and-pizzeria-pittsfield", "name": "Papa Joe's Ristorante & Pizzeria", "image_url": "https://s3-media2.fl.yelpcdn.com/bphoto/GO3SKfNXtnlcrEf1nQZ75g/o.jpg", "is_closed": false, "url": "https://www.yelp.com/biz/papa-joes-ristorante-and-pizzeria-pittsfield?adjust_creative=h5HwbyQ0TYvQjBo6Ys5Bgw&utm_campaign=yelp_api_v3&utm_medium=api_v3_business_search&utm_source=h5HwbyQ0TYvQjBo6Ys5Bgw", "review_count": 25, "categories": [{"alias": "pizza", "title": "Pizza"}, {"alias": "italian", "title": "Italian"}], "rating": 3.5, "coordinates": {"latitude": 42.4464302062988, "longitude": -73.2355728149414}, "transactions": ["delivery", "pickup"], "price": "$$", "location": {"address1": "107 Newell St", "address2": "", "address3": "", "city": "Pittsfield", "zip_code": "01201", "country": "US", "state": "MA", "display_address": ["107 Newell St", "Pittsfield, MA 01201"]}, "phone": "+14134427272", "display_phone": "(413) 442-7272", "distance": 14440.460871250967}, {"id": "wYj5NC61kyhvK2Ak4zxqoQ", "alias": "angelinas-submarine-shop-north-adams", "name": "Angelina's Submarine Shop", "image_url": "https://s3-media2.fl.yelpcdn.com/bphoto/2gcOGloUGbOe11mf4wCTQw/o.jpg", "is_closed": false, "url": "https://www.yelp.com/biz/angelinas-submarine-shop-north-adams?adjust_creative=h5HwbyQ0TYvQjBo6Ys5Bgw&utm_campaign=yelp_api_v3&utm_medium=api_v3_business_search&utm_source=h5HwbyQ0TYvQjBo6Ys5Bgw", "review_count": 11, "categories": [{"alias": "sandwiches", "title": "Sandwiches"}], "rating": 4.0, "coordinates": {"latitude": 42.6962365955114, "longitude": -73.1114635616541}, "transactions": [], "price": "$", "location": {"address1": "152 American Legion Dr", "address2": "", "address3": "", "city": "North Adams", "zip_code": "01247", "country": "US", "state": "MA", "display_address": ["152 American Legion Dr", "North Adams, MA 01247"]}, "phone": "+14136640315", "display_phone": "(413) 664-0315", "distance": 15546.957191103416}, {"id": "rK9YwE66fbCnZhTCXQ33BQ", "alias": "annas-pizza-restaurant-hancock", "name": "Anna's Pizza Restaurant", "image_url": "https://s3-media1.fl.yelpcdn.com/bphoto/l-K7Ht_wBbJCMnM4t5Oo6A/o.jpg", "is_closed": false, "url": "https://www.yelp.com/biz/annas-pizza-restaurant-hancock?adjust_creative=h5HwbyQ0TYvQjBo6Ys5Bgw&utm_campaign=yelp_api_v3&utm_medium=api_v3_business_search&utm_source=h5HwbyQ0TYvQjBo6Ys5Bgw", "review_count": 6, "categories": [{"alias": "pizza", "title": "Pizza"}], "rating": 4.5, "coordinates": {"latitude": 42.428994192347, "longitude": -73.3472745434418}, "transactions": [], "price": "$$", "location": {"address1": "Liberty Plz", "address2": "", "address3": "Lebanon Mountain Rd (US-20)", "city": "Hancock", "zip_code": "01201", "country": "US", "state": "MA", "display_address": ["Liberty Plz", "Lebanon Mountain Rd (US-20)", "Hancock, MA 01201"]}, "phone": "+14134477119", "display_phone": "(413) 447-7119", "distance": 21849.203203474193}, {"id": "Yx5C122X54C6fQOmYskICQ", "alias": "ottos-kitchen-and-comfort-pittsfield-2", "name": "Otto's Kitchen & Comfort", "image_url": "https://s3-media1.fl.yelpcdn.com/bphoto/Dj-vPVgcJL12GvZAaryw7w/o.jpg", "is_closed": false, "url": "https://www.yelp.com/biz/ottos-kitchen-and-comfort-pittsfield-2?adjust_creative=h5HwbyQ0TYvQjBo6Ys5Bgw&utm_campaign=yelp_api_v3&utm_medium=api_v3_business_search&utm_source=h5HwbyQ0TYvQjBo6Ys5Bgw", "review_count": 107, "categories": [{"alias": "breakfast_brunch", "title": "Breakfast & Brunch"}, {"alias": "bars", "title": "Bars"}, {"alias": "tradamerican", "title": "American (Traditional)"}], "rating": 3.0, "coordinates": {"latitude": 42.44834, "longitude": -73.25205}, "transactions": [], "price": "$$", "location": {"address1": "95 East St", "address2": "", "address3": "", "city": "Pittsfield", "zip_code": "01201", "country": "US", "state": "MA", "display_address": ["95 East St", "Pittsfield, MA 01201"]}, "phone": "+14133444748", "display_phone": "(413) 344-4748", "distance": 14980.572020317142}, {"id": "afkdEqotY1dwKcwNsjK3xQ", "alias": "portsmitts-pittsfield", "name": "PortSmitt's", "image_url": "", "is_closed": false, "url": "https://www.yelp.com/biz/portsmitts-pittsfield?adjust_creative=h5HwbyQ0TYvQjBo6Ys5Bgw&utm_campaign=yelp_api_v3&utm_medium=api_v3_business_search&utm_source=h5HwbyQ0TYvQjBo6Ys5Bgw", "review_count": 8, "categories": [{"alias": "tradamerican", "title": "American (Traditional)"}, {"alias": "bars", "title": "Bars"}], "rating": 3.5, "coordinates": {"latitude": 42.47639, "longitude": -73.26546}, "transactions": ["delivery"], "price": "$$$", "location": {"address1": "370 Pecks Rd", "address2": "", "address3": "", "city": "Pittsfield", "zip_code": "01201", "country": "US", "state": "MA", "display_address": ["370 Pecks Rd", "Pittsfield, MA 01201"]}, "phone": "+14132365727", "display_phone": "(413) 236-5727", "distance": 13336.746806000614}, {"id": "dLDVc5HjcwkpD97g9M-Czg", "alias": "moonlight-diner-and-grille-williamstown", "name": "Moonlight Diner & Grille", "image_url": "https://s3-media4.fl.yelpcdn.com/bphoto/DJku4fayb1yaSmJHE330Dg/o.jpg", "is_closed": false, "url": "https://www.yelp.com/biz/moonlight-diner-and-grille-williamstown?adjust_creative=h5HwbyQ0TYvQjBo6Ys5Bgw&utm_campaign=yelp_api_v3&utm_medium=api_v3_business_search&utm_source=h5HwbyQ0TYvQjBo6Ys5Bgw", "review_count": 38, "categories": [{"alias": "diners", "title": "Diners"}, {"alias": "breakfast_brunch", "title": "Breakfast & Brunch"}], "rating": 3.5, "coordinates": {"latitude": 42.7052421569824, "longitude": -73.1890258789062}, "transactions": [], "price": "$", "location": {"address1": "408 Main St", "address2": "", "address3": "", "city": "Williamstown", "zip_code": "01267", "country": "US", "state": "MA", "display_address": ["408 Main St", "Williamstown, MA 01267"]}, "phone": "+14134583305", "display_phone": "(413) 458-3305", "distance": 16679.237622794928}, {"id": "kOCL-2R5669J8Q7_vJxo7w", "alias": "bella-roma-pizza-north-adams", "name": "Bella Roma Pizza", "image_url": "https://s3-media4.fl.yelpcdn.com/bphoto/NT3a8Tq4nlrrlAUN1CaqmA/o.jpg", "is_closed": false, "url": "https://www.yelp.com/biz/bella-roma-pizza-north-adams?adjust_creative=h5HwbyQ0TYvQjBo6Ys5Bgw&utm_campaign=yelp_api_v3&utm_medium=api_v3_business_search&utm_source=h5HwbyQ0TYvQjBo6Ys5Bgw", "review_count": 4, "categories": [{"alias": "pizza", "title": "Pizza"}], "rating": 3.5, "coordinates": {"latitude": 42.69891, "longitude": -73.110264}, "transactions": ["delivery", "pickup"], "location": {"address1": "117 Main St", "address2": null, "address3": "", "city": "North Adams", "zip_code": "01247", "country": "US", "state": "MA", "display_address": ["117 Main St", "North Adams, MA 01247"]}, "phone": "+14136636666", "display_phone": "(413) 663-6666", "distance": 15888.389580392366}, {"id": "CpZElk-i1bCuyEU_jTOazg", "alias": "piece-o-pizza-pittsfield", "name": "Piece O'pizza", "image_url": "", "is_closed": false, "url": "https://www.yelp.com/biz/piece-o-pizza-pittsfield?adjust_creative=h5HwbyQ0TYvQjBo6Ys5Bgw&utm_campaign=yelp_api_v3&utm_medium=api_v3_business_search&utm_source=h5HwbyQ0TYvQjBo6Ys5Bgw", "review_count": 1, "categories": [{"alias": "pizza", "title": "Pizza"}], "rating": 5.0, "coordinates": {"latitude": 42.4760894775391, "longitude": -73.2444534301758}, "transactions": [], "location": {"address1": "1206 North St", "address2": "", "address3": "", "city": "Pittsfield", "zip_code": "01201", "country": "US", "state": "MA", "display_address": ["1206 North St", "Pittsfield, MA 01201"]}, "phone": "+14134996567", "display_phone": "(413) 499-6567", "distance": 12168.172752924755}, {"id": "tGwILqB7e6xVa9GcreUsWQ", "alias": "southern-comfort-pittsfield", "name": "Southern Comfort", "image_url": "https://s3-media2.fl.yelpcdn.com/bphoto/_SyNRL6fJf9qm7jR8Y_55A/o.jpg", "is_closed": false, "url": "https://www.yelp.com/biz/southern-comfort-pittsfield?adjust_creative=h5HwbyQ0TYvQjBo6Ys5Bgw&utm_campaign=yelp_api_v3&utm_medium=api_v3_business_search&utm_source=h5HwbyQ0TYvQjBo6Ys5Bgw", "review_count": 1, "categories": [{"alias": "southern", "title": "Southern"}, {"alias": "soulfood", "title": "Soul Food"}], "rating": 1.0, "coordinates": {"latitude": 42.4527247428891, "longitude": -73.2609913498163}, "transactions": ["delivery", "pickup"], "location": {"address1": "302 Columbus Ave", "address2": "", "address3": null, "city": "Pittsfield", "zip_code": "01201", "country": "US", "state": "MA", "display_address": ["302 Columbus Ave", "Pittsfield, MA 01201"]}, "phone": "+14134648444", "display_phone": "(413) 464-8444", "distance": 15031.669160729734}, {"id": "cMHs-6paMHbDormhEF4qCw", "alias": "rainbow-restaurant-pittsfield", "name": "Rainbow Restaurant", "image_url": "https://s3-media2.fl.yelpcdn.com/bphoto/67Rxk3RUyV81M7VtXkAYAw/o.jpg", "is_closed": false, "url": "https://www.yelp.com/biz/rainbow-restaurant-pittsfield?adjust_creative=h5HwbyQ0TYvQjBo6Ys5Bgw&utm_campaign=yelp_api_v3&utm_medium=api_v3_business_search&utm_source=h5HwbyQ0TYvQjBo6Ys5Bgw", "review_count": 26, "categories": [{"alias": "italian", "title": "Italian"}, {"alias": "pizza", "title": "Pizza"}, {"alias": "sandwiches", "title": "Sandwiches"}], "rating": 3.5, "coordinates": {"latitude": 42.4515011161566, "longitude": -73.2502879947424}, "transactions": ["delivery", "pickup"], "price": "$$", "location": {"address1": "109 First St", "address2": null, "address3": null, "city": "Pittsfield", "zip_code": "01201", "country": "US", "state": "MA", "display_address": ["109 First St", "Pittsfield, MA 01201"]}, "phone": "+14134430002", "display_phone": "(413) 443-0002", "distance": 14592.878576944584}, {"id": "MnxAo_K6Zc2S3FrwIV7Y3g", "alias": "mingos-sports-bar-and-grill-north-adams", "name": "Mingo's Sports Bar & Grill", "image_url": "https://s3-media2.fl.yelpcdn.com/bphoto/17EtWdDcrU2JmJdgnTXhiQ/o.jpg", "is_closed": false, "url": "https://www.yelp.com/biz/mingos-sports-bar-and-grill-north-adams?adjust_creative=h5HwbyQ0TYvQjBo6Ys5Bgw&utm_campaign=yelp_api_v3&utm_medium=api_v3_business_search&utm_source=h5HwbyQ0TYvQjBo6Ys5Bgw", "review_count": 15, "categories": [{"alias": "tradamerican", "title": "American (Traditional)"}, {"alias": "sportsbars", "title": "Sports Bars"}], "rating": 3.5, "coordinates": {"latitude": 42.6994546, "longitude": -73.1406769}, "transactions": [], "price": "$$", "location": {"address1": "41 Roberts Dr", "address2": "", "address3": "", "city": "North Adams", "zip_code": "01247", "country": "US", "state": "MA", "display_address": ["41 Roberts Dr", "North Adams, MA 01247"]}, "phone": "+14133464067", "display_phone": "(413) 346-4067", "distance": 15670.997485001479}, {"id": "A7JGLOn_YVRXkbaPpthlzQ", "alias": "east-side-cafe-pittsfield", "name": "East Side Cafe", "image_url": "https://s3-media2.fl.yelpcdn.com/bphoto/YNa8xMKyNtthl8beIWGhfA/o.jpg", "is_closed": false, "url": "https://www.yelp.com/biz/east-side-cafe-pittsfield?adjust_creative=h5HwbyQ0TYvQjBo6Ys5Bgw&utm_campaign=yelp_api_v3&utm_medium=api_v3_business_search&utm_source=h5HwbyQ0TYvQjBo6Ys5Bgw", "review_count": 27, "categories": [{"alias": "italian", "title": "Italian"}, {"alias": "pizza", "title": "Pizza"}], "rating": 3.5, "coordinates": {"latitude": 42.4518555795743, "longitude": -73.2267382570664}, "transactions": ["delivery"], "price": "$", "location": {"address1": "378 Newell St", "address2": "", "address3": "", "city": "Pittsfield", "zip_code": "01201", "country": "US", "state": "MA", "display_address": ["378 Newell St", "Pittsfield, MA 01201"]}, "phone": "+14134479405", "display_phone": "(413) 447-9405", "distance": 13551.123921165607}, {"id": "948nvOIUUValVhVnofzurw", "alias": "lickety-split-north-adams", "name": "Lickety-Split", "image_url": "https://s3-media4.fl.yelpcdn.com/bphoto/1QfiLPcvedlSbZ5zV8V05A/o.jpg", "is_closed": false, "url": "https://www.yelp.com/biz/lickety-split-north-adams?adjust_creative=h5HwbyQ0TYvQjBo6Ys5Bgw&utm_campaign=yelp_api_v3&utm_medium=api_v3_business_search&utm_source=h5HwbyQ0TYvQjBo6Ys5Bgw", "review_count": 22, "categories": [{"alias": "sandwiches", "title": "Sandwiches"}, {"alias": "cafes", "title": "Cafes"}], "rating": 3.0, "coordinates": {"latitude": 42.7021799, "longitude": -73.1137849}, "transactions": [], "price": "$$", "location": {"address1": "87 Marshall St", "address2": "", "address3": "", "city": "North Adams", "zip_code": "01247", "country": "US", "state": "MA", "display_address": ["87 Marshall St", "North Adams, MA 01247"]}, "phone": "+14136633372", "display_phone": "(413) 663-3372", "distance": 16141.475250910487}, {"id": "egLCj5yl7BlrQjj9X8EwMw", "alias": "tahiti-take-out-restaurant-and-lounge-pittsfield", "name": "Tahiti Take Out Restaurant & Lounge", "image_url": "https://s3-media2.fl.yelpcdn.com/bphoto/VXcWnkJQJIEQpJhalO2rhg/o.jpg", "is_closed": false, "url": "https://www.yelp.com/biz/tahiti-take-out-restaurant-and-lounge-pittsfield?adjust_creative=h5HwbyQ0TYvQjBo6Ys5Bgw&utm_campaign=yelp_api_v3&utm_medium=api_v3_business_search&utm_source=h5HwbyQ0TYvQjBo6Ys5Bgw", "review_count": 21, "categories": [{"alias": "chinese", "title": "Chinese"}, {"alias": "bars", "title": "Bars"}], "rating": 2.0, "coordinates": {"latitude": 42.46156, "longitude": -73.25136}, "transactions": ["delivery"], "price": "$$", "location": {"address1": "101 Wahconah St", "address2": "", "address3": "", "city": "Pittsfield", "zip_code": "01201", "country": "US", "state": "MA", "display_address": ["101 Wahconah St", "Pittsfield, MA 01201"]}, "phone": "+14134994711", "display_phone": "(413) 499-4711", "distance": 13760.156842964214}, {"id": "J_T8Gb4Zn_joUoGQkQ3u4A", "alias": "pizza-house-adams-2", "name": "Pizza House", "image_url": "https://s3-media2.fl.yelpcdn.com/bphoto/RRyt1MSGQxoP5XRfuHdUMg/o.jpg", "is_closed": false, "url": "https://www.yelp.com/biz/pizza-house-adams-2?adjust_creative=h5HwbyQ0TYvQjBo6Ys5Bgw&utm_campaign=yelp_api_v3&utm_medium=api_v3_business_search&utm_source=h5HwbyQ0TYvQjBo6Ys5Bgw", "review_count": 7, "categories": [{"alias": "pizza", "title": "Pizza"}], "rating": 3.5, "coordinates": {"latitude": 42.6254196166992, "longitude": -73.1136322021484}, "transactions": [], "location": {"address1": "26 Hoosac St", "address2": "", "address3": null, "city": "Adams", "zip_code": "01220", "country": "US", "state": "MA", "display_address": ["26 Hoosac St", "Adams, MA 01220"]}, "phone": "+14137434466", "display_phone": "(413) 743-4466", "distance": 7904.387054797186}, {"id": "44ajIWovMHN8UsBPLWw1GQ", "alias": "johnnies-variety-store-pittsfield", "name": "Johnnies Variety Store", "image_url": "", "is_closed": false, "url": "https://www.yelp.com/biz/johnnies-variety-store-pittsfield?adjust_creative=h5HwbyQ0TYvQjBo6Ys5Bgw&utm_campaign=yelp_api_v3&utm_medium=api_v3_business_search&utm_source=h5HwbyQ0TYvQjBo6Ys5Bgw", "review_count": 2, "categories": [{"alias": "delis", "title": "Delis"}], "rating": 4.0, "coordinates": {"latitude": 42.47631, "longitude": -73.26539}, "transactions": [], "location": {"address1": "370 Pecks Rd", "address2": "", "address3": "", "city": "Pittsfield", "zip_code": "01201", "country": "US", "state": "MA", "display_address": ["370 Pecks Rd", "Pittsfield, MA 01201"]}, "phone": "+14134991960", "display_phone": "(413) 499-1960", "distance": 13336.746806000614}, {"id": "JE7ddPRkUKhgWO0Jmy7xNg", "alias": "china-wok-pittsfield", "name": "China Wok", "image_url": "https://s3-media1.fl.yelpcdn.com/bphoto/jWYAgXQeOzMzTTvhnHWKXg/o.jpg", "is_closed": false, "url": "https://www.yelp.com/biz/china-wok-pittsfield?adjust_creative=h5HwbyQ0TYvQjBo6Ys5Bgw&utm_campaign=yelp_api_v3&utm_medium=api_v3_business_search&utm_source=h5HwbyQ0TYvQjBo6Ys5Bgw", "review_count": 15, "categories": [{"alias": "chinese", "title": "Chinese"}], "rating": 3.5, "coordinates": {"latitude": 42.4633937, "longitude": -73.2146138}, "transactions": ["delivery"], "price": "$", "location": {"address1": "457 Dalton Ave", "address2": "Ste 6", "address3": "", "city": "Pittsfield", "zip_code": "01201", "country": "US", "state": "MA", "display_address": ["457 Dalton Ave", "Ste 6", "Pittsfield, MA 01201"]}, "phone": "+14134488810", "display_phone": "(413) 448-8810", "distance": 11824.659421181961}, {"id": "USJvcqDIuom4HQBOHjzQHg", "alias": "desperados-williamstown", "name": "Desperados", "image_url": "https://s3-media3.fl.yelpcdn.com/bphoto/qnmXrrxzy2rN_zkOoENZrw/o.jpg", "is_closed": false, "url": "https://www.yelp.com/biz/desperados-williamstown?adjust_creative=h5HwbyQ0TYvQjBo6Ys5Bgw&utm_campaign=yelp_api_v3&utm_medium=api_v3_business_search&utm_source=h5HwbyQ0TYvQjBo6Ys5Bgw", "review_count": 30, "categories": [{"alias": "mexican", "title": "Mexican"}, {"alias": "bars", "title": "Bars"}, {"alias": "tradamerican", "title": "American (Traditional)"}], "rating": 3.0, "coordinates": {"latitude": 42.7022653, "longitude": -73.1848694}, "transactions": [], "price": "$$", "location": {"address1": "246 Main St", "address2": "", "address3": "", "city": "Williamstown", "zip_code": "01267", "country": "US", "state": "MA", "display_address": ["246 Main St", "Williamstown, MA 01267"]}, "phone": "+14134582100", "display_phone": "(413) 458-2100", "distance": 16302.071496686638}, {"id": "pmy-RkBV3NjQYW2pQl9mQQ", "alias": "grand-buffet-star-chinese-restaurant-pittsfield", "name": "Grand Buffet Star Chinese Restaurant", "image_url": "https://s3-media2.fl.yelpcdn.com/bphoto/vZpisPXNq97CDzq8d_vqbA/o.jpg", "is_closed": false, "url": "https://www.yelp.com/biz/grand-buffet-star-chinese-restaurant-pittsfield?adjust_creative=h5HwbyQ0TYvQjBo6Ys5Bgw&utm_campaign=yelp_api_v3&utm_medium=api_v3_business_search&utm_source=h5HwbyQ0TYvQjBo6Ys5Bgw", "review_count": 11, "categories": [{"alias": "chinese", "title": "Chinese"}], "rating": 2.0, "coordinates": {"latitude": 42.470423, "longitude": -73.204747}, "transactions": [], "price": "$", "location": {"address1": "61 Cheshire Rd", "address2": "", "address3": "", "city": "Pittsfield", "zip_code": "01201", "country": "US", "state": "MA", "display_address": ["61 Cheshire Rd", "Pittsfield, MA 01201"]}, "phone": "+14134427000", "display_phone": "(413) 442-7000", "distance": 10888.218861962432}, {"id": "81-lc7fxIhG7mfT8f1Cirg", "alias": "brewhaha-north-adams-2", "name": "Brewhaha", "image_url": "https://s3-media2.fl.yelpcdn.com/bphoto/g5h7Op66SgvN1evBgqw0VQ/o.jpg", "is_closed": false, "url": "https://www.yelp.com/biz/brewhaha-north-adams-2?adjust_creative=h5HwbyQ0TYvQjBo6Ys5Bgw&utm_campaign=yelp_api_v3&utm_medium=api_v3_business_search&utm_source=h5HwbyQ0TYvQjBo6Ys5Bgw", "review_count": 15, "categories": [{"alias": "cafes", "title": "Cafes"}, {"alias": "breakfast_brunch", "title": "Breakfast & Brunch"}], "rating": 4.0, "coordinates": {"latitude": 42.69909, "longitude": -73.12997}, "transactions": [], "location": {"address1": "437 West Main St", "address2": null, "address3": "", "city": "North Adams", "zip_code": "01247", "country": "US", "state": "MA", "display_address": ["437 West Main St", "North Adams, MA 01247"]}, "phone": "+14136642020", "display_phone": "(413) 664-2020", "distance": 15678.190085384349}, {"id": "61zJkuouSdfgDPGUXnD4xA", "alias": "harrys-supermarket-pittsfield", "name": "Harry's Supermarket", "image_url": "", "is_closed": false, "url": "https://www.yelp.com/biz/harrys-supermarket-pittsfield?adjust_creative=h5HwbyQ0TYvQjBo6Ys5Bgw&utm_campaign=yelp_api_v3&utm_medium=api_v3_business_search&utm_source=h5HwbyQ0TYvQjBo6Ys5Bgw", "review_count": 1, "categories": [{"alias": "delis", "title": "Delis"}], "rating": 4.0, "coordinates": {"latitude": 42.4669830847747, "longitude": -73.2516915403962}, "transactions": ["delivery"], "location": {"address1": "290 Wahconah St", "address2": "", "address3": "", "city": "Pittsfield", "zip_code": "01201", "country": "US", "state": "MA", "display_address": ["290 Wahconah St", "Pittsfield, MA 01201"]}, "phone": "+14134429084", "display_phone": "(413) 442-9084", "distance": 13320.995217314507}, {"id": "jkc24FuEbMRC4IMotFup-Q", "alias": "teddys-pizza-and-restaurant-pittsfield", "name": "Teddy's Pizza & Restaurant", "image_url": "https://s3-media2.fl.yelpcdn.com/bphoto/aavh6T-sFHgSGeI-lditeg/o.jpg", "is_closed": false, "url": "https://www.yelp.com/biz/teddys-pizza-and-restaurant-pittsfield?adjust_creative=h5HwbyQ0TYvQjBo6Ys5Bgw&utm_campaign=yelp_api_v3&utm_medium=api_v3_business_search&utm_source=h5HwbyQ0TYvQjBo6Ys5Bgw", "review_count": 10, "categories": [{"alias": "pizza", "title": "Pizza"}], "rating": 3.0, "coordinates": {"latitude": 42.447055, "longitude": -73.243827}, "transactions": ["delivery"], "price": "$$", "location": {"address1": "508 East St", "address2": "", "address3": "", "city": "Pittsfield", "zip_code": "01201", "country": "US", "state": "MA", "display_address": ["508 East St", "Pittsfield, MA 01201"]}, "phone": "+14134439030", "display_phone": "(413) 443-9030", "distance": 14724.087915078479}, {"id": "2rez1KJoNcibotK8dE_4nw", "alias": "thats-a-wrap-pittsfield", "name": "That's A Wrap!", "image_url": "https://s3-media3.fl.yelpcdn.com/bphoto/Cp5STveYdxejvoibdbXhmg/o.jpg", "is_closed": false, "url": "https://www.yelp.com/biz/thats-a-wrap-pittsfield?adjust_creative=h5HwbyQ0TYvQjBo6Ys5Bgw&utm_campaign=yelp_api_v3&utm_medium=api_v3_business_search&utm_source=h5HwbyQ0TYvQjBo6Ys5Bgw", "review_count": 1, "categories": [{"alias": "salad", "title": "Salad"}, {"alias": "sandwiches", "title": "Sandwiches"}], "rating": 5.0, "coordinates": {"latitude": 42.4571592360735, "longitude": -73.2398226857185}, "transactions": ["delivery"], "location": {"address1": "496 Tyler St", "address2": null, "address3": null, "city": "Pittsfield", "zip_code": "01201", "country": "US", "state": "MA", "display_address": ["496 Tyler St", "Pittsfield, MA 01201"]}, "phone": "+14134993414", "display_phone": "(413) 499-3414", "distance": 13628.992753475515}, {"id": "_UOV6TpTX9oGunNqFNBT0g", "alias": "kellys-diner-pittsfield", "name": "Kelly's Diner", "image_url": "https://s3-media4.fl.yelpcdn.com/bphoto/dPhDpYeK2lP-PD8Qn1iPRA/o.jpg", "is_closed": false, "url": "https://www.yelp.com/biz/kellys-diner-pittsfield?adjust_creative=h5HwbyQ0TYvQjBo6Ys5Bgw&utm_campaign=yelp_api_v3&utm_medium=api_v3_business_search&utm_source=h5HwbyQ0TYvQjBo6Ys5Bgw", "review_count": 30, "categories": [{"alias": "breakfast_brunch", "title": "Breakfast & Brunch"}], "rating": 3.5, "coordinates": {"latitude": 42.467871, "longitude": -73.202713}, "transactions": ["delivery"], "price": "$", "location": {"address1": "860 Dalton Ave", "address2": "", "address3": "", "city": "Pittsfield", "zip_code": "01201", "country": "US", "state": "MA", "display_address": ["860 Dalton Ave", "Pittsfield, MA 01201"]}, "phone": "+14134421875", "display_phone": "(413) 442-1875", "distance": 11074.660119573562}, {"id": "MamZuvp1FazZQ0A01EFceg", "alias": "wild-oats-market-williamstown-2", "name": "Wild Oats Market", "image_url": "https://s3-media2.fl.yelpcdn.com/bphoto/mG29nB4G8U-YNtCoq_pgdA/o.jpg", "is_closed": false, "url": "https://www.yelp.com/biz/wild-oats-market-williamstown-2?adjust_creative=h5HwbyQ0TYvQjBo6Ys5Bgw&utm_campaign=yelp_api_v3&utm_medium=api_v3_business_search&utm_source=h5HwbyQ0TYvQjBo6Ys5Bgw", "review_count": 29, "categories": [{"alias": "grocery", "title": "Grocery"}, {"alias": "healthmarkets", "title": "Health Markets"}, {"alias": "cafes", "title": "Cafes"}], "rating": 3.5, "coordinates": {"latitude": 42.70334, "longitude": -73.18677}, "transactions": [], "price": "$$", "location": {"address1": "320 Main St", "address2": "", "address3": "", "city": "Williamstown", "zip_code": "01267", "country": "US", "state": "MA", "display_address": ["320 Main St", "Williamstown, MA 01267"]}, "phone": "+14134588060", "display_phone": "(413) 458-8060", "distance": 16465.822424834107}, {"id": "7_vJvMcb3ioDXh4kRE4lOQ", "alias": "angelinas-submarine-shop-pittsfield", "name": "Angelina's Submarine Shop", "image_url": "https://s3-media3.fl.yelpcdn.com/bphoto/6HgEWRIjK9XNHTEnYL8T0g/o.jpg", "is_closed": false, "url": "https://www.yelp.com/biz/angelinas-submarine-shop-pittsfield?adjust_creative=h5HwbyQ0TYvQjBo6Ys5Bgw&utm_campaign=yelp_api_v3&utm_medium=api_v3_business_search&utm_source=h5HwbyQ0TYvQjBo6Ys5Bgw", "review_count": 3, "categories": [{"alias": "sandwiches", "title": "Sandwiches"}], "rating": 3.5, "coordinates": {"latitude": 42.4442558288574, "longitude": -73.2594528198242}, "transactions": ["delivery"], "price": "$", "location": {"address1": "97 W Housatonic St", "address2": "", "address3": "", "city": "Pittsfield", "zip_code": "01201", "country": "US", "state": "MA", "display_address": ["97 W Housatonic St", "Pittsfield, MA 01201"]}, "phone": "+14134437928", "display_phone": "(413) 443-7928", "distance": 15699.385022838922}, {"id": "BPyXFtPX_6PirL4p4HfIGA", "alias": "five-guys-pittsfield", "name": "Five Guys", "image_url": "https://s3-media1.fl.yelpcdn.com/bphoto/XerdEcgL30G8_SN5W5W1uA/o.jpg", "is_closed": false, "url": "https://www.yelp.com/biz/five-guys-pittsfield?adjust_creative=h5HwbyQ0TYvQjBo6Ys5Bgw&utm_campaign=yelp_api_v3&utm_medium=api_v3_business_search&utm_source=h5HwbyQ0TYvQjBo6Ys5Bgw", "review_count": 12, "categories": [{"alias": "burgers", "title": "Burgers"}, {"alias": "hotdogs", "title": "Fast Food"}], "rating": 4.0, "coordinates": {"latitude": 42.46647, "longitude": -73.2041799}, "transactions": [], "price": "$", "location": {"address1": "660 Merrill Rd", "address2": "", "address3": "", "city": "Pittsfield", "zip_code": "01201", "country": "US", "state": "MA", "display_address": ["660 Merrill Rd", "Pittsfield, MA 01201"]}, "phone": "+14134995900", "display_phone": "(413) 499-5900", "distance": 11365.021708489998}, {"id": "7_b0CA2fewrYfH5xUJ8l_Q", "alias": "flos-diner-pittsfield-2", "name": "Flo's Diner", "image_url": "https://s3-media3.fl.yelpcdn.com/bphoto/9iUbjOxg24MnaZq4BQ5Mmw/o.jpg", "is_closed": false, "url": "https://www.yelp.com/biz/flos-diner-pittsfield-2?adjust_creative=h5HwbyQ0TYvQjBo6Ys5Bgw&utm_campaign=yelp_api_v3&utm_medium=api_v3_business_search&utm_source=h5HwbyQ0TYvQjBo6Ys5Bgw", "review_count": 14, "categories": [{"alias": "tradamerican", "title": "American (Traditional)"}, {"alias": "breakfast_brunch", "title": "Breakfast & Brunch"}, {"alias": "vegetarian", "title": "Vegetarian"}], "rating": 4.0, "coordinates": {"latitude": 42.4358291625977, "longitude": -73.3070602416992}, "transactions": ["delivery", "pickup"], "price": "$", "location": {"address1": "1245 W Housatonic St", "address2": "", "address3": "", "city": "Pittsfield", "zip_code": "01201", "country": "US", "state": "MA", "display_address": ["1245 W Housatonic St", "Pittsfield, MA 01201"]}, "phone": "+14134423567", "display_phone": "(413) 442-3567", "distance": 18943.03450031286}, {"id": "Z1lqQq8ycO8QjzTcydJKbA", "alias": "hot-dog-ranch-north-adams", "name": "Hot Dog Ranch", "image_url": "", "is_closed": false, "url": "https://www.yelp.com/biz/hot-dog-ranch-north-adams?adjust_creative=h5HwbyQ0TYvQjBo6Ys5Bgw&utm_campaign=yelp_api_v3&utm_medium=api_v3_business_search&utm_source=h5HwbyQ0TYvQjBo6Ys5Bgw", "review_count": 5, "categories": [{"alias": "hotdog", "title": "Hot Dogs"}, {"alias": "burgers", "title": "Burgers"}], "rating": 3.5, "coordinates": {"latitude": 42.6910438537598, "longitude": -73.1136016845703}, "transactions": [], "price": "$", "location": {"address1": "310 State St", "address2": null, "address3": null, "city": "North Adams", "zip_code": "01247", "country": "US", "state": "MA", "display_address": ["310 State St", "North Adams, MA 01247"]}, "phone": "+14136622009", "display_phone": "(413) 662-2009", "distance": 14981.123507031189}, {"id": "KXZDBNqwIsntbGrAiVDVuQ", "alias": "pizza-house-pittsfield", "name": "Pizza House", "image_url": "https://s3-media3.fl.yelpcdn.com/bphoto/bjKPkzRWO93QKXT7Pcf12w/o.jpg", "is_closed": false, "url": "https://www.yelp.com/biz/pizza-house-pittsfield?adjust_creative=h5HwbyQ0TYvQjBo6Ys5Bgw&utm_campaign=yelp_api_v3&utm_medium=api_v3_business_search&utm_source=h5HwbyQ0TYvQjBo6Ys5Bgw", "review_count": 13, "categories": [{"alias": "pizza", "title": "Pizza"}], "rating": 4.0, "coordinates": {"latitude": 42.4565597, "longitude": -73.2365501}, "transactions": ["delivery"], "price": "$$", "location": {"address1": "692 Tyler St", "address2": "", "address3": "", "city": "Pittsfield", "zip_code": "01201", "country": "US", "state": "MA", "display_address": ["692 Tyler St", "Pittsfield, MA 01201"]}, "phone": "+14134991842", "display_phone": "(413) 499-1842", "distance": 13518.36868912681}, {"id": "-vv3RaiBn7yvefraT7zKKA", "alias": "hot-harrys-fresh-burritos-pittsfield-2", "name": "Hot Harry's Fresh Burritos", "image_url": "https://s3-media1.fl.yelpcdn.com/bphoto/uWrr9feCzlDNa2Wihi1M1w/o.jpg", "is_closed": false, "url": "https://www.yelp.com/biz/hot-harrys-fresh-burritos-pittsfield-2?adjust_creative=h5HwbyQ0TYvQjBo6Ys5Bgw&utm_campaign=yelp_api_v3&utm_medium=api_v3_business_search&utm_source=h5HwbyQ0TYvQjBo6Ys5Bgw", "review_count": 31, "categories": [{"alias": "mexican", "title": "Mexican"}], "rating": 3.0, "coordinates": {"latitude": 42.4491425, "longitude": -73.2539431}, "transactions": ["delivery", "pickup"], "price": "$", "location": {"address1": "37 North St", "address2": null, "address3": null, "city": "Pittsfield", "zip_code": "01201", "country": "US", "state": "MA", "display_address": ["37 North St", "Pittsfield, MA 01201"]}, "phone": "+14134486155", "display_phone": "(413) 448-6155", "distance": 15000.874302296463}, {"id": "xtHhYUKdx7NYTTa14VeIRA", "alias": "home-plate-pittsfield", "name": "Home Plate", "image_url": "", "is_closed": false, "url": "https://www.yelp.com/biz/home-plate-pittsfield?adjust_creative=h5HwbyQ0TYvQjBo6Ys5Bgw&utm_campaign=yelp_api_v3&utm_medium=api_v3_business_search&utm_source=h5HwbyQ0TYvQjBo6Ys5Bgw", "review_count": 1, "categories": [{"alias": "restaurants", "title": "Restaurants"}], "rating": 3.0, "coordinates": {"latitude": 42.450077, "longitude": -73.239082}, "transactions": [], "price": "$", "location": {"address1": "751 East St", "address2": "", "address3": "", "city": "Pittsfield", "zip_code": "01201", "country": "US", "state": "MA", "display_address": ["751 East St", "Pittsfield, MA 01201"]}, "phone": "+14134479521", "display_phone": "(413) 447-9521", "distance": 14248.991248162143}, {"id": "llMqQ1MjpYDPPFII7aQU3g", "alias": "dotties-coffee-lounge-pittsfield", "name": "Dottie's Coffee Lounge", "image_url": "https://s3-media1.fl.yelpcdn.com/bphoto/Nlx2Ig4HbJ2cCPdThRir9A/o.jpg", "is_closed": false, "url": "https://www.yelp.com/biz/dotties-coffee-lounge-pittsfield?adjust_creative=h5HwbyQ0TYvQjBo6Ys5Bgw&utm_campaign=yelp_api_v3&utm_medium=api_v3_business_search&utm_source=h5HwbyQ0TYvQjBo6Ys5Bgw", "review_count": 121, "categories": [{"alias": "coffee", "title": "Coffee & Tea"}, {"alias": "breakfast_brunch", "title": "Breakfast & Brunch"}], "rating": 4.0, "coordinates": {"latitude": 42.4545999, "longitude": -73.2519895}, "transactions": ["delivery"], "price": "$$", "location": {"address1": "444 North St", "address2": "", "address3": "", "city": "Pittsfield", "zip_code": "01201", "country": "US", "state": "MA", "display_address": ["444 North St", "Pittsfield, MA 01201"]}, "phone": "+14134431792", "display_phone": "(413) 443-1792", "distance": 14374.820102566682}, {"id": "hMY9WV4Z8BKgIWwHgnL01g", "alias": "applebees-grill-bar-pittsfield", "name": "Applebee's Grill + Bar", "image_url": "https://s3-media3.fl.yelpcdn.com/bphoto/lcgH8oFDmmaKXUDt_OBFfg/o.jpg", "is_closed": false, "url": "https://www.yelp.com/biz/applebees-grill-bar-pittsfield?adjust_creative=h5HwbyQ0TYvQjBo6Ys5Bgw&utm_campaign=yelp_api_v3&utm_medium=api_v3_business_search&utm_source=h5HwbyQ0TYvQjBo6Ys5Bgw", "review_count": 29, "categories": [{"alias": "tradamerican", "title": "American (Traditional)"}, {"alias": "sportsbars", "title": "Sports Bars"}, {"alias": "burgers", "title": "Burgers"}], "rating": 2.5, "coordinates": {"latitude": 42.468614, "longitude": -73.198755}, "transactions": [], "price": "$$", "location": {"address1": "555 Hubbard Ave", "address2": "Berkshire Crossing Shopping Center", "address3": "", "city": "Pittsfield", "zip_code": "01201", "country": "US", "state": "MA", "display_address": ["555 Hubbard Ave", "Berkshire Crossing Shopping Center", "Pittsfield, MA 01201"]}, "phone": "+14134995157", "display_phone": "(413) 499-5157", "distance": 10868.70271884944}, {"id": "9NAI2dKSdr_xIOUnDlOEnw", "alias": "papa-ginos-pizzeria-north-adams", "name": "Papa Gino's Pizzeria", "image_url": "https://s3-media2.fl.yelpcdn.com/bphoto/CdCnlb-yfwsqSB4EVfmWpw/o.jpg", "is_closed": false, "url": "https://www.yelp.com/biz/papa-ginos-pizzeria-north-adams?adjust_creative=h5HwbyQ0TYvQjBo6Ys5Bgw&utm_campaign=yelp_api_v3&utm_medium=api_v3_business_search&utm_source=h5HwbyQ0TYvQjBo6Ys5Bgw", "review_count": 9, "categories": [{"alias": "pizza", "title": "Pizza"}], "rating": 3.5, "coordinates": {"latitude": 42.6979367, "longitude": -73.1130971}, "transactions": [], "price": "$$", "location": {"address1": "36 American Legion", "address2": "", "address3": "", "city": "North Adams", "zip_code": "01247", "country": "US", "state": "MA", "display_address": ["36 American Legion", "North Adams, MA 01247"]}, "phone": "+14136647811", "display_phone": "(413) 664-7811", "distance": 15779.299189558718}, {"id": "yVmdYiqeafa71KLIZsQV_w", "alias": "subway-north-adams-3", "name": "Subway", "image_url": "https://s3-media4.fl.yelpcdn.com/bphoto/Na2VXFXPxxPvZmeto_7rrg/o.jpg", "is_closed": false, "url": "https://www.yelp.com/biz/subway-north-adams-3?adjust_creative=h5HwbyQ0TYvQjBo6Ys5Bgw&utm_campaign=yelp_api_v3&utm_medium=api_v3_business_search&utm_source=h5HwbyQ0TYvQjBo6Ys5Bgw", "review_count": 1, "categories": [{"alias": "sandwiches", "title": "Sandwiches"}], "rating": 5.0, "coordinates": {"latitude": 42.6997414026416, "longitude": -73.1143786976775}, "transactions": [], "price": "$", "location": {"address1": "1 Main St", "address2": "", "address3": "", "city": "North Adams", "zip_code": "01247", "country": "US", "state": "MA", "display_address": ["1 Main St", "North Adams, MA 01247"]}, "phone": "+14136648020", "display_phone": "(413) 664-8020", "distance": 15919.342408661441}, {"id": "ICzaAwlkrhgVYqV_btmzdA", "alias": "hot-harrys-fresh-burritos-pittsfield", "name": "Hot Harry's Fresh Burritos", "image_url": "https://s3-media3.fl.yelpcdn.com/bphoto/5uSvDlT-xZhiwdWLTOiWew/o.jpg", "is_closed": false, "url": "https://www.yelp.com/biz/hot-harrys-fresh-burritos-pittsfield?adjust_creative=h5HwbyQ0TYvQjBo6Ys5Bgw&utm_campaign=yelp_api_v3&utm_medium=api_v3_business_search&utm_source=h5HwbyQ0TYvQjBo6Ys5Bgw", "review_count": 18, "categories": [{"alias": "mexican", "title": "Mexican"}], "rating": 3.0, "coordinates": {"latitude": 42.456347, "longitude": -73.236124}, "transactions": ["delivery"], "price": "$", "location": {"address1": "724 Tyler St", "address2": null, "address3": null, "city": "Pittsfield", "zip_code": "01201", "country": "US", "state": "MA", "display_address": ["724 Tyler St", "Pittsfield, MA 01201"]}, "phone": "+14134482220", "display_phone": "(413) 448-2220", "distance": 13515.795893741642}, {"id": "naDTyJ1B4g-RjH_UE9-dcA", "alias": "williams-street-market-and-deli-pittsfield", "name": "Williams Street Market & Deli", "image_url": "", "is_closed": false, "url": "https://www.yelp.com/biz/williams-street-market-and-deli-pittsfield?adjust_creative=h5HwbyQ0TYvQjBo6Ys5Bgw&utm_campaign=yelp_api_v3&utm_medium=api_v3_business_search&utm_source=h5HwbyQ0TYvQjBo6Ys5Bgw", "review_count": 2, "categories": [{"alias": "delis", "title": "Delis"}], "rating": 2.5, "coordinates": {"latitude": 42.43171, "longitude": -73.2137}, "transactions": [], "location": {"address1": "740 Williams St", "address2": "", "address3": "", "city": "Pittsfield", "zip_code": "01201", "country": "US", "state": "MA", "display_address": ["740 Williams St", "Pittsfield, MA 01201"]}, "phone": "+14134478002", "display_phone": "(413) 447-8002", "distance": 15144.597027923364}, {"id": "COim2jPB588_ZUmyU9ohlA", "alias": "village-pizza-north-adams", "name": "Village Pizza", "image_url": "https://s3-media2.fl.yelpcdn.com/bphoto/fzMu4ujaKlf8A0FRo0O9vQ/o.jpg", "is_closed": false, "url": "https://www.yelp.com/biz/village-pizza-north-adams?adjust_creative=h5HwbyQ0TYvQjBo6Ys5Bgw&utm_campaign=yelp_api_v3&utm_medium=api_v3_business_search&utm_source=h5HwbyQ0TYvQjBo6Ys5Bgw", "review_count": 33, "categories": [{"alias": "pizza", "title": "Pizza"}], "rating": 2.5, "coordinates": {"latitude": 42.699954, "longitude": -73.109382}, "transactions": [], "price": "$$", "location": {"address1": "51 Eagle St", "address2": "", "address3": "", "city": "North Adams", "zip_code": "01247", "country": "US", "state": "MA", "display_address": ["51 Eagle St", "North Adams, MA 01247"]}, "phone": "+14136644134", "display_phone": "(413) 664-4134", "distance": 16016.168376152698}, {"id": "n09m3HVIMCSFVQnCSC3tdQ", "alias": "thats-a-wrap-cafe-pittsfield", "name": "That's A Wrap! Cafe", "image_url": "https://s3-media1.fl.yelpcdn.com/bphoto/bjJy4IrRmKBdLiGzVtz4gQ/o.jpg", "is_closed": false, "url": "https://www.yelp.com/biz/thats-a-wrap-cafe-pittsfield?adjust_creative=h5HwbyQ0TYvQjBo6Ys5Bgw&utm_campaign=yelp_api_v3&utm_medium=api_v3_business_search&utm_source=h5HwbyQ0TYvQjBo6Ys5Bgw", "review_count": 12, "categories": [{"alias": "juicebars", "title": "Juice Bars & Smoothies"}, {"alias": "wraps", "title": "Wraps"}, {"alias": "sandwiches", "title": "Sandwiches"}, {"alias": "cafes", "title": "Cafes"}], "rating": 4.0, "coordinates": {"latitude": 42.4496797332126, "longitude": -73.2509500428983}, "transactions": ["delivery"], "price": "$$", "location": {"address1": "132 Fenn St", "address2": "", "address3": null, "city": "Pittsfield", "zip_code": "01201", "country": "US", "state": "MA", "display_address": ["132 Fenn St", "Pittsfield, MA 01201"]}, "phone": "+14134993414", "display_phone": "(413) 499-3414", "distance": 14809.865723218814}, {"id": "PtjQ9BHdSh-InDjpYEoLAw", "alias": "pizza-hut-pittsfield-7", "name": "Pizza Hut", "image_url": "https://s3-media2.fl.yelpcdn.com/bphoto/0fWoaDnHsxJ4fqSSKwa4-w/o.jpg", "is_closed": false, "url": "https://www.yelp.com/biz/pizza-hut-pittsfield-7?adjust_creative=h5HwbyQ0TYvQjBo6Ys5Bgw&utm_campaign=yelp_api_v3&utm_medium=api_v3_business_search&utm_source=h5HwbyQ0TYvQjBo6Ys5Bgw", "review_count": 5, "categories": [{"alias": "italian", "title": "Italian"}, {"alias": "pizza", "title": "Pizza"}], "rating": 2.5, "coordinates": {"latitude": 42.465908213687, "longitude": -73.2030403283647}, "transactions": ["delivery", "pickup"], "price": "$", "location": {"address1": "660 Merrill Rd", "address2": null, "address3": null, "city": "Pittsfield", "zip_code": "01201", "country": "US", "state": "MA", "display_address": ["660 Merrill Rd", "Pittsfield, MA 01201"]}, "phone": "+14134999891", "display_phone": "(413) 499-9891", "distance": 11284.762508244195}, {"id": "9KNacuxUSbU6_v10Jn8Npg", "alias": "friendlys-pittsfield", "name": "Friendly's", "image_url": "https://s3-media3.fl.yelpcdn.com/bphoto/DAdk5s3FnedyuVpFxs0jfw/o.jpg", "is_closed": false, "url": "https://www.yelp.com/biz/friendlys-pittsfield?adjust_creative=h5HwbyQ0TYvQjBo6Ys5Bgw&utm_campaign=yelp_api_v3&utm_medium=api_v3_business_search&utm_source=h5HwbyQ0TYvQjBo6Ys5Bgw", "review_count": 22, "categories": [{"alias": "icecream", "title": "Ice Cream & Frozen Yogurt"}, {"alias": "burgers", "title": "Burgers"}, {"alias": "tradamerican", "title": "American (Traditional)"}], "rating": 2.5, "coordinates": {"latitude": 42.4683225899935, "longitude": -73.2024212926626}, "transactions": ["delivery"], "price": "$$", "location": {"address1": "841 Dalton Ave", "address2": "", "address3": "", "city": "Pittsfield", "zip_code": "01201", "country": "US", "state": "MA", "display_address": ["841 Dalton Ave", "Pittsfield, MA 01201"]}, "phone": "+14134430282", "display_phone": "(413) 443-0282", "distance": 11097.600700918614}, {"id": "xQ_jSCeekj2nmebWiUWVBQ", "alias": "subway-pittsfield-18", "name": "Subway", "image_url": "https://s3-media2.fl.yelpcdn.com/bphoto/Ns0oKq_wodrGXc3l_uQ-lQ/o.jpg", "is_closed": false, "url": "https://www.yelp.com/biz/subway-pittsfield-18?adjust_creative=h5HwbyQ0TYvQjBo6Ys5Bgw&utm_campaign=yelp_api_v3&utm_medium=api_v3_business_search&utm_source=h5HwbyQ0TYvQjBo6Ys5Bgw", "review_count": 1, "categories": [{"alias": "sandwiches", "title": "Sandwiches"}], "rating": 4.0, "coordinates": {"latitude": 42.464833, "longitude": -73.214439}, "transactions": [], "price": "$", "location": {"address1": "457 Dalton Ave", "address2": "", "address3": "", "city": "Pittsfield", "zip_code": "01201", "country": "US", "state": "MA", "display_address": ["457 Dalton Ave", "Pittsfield, MA 01201"]}, "phone": "+14134990067", "display_phone": "(413) 499-0067", "distance": 11801.922632094143}, {"id": "NBAJoxld1LoJ2xbHbMkpaQ", "alias": "lindas-cafe-north-adams", "name": "Linda's Cafe", "image_url": "https://s3-media2.fl.yelpcdn.com/bphoto/ePZOQrfsnS7GpoHur0mjQw/o.jpg", "is_closed": false, "url": "https://www.yelp.com/biz/lindas-cafe-north-adams?adjust_creative=h5HwbyQ0TYvQjBo6Ys5Bgw&utm_campaign=yelp_api_v3&utm_medium=api_v3_business_search&utm_source=h5HwbyQ0TYvQjBo6Ys5Bgw", "review_count": 18, "categories": [{"alias": "cafes", "title": "Cafes"}], "rating": 3.5, "coordinates": {"latitude": 42.700272, "longitude": -73.102139}, "transactions": [], "price": "$", "location": {"address1": "178 Union St", "address2": "", "address3": "", "city": "North Adams", "zip_code": "01247", "country": "US", "state": "MA", "display_address": ["178 Union St", "North Adams, MA 01247"]}, "phone": "+14136638003", "display_phone": "(413) 663-8003", "distance": 16174.789334248493}, {"id": "W8wy2-f1tkjZQPFe_xT4vQ", "alias": "subway-pittsfield-13", "name": "Subway", "image_url": "https://s3-media3.fl.yelpcdn.com/bphoto/TKupqtDxQ-vh8HoIQgur5A/o.jpg", "is_closed": false, "url": "https://www.yelp.com/biz/subway-pittsfield-13?adjust_creative=h5HwbyQ0TYvQjBo6Ys5Bgw&utm_campaign=yelp_api_v3&utm_medium=api_v3_business_search&utm_source=h5HwbyQ0TYvQjBo6Ys5Bgw", "review_count": 1, "categories": [{"alias": "sandwiches", "title": "Sandwiches"}], "rating": 4.0, "coordinates": {"latitude": 42.4649194, "longitude": -73.1985031}, "transactions": [], "price": "$", "location": {"address1": "555 Hubbard Ave", "address2": "Ste 12", "address3": null, "city": "Pittsfield", "zip_code": "01201", "country": "US", "state": "MA", "display_address": ["555 Hubbard Ave", "Ste 12", "Pittsfield, MA 01201"]}, "phone": "+14134422539", "display_phone": "(413) 442-2539", "distance": 11240.321116632904}, {"id": "oadhNMM6_QqXHMS5s5jWyQ", "alias": "pizza-works-north-adams", "name": "Pizza Works", "image_url": "https://s3-media4.fl.yelpcdn.com/bphoto/fX9cs5sZWkJ0ylsgcQXpeA/o.jpg", "is_closed": false, "url": "https://www.yelp.com/biz/pizza-works-north-adams?adjust_creative=h5HwbyQ0TYvQjBo6Ys5Bgw&utm_campaign=yelp_api_v3&utm_medium=api_v3_business_search&utm_source=h5HwbyQ0TYvQjBo6Ys5Bgw", "review_count": 11, "categories": [{"alias": "pizza", "title": "Pizza"}], "rating": 2.5, "coordinates": {"latitude": 42.6909245, "longitude": -73.1061431}, "transactions": [], "price": "$$", "location": {"address1": "315 Ashland St", "address2": "", "address3": "", "city": "North Adams", "zip_code": "01247", "country": "US", "state": "MA", "display_address": ["315 Ashland St", "North Adams, MA 01247"]}, "phone": "+14136636661", "display_phone": "(413) 663-6661", "distance": 15088.474360674247}, {"id": "npvK3ybU9n5GPZzCwJtN5Q", "alias": "costanzos-package-variety-and-deli-pittsfield", "name": "Costanzo's Package Variety & Deli", "image_url": "", "is_closed": false, "url": "https://www.yelp.com/biz/costanzos-package-variety-and-deli-pittsfield?adjust_creative=h5HwbyQ0TYvQjBo6Ys5Bgw&utm_campaign=yelp_api_v3&utm_medium=api_v3_business_search&utm_source=h5HwbyQ0TYvQjBo6Ys5Bgw", "review_count": 1, "categories": [{"alias": "beer_and_wine", "title": "Beer, Wine & Spirits"}, {"alias": "catering", "title": "Caterers"}, {"alias": "delis", "title": "Delis"}], "rating": 4.0, "coordinates": {"latitude": 42.4566612243652, "longitude": -73.2628479003906}, "transactions": ["delivery"], "price": "$", "location": {"address1": "180 Onota St", "address2": "", "address3": "", "city": "Pittsfield", "zip_code": "01201", "country": "US", "state": "MA", "display_address": ["180 Onota St", "Pittsfield, MA 01201"]}, "phone": "+14134477661", "display_phone": "(413) 447-7661", "distance": 14771.20196059189}, {"id": "PjnuvUKvpp0nyGQOAPitEg", "alias": "tjs-southwestern-bar-and-grill-north-adams", "name": "TJ's Southwestern bar & grill", "image_url": "", "is_closed": false, "url": "https://www.yelp.com/biz/tjs-southwestern-bar-and-grill-north-adams?adjust_creative=h5HwbyQ0TYvQjBo6Ys5Bgw&utm_campaign=yelp_api_v3&utm_medium=api_v3_business_search&utm_source=h5HwbyQ0TYvQjBo6Ys5Bgw", "review_count": 1, "categories": [{"alias": "tex-mex", "title": "Tex-Mex"}], "rating": 1.0, "coordinates": {"latitude": 42.6947904744372, "longitude": -73.1097201505478}, "transactions": [], "location": {"address1": "139 Ashland St", "address2": "", "address3": "", "city": "North Adams", "zip_code": "01247", "country": "US", "state": "MA", "display_address": ["139 Ashland St", "North Adams, MA 01247"]}, "phone": "", "display_phone": "", "distance": 15447.556685596928}, {"id": "hi4R8b0DYuEmnlDoKWtNBA", "alias": "eat-to-total-health-north-adams", "name": "Eat To Total Health", "image_url": "", "is_closed": false, "url": "https://www.yelp.com/biz/eat-to-total-health-north-adams?adjust_creative=h5HwbyQ0TYvQjBo6Ys5Bgw&utm_campaign=yelp_api_v3&utm_medium=api_v3_business_search&utm_source=h5HwbyQ0TYvQjBo6Ys5Bgw", "review_count": 2, "categories": [{"alias": "juicebars", "title": "Juice Bars & Smoothies"}, {"alias": "healthmarkets", "title": "Health Markets"}, {"alias": "cafes", "title": "Cafes"}], "rating": 2.5, "coordinates": {"latitude": 42.698356, "longitude": -73.110206}, "transactions": [], "location": {"address1": "14 Ashland St", "address2": "", "address3": null, "city": "North Adams", "zip_code": "01247", "country": "US", "state": "MA", "display_address": ["14 Ashland St", "North Adams, MA 01247"]}, "phone": "+14133464357", "display_phone": "(413) 346-4357", "distance": 15828.963531955545}, {"id": "KmMT3zDrNWO4geJzJBjB-A", "alias": "soda-chef-pittsfield", "name": "Soda Chef", "image_url": "https://s3-media1.fl.yelpcdn.com/bphoto/4pDNA59y_wrCPL4AMUVILw/o.jpg", "is_closed": false, "url": "https://www.yelp.com/biz/soda-chef-pittsfield?adjust_creative=h5HwbyQ0TYvQjBo6Ys5Bgw&utm_campaign=yelp_api_v3&utm_medium=api_v3_business_search&utm_source=h5HwbyQ0TYvQjBo6Ys5Bgw", "review_count": 6, "categories": [{"alias": "tradamerican", "title": "American (Traditional)"}, {"alias": "breakfast_brunch", "title": "Breakfast & Brunch"}, {"alias": "diners", "title": "Diners"}], "rating": 4.5, "coordinates": {"latitude": 42.4508553, "longitude": -73.2534561}, "transactions": ["delivery"], "price": "$", "location": {"address1": "161 N St", "address2": "", "address3": "", "city": "Pittsfield", "zip_code": "01201", "country": "US", "state": "MA", "display_address": ["161 N St", "Pittsfield, MA 01201"]}, "phone": "+14134479401", "display_phone": "(413) 447-9401", "distance": 14414.316282939159}, {"id": "f6iWxoj4vxSdZHsrRx6txg", "alias": "dominos-pizza-north-adams", "name": "Domino's Pizza", "image_url": "https://s3-media3.fl.yelpcdn.com/bphoto/NUsnWHDEVOUHdex9RLn5Qw/o.jpg", "is_closed": false, "url": "https://www.yelp.com/biz/dominos-pizza-north-adams?adjust_creative=h5HwbyQ0TYvQjBo6Ys5Bgw&utm_campaign=yelp_api_v3&utm_medium=api_v3_business_search&utm_source=h5HwbyQ0TYvQjBo6Ys5Bgw", "review_count": 3, "categories": [{"alias": "pizza", "title": "Pizza"}, {"alias": "chicken_wings", "title": "Chicken Wings"}, {"alias": "sandwiches", "title": "Sandwiches"}], "rating": 3.0, "coordinates": {"latitude": 42.702301, "longitude": -73.1075897}, "transactions": [], "price": "$", "location": {"address1": "1 River St", "address2": null, "address3": null, "city": "North Adams", "zip_code": "01247", "country": "US", "state": "MA", "display_address": ["1 River St", "North Adams, MA 01247"]}, "phone": "+14136636363", "display_phone": "(413) 663-6363", "distance": 16305.480425838694}, {"id": "KWeBXXzXh9OFbPqCm4_-nA", "alias": "panera-bread-pittsfield", "name": "Panera Bread", "image_url": "https://s3-media3.fl.yelpcdn.com/bphoto/uamCSTPMYSB1mNZV221n9g/o.jpg", "is_closed": false, "url": "https://www.yelp.com/biz/panera-bread-pittsfield?adjust_creative=h5HwbyQ0TYvQjBo6Ys5Bgw&utm_campaign=yelp_api_v3&utm_medium=api_v3_business_search&utm_source=h5HwbyQ0TYvQjBo6Ys5Bgw", "review_count": 18, "categories": [{"alias": "sandwiches", "title": "Sandwiches"}, {"alias": "salad", "title": "Salad"}, {"alias": "soup", "title": "Soup"}], "rating": 2.5, "coordinates": {"latitude": 42.465182, "longitude": -73.206932}, "transactions": [], "price": "$$", "location": {"address1": "635 Merrill Rd", "address2": null, "address3": null, "city": "Pittsfield", "zip_code": "01201", "country": "US", "state": "MA", "display_address": ["635 Merrill Rd", "Pittsfield, MA 01201"]}, "phone": "+14134433200", "display_phone": "(413) 443-3200", "distance": 11491.33536873081}, {"id": "pZ5Q3wPrBLmHXmV6LKlpcg", "alias": "mcdonalds-adams-4", "name": "McDonald's", "image_url": "https://s3-media2.fl.yelpcdn.com/bphoto/dPKXKZX9SRSCG9YORg2u7Q/o.jpg", "is_closed": false, "url": "https://www.yelp.com/biz/mcdonalds-adams-4?adjust_creative=h5HwbyQ0TYvQjBo6Ys5Bgw&utm_campaign=yelp_api_v3&utm_medium=api_v3_business_search&utm_source=h5HwbyQ0TYvQjBo6Ys5Bgw", "review_count": 2, "categories": [{"alias": "coffee", "title": "Coffee & Tea"}, {"alias": "burgers", "title": "Burgers"}, {"alias": "hotdogs", "title": "Fast Food"}], "rating": 2.0, "coordinates": {"latitude": 42.6198977, "longitude": -73.1200694}, "transactions": [], "price": "$", "location": {"address1": "2 Commercial St", "address2": null, "address3": null, "city": "Adams", "zip_code": "01220", "country": "US", "state": "MA", "display_address": ["2 Commercial St", "Adams, MA 01220"]}, "phone": "+14137434678", "display_phone": "(413) 743-4678", "distance": 7088.3949003430325}, {"id": "dPrW7czCTb9yQkZsiyhKcg", "alias": "papa-ginos-pizzeria-pittsfield", "name": "Papa Gino's Pizzeria", "image_url": "https://s3-media1.fl.yelpcdn.com/bphoto/NKN58oe59RYs8nXmvCD_Qg/o.jpg", "is_closed": false, "url": "https://www.yelp.com/biz/papa-ginos-pizzeria-pittsfield?adjust_creative=h5HwbyQ0TYvQjBo6Ys5Bgw&utm_campaign=yelp_api_v3&utm_medium=api_v3_business_search&utm_source=h5HwbyQ0TYvQjBo6Ys5Bgw", "review_count": 21, "categories": [{"alias": "pizza", "title": "Pizza"}], "rating": 2.5, "coordinates": {"latitude": 42.4659526682081, "longitude": -73.2064502022769}, "transactions": ["delivery"], "price": "$$", "location": {"address1": "685 Merrill Rd", "address2": null, "address3": null, "city": "Pittsfield", "zip_code": "01201", "country": "US", "state": "MA", "display_address": ["685 Merrill Rd", "Pittsfield, MA 01201"]}, "phone": "+14134455307", "display_phone": "(413) 445-5307", "distance": 11396.971419718267}, {"id": "j0gbnpRxeNXdAUkM7v07tA", "alias": "angelinas-submarine-shops-pittsfield-3", "name": "Angelina's Submarine Shops", "image_url": "https://s3-media2.fl.yelpcdn.com/bphoto/boTt2q-zakPxgJ96TBvKUA/o.jpg", "is_closed": false, "url": "https://www.yelp.com/biz/angelinas-submarine-shops-pittsfield-3?adjust_creative=h5HwbyQ0TYvQjBo6Ys5Bgw&utm_campaign=yelp_api_v3&utm_medium=api_v3_business_search&utm_source=h5HwbyQ0TYvQjBo6Ys5Bgw", "review_count": 8, "categories": [{"alias": "sandwiches", "title": "Sandwiches"}], "rating": 3.0, "coordinates": {"latitude": 42.4446907, "longitude": -73.2400894}, "transactions": ["delivery"], "price": "$", "location": {"address1": "133 Elm St", "address2": null, "address3": null, "city": "Pittsfield", "zip_code": "01201", "country": "US", "state": "MA", "display_address": ["133 Elm St", "Pittsfield, MA 01201"]}, "phone": "+14134998892", "display_phone": "(413) 499-8892", "distance": 14808.6600220741}, {"id": "xa_98hTmK47xF4Mx72HNJA", "alias": "empire-pizza-restaurant-pittsfield", "name": "Empire Pizza Restaurant", "image_url": "https://s3-media2.fl.yelpcdn.com/bphoto/8Hlva0OuLY_7QnVhI0StUQ/o.jpg", "is_closed": false, "url": "https://www.yelp.com/biz/empire-pizza-restaurant-pittsfield?adjust_creative=h5HwbyQ0TYvQjBo6Ys5Bgw&utm_campaign=yelp_api_v3&utm_medium=api_v3_business_search&utm_source=h5HwbyQ0TYvQjBo6Ys5Bgw", "review_count": 16, "categories": [{"alias": "pizza", "title": "Pizza"}, {"alias": "salad", "title": "Salad"}, {"alias": "sandwiches", "title": "Sandwiches"}], "rating": 2.5, "coordinates": {"latitude": 42.45471, "longitude": -73.2527099}, "transactions": ["delivery"], "price": "$", "location": {"address1": "413 North St", "address2": null, "address3": null, "city": "Pittsfield", "zip_code": "01201", "country": "US", "state": "MA", "display_address": ["413 North St", "Pittsfield, MA 01201"]}, "phone": "+14134430043", "display_phone": "(413) 443-0043", "distance": 14435.67746725641}, {"id": "j3iGXa2h_E9-JDTYhcBMEg", "alias": "hold-the-anchovies-pittsfield", "name": "Hold the Anchovies", "image_url": "", "is_closed": false, "url": "https://www.yelp.com/biz/hold-the-anchovies-pittsfield?adjust_creative=h5HwbyQ0TYvQjBo6Ys5Bgw&utm_campaign=yelp_api_v3&utm_medium=api_v3_business_search&utm_source=h5HwbyQ0TYvQjBo6Ys5Bgw", "review_count": 1, "categories": [{"alias": "pizza", "title": "Pizza"}], "rating": 1.0, "coordinates": {"latitude": 42.46429, "longitude": -73.21442}, "transactions": [], "price": "$$", "location": {"address1": "455 Dalton Ave", "address2": "", "address3": "", "city": "Pittsfield", "zip_code": "01201", "country": "US", "state": "MA", "display_address": ["455 Dalton Ave", "Pittsfield, MA 01201"]}, "phone": "+14134432400", "display_phone": "(413) 443-2400", "distance": 11854.712622264147}, {"id": "4_6PwHV-yJnMqlnvXVOyxw", "alias": "pizza-works-pittsfield", "name": "Pizza Works", "image_url": "https://s3-media4.fl.yelpcdn.com/bphoto/VWeb8dJGSwemSHFfkxXbTg/o.jpg", "is_closed": false, "url": "https://www.yelp.com/biz/pizza-works-pittsfield?adjust_creative=h5HwbyQ0TYvQjBo6Ys5Bgw&utm_campaign=yelp_api_v3&utm_medium=api_v3_business_search&utm_source=h5HwbyQ0TYvQjBo6Ys5Bgw", "review_count": 13, "categories": [{"alias": "pizza", "title": "Pizza"}], "rating": 3.5, "coordinates": {"latitude": 42.4563250690699, "longitude": -73.2341511547565}, "transactions": ["delivery"], "price": "$$", "location": {"address1": "804 Tyler St", "address2": "", "address3": "", "city": "Pittsfield", "zip_code": "01201", "country": "US", "state": "MA", "display_address": ["804 Tyler St", "Pittsfield, MA 01201"]}, "phone": "+14134434444", "display_phone": "(413) 443-4444", "distance": 13452.542343405956}, {"id": "eJuEEKGzbvtlLHXSblxR7Q", "alias": "dominos-pizza-pittsfield", "name": "Domino's Pizza", "image_url": "https://s3-media2.fl.yelpcdn.com/bphoto/LPePHVq_IXpXsw-ApM5XVw/o.jpg", "is_closed": false, "url": "https://www.yelp.com/biz/dominos-pizza-pittsfield?adjust_creative=h5HwbyQ0TYvQjBo6Ys5Bgw&utm_campaign=yelp_api_v3&utm_medium=api_v3_business_search&utm_source=h5HwbyQ0TYvQjBo6Ys5Bgw", "review_count": 7, "categories": [{"alias": "pizza", "title": "Pizza"}, {"alias": "chicken_wings", "title": "Chicken Wings"}, {"alias": "sandwiches", "title": "Sandwiches"}], "rating": 3.5, "coordinates": {"latitude": 42.44263, "longitude": -73.23051}, "transactions": [], "price": "$", "location": {"address1": "321 1/2 Elm St", "address2": "", "address3": "", "city": "Pittsfield", "zip_code": "01201", "country": "US", "state": "MA", "display_address": ["321 1/2 Elm St", "Pittsfield, MA 01201"]}, "phone": "+14134993994", "display_phone": "(413) 499-3994", "distance": 14590.085218667931}, {"id": "z0qioLtn44qHtv-fm4rd0w", "alias": "panda-garden-pittsfield", "name": "Panda Garden", "image_url": "https://s3-media1.fl.yelpcdn.com/bphoto/EuxaT94SmiyxMw6bH6_sSA/o.jpg", "is_closed": false, "url": "https://www.yelp.com/biz/panda-garden-pittsfield?adjust_creative=h5HwbyQ0TYvQjBo6Ys5Bgw&utm_campaign=yelp_api_v3&utm_medium=api_v3_business_search&utm_source=h5HwbyQ0TYvQjBo6Ys5Bgw", "review_count": 15, "categories": [{"alias": "chinese", "title": "Chinese"}], "rating": 2.5, "coordinates": {"latitude": 42.4563598632812, "longitude": -73.2361297607422}, "transactions": ["delivery"], "price": "$", "location": {"address1": "724 Tyler St", "address2": "", "address3": "", "city": "Pittsfield", "zip_code": "01201", "country": "US", "state": "MA", "display_address": ["724 Tyler St", "Pittsfield, MA 01201"]}, "phone": "+14134428881", "display_phone": "(413) 442-8881", "distance": 13513.783722908374}, {"id": "xeVfQxBzL4VmaH3gVLwwgA", "alias": "subway-pittsfield-15", "name": "Subway", "image_url": "https://s3-media3.fl.yelpcdn.com/bphoto/RlP8wlwgOMB0sWaAUZymsw/o.jpg", "is_closed": false, "url": "https://www.yelp.com/biz/subway-pittsfield-15?adjust_creative=h5HwbyQ0TYvQjBo6Ys5Bgw&utm_campaign=yelp_api_v3&utm_medium=api_v3_business_search&utm_source=h5HwbyQ0TYvQjBo6Ys5Bgw", "review_count": 2, "categories": [{"alias": "sandwiches", "title": "Sandwiches"}], "rating": 1.5, "coordinates": {"latitude": 42.4761589512098, "longitude": -73.2646737913772}, "transactions": [], "price": "$", "location": {"address1": "370 Pecks Rd", "address2": null, "address3": null, "city": "Pittsfield", "zip_code": "01201", "country": "US", "state": "MA", "display_address": ["370 Pecks Rd", "Pittsfield, MA 01201"]}, "phone": "+14134488001", "display_phone": "(413) 448-8001", "distance": 13307.411596569662}, {"id": "zf-nxO_RnpkuZwVPU0JknQ", "alias": "court-square-breakfast-and-deli-pittsfield", "name": "Court Square Breakfast & Deli", "image_url": "https://s3-media2.fl.yelpcdn.com/bphoto/ZPpPVGSxyEDjfJJ9edXxTg/o.jpg", "is_closed": false, "url": "https://www.yelp.com/biz/court-square-breakfast-and-deli-pittsfield?adjust_creative=h5HwbyQ0TYvQjBo6Ys5Bgw&utm_campaign=yelp_api_v3&utm_medium=api_v3_business_search&utm_source=h5HwbyQ0TYvQjBo6Ys5Bgw", "review_count": 1, "categories": [{"alias": "breakfast_brunch", "title": "Breakfast & Brunch"}], "rating": 3.0, "coordinates": {"latitude": 42.4482234567404, "longitude": -73.2521011680365}, "transactions": [], "price": "$", "location": {"address1": "95 East St", "address2": "", "address3": "", "city": "Pittsfield", "zip_code": "01201", "country": "US", "state": "MA", "display_address": ["95 East St", "Pittsfield, MA 01201"]}, "phone": "+14134429896", "display_phone": "(413) 442-9896", "distance": 14980.572020317142}, {"id": "LsJESTdNxIHgnlsYiep9YA", "alias": "parkside-restaurant-pittsfield", "name": "Parkside Restaurant", "image_url": "", "is_closed": false, "url": "https://www.yelp.com/biz/parkside-restaurant-pittsfield?adjust_creative=h5HwbyQ0TYvQjBo6Ys5Bgw&utm_campaign=yelp_api_v3&utm_medium=api_v3_business_search&utm_source=h5HwbyQ0TYvQjBo6Ys5Bgw", "review_count": 1, "categories": [{"alias": "restaurants", "title": "Restaurants"}], "rating": 1.0, "coordinates": {"latitude": 42.4428520202637, "longitude": -73.2650604248047}, "transactions": [], "location": {"address1": "220 W Housatonic St", "address2": "", "address3": "", "city": "Pittsfield", "zip_code": "01201", "country": "US", "state": "MA", "display_address": ["220 W Housatonic St", "Pittsfield, MA 01201"]}, "phone": "+14134479536", "display_phone": "(413) 447-9536", "distance": 16105.24235572553}, {"id": "_yuFi7fMtXH-3DK_XgAa7Q", "alias": "elm-st-java-pittsfield", "name": "Elm St Java", "image_url": "https://s3-media2.fl.yelpcdn.com/bphoto/ULd2Lo8LZRQ_3dlVR28OMQ/o.jpg", "is_closed": false, "url": "https://www.yelp.com/biz/elm-st-java-pittsfield?adjust_creative=h5HwbyQ0TYvQjBo6Ys5Bgw&utm_campaign=yelp_api_v3&utm_medium=api_v3_business_search&utm_source=h5HwbyQ0TYvQjBo6Ys5Bgw", "review_count": 4, "categories": [{"alias": "coffee", "title": "Coffee & Tea"}, {"alias": "breakfast_brunch", "title": "Breakfast & Brunch"}, {"alias": "sandwiches", "title": "Sandwiches"}], "rating": 4.5, "coordinates": {"latitude": 42.443323, "longitude": -73.2355684}, "transactions": [], "price": "$", "location": {"address1": "216 Elm St", "address2": "", "address3": "", "city": "Pittsfield", "zip_code": "01201", "country": "US", "state": "MA", "display_address": ["216 Elm St", "Pittsfield, MA 01201"]}, "phone": "+14134995282", "display_phone": "(413) 499-5282", "distance": 14731.959300804754}, {"id": "XvvFFVTRyb9-8OZPUVRSqw", "alias": "ginos-pizza-and-grill-pittsfield", "name": "Ginos Pizza and Grill", "image_url": "https://s3-media3.fl.yelpcdn.com/bphoto/2zq5ieHpYjnGxFee6p7YVw/o.jpg", "is_closed": false, "url": "https://www.yelp.com/biz/ginos-pizza-and-grill-pittsfield?adjust_creative=h5HwbyQ0TYvQjBo6Ys5Bgw&utm_campaign=yelp_api_v3&utm_medium=api_v3_business_search&utm_source=h5HwbyQ0TYvQjBo6Ys5Bgw", "review_count": 7, "categories": [{"alias": "pizza", "title": "Pizza"}, {"alias": "hotdogs", "title": "Fast Food"}, {"alias": "italian", "title": "Italian"}], "rating": 2.5, "coordinates": {"latitude": 42.4760729, "longitude": -73.2444672}, "transactions": ["delivery"], "price": "$$", "location": {"address1": "1206 North St", "address2": "", "address3": "", "city": "Pittsfield", "zip_code": "01201", "country": "US", "state": "MA", "display_address": ["1206 North St", "Pittsfield, MA 01201"]}, "phone": "+14134424466", "display_phone": "(413) 442-4466", "distance": 12167.73960609134}, {"id": "_bbCLnoJCG-QqGd1ShgItA", "alias": "amazing-pavilion-chinese-restaurant-pittsfield", "name": "Amazing Pavilion Chinese Restaurant", "image_url": "https://s3-media1.fl.yelpcdn.com/bphoto/BR_kdPrQ2PB4wyzcW3DJtQ/o.jpg", "is_closed": false, "url": "https://www.yelp.com/biz/amazing-pavilion-chinese-restaurant-pittsfield?adjust_creative=h5HwbyQ0TYvQjBo6Ys5Bgw&utm_campaign=yelp_api_v3&utm_medium=api_v3_business_search&utm_source=h5HwbyQ0TYvQjBo6Ys5Bgw", "review_count": 15, "categories": [{"alias": "chinese", "title": "Chinese"}, {"alias": "sushi", "title": "Sushi Bars"}, {"alias": "asianfusion", "title": "Asian Fusion"}], "rating": 2.5, "coordinates": {"latitude": 42.44973755422, "longitude": -73.2531631959556}, "transactions": ["delivery"], "price": "$$", "location": {"address1": "26 Dunham Mall", "address2": "", "address3": "", "city": "Pittsfield", "zip_code": "01201", "country": "US", "state": "MA", "display_address": ["26 Dunham Mall", "Pittsfield, MA 01201"]}, "phone": "+14134482647", "display_phone": "(413) 448-2647", "distance": 14898.055419270047}, {"id": "j9UeZCXnFfeMlwqFnIXfCw", "alias": "wendys-pittsfield-2", "name": "Wendy's", "image_url": "https://s3-media1.fl.yelpcdn.com/bphoto/PXtaHMk789N-we_ZBFnlhQ/o.jpg", "is_closed": false, "url": "https://www.yelp.com/biz/wendys-pittsfield-2?adjust_creative=h5HwbyQ0TYvQjBo6Ys5Bgw&utm_campaign=yelp_api_v3&utm_medium=api_v3_business_search&utm_source=h5HwbyQ0TYvQjBo6Ys5Bgw", "review_count": 17, "categories": [{"alias": "hotdogs", "title": "Fast Food"}, {"alias": "burgers", "title": "Burgers"}], "rating": 2.5, "coordinates": {"latitude": 42.468646, "longitude": -73.195668}, "transactions": ["delivery"], "price": "$", "location": {"address1": "556 Hubbard Avenue", "address2": "", "address3": "", "city": "Pittsfield", "zip_code": "01201", "country": "US", "state": "MA", "display_address": ["556 Hubbard Avenue", "Pittsfield, MA 01201"]}, "phone": "+14134422053", "display_phone": "(413) 442-2053", "distance": 10767.897654627472}, {"id": "3TyINqqzEADspKjjStQOsQ", "alias": "mcdonalds-pittsfield", "name": "McDonald's", "image_url": "https://s3-media3.fl.yelpcdn.com/bphoto/JeCD1DpJ1rrasg9aYG7Eew/o.jpg", "is_closed": false, "url": "https://www.yelp.com/biz/mcdonalds-pittsfield?adjust_creative=h5HwbyQ0TYvQjBo6Ys5Bgw&utm_campaign=yelp_api_v3&utm_medium=api_v3_business_search&utm_source=h5HwbyQ0TYvQjBo6Ys5Bgw", "review_count": 5, "categories": [{"alias": "coffee", "title": "Coffee & Tea"}, {"alias": "burgers", "title": "Burgers"}, {"alias": "hotdogs", "title": "Fast Food"}], "rating": 3.0, "coordinates": {"latitude": 42.468519, "longitude": -73.2040031329598}, "transactions": [], "price": "$", "location": {"address1": "61 Cheshire Rd", "address2": "", "address3": "", "city": "Pittsfield", "zip_code": "01201", "country": "US", "state": "MA", "display_address": ["61 Cheshire Rd", "Pittsfield, MA 01201"]}, "phone": "+14134424602", "display_phone": "(413) 442-4602", "distance": 11053.354965346767}, {"id": "D8xwwhEQSzQu9wOpX-lytA", "alias": "south-street-pizza-house-pittsfield", "name": "South Street Pizza House", "image_url": "https://s3-media1.fl.yelpcdn.com/bphoto/7KZpvjWkZFNQ2RAzzfCQ7A/o.jpg", "is_closed": false, "url": "https://www.yelp.com/biz/south-street-pizza-house-pittsfield?adjust_creative=h5HwbyQ0TYvQjBo6Ys5Bgw&utm_campaign=yelp_api_v3&utm_medium=api_v3_business_search&utm_source=h5HwbyQ0TYvQjBo6Ys5Bgw", "review_count": 12, "categories": [{"alias": "pizza", "title": "Pizza"}], "rating": 3.0, "coordinates": {"latitude": 42.4453999, "longitude": -73.2548167}, "transactions": ["delivery"], "price": "$", "location": {"address1": "148 South St", "address2": "", "address3": "", "city": "Pittsfield", "zip_code": "01201", "country": "US", "state": "MA", "display_address": ["148 South St", "Pittsfield, MA 01201"]}, "phone": "+14134991690", "display_phone": "(413) 499-1690", "distance": 15381.651539978267}, {"id": "JzFcNSTefetIDqcxnMRq8A", "alias": "angelinas-submarine-shops-pittsfield", "name": "Angelina's Submarine Shops", "image_url": "", "is_closed": false, "url": "https://www.yelp.com/biz/angelinas-submarine-shops-pittsfield?adjust_creative=h5HwbyQ0TYvQjBo6Ys5Bgw&utm_campaign=yelp_api_v3&utm_medium=api_v3_business_search&utm_source=h5HwbyQ0TYvQjBo6Ys5Bgw", "review_count": 7, "categories": [{"alias": "sandwiches", "title": "Sandwiches"}, {"alias": "salad", "title": "Salad"}, {"alias": "burgers", "title": "Burgers"}], "rating": 3.0, "coordinates": {"latitude": 42.457275390625, "longitude": -73.2288513183594}, "transactions": ["delivery", "pickup"], "price": "$", "location": {"address1": "100 Dalton Ave", "address2": "", "address3": "", "city": "Pittsfield", "zip_code": "01201", "country": "US", "state": "MA", "display_address": ["100 Dalton Ave", "Pittsfield, MA 01201"]}, "phone": "+14134439875", "display_phone": "(413) 443-9875", "distance": 13108.799325834472}, {"id": "xXAemH6OUirTl1AkYMhohg", "alias": "burger-king-north-adams-3", "name": "Burger King", "image_url": "https://s3-media2.fl.yelpcdn.com/bphoto/ClLu0ahtHnl2C_W8y-sV1Q/o.jpg", "is_closed": false, "url": "https://www.yelp.com/biz/burger-king-north-adams-3?adjust_creative=h5HwbyQ0TYvQjBo6Ys5Bgw&utm_campaign=yelp_api_v3&utm_medium=api_v3_business_search&utm_source=h5HwbyQ0TYvQjBo6Ys5Bgw", "review_count": 1, "categories": [{"alias": "burgers", "title": "Burgers"}, {"alias": "hotdogs", "title": "Fast Food"}], "rating": 3.0, "coordinates": {"latitude": 42.6971633, "longitude": -73.112693}, "transactions": [], "price": "$", "location": {"address1": "74 American Legion Dr", "address2": "", "address3": "", "city": "North Adams", "zip_code": "01247", "country": "US", "state": "MA", "display_address": ["74 American Legion Dr", "North Adams, MA 01247"]}, "phone": "", "display_phone": "", "distance": 15682.428479709786}, {"id": "G2TCWZQrMbz70Er_JimNJA", "alias": "subway-pittsfield-16", "name": "Subway", "image_url": "https://s3-media1.fl.yelpcdn.com/bphoto/Oha4-dP6Od1x5pfF5Fj7vA/o.jpg", "is_closed": false, "url": "https://www.yelp.com/biz/subway-pittsfield-16?adjust_creative=h5HwbyQ0TYvQjBo6Ys5Bgw&utm_campaign=yelp_api_v3&utm_medium=api_v3_business_search&utm_source=h5HwbyQ0TYvQjBo6Ys5Bgw", "review_count": 4, "categories": [{"alias": "sandwiches", "title": "Sandwiches"}], "rating": 3.0, "coordinates": {"latitude": 42.4439050543705, "longitude": -73.2547261}, "transactions": [], "price": "$", "location": {"address1": "179 South St", "address2": "", "address3": "", "city": "Pittsfield", "zip_code": "01201", "country": "US", "state": "MA", "display_address": ["179 South St", "Pittsfield, MA 01201"]}, "phone": "+14134990048", "display_phone": "(413) 499-0048", "distance": 15513.794918418265}, {"id": "5MUciMsGKM5fvGpkxadGuw", "alias": "dominos-pizza-pittsfield-2", "name": "Domino's Pizza", "image_url": "", "is_closed": false, "url": "https://www.yelp.com/biz/dominos-pizza-pittsfield-2?adjust_creative=h5HwbyQ0TYvQjBo6Ys5Bgw&utm_campaign=yelp_api_v3&utm_medium=api_v3_business_search&utm_source=h5HwbyQ0TYvQjBo6Ys5Bgw", "review_count": 4, "categories": [{"alias": "pizza", "title": "Pizza"}, {"alias": "chicken_wings", "title": "Chicken Wings"}, {"alias": "sandwiches", "title": "Sandwiches"}], "rating": 4.0, "coordinates": {"latitude": 42.47718, "longitude": -73.245323}, "transactions": [], "price": "$", "location": {"address1": "1229 North St", "address2": null, "address3": null, "city": "Pittsfield", "zip_code": "01201", "country": "US", "state": "MA", "display_address": ["1229 North St", "Pittsfield, MA 01201"]}, "phone": "+14134997979", "display_phone": "(413) 499-7979", "distance": 12120.925655207378}, {"id": "JdgwEC4QOezifl1_1dtCXA", "alias": "taco-bell-pittsfield-2", "name": "Taco Bell", "image_url": "https://s3-media1.fl.yelpcdn.com/bphoto/SDdSHQO3GYmXloHlSlEiKQ/o.jpg", "is_closed": false, "url": "https://www.yelp.com/biz/taco-bell-pittsfield-2?adjust_creative=h5HwbyQ0TYvQjBo6Ys5Bgw&utm_campaign=yelp_api_v3&utm_medium=api_v3_business_search&utm_source=h5HwbyQ0TYvQjBo6Ys5Bgw", "review_count": 15, "categories": [{"alias": "hotdogs", "title": "Fast Food"}, {"alias": "tacos", "title": "Tacos"}], "rating": 2.5, "coordinates": {"latitude": 42.4690315746512, "longitude": -73.1969030708575}, "transactions": ["delivery"], "price": "$", "location": {"address1": "555 Hubbard Ave", "address2": "", "address3": "", "city": "Pittsfield", "zip_code": "01201", "country": "US", "state": "MA", "display_address": ["555 Hubbard Ave", "Pittsfield, MA 01201"]}, "phone": "+14134421007", "display_phone": "(413) 442-1007", "distance": 10767.36402421411}, {"id": "Vci641OhbgfuHGeRFPjT0g", "alias": "mcdonalds-north-adams", "name": "McDonald's", "image_url": "https://s3-media2.fl.yelpcdn.com/bphoto/bbSuMULzItulAx_v8FBI3w/o.jpg", "is_closed": false, "url": "https://www.yelp.com/biz/mcdonalds-north-adams?adjust_creative=h5HwbyQ0TYvQjBo6Ys5Bgw&utm_campaign=yelp_api_v3&utm_medium=api_v3_business_search&utm_source=h5HwbyQ0TYvQjBo6Ys5Bgw", "review_count": 3, "categories": [{"alias": "burgers", "title": "Burgers"}, {"alias": "hotdogs", "title": "Fast Food"}, {"alias": "coffee", "title": "Coffee & Tea"}], "rating": 1.0, "coordinates": {"latitude": 42.700652, "longitude": -73.1080252}, "transactions": [], "price": "$", "location": {"address1": "17 Union St", "address2": "", "address3": "", "city": "North Adams", "zip_code": "01247", "country": "US", "state": "MA", "display_address": ["17 Union St", "North Adams, MA 01247"]}, "phone": "+14136647272", "display_phone": "(413) 664-7272", "distance": 16121.410215105876}, {"id": "RSZ2RNa8ckSPTlLmpff1hw", "alias": "burger-king-pittsfield-2", "name": "Burger King", "image_url": "https://s3-media1.fl.yelpcdn.com/bphoto/YJuSy1BcNBWa1iw33Gc5QQ/o.jpg", "is_closed": false, "url": "https://www.yelp.com/biz/burger-king-pittsfield-2?adjust_creative=h5HwbyQ0TYvQjBo6Ys5Bgw&utm_campaign=yelp_api_v3&utm_medium=api_v3_business_search&utm_source=h5HwbyQ0TYvQjBo6Ys5Bgw", "review_count": 4, "categories": [{"alias": "burgers", "title": "Burgers"}, {"alias": "hotdogs", "title": "Fast Food"}], "rating": 2.5, "coordinates": {"latitude": 42.44886, "longitude": -73.25139}, "transactions": [], "price": "$", "location": {"address1": "29 First Street", "address2": "", "address3": "", "city": "Pittsfield", "zip_code": "01201", "country": "US", "state": "MA", "display_address": ["29 First Street", "Pittsfield, MA 01201"]}, "phone": "", "display_phone": "", "distance": 14905.565617144017}, {"id": "0PxpbEmiFrYpp37WeCyb5g", "alias": "subway-williamstown-8", "name": "Subway", "image_url": "https://s3-media3.fl.yelpcdn.com/bphoto/H04mpthybBZFeHrZUWecyQ/o.jpg", "is_closed": false, "url": "https://www.yelp.com/biz/subway-williamstown-8?adjust_creative=h5HwbyQ0TYvQjBo6Ys5Bgw&utm_campaign=yelp_api_v3&utm_medium=api_v3_business_search&utm_source=h5HwbyQ0TYvQjBo6Ys5Bgw", "review_count": 1, "categories": [{"alias": "sandwiches", "title": "Sandwiches"}], "rating": 1.0, "coordinates": {"latitude": 42.7048670617733, "longitude": -73.1884805757429}, "transactions": [], "price": "$", "location": {"address1": "384 Main St", "address2": null, "address3": null, "city": "Williamstown", "zip_code": "01267", "country": "US", "state": "MA", "display_address": ["384 Main St", "Williamstown, MA 01267"]}, "phone": "+14134587014", "display_phone": "(413) 458-7014", "distance": 16615.066322490802}, {"id": "F5RjLFPDJzWnN3fbL0-gDg", "alias": "mcdonalds-pittsfield-2", "name": "McDonald's", "image_url": "https://s3-media1.fl.yelpcdn.com/bphoto/GSTZvTKKW65XCBu70oor-w/o.jpg", "is_closed": false, "url": "https://www.yelp.com/biz/mcdonalds-pittsfield-2?adjust_creative=h5HwbyQ0TYvQjBo6Ys5Bgw&utm_campaign=yelp_api_v3&utm_medium=api_v3_business_search&utm_source=h5HwbyQ0TYvQjBo6Ys5Bgw", "review_count": 9, "categories": [{"alias": "burgers", "title": "Burgers"}, {"alias": "hotdogs", "title": "Fast Food"}, {"alias": "coffee", "title": "Coffee & Tea"}], "rating": 2.0, "coordinates": {"latitude": 42.442670060133, "longitude": -73.2749373774732}, "transactions": [], "price": "$", "location": {"address1": "445 W Housatonic St", "address2": "", "address3": "", "city": "Pittsfield", "zip_code": "01201", "country": "US", "state": "MA", "display_address": ["445 W Housatonic St", "Pittsfield, MA 01201"]}, "phone": "+14134424629", "display_phone": "(413) 442-4629", "distance": 16619.86563197758}, {"id": "qqA8YX58xnmEXLyanHfdUg", "alias": "stufd-food-truck-brooklyn", "name": "Stuf'd Food Truck", "image_url": "https://s3-media2.fl.yelpcdn.com/bphoto/_Wn0i-tLIOFinw8BPAqxPA/o.jpg", "is_closed": false, "url": "https://www.yelp.com/biz/stufd-food-truck-brooklyn?adjust_creative=h5HwbyQ0TYvQjBo6Ys5Bgw&utm_campaign=yelp_api_v3&utm_medium=api_v3_business_search&utm_source=h5HwbyQ0TYvQjBo6Ys5Bgw", "review_count": 4, "categories": [{"alias": "sandwiches", "title": "Sandwiches"}, {"alias": "foodtrucks", "title": "Food Trucks"}], "rating": 4.0, "coordinates": {"latitude": 40.7124539, "longitude": -73.9287374}, "transactions": [], "location": {"address1": "178 Varick Ave", "address2": "", "address3": null, "city": "Brooklyn", "zip_code": "11237", "country": "US", "state": "NY", "display_address": ["178 Varick Ave", "Brooklyn, NY 11237"]}, "phone": "+18457091808", "display_phone": "(845) 709-1808", "distance": 215314.29498782186}]