[{"id": "KvDsKP3pvTjryvkzyibs-Q", "alias": "cantina-229-new-marlborough", "name": "Cantina 229", "image_url": "https://s3-media3.fl.yelpcdn.com/bphoto/Hw1Rq3WEBuXL4bUR_0T4hQ/o.jpg", "is_closed": false, "url": "https://www.yelp.com/biz/cantina-229-new-marlborough?adjust_creative=ywY5UnLZrNrRl2b93Ruy_g&utm_campaign=yelp_api_v3&utm_medium=api_v3_business_search&utm_source=ywY5UnLZrNrRl2b93Ruy_g", "review_count": 54, "categories": [{"alias": "tapas", "title": "Tapas Bars"}, {"alias": "vegetarian", "title": "Vegetarian"}, {"alias": "asianfusion", "title": "Asian Fusion"}], "rating": 4.5, "coordinates": {"latitude": 42.123587790542, "longitude": -73.2348696057758}, "transactions": [], "price": "$$", "location": {"address1": "229 Hartsville New Marlboro Rd", "address2": "", "address3": null, "city": "New Marlborough", "zip_code": "01230", "country": "US", "state": "MA", "display_address": ["229 Hartsville New Marlboro Rd", "New Marlborough, MA 01230"]}, "phone": "+14132293276", "display_phone": "(413) 229-3276", "distance": 2527.7173048508516}, {"id": "k0cxsbUUhNq8ukwyKiuOug", "alias": "the-bridge-restaurant-sheffield", "name": "The Bridge Restaurant", "image_url": "https://s3-media2.fl.yelpcdn.com/bphoto/xJt0rNtMmqk6h2FdOQglYw/o.jpg", "is_closed": false, "url": "https://www.yelp.com/biz/the-bridge-restaurant-sheffield?adjust_creative=ywY5UnLZrNrRl2b93Ruy_g&utm_campaign=yelp_api_v3&utm_medium=api_v3_business_search&utm_source=ywY5UnLZrNrRl2b93Ruy_g", "review_count": 29, "categories": [{"alias": "tradamerican", "title": "American (Traditional)"}], "rating": 4.5, "coordinates": {"latitude": 42.123809, "longitude": -73.356906}, "transactions": [], "price": "$$", "location": {"address1": "650 N Main St", "address2": "", "address3": "", "city": "Sheffield", "zip_code": "01257", "country": "US", "state": "MA", "display_address": ["650 N Main St", "Sheffield, MA 01257"]}, "phone": "+14132299000", "display_phone": "(413) 229-9000", "distance": 7884.53966911126}, {"id": "DmetKxKYhXoqaI_R5DwyJQ", "alias": "gedney-farm-new-marlborough", "name": "Gedney Farm", "image_url": "https://s3-media2.fl.yelpcdn.com/bphoto/nLWn288VzwTefgTsWAeQfA/o.jpg", "is_closed": false, "url": "https://www.yelp.com/biz/gedney-farm-new-marlborough?adjust_creative=ywY5UnLZrNrRl2b93Ruy_g&utm_campaign=yelp_api_v3&utm_medium=api_v3_business_search&utm_source=ywY5UnLZrNrRl2b93Ruy_g", "review_count": 28, "categories": [{"alias": "venues", "title": "Venues & Event Spaces"}, {"alias": "vegetarian", "title": "Vegetarian"}, {"alias": "tradamerican", "title": "American (Traditional)"}], "rating": 4.0, "coordinates": {"latitude": 42.1218836220813, "longitude": -73.2255731630722}, "transactions": [], "price": "$$$", "location": {"address1": "34 Hartsville-New Marlboro Rd", "address2": "", "address3": "", "city": "New Marlborough", "zip_code": "01230", "country": "US", "state": "MA", "display_address": ["34 Hartsville-New Marlboro Rd", "New Marlborough, MA 01230"]}, "phone": "+14132293131", "display_phone": "(413) 229-3131", "distance": 3171.954374996228}, {"id": "8_7Jvr4OEO_rgf1M4V88FA", "alias": "tangier-cafe-great-barrington", "name": "Tangier Cafe", "image_url": "https://s3-media3.fl.yelpcdn.com/bphoto/UNqM8Toi2gUHfdFgLdYiZg/o.jpg", "is_closed": false, "url": "https://www.yelp.com/biz/tangier-cafe-great-barrington?adjust_creative=ywY5UnLZrNrRl2b93Ruy_g&utm_campaign=yelp_api_v3&utm_medium=api_v3_business_search&utm_source=ywY5UnLZrNrRl2b93Ruy_g", "review_count": 59, "categories": [{"alias": "moroccan", "title": "Moroccan"}, {"alias": "mediterranean", "title": "Mediterranean"}], "rating": 4.5, "coordinates": {"latitude": 42.1806406, "longitude": -73.3643966}, "transactions": [], "price": "$$", "location": {"address1": "286 Main St", "address2": "", "address3": null, "city": "Great Barrington", "zip_code": "01230", "country": "US", "state": "MA", "display_address": ["286 Main St", "Great Barrington, MA 01230"]}, "phone": "+14136453375", "display_phone": "(413) 645-3375", "distance": 11249.63063799984}, {"id": "BAJESGPWmLCLIpdMaiGUqA", "alias": "the-southfield-store-southfield", "name": "The Southfield Store", "image_url": "https://s3-media4.fl.yelpcdn.com/bphoto/s18dzfzxa4KvnnKwX7dqzw/o.jpg", "is_closed": false, "url": "https://www.yelp.com/biz/the-southfield-store-southfield?adjust_creative=ywY5UnLZrNrRl2b93Ruy_g&utm_campaign=yelp_api_v3&utm_medium=api_v3_business_search&utm_source=ywY5UnLZrNrRl2b93Ruy_g", "review_count": 40, "categories": [{"alias": "bakeries", "title": "Bakeries"}, {"alias": "coffee", "title": "Coffee & Tea"}, {"alias": "newamerican", "title": "American (New)"}], "rating": 3.5, "coordinates": {"latitude": 42.100691, "longitude": -73.233851}, "transactions": [], "price": "$$", "location": {"address1": "163 Norfolk Rd", "address2": null, "address3": null, "city": "Southfield", "zip_code": "01259", "country": "US", "state": "MA", "display_address": ["163 Norfolk Rd", "Southfield, MA 01259"]}, "phone": "+14132295050", "display_phone": "(413) 229-5050", "distance": 2753.3522289644243}, {"id": "CH05e_baAf7AkI94JPuWvg", "alias": "restaurants-old-inn-on-the-green-new-marlborough", "name": "Restaurants Old Inn On The Green", "image_url": "", "is_closed": false, "url": "https://www.yelp.com/biz/restaurants-old-inn-on-the-green-new-marlborough?adjust_creative=ywY5UnLZrNrRl2b93Ruy_g&utm_campaign=yelp_api_v3&utm_medium=api_v3_business_search&utm_source=ywY5UnLZrNrRl2b93Ruy_g", "review_count": 1, "categories": [{"alias": "coffee", "title": "Coffee & Tea"}, {"alias": "breakfast_brunch", "title": "Breakfast & Brunch"}, {"alias": "wine_bars", "title": "Wine Bars"}], "rating": 5.0, "coordinates": {"latitude": 42.122804, "longitude": -73.230522}, "transactions": [], "location": {"address1": "134 Hartsville-New Marlborough Rd", "address2": "", "address3": null, "city": "New Marlborough", "zip_code": "01230", "country": "US", "state": "MA", "display_address": ["134 Hartsville-New Marlborough Rd", "New Marlborough, MA 01230"]}, "phone": "+14132297924", "display_phone": "(413) 229-7924", "distance": 2821.9008185429216}, {"id": "HnQB5vTsco_llR1czcoCtA", "alias": "aroma-bar-and-grill-great-barrington", "name": "Aroma Bar & Grill", "image_url": "https://s3-media2.fl.yelpcdn.com/bphoto/R3WHX4K-ifdDrR6NI7h6pA/o.jpg", "is_closed": false, "url": "https://www.yelp.com/biz/aroma-bar-and-grill-great-barrington?adjust_creative=ywY5UnLZrNrRl2b93Ruy_g&utm_campaign=yelp_api_v3&utm_medium=api_v3_business_search&utm_source=ywY5UnLZrNrRl2b93Ruy_g", "review_count": 79, "categories": [{"alias": "indpak", "title": "Indian"}], "rating": 4.0, "coordinates": {"latitude": 42.1887550354004, "longitude": -73.3641128540039}, "transactions": [], "price": "$$", "location": {"address1": "485 Main St", "address2": "", "address3": "", "city": "Great Barrington", "zip_code": "01230", "country": "US", "state": "MA", "display_address": ["485 Main St", "Great Barrington, MA 01230"]}, "phone": "+14135283116", "display_phone": "(413) 528-3116", "distance": 11854.526399902092}, {"id": "zYfLzClfWhxKE9wWRaDXfA", "alias": "roadside-store-and-cafe-monterey", "name": "Roadside Store & Cafe", "image_url": "https://s3-media4.fl.yelpcdn.com/bphoto/74glu4fj8UUTK6suaeBTBg/o.jpg", "is_closed": false, "url": "https://www.yelp.com/biz/roadside-store-and-cafe-monterey?adjust_creative=ywY5UnLZrNrRl2b93Ruy_g&utm_campaign=yelp_api_v3&utm_medium=api_v3_business_search&utm_source=ywY5UnLZrNrRl2b93Ruy_g", "review_count": 16, "categories": [{"alias": "breakfast_brunch", "title": "Breakfast & Brunch"}], "rating": 4.5, "coordinates": {"latitude": 42.18406, "longitude": -73.24207}, "transactions": [], "price": "$", "location": {"address1": "275 Main Rd", "address2": null, "address3": "", "city": "Monterey", "zip_code": "01245", "country": "US", "state": "MA", "display_address": ["275 Main Rd", "Monterey, MA 01245"]}, "phone": "+14135282633", "display_phone": "(413) 528-2633", "distance": 7989.911430092571}, {"id": "TlSjI37wmBlYf2rQg8S5Rg", "alias": "the-marketplace-cafe-sheffield-2", "name": "The Marketplace Cafe", "image_url": "https://s3-media1.fl.yelpcdn.com/bphoto/64u1i13Jxs1E2T9MKbo9bw/o.jpg", "is_closed": false, "url": "https://www.yelp.com/biz/the-marketplace-cafe-sheffield-2?adjust_creative=ywY5UnLZrNrRl2b93Ruy_g&utm_campaign=yelp_api_v3&utm_medium=api_v3_business_search&utm_source=ywY5UnLZrNrRl2b93Ruy_g", "review_count": 33, "categories": [{"alias": "coffee", "title": "Coffee & Tea"}, {"alias": "sandwiches", "title": "Sandwiches"}, {"alias": "cafes", "title": "Cafes"}], "rating": 4.0, "coordinates": {"latitude": 42.109022, "longitude": -73.353077}, "transactions": [], "price": "$", "location": {"address1": "18 Elm Ct", "address2": "", "address3": "", "city": "Sheffield", "zip_code": "01257", "country": "US", "state": "MA", "display_address": ["18 Elm Ct", "Sheffield, MA 01257"]}, "phone": "+14132485040", "display_phone": "(413) 248-5040", "distance": 7502.217827697477}, {"id": "3w4KYQPWvG4yCCo2aEqb_g", "alias": "snack-shack-canaan", "name": "Snack Shack", "image_url": "https://s3-media4.fl.yelpcdn.com/bphoto/cyThE8zucNhvltmLxW3WYg/o.jpg", "is_closed": false, "url": "https://www.yelp.com/biz/snack-shack-canaan?adjust_creative=ywY5UnLZrNrRl2b93Ruy_g&utm_campaign=yelp_api_v3&utm_medium=api_v3_business_search&utm_source=ywY5UnLZrNrRl2b93Ruy_g", "review_count": 3, "categories": [{"alias": "hotdogs", "title": "Fast Food"}], "rating": 4.5, "coordinates": {"latitude": 42.0389642379813, "longitude": -73.3257486093574}, "transactions": [], "price": "$", "location": {"address1": "350 Ashley Falls Rd", "address2": "", "address3": "", "city": "Canaan", "zip_code": "06018", "country": "US", "state": "CT", "display_address": ["350 Ashley Falls Rd", "Canaan, CT 06018"]}, "phone": "+18608247072", "display_phone": "(860) 824-7072", "distance": 9761.879640149802}, {"id": "FDiWZLRey6JFsfpIsH_zMw", "alias": "the-bistro-box-great-barrington", "name": "The Bistro Box", "image_url": "https://s3-media1.fl.yelpcdn.com/bphoto/HdQUOZ1w4Jro22ydZv8RtA/o.jpg", "is_closed": false, "url": "https://www.yelp.com/biz/the-bistro-box-great-barrington?adjust_creative=ywY5UnLZrNrRl2b93Ruy_g&utm_campaign=yelp_api_v3&utm_medium=api_v3_business_search&utm_source=ywY5UnLZrNrRl2b93Ruy_g", "review_count": 116, "categories": [{"alias": "tradamerican", "title": "American (Traditional)"}, {"alias": "hotdog", "title": "Hot Dogs"}, {"alias": "sandwiches", "title": "Sandwiches"}], "rating": 4.5, "coordinates": {"latitude": 42.1716496245439, "longitude": -73.3629432694792}, "transactions": [], "price": "$$", "location": {"address1": "937 S Main St", "address2": "", "address3": "", "city": "Great Barrington", "zip_code": "01230", "country": "US", "state": "MA", "display_address": ["937 S Main St", "Great Barrington, MA 01230"]}, "phone": "+14137175958", "display_phone": "(413) 717-5958", "distance": 10518.191558041995}, {"id": "uLICLItueUSsjmFzRCHhSA", "alias": "bizalions-fine-food-great-barrington-2", "name": "Bizalion's Fine Food", "image_url": "https://s3-media2.fl.yelpcdn.com/bphoto/Hoy_yb5pAlIMEnjCJUQnzQ/o.jpg", "is_closed": false, "url": "https://www.yelp.com/biz/bizalions-fine-food-great-barrington-2?adjust_creative=ywY5UnLZrNrRl2b93Ruy_g&utm_campaign=yelp_api_v3&utm_medium=api_v3_business_search&utm_source=ywY5UnLZrNrRl2b93Ruy_g", "review_count": 22, "categories": [{"alias": "oliveoil", "title": "Olive Oil"}, {"alias": "breakfast_brunch", "title": "Breakfast & Brunch"}], "rating": 4.0, "coordinates": {"latitude": 42.1820817, "longitude": -73.3646342}, "transactions": [], "price": "$$", "location": {"address1": "684 Main St", "address2": "Ste 3", "address3": null, "city": "Great Barrington", "zip_code": "01230", "country": "US", "state": "MA", "display_address": ["684 Main St", "Ste 3", "Great Barrington, MA 01230"]}, "phone": "+14136449988", "display_phone": "(413) 644-9988", "distance": 11371.066794640577}, {"id": "ai6kbJz0ECGc0-VvZ4i1vQ", "alias": "bogies-restaurant-and-pub-great-barrington", "name": "Bogies Restaurant & Pub", "image_url": "https://s3-media2.fl.yelpcdn.com/bphoto/Va91vXZ_pilW2wPpvNCbwg/o.jpg", "is_closed": false, "url": "https://www.yelp.com/biz/bogies-restaurant-and-pub-great-barrington?adjust_creative=ywY5UnLZrNrRl2b93Ruy_g&utm_campaign=yelp_api_v3&utm_medium=api_v3_business_search&utm_source=ywY5UnLZrNrRl2b93Ruy_g", "review_count": 18, "categories": [{"alias": "newamerican", "title": "American (New)"}, {"alias": "pubs", "title": "Pubs"}, {"alias": "beer_and_wine", "title": "Beer, Wine & Spirits"}], "rating": 3.0, "coordinates": {"latitude": 42.1704012, "longitude": -73.3633348}, "transactions": [], "price": "$$", "location": {"address1": "935 S Main St", "address2": "", "address3": "", "city": "Great Barrington", "zip_code": "01230", "country": "US", "state": "MA", "display_address": ["935 S Main St", "Great Barrington, MA 01230"]}, "phone": "+14135285959", "display_phone": "(413) 528-5959", "distance": 10459.169839589335}, {"id": "wdSZnN7k6IIAMxNER-VW1A", "alias": "blue-door-market-and-cafe-sheffield", "name": "Blue Door Market & Cafe", "image_url": "https://s3-media1.fl.yelpcdn.com/bphoto/TjHtEWR5YNtrzhZyyzjEeg/o.jpg", "is_closed": false, "url": "https://www.yelp.com/biz/blue-door-market-and-cafe-sheffield?adjust_creative=ywY5UnLZrNrRl2b93Ruy_g&utm_campaign=yelp_api_v3&utm_medium=api_v3_business_search&utm_source=ywY5UnLZrNrRl2b93Ruy_g", "review_count": 8, "categories": [{"alias": "beer_and_wine", "title": "Beer, Wine & Spirits"}, {"alias": "breakfast_brunch", "title": "Breakfast & Brunch"}, {"alias": "sandwiches", "title": "Sandwiches"}], "rating": 3.5, "coordinates": {"latitude": 42.103159, "longitude": -73.3546993779793}, "transactions": [], "price": "$", "location": {"address1": "139 S Main St", "address2": null, "address3": "", "city": "Sheffield", "zip_code": "01257", "country": "US", "state": "MA", "display_address": ["139 S Main St", "Sheffield, MA 01257"]}, "phone": "+14132481223", "display_phone": "(413) 248-1223", "distance": 7706.069375518031}, {"id": "_aUXLzG6bvsUaBDL96pK7A", "alias": "great-barrington-bagel-company-great-barrington", "name": "Great Barrington Bagel Company", "image_url": "https://s3-media1.fl.yelpcdn.com/bphoto/uN63PmQ0-fG-mjeu5xc6XQ/o.jpg", "is_closed": false, "url": "https://www.yelp.com/biz/great-barrington-bagel-company-great-barrington?adjust_creative=ywY5UnLZrNrRl2b93Ruy_g&utm_campaign=yelp_api_v3&utm_medium=api_v3_business_search&utm_source=ywY5UnLZrNrRl2b93Ruy_g", "review_count": 76, "categories": [{"alias": "sandwiches", "title": "Sandwiches"}, {"alias": "delis", "title": "Delis"}, {"alias": "breakfast_brunch", "title": "Breakfast & Brunch"}], "rating": 4.5, "coordinates": {"latitude": 42.179534, "longitude": -73.363002}, "transactions": [], "price": "$", "location": {"address1": "777 Main St", "address2": "", "address3": "", "city": "Great Barrington", "zip_code": "01230", "country": "US", "state": "MA", "display_address": ["777 Main St", "Great Barrington, MA 01230"]}, "phone": "+14135289055", "display_phone": "(413) 528-9055", "distance": 11082.028376742985}, {"id": "C4OiIXuNN6PbCq8gaMyc1Q", "alias": "papas-best-batch-red-hook", "name": "Papa's Best Batch", "image_url": "https://s3-media2.fl.yelpcdn.com/bphoto/TP_X6t_lwfuT-1MI915hhA/o.jpg", "is_closed": false, "url": "https://www.yelp.com/biz/papas-best-batch-red-hook?adjust_creative=ywY5UnLZrNrRl2b93Ruy_g&utm_campaign=yelp_api_v3&utm_medium=api_v3_business_search&utm_source=ywY5UnLZrNrRl2b93Ruy_g", "review_count": 44, "categories": [{"alias": "bbq", "title": "Barbeque"}, {"alias": "foodtrucks", "title": "Food Trucks"}], "rating": 5.0, "coordinates": {"latitude": 42.028686, "longitude": -73.852675}, "transactions": [], "price": "$$", "location": {"address1": "243 Pitcher Ln", "address2": "", "address3": "Greig Farm", "city": "Red Hook", "zip_code": "12571", "country": "US", "state": "NY", "display_address": ["243 Pitcher Ln", "Greig Farm", "Red Hook, NY 12571"]}, "phone": "+19143885202", "display_phone": "(914) 388-5202", "distance": 49632.012307356184}, {"id": "qqA8YX58xnmEXLyanHfdUg", "alias": "stufd-food-truck-brooklyn", "name": "Stuf'd Food Truck", "image_url": "https://s3-media2.fl.yelpcdn.com/bphoto/_Wn0i-tLIOFinw8BPAqxPA/o.jpg", "is_closed": false, "url": "https://www.yelp.com/biz/stufd-food-truck-brooklyn?adjust_creative=ywY5UnLZrNrRl2b93Ruy_g&utm_campaign=yelp_api_v3&utm_medium=api_v3_business_search&utm_source=ywY5UnLZrNrRl2b93Ruy_g", "review_count": 4, "categories": [{"alias": "sandwiches", "title": "Sandwiches"}, {"alias": "foodtrucks", "title": "Food Trucks"}], "rating": 4.0, "coordinates": {"latitude": 40.7124539, "longitude": -73.9287374}, "transactions": [], "location": {"address1": "178 Varick Ave", "address2": "", "address3": null, "city": "Brooklyn", "zip_code": "11237", "country": "US", "state": "NY", "display_address": ["178 Varick Ave", "Brooklyn, NY 11237"]}, "phone": "+18457091808", "display_phone": "(845) 709-1808", "distance": 165402.04842985288}]