[{"id": "gLsN78yTskhjpdHMa6HA3A", "alias": "ice-house-pub-barre", "name": "Ice House Pub", "image_url": "https://s3-media1.fl.yelpcdn.com/bphoto/lnDcvFdVS6GZoOB7_uRaqg/o.jpg", "is_closed": false, "url": "https://www.yelp.com/biz/ice-house-pub-barre?adjust_creative=ywY5UnLZrNrRl2b93Ruy_g&utm_campaign=yelp_api_v3&utm_medium=api_v3_business_search&utm_source=ywY5UnLZrNrRl2b93Ruy_g", "review_count": 41, "categories": [{"alias": "gastropubs", "title": "Gastropubs"}, {"alias": "newamerican", "title": "American (New)"}], "rating": 4.0, "coordinates": {"latitude": 42.4090505140105, "longitude": -72.0973576462425}, "transactions": [], "location": {"address1": "7 Worcester Rd", "address2": "", "address3": null, "city": "Barre", "zip_code": "01005", "country": "US", "state": "MA", "display_address": ["7 Worcester Rd", "Barre, MA 01005"]}, "phone": "+19783553000", "display_phone": "(978) 355-3000", "distance": 10973.06254593973}, {"id": "mrnvGU8_BnE6uHKHEG5XYg", "alias": "picasso-restaurant-and-bar-barre", "name": "Picasso Restaurant & Bar", "image_url": "https://s3-media1.fl.yelpcdn.com/bphoto/osSGSQKk7zlNJaKO6gbqtg/o.jpg", "is_closed": false, "url": "https://www.yelp.com/biz/picasso-restaurant-and-bar-barre?adjust_creative=ywY5UnLZrNrRl2b93Ruy_g&utm_campaign=yelp_api_v3&utm_medium=api_v3_business_search&utm_source=ywY5UnLZrNrRl2b93Ruy_g", "review_count": 47, "categories": [{"alias": "newamerican", "title": "American (New)"}, {"alias": "seafood", "title": "Seafood"}], "rating": 4.5, "coordinates": {"latitude": 42.42277, "longitude": -72.1061299}, "transactions": [], "price": "$$", "location": {"address1": "2 Common St", "address2": null, "address3": "", "city": "Barre", "zip_code": "01005", "country": "US", "state": "MA", "display_address": ["2 Common St", "Barre, MA 01005"]}, "phone": "+19783553099", "display_phone": "(978) 355-3099", "distance": 10397.045781463221}, {"id": "bSTIM0u6sZuMmS6GX0mTqA", "alias": "stone-cow-brewery-barre", "name": "Stone Cow Brewery", "image_url": "https://s3-media2.fl.yelpcdn.com/bphoto/jMxZg8Vqw33_6aBMFZElCQ/o.jpg", "is_closed": false, "url": "https://www.yelp.com/biz/stone-cow-brewery-barre?adjust_creative=ywY5UnLZrNrRl2b93Ruy_g&utm_campaign=yelp_api_v3&utm_medium=api_v3_business_search&utm_source=ywY5UnLZrNrRl2b93Ruy_g", "review_count": 67, "categories": [{"alias": "breweries", "title": "Breweries"}, {"alias": "tradamerican", "title": "American (Traditional)"}], "rating": 4.5, "coordinates": {"latitude": 42.4247357, "longitude": -72.1242577}, "transactions": [], "price": "$", "location": {"address1": "500 West St", "address2": "Ste B", "address3": null, "city": "Barre", "zip_code": "01005", "country": "US", "state": "MA", "display_address": ["500 West St", "Ste B", "Barre, MA 01005"]}, "phone": "+19782578600", "display_phone": "(978) 257-8600", "distance": 11446.749371092705}, {"id": "i6J8CBgNw1t6rF2RR1B2uw", "alias": "pizza-palace-hubbardston", "name": "Pizza Palace", "image_url": "https://s3-media2.fl.yelpcdn.com/bphoto/8-977kXHTOlx3iDg8iVzkA/o.jpg", "is_closed": false, "url": "https://www.yelp.com/biz/pizza-palace-hubbardston?adjust_creative=ywY5UnLZrNrRl2b93Ruy_g&utm_campaign=yelp_api_v3&utm_medium=api_v3_business_search&utm_source=ywY5UnLZrNrRl2b93Ruy_g", "review_count": 19, "categories": [{"alias": "pizza", "title": "Pizza"}], "rating": 4.5, "coordinates": {"latitude": 42.490675, "longitude": -72.013496}, "transactions": [], "price": "$$", "location": {"address1": "53 Gardner Rd", "address2": null, "address3": null, "city": "Hubbardston", "zip_code": "01452", "country": "US", "state": "MA", "display_address": ["53 Gardner Rd", "Hubbardston, MA 01452"]}, "phone": "+19789285454", "display_phone": "(978) 928-5454", "distance": 830.247059078618}, {"id": "xd-G4ijhAy3m3UUwecSF8w", "alias": "albatross-westminster", "name": "Albatross", "image_url": "https://s3-media2.fl.yelpcdn.com/bphoto/zOECZh7kMbmGuuFDpk4NEg/o.jpg", "is_closed": false, "url": "https://www.yelp.com/biz/albatross-westminster?adjust_creative=ywY5UnLZrNrRl2b93Ruy_g&utm_campaign=yelp_api_v3&utm_medium=api_v3_business_search&utm_source=ywY5UnLZrNrRl2b93Ruy_g", "review_count": 5, "categories": [{"alias": "newamerican", "title": "American (New)"}, {"alias": "breakfast_brunch", "title": "Breakfast & Brunch"}, {"alias": "bars", "title": "Bars"}], "rating": 5.0, "coordinates": {"latitude": 42.54569, "longitude": -71.93143}, "transactions": [], "location": {"address1": "51 Ellis Rd", "address2": null, "address3": "", "city": "Westminster", "zip_code": "01473", "country": "US", "state": "MA", "display_address": ["51 Ellis Rd", "Westminster, MA 01473"]}, "phone": "+19788745900", "display_phone": "(978) 874-5900", "distance": 9242.431032239023}, {"id": "HKyN2UJvkakOCblSOKQLUQ", "alias": "gardner-ale-house-gardner-2", "name": "Gardner Ale House", "image_url": "https://s3-media2.fl.yelpcdn.com/bphoto/6DhrQB5Hr_Z6hj-dZTN0hw/o.jpg", "is_closed": false, "url": "https://www.yelp.com/biz/gardner-ale-house-gardner-2?adjust_creative=ywY5UnLZrNrRl2b93Ruy_g&utm_campaign=yelp_api_v3&utm_medium=api_v3_business_search&utm_source=ywY5UnLZrNrRl2b93Ruy_g", "review_count": 274, "categories": [{"alias": "pubs", "title": "Pubs"}, {"alias": "tradamerican", "title": "American (Traditional)"}, {"alias": "brewpubs", "title": "Brewpubs"}], "rating": 4.0, "coordinates": {"latitude": 42.575771, "longitude": -71.997131}, "transactions": [], "price": "$$", "location": {"address1": "74 Parker St", "address2": "", "address3": "", "city": "Gardner", "zip_code": "01440", "country": "US", "state": "MA", "display_address": ["74 Parker St", "Gardner, MA 01440"]}, "phone": "+19786690122", "display_phone": "(978) 669-0122", "distance": 10291.196143909137}, {"id": "CFccQR7Fys9NkmeoWLid2Q", "alias": "darios-ristorante-fitchburg", "name": "Dario's Ristorante", "image_url": "https://s3-media1.fl.yelpcdn.com/bphoto/KB-KWcABs1cgWXKNSELT2A/o.jpg", "is_closed": false, "url": "https://www.yelp.com/biz/darios-ristorante-fitchburg?adjust_creative=ywY5UnLZrNrRl2b93Ruy_g&utm_campaign=yelp_api_v3&utm_medium=api_v3_business_search&utm_source=ywY5UnLZrNrRl2b93Ruy_g", "review_count": 45, "categories": [{"alias": "italian", "title": "Italian"}], "rating": 5.0, "coordinates": {"latitude": 42.5849594353718, "longitude": -71.8148773536086}, "transactions": ["delivery"], "price": "$$", "location": {"address1": "187 River St", "address2": "", "address3": "", "city": "Fitchburg", "zip_code": "01420", "country": "US", "state": "MA", "display_address": ["187 River St", "Fitchburg, MA 01420"]}, "phone": "+19786273974", "display_phone": "(978) 627-3974", "distance": 19547.137560278814}, {"id": "nfeb9YXVrPx1cJOlgOHDNA", "alias": "the-1761-old-mill-westminster", "name": "The 1761 Old Mill", "image_url": "https://s3-media2.fl.yelpcdn.com/bphoto/tdAVI4Xm0xA_WaHWSMPWfQ/o.jpg", "is_closed": false, "url": "https://www.yelp.com/biz/the-1761-old-mill-westminster?adjust_creative=ywY5UnLZrNrRl2b93Ruy_g&utm_campaign=yelp_api_v3&utm_medium=api_v3_business_search&utm_source=ywY5UnLZrNrRl2b93Ruy_g", "review_count": 204, "categories": [{"alias": "tradamerican", "title": "American (Traditional)"}], "rating": 3.5, "coordinates": {"latitude": 42.549262, "longitude": -71.885783}, "transactions": [], "price": "$$", "location": {"address1": "69 State Rd E", "address2": null, "address3": "", "city": "Westminster", "zip_code": "01473", "country": "US", "state": "MA", "display_address": ["69 State Rd E", "Westminster, MA 01473"]}, "phone": "+19788745941", "display_phone": "(978) 874-5941", "distance": 12497.572323588302}, {"id": "mOPZj9Wrah-t79pwsqip6A", "alias": "mountain-barn-princeton", "name": "Mountain Barn", "image_url": "https://s3-media2.fl.yelpcdn.com/bphoto/_IKvWMHrRaNOi8i7frqdFA/o.jpg", "is_closed": false, "url": "https://www.yelp.com/biz/mountain-barn-princeton?adjust_creative=ywY5UnLZrNrRl2b93Ruy_g&utm_campaign=yelp_api_v3&utm_medium=api_v3_business_search&utm_source=ywY5UnLZrNrRl2b93Ruy_g", "review_count": 80, "categories": [{"alias": "tradamerican", "title": "American (Traditional)"}, {"alias": "salad", "title": "Salad"}, {"alias": "seafood", "title": "Seafood"}], "rating": 3.5, "coordinates": {"latitude": 42.425731, "longitude": -71.878366}, "transactions": [], "price": "$$", "location": {"address1": "174 Worcester Rd", "address2": "", "address3": "", "city": "Princeton", "zip_code": "01541", "country": "US", "state": "MA", "display_address": ["174 Worcester Rd", "Princeton, MA 01541"]}, "phone": "+19784642044", "display_phone": "(978) 464-2044", "distance": 12576.230660649513}, {"id": "DOw6h_K6tTafiWgR2bSufg", "alias": "hubb-town-diner-hubbardston", "name": "Hubb Town Diner", "image_url": "https://s3-media3.fl.yelpcdn.com/bphoto/Oaec6pAdS2SoUdRTyIIzAA/o.jpg", "is_closed": false, "url": "https://www.yelp.com/biz/hubb-town-diner-hubbardston?adjust_creative=ywY5UnLZrNrRl2b93Ruy_g&utm_campaign=yelp_api_v3&utm_medium=api_v3_business_search&utm_source=ywY5UnLZrNrRl2b93Ruy_g", "review_count": 10, "categories": [{"alias": "breakfast_brunch", "title": "Breakfast & Brunch"}, {"alias": "diners", "title": "Diners"}, {"alias": "sandwiches", "title": "Sandwiches"}], "rating": 3.5, "coordinates": {"latitude": 42.4781684875488, "longitude": -72.0094299316406}, "transactions": [], "price": "$$", "location": {"address1": "32 Main St", "address2": null, "address3": "", "city": "Hubbardston", "zip_code": "01452", "country": "US", "state": "MA", "display_address": ["32 Main St", "Hubbardston, MA 01452"]}, "phone": "+19788201600", "display_phone": "(978) 820-1600", "distance": 646.5983241639782}, {"id": "i8CP0pPlUwa4C_e0Zt3jSw", "alias": "center-tree-bar-and-grill-rutland", "name": "Center Tree Bar & Grill", "image_url": "https://s3-media2.fl.yelpcdn.com/bphoto/hLWERM_f_iYmU1Yv_npqYw/o.jpg", "is_closed": false, "url": "https://www.yelp.com/biz/center-tree-bar-and-grill-rutland?adjust_creative=ywY5UnLZrNrRl2b93Ruy_g&utm_campaign=yelp_api_v3&utm_medium=api_v3_business_search&utm_source=ywY5UnLZrNrRl2b93Ruy_g", "review_count": 14, "categories": [{"alias": "bars", "title": "Bars"}, {"alias": "tradamerican", "title": "American (Traditional)"}, {"alias": "pizza", "title": "Pizza"}], "rating": 4.0, "coordinates": {"latitude": 42.3759484186041, "longitude": -71.9545865803957}, "transactions": [], "location": {"address1": "249 Main St", "address2": "", "address3": null, "city": "Rutland", "zip_code": "01543", "country": "US", "state": "MA", "display_address": ["249 Main St", "Rutland, MA 01543"]}, "phone": "+17742340234", "display_phone": "(774) 234-0234", "distance": 12812.137175931588}, {"id": "wzs8aDcYZyAWOWghMoaGzw", "alias": "angler-fish-market-and-chowder-westminster-2", "name": "Angler Fish Market & Chowder", "image_url": "https://s3-media1.fl.yelpcdn.com/bphoto/rhCv_g0tD3O4VI19oGcsKA/o.jpg", "is_closed": false, "url": "https://www.yelp.com/biz/angler-fish-market-and-chowder-westminster-2?adjust_creative=ywY5UnLZrNrRl2b93Ruy_g&utm_campaign=yelp_api_v3&utm_medium=api_v3_business_search&utm_source=ywY5UnLZrNrRl2b93Ruy_g", "review_count": 105, "categories": [{"alias": "seafoodmarkets", "title": "Seafood Markets"}, {"alias": "seafood", "title": "Seafood"}], "rating": 4.0, "coordinates": {"latitude": 42.545545, "longitude": -71.914566}, "transactions": ["delivery", "pickup"], "price": "$$", "location": {"address1": "1 Village Sq", "address2": null, "address3": null, "city": "Westminster", "zip_code": "01473", "country": "US", "state": "MA", "display_address": ["1 Village Sq", "Westminster, MA 01473"]}, "phone": "+19788742202", "display_phone": "(978) 874-2202", "distance": 10408.293230661191}, {"id": "jTPPscieN_KRrwxq3Cvoxg", "alias": "sawa-asian-bistro-gardner", "name": "Sawa Asian Bistro", "image_url": "https://s3-media3.fl.yelpcdn.com/bphoto/6OeCkKRnF5CX73drFhHyaw/o.jpg", "is_closed": false, "url": "https://www.yelp.com/biz/sawa-asian-bistro-gardner?adjust_creative=ywY5UnLZrNrRl2b93Ruy_g&utm_campaign=yelp_api_v3&utm_medium=api_v3_business_search&utm_source=ywY5UnLZrNrRl2b93Ruy_g", "review_count": 76, "categories": [{"alias": "asianfusion", "title": "Asian Fusion"}], "rating": 3.5, "coordinates": {"latitude": 42.559041712705, "longitude": -71.989148206288}, "transactions": ["pickup"], "price": "$$", "location": {"address1": "360 Timpany Blvd", "address2": "", "address3": "", "city": "Gardner", "zip_code": "01440", "country": "US", "state": "MA", "display_address": ["360 Timpany Blvd", "Gardner, MA 01440"]}, "phone": "+19786323888", "display_phone": "(978) 632-3888", "distance": 8548.435682150695}, {"id": "t7FbgEITiEReUrTte9mJiw", "alias": "clamber-hill-inn-and-restaurant-petersham-2", "name": "Clamber Hill Inn & Restaurant", "image_url": "https://s3-media1.fl.yelpcdn.com/bphoto/7rAzCt1SCY2BB_WPoLwT_g/o.jpg", "is_closed": false, "url": "https://www.yelp.com/biz/clamber-hill-inn-and-restaurant-petersham-2?adjust_creative=ywY5UnLZrNrRl2b93Ruy_g&utm_campaign=yelp_api_v3&utm_medium=api_v3_business_search&utm_source=ywY5UnLZrNrRl2b93Ruy_g", "review_count": 11, "categories": [{"alias": "tradamerican", "title": "American (Traditional)"}, {"alias": "whiskeybars", "title": "Whiskey Bars"}, {"alias": "winetasteclasses", "title": "Wine Tasting Classes"}], "rating": 4.0, "coordinates": {"latitude": 42.5031579313361, "longitude": -72.1865090608826}, "transactions": [], "price": "$$$", "location": {"address1": "111 N Main St", "address2": "", "address3": "", "city": "Petersham", "zip_code": "01366", "country": "US", "state": "MA", "display_address": ["111 N Main St", "Petersham, MA 01366"]}, "phone": "+19787248800", "display_phone": "(978) 724-8800", "distance": 14641.95008878325}, {"id": "J2AP-MgjxbhBr9ibXVvqWg", "alias": "harvest-grille-holden-2", "name": "Harvest Grille", "image_url": "https://s3-media2.fl.yelpcdn.com/bphoto/zSndpBCFSDAIuoVig4H4Gw/o.jpg", "is_closed": false, "url": "https://www.yelp.com/biz/harvest-grille-holden-2?adjust_creative=ywY5UnLZrNrRl2b93Ruy_g&utm_campaign=yelp_api_v3&utm_medium=api_v3_business_search&utm_source=ywY5UnLZrNrRl2b93Ruy_g", "review_count": 48, "categories": [{"alias": "seafood", "title": "Seafood"}, {"alias": "steak", "title": "Steakhouses"}, {"alias": "vegetarian", "title": "Vegetarian"}], "rating": 3.5, "coordinates": {"latitude": 42.3601057, "longitude": -71.8819848}, "transactions": [], "price": "$$", "location": {"address1": "1 Princeton St", "address2": "", "address3": "", "city": "Holden", "zip_code": "01522", "country": "US", "state": "MA", "display_address": ["1 Princeton St", "Holden, MA 01522"]}, "phone": "+17743454058", "display_phone": "(774) 345-4058", "distance": 17294.234337386497}, {"id": "G_PPROO9ccur-m-GWzbZmA", "alias": "quabbin-woods-restaurant-petersham", "name": "Quabbin Woods Restaurant", "image_url": "https://s3-media3.fl.yelpcdn.com/bphoto/w6hsjy3EUcuAd17n0h42Eg/o.jpg", "is_closed": false, "url": "https://www.yelp.com/biz/quabbin-woods-restaurant-petersham?adjust_creative=ywY5UnLZrNrRl2b93Ruy_g&utm_campaign=yelp_api_v3&utm_medium=api_v3_business_search&utm_source=ywY5UnLZrNrRl2b93Ruy_g", "review_count": 15, "categories": [{"alias": "newamerican", "title": "American (New)"}, {"alias": "comfortfood", "title": "Comfort Food"}, {"alias": "burgers", "title": "Burgers"}], "rating": 4.0, "coordinates": {"latitude": 42.481931, "longitude": -72.183534}, "transactions": [], "price": "$", "location": {"address1": "8 Barre Rd", "address2": "Ste RT", "address3": "", "city": "Petersham", "zip_code": "01366", "country": "US", "state": "MA", "display_address": ["8 Barre Rd", "Ste RT", "Petersham, MA 01366"]}, "phone": "+19787243288", "display_phone": "(978) 724-3288", "distance": 14241.03452379779}, {"id": "XNhx5nEGbXKE4k0xXLijbw", "alias": "110-grill-athol", "name": "110 Grill", "image_url": "https://s3-media3.fl.yelpcdn.com/bphoto/_HxS-NfOJAqo0PFSUoOUxQ/o.jpg", "is_closed": false, "url": "https://www.yelp.com/biz/110-grill-athol?adjust_creative=ywY5UnLZrNrRl2b93Ruy_g&utm_campaign=yelp_api_v3&utm_medium=api_v3_business_search&utm_source=ywY5UnLZrNrRl2b93Ruy_g", "review_count": 57, "categories": [{"alias": "newamerican", "title": "American (New)"}, {"alias": "tradamerican", "title": "American (Traditional)"}, {"alias": "bars", "title": "Bars"}], "rating": 4.0, "coordinates": {"latitude": 42.580767, "longitude": -72.187031}, "transactions": [], "price": "$$", "location": {"address1": "307 Market Dr", "address2": null, "address3": "", "city": "Athol", "zip_code": "01331", "country": "US", "state": "MA", "display_address": ["307 Market Dr", "Athol, MA 01331"]}, "phone": "+19788304601", "display_phone": "(978) 830-4601", "distance": 18088.2200367751}, {"id": "7x3ahfSXy7WIbiyTWXP9Ow", "alias": "blueprint-american-bar-and-grille-westminster", "name": "Blueprint American Bar And Grille", "image_url": "https://s3-media1.fl.yelpcdn.com/bphoto/RZ-2SoH1vHklaszInf0x_w/o.jpg", "is_closed": false, "url": "https://www.yelp.com/biz/blueprint-american-bar-and-grille-westminster?adjust_creative=ywY5UnLZrNrRl2b93Ruy_g&utm_campaign=yelp_api_v3&utm_medium=api_v3_business_search&utm_source=ywY5UnLZrNrRl2b93Ruy_g", "review_count": 84, "categories": [{"alias": "newamerican", "title": "American (New)"}, {"alias": "bars", "title": "Bars"}], "rating": 3.5, "coordinates": {"latitude": 42.5457633862712, "longitude": -71.9147932863456}, "transactions": [], "price": "$$", "location": {"address1": "10 Village Square", "address2": "", "address3": null, "city": "Westminster", "zip_code": "01473", "country": "US", "state": "MA", "display_address": ["10 Village Square", "Westminster, MA 01473"]}, "phone": "+19786685580", "display_phone": "(978) 668-5580", "distance": 10410.389016096791}, {"id": "X1f94OPNrELeVRueMhpRuA", "alias": "the-local-tavern-holden", "name": "The Local Tavern", "image_url": "https://s3-media3.fl.yelpcdn.com/bphoto/G02bBcA5YVf0dW_J8QA4ZQ/o.jpg", "is_closed": false, "url": "https://www.yelp.com/biz/the-local-tavern-holden?adjust_creative=ywY5UnLZrNrRl2b93Ruy_g&utm_campaign=yelp_api_v3&utm_medium=api_v3_business_search&utm_source=ywY5UnLZrNrRl2b93Ruy_g", "review_count": 15, "categories": [{"alias": "gastropubs", "title": "Gastropubs"}], "rating": 4.0, "coordinates": {"latitude": 42.340056, "longitude": -71.838304}, "transactions": ["delivery"], "location": {"address1": "680 Main St", "address2": "", "address3": null, "city": "Holden", "zip_code": "01520", "country": "US", "state": "MA", "display_address": ["680 Main St", "Holden, MA 01520"]}, "phone": "+15088293008", "display_phone": "(508) 829-3008", "distance": 21296.417631610777}, {"id": "MsAsPmMTX5uPzvmVov6B9w", "alias": "king-phillip-restaurant-phillipston", "name": "King Phillip Restaurant", "image_url": "https://s3-media2.fl.yelpcdn.com/bphoto/ojO3BoLwHN2nkE1FRdJ5Qw/o.jpg", "is_closed": false, "url": "https://www.yelp.com/biz/king-phillip-restaurant-phillipston?adjust_creative=ywY5UnLZrNrRl2b93Ruy_g&utm_campaign=yelp_api_v3&utm_medium=api_v3_business_search&utm_source=ywY5UnLZrNrRl2b93Ruy_g", "review_count": 48, "categories": [{"alias": "tradamerican", "title": "American (Traditional)"}], "rating": 3.0, "coordinates": {"latitude": 42.5698651, "longitude": -72.1321599}, "transactions": [], "price": "$$", "location": {"address1": "35 State Rd", "address2": "", "address3": "", "city": "Phillipston", "zip_code": "01331", "country": "US", "state": "MA", "display_address": ["35 State Rd", "Phillipston, MA 01331"]}, "phone": "+19782496300", "display_phone": "(978) 249-6300", "distance": 13846.730622210036}, {"id": "P8iPp9EeXCxvzLVVpo0vqg", "alias": "vals-holden-3", "name": "Val's", "image_url": "https://s3-media1.fl.yelpcdn.com/bphoto/59_Es62CFQSORd-2pio7PQ/o.jpg", "is_closed": false, "url": "https://www.yelp.com/biz/vals-holden-3?adjust_creative=ywY5UnLZrNrRl2b93Ruy_g&utm_campaign=yelp_api_v3&utm_medium=api_v3_business_search&utm_source=ywY5UnLZrNrRl2b93Ruy_g", "review_count": 124, "categories": [{"alias": "tradamerican", "title": "American (Traditional)"}, {"alias": "italian", "title": "Italian"}, {"alias": "seafood", "title": "Seafood"}], "rating": 4.0, "coordinates": {"latitude": 42.3478, "longitude": -71.8662}, "transactions": ["delivery"], "price": "$$", "location": {"address1": "75 Reservoir St", "address2": "", "address3": "", "city": "Holden", "zip_code": "01520", "country": "US", "state": "MA", "display_address": ["75 Reservoir St", "Holden, MA 01520"]}, "phone": "+15088290900", "display_phone": "(508) 829-0900", "distance": 19187.242110386716}, {"id": "lfQN5QSEPMr4ng0eW3lvEA", "alias": "williams-restaurant-gardner", "name": "Williams Restaurant", "image_url": "https://s3-media2.fl.yelpcdn.com/bphoto/YEek_aEDa2SU79a1-TPvZA/o.jpg", "is_closed": false, "url": "https://www.yelp.com/biz/williams-restaurant-gardner?adjust_creative=ywY5UnLZrNrRl2b93Ruy_g&utm_campaign=yelp_api_v3&utm_medium=api_v3_business_search&utm_source=ywY5UnLZrNrRl2b93Ruy_g", "review_count": 38, "categories": [{"alias": "newamerican", "title": "American (New)"}, {"alias": "seafood", "title": "Seafood"}, {"alias": "sandwiches", "title": "Sandwiches"}], "rating": 3.5, "coordinates": {"latitude": 42.55953, "longitude": -71.98036}, "transactions": [], "price": "$$", "location": {"address1": "184 Pearson Blvd", "address2": "", "address3": "", "city": "Gardner", "zip_code": "01440", "country": "US", "state": "MA", "display_address": ["184 Pearson Blvd", "Gardner, MA 01440"]}, "phone": "+19786327794", "display_phone": "(978) 632-7794", "distance": 8761.646296372804}, {"id": "ykJGWukwghYMNPwamxCj2A", "alias": "jenkins-inn-and-restaurant-barre", "name": "Jenkins Inn & Restaurant", "image_url": "https://s3-media2.fl.yelpcdn.com/bphoto/wkYdN4OoO_OY3LBUeV6v2Q/o.jpg", "is_closed": false, "url": "https://www.yelp.com/biz/jenkins-inn-and-restaurant-barre?adjust_creative=ywY5UnLZrNrRl2b93Ruy_g&utm_campaign=yelp_api_v3&utm_medium=api_v3_business_search&utm_source=ywY5UnLZrNrRl2b93Ruy_g", "review_count": 6, "categories": [{"alias": "newamerican", "title": "American (New)"}, {"alias": "bedbreakfast", "title": "Bed & Breakfast"}], "rating": 4.5, "coordinates": {"latitude": 42.423309, "longitude": -72.107398}, "transactions": [], "price": "$$", "location": {"address1": "7 West St", "address2": "", "address3": "", "city": "Barre", "zip_code": "01005", "country": "US", "state": "MA", "display_address": ["7 West St", "Barre, MA 01005"]}, "phone": "+19783556444", "display_phone": "(978) 355-6444", "distance": 10441.058677495035}, {"id": "EZhQ41NJaq4no3RTzs7cmw", "alias": "colonial-grille-gardner", "name": "Colonial Grille", "image_url": "https://s3-media1.fl.yelpcdn.com/bphoto/voCLPpE2SaAJdfbfn5BHRg/o.jpg", "is_closed": false, "url": "https://www.yelp.com/biz/colonial-grille-gardner?adjust_creative=ywY5UnLZrNrRl2b93Ruy_g&utm_campaign=yelp_api_v3&utm_medium=api_v3_business_search&utm_source=ywY5UnLZrNrRl2b93Ruy_g", "review_count": 22, "categories": [{"alias": "tradamerican", "title": "American (Traditional)"}, {"alias": "seafood", "title": "Seafood"}, {"alias": "pizza", "title": "Pizza"}], "rating": 3.5, "coordinates": {"latitude": 42.562668, "longitude": -71.949158}, "transactions": [], "price": "$$", "location": {"address1": "625 Betty Spring Rd", "address2": "", "address3": "", "city": "Gardner", "zip_code": "01440", "country": "US", "state": "MA", "display_address": ["625 Betty Spring Rd", "Gardner, MA 01440"]}, "phone": "+19786302500", "display_phone": "(978) 630-2500", "distance": 10093.305267030688}, {"id": "KS7hkfBA2wvYH-lCqj2qJA", "alias": "waffle-cabin-princeton", "name": "Waffle Cabin", "image_url": "https://s3-media2.fl.yelpcdn.com/bphoto/1FIZrumSBd047c1l8Slixw/o.jpg", "is_closed": false, "url": "https://www.yelp.com/biz/waffle-cabin-princeton?adjust_creative=ywY5UnLZrNrRl2b93Ruy_g&utm_campaign=yelp_api_v3&utm_medium=api_v3_business_search&utm_source=ywY5UnLZrNrRl2b93Ruy_g", "review_count": 1, "categories": [{"alias": "waffles", "title": "Waffles"}], "rating": 5.0, "coordinates": {"latitude": 42.5021610258958, "longitude": -71.8870433580825}, "transactions": [], "location": {"address1": "499 Mountain Rd", "address2": "", "address3": null, "city": "Princeton", "zip_code": "01541", "country": "US", "state": "MA", "display_address": ["499 Mountain Rd", "Princeton, MA 01541"]}, "phone": "+19784642300", "display_phone": "(978) 464-2300", "distance": 10279.177081486989}, {"id": "5um6bgKp_RBrNh3pyS5Gig", "alias": "family-kitchen-hubbardston", "name": "Family Kitchen", "image_url": "", "is_closed": false, "url": "https://www.yelp.com/biz/family-kitchen-hubbardston?adjust_creative=ywY5UnLZrNrRl2b93Ruy_g&utm_campaign=yelp_api_v3&utm_medium=api_v3_business_search&utm_source=ywY5UnLZrNrRl2b93Ruy_g", "review_count": 1, "categories": [{"alias": "pizza", "title": "Pizza"}], "rating": 1.0, "coordinates": {"latitude": 42.4784779082112, "longitude": -72.0091371899555}, "transactions": [], "location": {"address1": "32 Main Street", "address2": "", "address3": null, "city": "Hubbardston", "zip_code": "01452", "country": "US", "state": "MA", "display_address": ["32 Main Street", "Hubbardston, MA 01452"]}, "phone": "+19788201440", "display_phone": "(978) 820-1440", "distance": 583.7692927788465}, {"id": "q0qhifHcJgTSAWMVAy4O-w", "alias": "old-time-new-england-seafood-company-athol-2", "name": "Old Time New England Seafood Company", "image_url": "https://s3-media1.fl.yelpcdn.com/bphoto/Sp6PDSBoupOkUCeEtuHD-g/o.jpg", "is_closed": false, "url": "https://www.yelp.com/biz/old-time-new-england-seafood-company-athol-2?adjust_creative=ywY5UnLZrNrRl2b93Ruy_g&utm_campaign=yelp_api_v3&utm_medium=api_v3_business_search&utm_source=ywY5UnLZrNrRl2b93Ruy_g", "review_count": 20, "categories": [{"alias": "seafood", "title": "Seafood"}], "rating": 4.0, "coordinates": {"latitude": 42.5840096, "longitude": -72.204467}, "transactions": [], "price": "$$", "location": {"address1": "2294 Main St", "address2": "", "address3": "", "city": "Athol", "zip_code": "01331", "country": "US", "state": "MA", "display_address": ["2294 Main St", "Athol, MA 01331"]}, "phone": "+19782495373", "display_phone": "(978) 249-5373", "distance": 19473.628350736155}, {"id": "sDv6kzV-OevGAoc8mhpZbw", "alias": "b-mans-140-tavern-sterling-2", "name": "B-Man's 140 Tavern", "image_url": "https://s3-media4.fl.yelpcdn.com/bphoto/NTIQFdGrvuQqk7cYs5jvnQ/o.jpg", "is_closed": false, "url": "https://www.yelp.com/biz/b-mans-140-tavern-sterling-2?adjust_creative=ywY5UnLZrNrRl2b93Ruy_g&utm_campaign=yelp_api_v3&utm_medium=api_v3_business_search&utm_source=ywY5UnLZrNrRl2b93Ruy_g", "review_count": 10, "categories": [{"alias": "tradamerican", "title": "American (Traditional)"}, {"alias": "pubs", "title": "Pubs"}], "rating": 4.0, "coordinates": {"latitude": 42.4507283682, "longitude": -71.8194062635}, "transactions": [], "price": "$$", "location": {"address1": "344 Redemption Rock Trl", "address2": "", "address3": "Rt 140", "city": "Sterling", "zip_code": "01541", "country": "US", "state": "MA", "display_address": ["344 Redemption Rock Trl", "Rt 140", "Sterling, MA 01541"]}, "phone": "+19784229763", "display_phone": "(978) 422-9763", "distance": 16048.473298951916}, {"id": "ldY_Cv8HJO2JO0XilE6SEQ", "alias": "schultz-country-store-and-barnside-cafe-rutland", "name": "Schultz Country Store and Barnside Cafe", "image_url": "https://s3-media2.fl.yelpcdn.com/bphoto/IuoYCq8rvfj4em-YsDN3AA/o.jpg", "is_closed": false, "url": "https://www.yelp.com/biz/schultz-country-store-and-barnside-cafe-rutland?adjust_creative=ywY5UnLZrNrRl2b93Ruy_g&utm_campaign=yelp_api_v3&utm_medium=api_v3_business_search&utm_source=ywY5UnLZrNrRl2b93Ruy_g", "review_count": 28, "categories": [{"alias": "attractionfarms", "title": "Attraction Farms"}, {"alias": "newamerican", "title": "American (New)"}], "rating": 4.5, "coordinates": {"latitude": 42.36017, "longitude": -71.9415}, "transactions": [], "price": "$", "location": {"address1": "163 Maple Ave", "address2": "", "address3": "", "city": "Rutland", "zip_code": "01543", "country": "US", "state": "MA", "display_address": ["163 Maple Ave", "Rutland, MA 01543"]}, "phone": "+17742340405", "display_phone": "(774) 234-0405", "distance": 14894.00031345283}, {"id": "mRj1oNilgeEiMyTDE-XRFA", "alias": "sorrentos-brick-oven-pizza-gardner", "name": "Sorrento's Brick Oven Pizza", "image_url": "https://s3-media2.fl.yelpcdn.com/bphoto/r5nIeUKuciMl8LP5jSvaWw/o.jpg", "is_closed": false, "url": "https://www.yelp.com/biz/sorrentos-brick-oven-pizza-gardner?adjust_creative=ywY5UnLZrNrRl2b93Ruy_g&utm_campaign=yelp_api_v3&utm_medium=api_v3_business_search&utm_source=ywY5UnLZrNrRl2b93Ruy_g", "review_count": 32, "categories": [{"alias": "pizza", "title": "Pizza"}], "rating": 3.5, "coordinates": {"latitude": 42.56806, "longitude": -71.98405}, "transactions": [], "price": "$$", "location": {"address1": "487 Chestnut St", "address2": "", "address3": "", "city": "Gardner", "zip_code": "01440", "country": "US", "state": "MA", "display_address": ["487 Chestnut St", "Gardner, MA 01440"]}, "phone": "+19786300045", "display_phone": "(978) 630-0045", "distance": 9612.16674000674}, {"id": "TVd2898Jy_u8ro-GLrZEIQ", "alias": "green-tea-westminster", "name": "Green Tea", "image_url": "https://s3-media4.fl.yelpcdn.com/bphoto/mT4nA7r9_QfD0Nk7CiRqjg/o.jpg", "is_closed": false, "url": "https://www.yelp.com/biz/green-tea-westminster?adjust_creative=ywY5UnLZrNrRl2b93Ruy_g&utm_campaign=yelp_api_v3&utm_medium=api_v3_business_search&utm_source=ywY5UnLZrNrRl2b93Ruy_g", "review_count": 16, "categories": [{"alias": "chinese", "title": "Chinese"}], "rating": 4.5, "coordinates": {"latitude": 42.5467888580999, "longitude": -71.9142293930054}, "transactions": [], "price": "$$", "location": {"address1": "7 Village Sq", "address2": null, "address3": null, "city": "Westminster", "zip_code": "01473", "country": "US", "state": "MA", "display_address": ["7 Village Sq", "Westminster, MA 01473"]}, "phone": "+19788742288", "display_phone": "(978) 874-2288", "distance": 10520.677317138556}, {"id": "NPQI9o4Gru4P1FYqfJ_NcA", "alias": "yummy-garden-barre", "name": "Yummy Garden", "image_url": "https://s3-media4.fl.yelpcdn.com/bphoto/uGJpVlkiNkjd5rYt23MpRA/o.jpg", "is_closed": false, "url": "https://www.yelp.com/biz/yummy-garden-barre?adjust_creative=ywY5UnLZrNrRl2b93Ruy_g&utm_campaign=yelp_api_v3&utm_medium=api_v3_business_search&utm_source=ywY5UnLZrNrRl2b93Ruy_g", "review_count": 17, "categories": [{"alias": "chinese", "title": "Chinese"}], "rating": 4.0, "coordinates": {"latitude": 42.3842252790928, "longitude": -72.098863273859}, "transactions": [], "price": "$", "location": {"address1": "57 Main St", "address2": "", "address3": "", "city": "Barre", "zip_code": "01005", "country": "US", "state": "MA", "display_address": ["57 Main St", "Barre, MA 01005"]}, "phone": "+19783552022", "display_phone": "(978) 355-2022", "distance": 13310.7208712655}, {"id": "KI0RQ0NbbiO7AM4I8fODxw", "alias": "still-four-corners-rutland", "name": "Still Four Corners", "image_url": "https://s3-media2.fl.yelpcdn.com/bphoto/sWMoxe_phH0KSQ0dBAewVg/o.jpg", "is_closed": false, "url": "https://www.yelp.com/biz/still-four-corners-rutland?adjust_creative=ywY5UnLZrNrRl2b93Ruy_g&utm_campaign=yelp_api_v3&utm_medium=api_v3_business_search&utm_source=ywY5UnLZrNrRl2b93Ruy_g", "review_count": 17, "categories": [{"alias": "seafood", "title": "Seafood"}, {"alias": "tradamerican", "title": "American (Traditional)"}], "rating": 4.0, "coordinates": {"latitude": 42.3497930914164, "longitude": -71.9850182533264}, "transactions": [], "price": "$", "location": {"address1": "224 Barre Paxton Rd", "address2": "", "address3": "", "city": "Rutland", "zip_code": "01543", "country": "US", "state": "MA", "display_address": ["224 Barre Paxton Rd", "Rutland, MA 01543"]}, "phone": "+15088866666", "display_phone": "(508) 886-6666", "distance": 15114.160605124356}, {"id": "3t_Qa1MxsD0KTBbvefT-hw", "alias": "great-wall-chinese-restaurant-templeton-2", "name": "Great Wall Chinese Restaurant", "image_url": "https://s3-media1.fl.yelpcdn.com/bphoto/xoVVGL1XAyzXWWCosHO5QQ/o.jpg", "is_closed": false, "url": "https://www.yelp.com/biz/great-wall-chinese-restaurant-templeton-2?adjust_creative=ywY5UnLZrNrRl2b93Ruy_g&utm_campaign=yelp_api_v3&utm_medium=api_v3_business_search&utm_source=ywY5UnLZrNrRl2b93Ruy_g", "review_count": 18, "categories": [{"alias": "chinese", "title": "Chinese"}], "rating": 4.0, "coordinates": {"latitude": 42.6069717, "longitude": -72.0744476}, "transactions": [], "price": "$$", "location": {"address1": "5 Central St", "address2": "", "address3": "", "city": "Templeton", "zip_code": "01436", "country": "US", "state": "MA", "display_address": ["5 Central St", "Templeton, MA 01436"]}, "phone": "+19789398600", "display_phone": "(978) 939-8600", "distance": 14699.018143640862}, {"id": "6X755NM6my9JyexFB_XX_A", "alias": "kays-dairy-bar-westminster-2", "name": "Kay's Dairy Bar", "image_url": "https://s3-media1.fl.yelpcdn.com/bphoto/ancJPX2z7M0R9o0hEeMVVw/o.jpg", "is_closed": false, "url": "https://www.yelp.com/biz/kays-dairy-bar-westminster-2?adjust_creative=ywY5UnLZrNrRl2b93Ruy_g&utm_campaign=yelp_api_v3&utm_medium=api_v3_business_search&utm_source=ywY5UnLZrNrRl2b93Ruy_g", "review_count": 29, "categories": [{"alias": "icecream", "title": "Ice Cream & Frozen Yogurt"}, {"alias": "seafood", "title": "Seafood"}], "rating": 4.0, "coordinates": {"latitude": 42.5517, "longitude": -71.9587}, "transactions": [], "price": "$$", "location": {"address1": "196 State Rd W", "address2": "", "address3": null, "city": "Westminster", "zip_code": "01473", "country": "US", "state": "MA", "display_address": ["196 State Rd W", "Westminster, MA 01473"]}, "phone": "+19786327191", "display_phone": "(978) 632-7191", "distance": 8658.927715679238}, {"id": "Sp04BT3fIADzvBUnSHpMHg", "alias": "ladds-restaurant-rutland", "name": "Ladd's Restaurant", "image_url": "https://s3-media1.fl.yelpcdn.com/bphoto/NBRUhI-Xbl2Up5jzO5Gj1g/o.jpg", "is_closed": false, "url": "https://www.yelp.com/biz/ladds-restaurant-rutland?adjust_creative=ywY5UnLZrNrRl2b93Ruy_g&utm_campaign=yelp_api_v3&utm_medium=api_v3_business_search&utm_source=ywY5UnLZrNrRl2b93Ruy_g", "review_count": 43, "categories": [{"alias": "seafood", "title": "Seafood"}], "rating": 3.5, "coordinates": {"latitude": 42.33576, "longitude": -71.96584}, "transactions": [], "price": "$$", "location": {"address1": "64 Barre Paxton Rd", "address2": "", "address3": "", "city": "Rutland", "zip_code": "01543", "country": "US", "state": "MA", "display_address": ["64 Barre Paxton Rd", "Rutland, MA 01543"]}, "phone": "+15088864771", "display_phone": "(508) 886-4771", "distance": 16968.003090047456}, {"id": "K0o9LxfijA6wNfKOBUdgVg", "alias": "j-and-j-family-restaurant-barre", "name": "J & J Family Restaurant", "image_url": "https://s3-media3.fl.yelpcdn.com/bphoto/hP0oshzQyKCXLeWljCmuMg/o.jpg", "is_closed": false, "url": "https://www.yelp.com/biz/j-and-j-family-restaurant-barre?adjust_creative=ywY5UnLZrNrRl2b93Ruy_g&utm_campaign=yelp_api_v3&utm_medium=api_v3_business_search&utm_source=ywY5UnLZrNrRl2b93Ruy_g", "review_count": 10, "categories": [{"alias": "tradamerican", "title": "American (Traditional)"}], "rating": 4.0, "coordinates": {"latitude": 42.391973, "longitude": -72.0819719}, "transactions": [], "price": "$$", "location": {"address1": "815 Worcester Rd", "address2": "", "address3": "", "city": "Barre", "zip_code": "01005", "country": "US", "state": "MA", "display_address": ["815 Worcester Rd", "Barre, MA 01005"]}, "phone": "+19783552122", "display_phone": "(978) 355-2122", "distance": 11790.689838319357}, {"id": "KOmBaRuOp6ZrxiLC3hC-sw", "alias": "paramount-cafe-gardner", "name": "Paramount Cafe", "image_url": "https://s3-media2.fl.yelpcdn.com/bphoto/9ciEyCWZ1VdIAQoiqYjnfQ/o.jpg", "is_closed": false, "url": "https://www.yelp.com/biz/paramount-cafe-gardner?adjust_creative=ywY5UnLZrNrRl2b93Ruy_g&utm_campaign=yelp_api_v3&utm_medium=api_v3_business_search&utm_source=ywY5UnLZrNrRl2b93Ruy_g", "review_count": 5, "categories": [{"alias": "cafes", "title": "Cafes"}], "rating": 4.5, "coordinates": {"latitude": 42.575092, "longitude": -71.994545}, "transactions": [], "location": {"address1": "46 Main St", "address2": "", "address3": "", "city": "Gardner", "zip_code": "01440", "country": "US", "state": "MA", "display_address": ["46 Main St", "Gardner, MA 01440"]}, "phone": "+19786329869", "display_phone": "(978) 632-9869", "distance": 10239.94088656581}, {"id": "a8wLG4HuNxWHoEYtNrYogw", "alias": "south-gardner-hotel-gardner", "name": "South Gardner Hotel", "image_url": "https://s3-media1.fl.yelpcdn.com/bphoto/iWdIsIGbCqXHbAVbQ7zyXw/o.jpg", "is_closed": false, "url": "https://www.yelp.com/biz/south-gardner-hotel-gardner?adjust_creative=ywY5UnLZrNrRl2b93Ruy_g&utm_campaign=yelp_api_v3&utm_medium=api_v3_business_search&utm_source=ywY5UnLZrNrRl2b93Ruy_g", "review_count": 5, "categories": [{"alias": "bars", "title": "Bars"}, {"alias": "tradamerican", "title": "American (Traditional)"}], "rating": 4.0, "coordinates": {"latitude": 42.557515, "longitude": -71.9801713}, "transactions": [], "price": "$", "location": {"address1": "8 E Broadway", "address2": "", "address3": "", "city": "Gardner", "zip_code": "01440", "country": "US", "state": "MA", "display_address": ["8 E Broadway", "Gardner, MA 01440"]}, "phone": "+19786301322", "display_phone": "(978) 630-1322", "distance": 8561.67901519639}, {"id": "Hb1WV-XO3pZYMpZ3HaMf0Q", "alias": "kennys-house-gardner", "name": "Kenny's House", "image_url": "https://s3-media3.fl.yelpcdn.com/bphoto/ulcP7iOkpNHWa9bouLZbrQ/o.jpg", "is_closed": false, "url": "https://www.yelp.com/biz/kennys-house-gardner?adjust_creative=ywY5UnLZrNrRl2b93Ruy_g&utm_campaign=yelp_api_v3&utm_medium=api_v3_business_search&utm_source=ywY5UnLZrNrRl2b93Ruy_g", "review_count": 18, "categories": [{"alias": "chinese", "title": "Chinese"}, {"alias": "seafood", "title": "Seafood"}, {"alias": "soup", "title": "Soup"}], "rating": 4.0, "coordinates": {"latitude": 42.5757372, "longitude": -71.9983973}, "transactions": [], "location": {"address1": "128 Parker St", "address2": "", "address3": "", "city": "Gardner", "zip_code": "01440", "country": "US", "state": "MA", "display_address": ["128 Parker St", "Gardner, MA 01440"]}, "phone": "+19786322888", "display_phone": "(978) 632-2888", "distance": 10278.258696553194}, {"id": "v_Hpc-MgJvfyKWSspDETlw", "alias": "taco-rey-coliman-gardner-2", "name": "Taco Rey Coliman", "image_url": "https://s3-media4.fl.yelpcdn.com/bphoto/FZ0gWTPf72YnsmmM6OQNuA/o.jpg", "is_closed": false, "url": "https://www.yelp.com/biz/taco-rey-coliman-gardner-2?adjust_creative=ywY5UnLZrNrRl2b93Ruy_g&utm_campaign=yelp_api_v3&utm_medium=api_v3_business_search&utm_source=ywY5UnLZrNrRl2b93Ruy_g", "review_count": 35, "categories": [{"alias": "tex-mex", "title": "Tex-Mex"}, {"alias": "mexican", "title": "Mexican"}, {"alias": "spanish", "title": "Spanish"}], "rating": 4.5, "coordinates": {"latitude": 42.5757434, "longitude": -71.9951119}, "transactions": [], "price": "$", "location": {"address1": "7 Pleasant St", "address2": "", "address3": "", "city": "Gardner", "zip_code": "01440", "country": "US", "state": "MA", "display_address": ["7 Pleasant St", "Gardner, MA 01440"]}, "phone": "+19786327400", "display_phone": "(978) 632-7400", "distance": 10306.267787796192}, {"id": "6eDMigdX2fH32_2cuaHzpw", "alias": "jk-crossroads-east-templeton", "name": "JK Crossroads", "image_url": "https://s3-media3.fl.yelpcdn.com/bphoto/X9b-I_ndI2z1jI4m_Fh-4g/o.jpg", "is_closed": false, "url": "https://www.yelp.com/biz/jk-crossroads-east-templeton?adjust_creative=ywY5UnLZrNrRl2b93Ruy_g&utm_campaign=yelp_api_v3&utm_medium=api_v3_business_search&utm_source=ywY5UnLZrNrRl2b93Ruy_g", "review_count": 22, "categories": [{"alias": "tradamerican", "title": "American (Traditional)"}], "rating": 3.0, "coordinates": {"latitude": 42.56267, "longitude": -72.03679}, "transactions": [], "price": "$$", "location": {"address1": "119 Patriots Rd", "address2": "", "address3": "", "city": "East Templeton", "zip_code": "01438", "country": "US", "state": "MA", "display_address": ["119 Patriots Rd", "East Templeton, MA 01438"]}, "phone": "+19786327070", "display_phone": "(978) 632-7070", "distance": 9049.021474354984}, {"id": "TrnTjJ1-_E6C73HYGLwsKw", "alias": "renos-pizza-templeton", "name": "Reno's Pizza", "image_url": "https://s3-media3.fl.yelpcdn.com/bphoto/fqIJrOaa8cfgu-xw7htIzw/o.jpg", "is_closed": false, "url": "https://www.yelp.com/biz/renos-pizza-templeton?adjust_creative=ywY5UnLZrNrRl2b93Ruy_g&utm_campaign=yelp_api_v3&utm_medium=api_v3_business_search&utm_source=ywY5UnLZrNrRl2b93Ruy_g", "review_count": 2, "categories": [{"alias": "pizza", "title": "Pizza"}, {"alias": "burgers", "title": "Burgers"}, {"alias": "delis", "title": "Delis"}], "rating": 5.0, "coordinates": {"latitude": 42.5620072921407, "longitude": -72.0375560224056}, "transactions": [], "location": {"address1": "132 Patriots Rd", "address2": "", "address3": null, "city": "Templeton", "zip_code": "01438", "country": "US", "state": "MA", "display_address": ["132 Patriots Rd", "Templeton, MA 01438"]}, "phone": "+19786323200", "display_phone": "(978) 632-3200", "distance": 8997.901444357502}, {"id": "yEBkyWc2EaLSIaXXGKL2uw", "alias": "siam-9-thai-cuisine-holden-holden-2", "name": "Siam 9 Thai Cuisine - Holden", "image_url": "https://s3-media3.fl.yelpcdn.com/bphoto/jqjql6ZzaYMWlasXF9oSzw/o.jpg", "is_closed": false, "url": "https://www.yelp.com/biz/siam-9-thai-cuisine-holden-holden-2?adjust_creative=ywY5UnLZrNrRl2b93Ruy_g&utm_campaign=yelp_api_v3&utm_medium=api_v3_business_search&utm_source=ywY5UnLZrNrRl2b93Ruy_g", "review_count": 43, "categories": [{"alias": "thai", "title": "Thai"}, {"alias": "desserts", "title": "Desserts"}], "rating": 5.0, "coordinates": {"latitude": 42.331852, "longitude": -71.834729}, "transactions": ["delivery", "pickup"], "location": {"address1": "456 Main St", "address2": null, "address3": "", "city": "Holden", "zip_code": "01520", "country": "US", "state": "MA", "display_address": ["456 Main St", "Holden, MA 01520"]}, "phone": "+15082100535", "display_phone": "(508) 210-0535", "distance": 22178.784784094736}, {"id": "2LDyfeKYEV033znbbUjJTg", "alias": "harding-allen-estate-barre", "name": "Harding Allen Estate", "image_url": "https://s3-media3.fl.yelpcdn.com/bphoto/HOird8RBddI8wTn-8SFy2Q/o.jpg", "is_closed": false, "url": "https://www.yelp.com/biz/harding-allen-estate-barre?adjust_creative=ywY5UnLZrNrRl2b93Ruy_g&utm_campaign=yelp_api_v3&utm_medium=api_v3_business_search&utm_source=ywY5UnLZrNrRl2b93Ruy_g", "review_count": 15, "categories": [{"alias": "restaurants", "title": "Restaurants"}, {"alias": "venues", "title": "Venues & Event Spaces"}], "rating": 3.0, "coordinates": {"latitude": 42.42226, "longitude": -72.10778}, "transactions": [], "price": "$$", "location": {"address1": "59 Allen Dr", "address2": "", "address3": "", "city": "Barre", "zip_code": "01005", "country": "US", "state": "MA", "display_address": ["59 Allen Dr", "Barre, MA 01005"]}, "phone": "+19783554920", "display_phone": "(978) 355-4920", "distance": 10581.029120184656}, {"id": "PkUQS1Egv8vhxxJtDVjBaA", "alias": "asia-gourmet-athol", "name": "Asia Gourmet", "image_url": "https://s3-media1.fl.yelpcdn.com/bphoto/GjsJgR7BC4fSlGm2Eopppw/o.jpg", "is_closed": false, "url": "https://www.yelp.com/biz/asia-gourmet-athol?adjust_creative=ywY5UnLZrNrRl2b93Ruy_g&utm_campaign=yelp_api_v3&utm_medium=api_v3_business_search&utm_source=ywY5UnLZrNrRl2b93Ruy_g", "review_count": 7, "categories": [{"alias": "chinese", "title": "Chinese"}, {"alias": "sushi", "title": "Sushi Bars"}, {"alias": "thai", "title": "Thai"}], "rating": 3.5, "coordinates": {"latitude": 42.58012, "longitude": -72.18376}, "transactions": [], "location": {"address1": "144 Market Dr", "address2": "", "address3": null, "city": "Athol", "zip_code": "01331", "country": "US", "state": "MA", "display_address": ["144 Market Dr", "Athol, MA 01331"]}, "phone": "+19782493918", "display_phone": "(978) 249-3918", "distance": 17797.8768273121}, {"id": "jQV1x9aI6gfQLtlpUcj2FA", "alias": "duguays-chicken-and-seafood-gardner", "name": "Duguays Chicken & Seafood", "image_url": "https://s3-media2.fl.yelpcdn.com/bphoto/C1iDu-eEp0WuUJJP1eNjVA/o.jpg", "is_closed": false, "url": "https://www.yelp.com/biz/duguays-chicken-and-seafood-gardner?adjust_creative=ywY5UnLZrNrRl2b93Ruy_g&utm_campaign=yelp_api_v3&utm_medium=api_v3_business_search&utm_source=ywY5UnLZrNrRl2b93Ruy_g", "review_count": 47, "categories": [{"alias": "seafood", "title": "Seafood"}, {"alias": "burgers", "title": "Burgers"}, {"alias": "chickenshop", "title": "Chicken Shop"}], "rating": 4.0, "coordinates": {"latitude": 42.57311, "longitude": -72.01599}, "transactions": [], "price": "$$", "location": {"address1": "632 Parker St", "address2": "", "address3": "", "city": "Gardner", "zip_code": "01440", "country": "US", "state": "MA", "display_address": ["632 Parker St", "Gardner, MA 01440"]}, "phone": "+19786324493", "display_phone": "(978) 632-4493", "distance": 9977.654544977751}, {"id": "75a3UzxS-M6tL8W5Berg9g", "alias": "beckis-bistro-barre-2", "name": "Becki's Bistro", "image_url": "https://s3-media4.fl.yelpcdn.com/bphoto/8Ed8-teABQ7se6rO_cad3w/o.jpg", "is_closed": false, "url": "https://www.yelp.com/biz/beckis-bistro-barre-2?adjust_creative=ywY5UnLZrNrRl2b93Ruy_g&utm_campaign=yelp_api_v3&utm_medium=api_v3_business_search&utm_source=ywY5UnLZrNrRl2b93Ruy_g", "review_count": 27, "categories": [{"alias": "cafes", "title": "Cafes"}, {"alias": "breakfast_brunch", "title": "Breakfast & Brunch"}, {"alias": "burgers", "title": "Burgers"}], "rating": 4.5, "coordinates": {"latitude": 42.4224345, "longitude": -72.1044324}, "transactions": [], "price": "$$", "location": {"address1": "25 Exchange St", "address2": "", "address3": "", "city": "Barre", "zip_code": "01005", "country": "US", "state": "MA", "display_address": ["25 Exchange St", "Barre, MA 01005"]}, "phone": "+19783550012", "display_phone": "(978) 355-0012", "distance": 10323.444317294434}, {"id": "nlaFN5Qx6OiwQfEZmaYYjw", "alias": "old-mill-restaurant-and-crackerbarrel-pub-and-lounge-westminster", "name": "Old Mill Restaurant & Crackerbarrel Pub & Lounge", "image_url": "https://s3-media1.fl.yelpcdn.com/bphoto/juP9N3sZcuP9IoYgwR62nw/o.jpg", "is_closed": false, "url": "https://www.yelp.com/biz/old-mill-restaurant-and-crackerbarrel-pub-and-lounge-westminster?adjust_creative=ywY5UnLZrNrRl2b93Ruy_g&utm_campaign=yelp_api_v3&utm_medium=api_v3_business_search&utm_source=ywY5UnLZrNrRl2b93Ruy_g", "review_count": 61, "categories": [{"alias": "newamerican", "title": "American (New)"}], "rating": 3.0, "coordinates": {"latitude": 42.5497726279832, "longitude": -71.8857302846505}, "transactions": [], "price": "$$", "location": {"address1": "Rt 2A", "address2": "", "address3": "", "city": "Westminster", "zip_code": "01473", "country": "US", "state": "MA", "display_address": ["Rt 2A", "Westminster, MA 01473"]}, "phone": "+19788745941", "display_phone": "(978) 874-5941", "distance": 12551.017702376445}, {"id": "3Y9OnIQ55G13AcdxFZkHjw", "alias": "high-tides-seafood-barre", "name": "High Tides Seafood", "image_url": "", "is_closed": false, "url": "https://www.yelp.com/biz/high-tides-seafood-barre?adjust_creative=ywY5UnLZrNrRl2b93Ruy_g&utm_campaign=yelp_api_v3&utm_medium=api_v3_business_search&utm_source=ywY5UnLZrNrRl2b93Ruy_g", "review_count": 7, "categories": [{"alias": "seafood", "title": "Seafood"}, {"alias": "beer_and_wine", "title": "Beer, Wine & Spirits"}, {"alias": "icecream", "title": "Ice Cream & Frozen Yogurt"}], "rating": 4.5, "coordinates": {"latitude": 42.442644144625, "longitude": -72.165020017677}, "transactions": [], "location": {"address1": "2291 West St", "address2": "", "address3": null, "city": "Barre", "zip_code": "01005", "country": "US", "state": "MA", "display_address": ["2291 West St", "Barre, MA 01005"]}, "phone": "+19783556715", "display_phone": "(978) 355-6715", "distance": 13519.495254137979}, {"id": "pV8zeBYV-_DeOM-YoS6DGg", "alias": "kps-breakfast-and-lunch-rutland", "name": "Kp's Breakfast and Lunch", "image_url": "https://s3-media2.fl.yelpcdn.com/bphoto/Ir308fRcoOu7-mYiX8Qyqw/o.jpg", "is_closed": false, "url": "https://www.yelp.com/biz/kps-breakfast-and-lunch-rutland?adjust_creative=ywY5UnLZrNrRl2b93Ruy_g&utm_campaign=yelp_api_v3&utm_medium=api_v3_business_search&utm_source=ywY5UnLZrNrRl2b93Ruy_g", "review_count": 25, "categories": [{"alias": "breakfast_brunch", "title": "Breakfast & Brunch"}], "rating": 4.5, "coordinates": {"latitude": 42.379295, "longitude": -71.955873}, "transactions": [], "price": "$", "location": {"address1": "24 Pommogussett Rd", "address2": "", "address3": "", "city": "Rutland", "zip_code": "01543", "country": "US", "state": "MA", "display_address": ["24 Pommogussett Rd", "Rutland, MA 01543"]}, "phone": "+15088866408", "display_phone": "(508) 886-6408", "distance": 12419.261976787151}, {"id": "-6SXunk8sa57KHosd5CSYQ", "alias": "yen-yen-chinese-restaurant-gardner", "name": "Yen Yen Chinese Restaurant", "image_url": "https://s3-media1.fl.yelpcdn.com/bphoto/jIy4g7yVDJkBtuFpok2hVQ/o.jpg", "is_closed": false, "url": "https://www.yelp.com/biz/yen-yen-chinese-restaurant-gardner?adjust_creative=ywY5UnLZrNrRl2b93Ruy_g&utm_campaign=yelp_api_v3&utm_medium=api_v3_business_search&utm_source=ywY5UnLZrNrRl2b93Ruy_g", "review_count": 28, "categories": [{"alias": "chinese", "title": "Chinese"}], "rating": 3.0, "coordinates": {"latitude": 42.5662039, "longitude": -71.9769619}, "transactions": [], "price": "$$", "location": {"address1": "42 Pearson Blvd", "address2": "", "address3": "", "city": "Gardner", "zip_code": "01440", "country": "US", "state": "MA", "display_address": ["42 Pearson Blvd", "Gardner, MA 01440"]}, "phone": "+19786301535", "display_phone": "(978) 630-1535", "distance": 9562.719393600295}, {"id": "J5BRVzL0o2u4tCkUZUUM2Q", "alias": "kozy-kabin-restaurant-barre", "name": "Kozy Kabin Restaurant", "image_url": "https://s3-media2.fl.yelpcdn.com/bphoto/MCNZ8x6RognRL9SP6zIbPQ/o.jpg", "is_closed": false, "url": "https://www.yelp.com/biz/kozy-kabin-restaurant-barre?adjust_creative=ywY5UnLZrNrRl2b93Ruy_g&utm_campaign=yelp_api_v3&utm_medium=api_v3_business_search&utm_source=ywY5UnLZrNrRl2b93Ruy_g", "review_count": 3, "categories": [{"alias": "restaurants", "title": "Restaurants"}], "rating": 3.5, "coordinates": {"latitude": 42.3913459777832, "longitude": -72.0739517211914}, "transactions": [], "price": "$", "location": {"address1": "1067 Worcester Rd", "address2": "", "address3": "", "city": "Barre", "zip_code": "01005", "country": "US", "state": "MA", "display_address": ["1067 Worcester Rd", "Barre, MA 01005"]}, "phone": "+19783556264", "display_phone": "(978) 355-6264", "distance": 11536.411190296096}, {"id": "P54MnoErmGdonro_OcbxCg", "alias": "gabbys-place-gardner", "name": "Gabbys Place", "image_url": "https://s3-media2.fl.yelpcdn.com/bphoto/UdASXZiw2uD8HiuyRbfmew/o.jpg", "is_closed": false, "url": "https://www.yelp.com/biz/gabbys-place-gardner?adjust_creative=ywY5UnLZrNrRl2b93Ruy_g&utm_campaign=yelp_api_v3&utm_medium=api_v3_business_search&utm_source=ywY5UnLZrNrRl2b93Ruy_g", "review_count": 34, "categories": [{"alias": "breakfast_brunch", "title": "Breakfast & Brunch"}], "rating": 4.5, "coordinates": {"latitude": 42.5602303, "longitude": -71.9806137}, "transactions": [], "price": "$", "location": {"address1": "173 Pearson Blvd", "address2": null, "address3": null, "city": "Gardner", "zip_code": "01440", "country": "US", "state": "MA", "display_address": ["173 Pearson Blvd", "Gardner, MA 01440"]}, "phone": "+19786322282", "display_phone": "(978) 632-2282", "distance": 8809.98873883983}, {"id": "yXkjcWlkcOCYP3CsfT-mEA", "alias": "red-tomato-barre", "name": "Red Tomato", "image_url": "", "is_closed": false, "url": "https://www.yelp.com/biz/red-tomato-barre?adjust_creative=ywY5UnLZrNrRl2b93Ruy_g&utm_campaign=yelp_api_v3&utm_medium=api_v3_business_search&utm_source=ywY5UnLZrNrRl2b93Ruy_g", "review_count": 1, "categories": [{"alias": "pizza", "title": "Pizza"}], "rating": 5.0, "coordinates": {"latitude": 42.42252, "longitude": -72.10426}, "transactions": [], "location": {"address1": "11 Exchange St", "address2": "", "address3": null, "city": "Barre", "zip_code": "01005", "country": "US", "state": "MA", "display_address": ["11 Exchange St", "Barre, MA 01005"]}, "phone": "+19783553536", "display_phone": "(978) 355-3536", "distance": 10316.525721218393}, {"id": "4Jt27guQdNKXH3pJ9u1m5A", "alias": "barre-mill-restaurant-south-barre-3", "name": "Barre Mill Restaurant", "image_url": "https://s3-media4.fl.yelpcdn.com/bphoto/VIfSRtantMJBsa2O3hE2IQ/o.jpg", "is_closed": false, "url": "https://www.yelp.com/biz/barre-mill-restaurant-south-barre-3?adjust_creative=ywY5UnLZrNrRl2b93Ruy_g&utm_campaign=yelp_api_v3&utm_medium=api_v3_business_search&utm_source=ywY5UnLZrNrRl2b93Ruy_g", "review_count": 12, "categories": [{"alias": "italian", "title": "Italian"}, {"alias": "pizza", "title": "Pizza"}, {"alias": "tradamerican", "title": "American (Traditional)"}], "rating": 2.5, "coordinates": {"latitude": 42.3840348, "longitude": -72.1004294}, "transactions": [], "price": "$$", "location": {"address1": "90 Main St", "address2": null, "address3": null, "city": "South Barre", "zip_code": "01074", "country": "US", "state": "MA", "display_address": ["90 Main St", "South Barre, MA 01074"]}, "phone": "+19783552987", "display_phone": "(978) 355-2987", "distance": 13342.653835958847}, {"id": "VxmU2p9pR5W0M8zxWrbQLA", "alias": "ss-lobster-ltd-fitchburg", "name": "SS Lobster Ltd", "image_url": "https://s3-media4.fl.yelpcdn.com/bphoto/xEPXP0Hvr7voxkxgNeHtdA/o.jpg", "is_closed": false, "url": "https://www.yelp.com/biz/ss-lobster-ltd-fitchburg?adjust_creative=ywY5UnLZrNrRl2b93Ruy_g&utm_campaign=yelp_api_v3&utm_medium=api_v3_business_search&utm_source=ywY5UnLZrNrRl2b93Ruy_g", "review_count": 138, "categories": [{"alias": "seafood", "title": "Seafood"}, {"alias": "seafoodmarkets", "title": "Seafood Markets"}], "rating": 3.5, "coordinates": {"latitude": 42.57953, "longitude": -71.83116}, "transactions": [], "price": "$$", "location": {"address1": "691 River St", "address2": "", "address3": "", "city": "Fitchburg", "zip_code": "01420", "country": "US", "state": "MA", "display_address": ["691 River St", "Fitchburg, MA 01420"]}, "phone": "+19783426135", "display_phone": "(978) 342-6135", "distance": 18093.710146947473}, {"id": "OCz5muYPUncuu6_eTwY_aQ", "alias": "royalston-general-store-royalston", "name": "Royalston General Store", "image_url": "https://s3-media2.fl.yelpcdn.com/bphoto/dwJ29OIt0IIcgVpQOvnGPw/o.jpg", "is_closed": false, "url": "https://www.yelp.com/biz/royalston-general-store-royalston?adjust_creative=ywY5UnLZrNrRl2b93Ruy_g&utm_campaign=yelp_api_v3&utm_medium=api_v3_business_search&utm_source=ywY5UnLZrNrRl2b93Ruy_g", "review_count": 2, "categories": [{"alias": "breakfast_brunch", "title": "Breakfast & Brunch"}], "rating": 4.0, "coordinates": {"latitude": 42.63058, "longitude": -72.14802}, "transactions": [], "location": {"address1": "21 Main St", "address2": "", "address3": "", "city": "Royalston", "zip_code": "01368", "country": "US", "state": "MA", "display_address": ["21 Main St", "Royalston, MA 01368"]}, "phone": "+19782499798", "display_phone": "(978) 249-9798", "distance": 19880.451884617672}, {"id": "LD-RgCjEvITIBLap0VuSeA", "alias": "cafe-edesia-gardner-2", "name": "Cafe Edesia", "image_url": "https://s3-media3.fl.yelpcdn.com/bphoto/gAjSkL4-WZC7unuxStflaQ/o.jpg", "is_closed": false, "url": "https://www.yelp.com/biz/cafe-edesia-gardner-2?adjust_creative=ywY5UnLZrNrRl2b93Ruy_g&utm_campaign=yelp_api_v3&utm_medium=api_v3_business_search&utm_source=ywY5UnLZrNrRl2b93Ruy_g", "review_count": 41, "categories": [{"alias": "cafes", "title": "Cafes"}], "rating": 3.5, "coordinates": {"latitude": 42.5682063218004, "longitude": -71.9837307929993}, "transactions": [], "price": "$", "location": {"address1": "486 Chestnut St", "address2": "Ste 2", "address3": "", "city": "Gardner", "zip_code": "01440", "country": "US", "state": "MA", "display_address": ["486 Chestnut St", "Ste 2", "Gardner, MA 01440"]}, "phone": "+19786301555", "display_phone": "(978) 630-1555", "distance": 9638.190803198071}, {"id": "1eB2vliYFtBP8or5oG5RuA", "alias": "the-hen-house-gardner", "name": "The Hen House", "image_url": "https://s3-media3.fl.yelpcdn.com/bphoto/w2gihixfKhsOAhUzKJPtSg/o.jpg", "is_closed": false, "url": "https://www.yelp.com/biz/the-hen-house-gardner?adjust_creative=ywY5UnLZrNrRl2b93Ruy_g&utm_campaign=yelp_api_v3&utm_medium=api_v3_business_search&utm_source=ywY5UnLZrNrRl2b93Ruy_g", "review_count": 21, "categories": [{"alias": "coffee", "title": "Coffee & Tea"}, {"alias": "breakfast_brunch", "title": "Breakfast & Brunch"}], "rating": 4.0, "coordinates": {"latitude": 42.576934, "longitude": -72.000701}, "transactions": [], "price": "$", "location": {"address1": "95 West St", "address2": null, "address3": null, "city": "Gardner", "zip_code": "01440", "country": "US", "state": "MA", "display_address": ["95 West St", "Gardner, MA 01440"]}, "phone": "+19786326322", "display_phone": "(978) 632-6322", "distance": 10397.80242194293}, {"id": "YFUYllVibHXwawGD2WxG5g", "alias": "99-restaurants-gardner", "name": "99 Restaurants", "image_url": "https://s3-media3.fl.yelpcdn.com/bphoto/Z_yBm5P7QKjWhMHHvGTBcg/o.jpg", "is_closed": false, "url": "https://www.yelp.com/biz/99-restaurants-gardner?adjust_creative=ywY5UnLZrNrRl2b93Ruy_g&utm_campaign=yelp_api_v3&utm_medium=api_v3_business_search&utm_source=ywY5UnLZrNrRl2b93Ruy_g", "review_count": 10, "categories": [{"alias": "tradamerican", "title": "American (Traditional)"}, {"alias": "pubs", "title": "Pubs"}], "rating": 3.5, "coordinates": {"latitude": 42.5605143, "longitude": -71.9906149}, "transactions": [], "location": {"address1": "299 Timpany Blvd", "address2": null, "address3": "", "city": "Gardner", "zip_code": "01440", "country": "US", "state": "MA", "display_address": ["299 Timpany Blvd", "Gardner, MA 01440"]}, "phone": "+19789580399", "display_phone": "(978) 958-0399", "distance": 8590.659449720466}, {"id": "46HA2dX8l3KZWHdLmu-U8Q", "alias": "parker-house-of-pizza-gardner-2", "name": "Parker House Of Pizza", "image_url": "https://s3-media1.fl.yelpcdn.com/bphoto/MhE4Kqq3cklu9CpgnS90ng/o.jpg", "is_closed": false, "url": "https://www.yelp.com/biz/parker-house-of-pizza-gardner-2?adjust_creative=ywY5UnLZrNrRl2b93Ruy_g&utm_campaign=yelp_api_v3&utm_medium=api_v3_business_search&utm_source=ywY5UnLZrNrRl2b93Ruy_g", "review_count": 10, "categories": [{"alias": "pizza", "title": "Pizza"}, {"alias": "burgers", "title": "Burgers"}, {"alias": "wraps", "title": "Wraps"}], "rating": 4.5, "coordinates": {"latitude": 42.5753219691741, "longitude": -71.9953142025354}, "transactions": [], "price": "$", "location": {"address1": "17 Pleasant St", "address2": "", "address3": "", "city": "Gardner", "zip_code": "01440", "country": "US", "state": "MA", "display_address": ["17 Pleasant St", "Gardner, MA 01440"]}, "phone": "+19786329383", "display_phone": "(978) 632-9383", "distance": 10257.790225074874}, {"id": "RTLXoRUCWGbObYnKnRVZJg", "alias": "baldwinville-station-baldwinville", "name": "Baldwinville Station", "image_url": "https://s3-media1.fl.yelpcdn.com/bphoto/HXetzYz2BV8jltsAmMa1-g/o.jpg", "is_closed": false, "url": "https://www.yelp.com/biz/baldwinville-station-baldwinville?adjust_creative=ywY5UnLZrNrRl2b93Ruy_g&utm_campaign=yelp_api_v3&utm_medium=api_v3_business_search&utm_source=ywY5UnLZrNrRl2b93Ruy_g", "review_count": 18, "categories": [{"alias": "breakfast_brunch", "title": "Breakfast & Brunch"}, {"alias": "tradamerican", "title": "American (Traditional)"}], "rating": 3.5, "coordinates": {"latitude": 42.6078996849769, "longitude": -72.0744104798049}, "transactions": [], "price": "$", "location": {"address1": "9 Circle St", "address2": null, "address3": null, "city": "Baldwinville", "zip_code": "01436", "country": "US", "state": "MA", "display_address": ["9 Circle St", "Baldwinville, MA 01436"]}, "phone": "+19789394800", "display_phone": "(978) 939-4800", "distance": 14787.489189799544}, {"id": "-PRPQJUowAthn2mmh0_mbA", "alias": "garden-pizza-and-seafood-gardner", "name": "Garden Pizza & Seafood", "image_url": "https://s3-media1.fl.yelpcdn.com/bphoto/Ma_A1uu1KF8sKgnz3eVygA/o.jpg", "is_closed": false, "url": "https://www.yelp.com/biz/garden-pizza-and-seafood-gardner?adjust_creative=ywY5UnLZrNrRl2b93Ruy_g&utm_campaign=yelp_api_v3&utm_medium=api_v3_business_search&utm_source=ywY5UnLZrNrRl2b93Ruy_g", "review_count": 14, "categories": [{"alias": "seafood", "title": "Seafood"}, {"alias": "pizza", "title": "Pizza"}], "rating": 3.0, "coordinates": {"latitude": 42.5759978, "longitude": -71.995618}, "transactions": [], "price": "$$", "location": {"address1": "24 Parker St", "address2": "", "address3": "", "city": "Gardner", "zip_code": "01440", "country": "US", "state": "MA", "display_address": ["24 Parker St", "Gardner, MA 01440"]}, "phone": "+19786302424", "display_phone": "(978) 630-2424", "distance": 10329.583525170052}, {"id": "lOvOmqk2c9A-7BijivkzKA", "alias": "kyoto-bar-and-grill-holden", "name": "Kyoto Bar & Grill", "image_url": "https://s3-media4.fl.yelpcdn.com/bphoto/WYkqpjGj5diZcIImmJYcow/o.jpg", "is_closed": false, "url": "https://www.yelp.com/biz/kyoto-bar-and-grill-holden?adjust_creative=ywY5UnLZrNrRl2b93Ruy_g&utm_campaign=yelp_api_v3&utm_medium=api_v3_business_search&utm_source=ywY5UnLZrNrRl2b93Ruy_g", "review_count": 34, "categories": [{"alias": "japanese", "title": "Japanese"}, {"alias": "sushi", "title": "Sushi Bars"}], "rating": 3.5, "coordinates": {"latitude": 42.3402671813965, "longitude": -71.8394088745117}, "transactions": ["delivery"], "price": "$$", "location": {"address1": "695 Main St", "address2": "", "address3": "", "city": "Holden", "zip_code": "01520", "country": "US", "state": "MA", "display_address": ["695 Main St", "Holden, MA 01520"]}, "phone": "+15082100060", "display_phone": "(508) 210-0060", "distance": 21227.02412375035}, {"id": "ZUx8xuz4bCXXXVGzpIOwtA", "alias": "pig-in-flames-fitchburg", "name": "Pig in Flames", "image_url": "https://s3-media2.fl.yelpcdn.com/bphoto/RMGk416G_rSvk984qIGfxg/o.jpg", "is_closed": false, "url": "https://www.yelp.com/biz/pig-in-flames-fitchburg?adjust_creative=ywY5UnLZrNrRl2b93Ruy_g&utm_campaign=yelp_api_v3&utm_medium=api_v3_business_search&utm_source=ywY5UnLZrNrRl2b93Ruy_g", "review_count": 14, "categories": [{"alias": "bbq", "title": "Barbeque"}], "rating": 3.5, "coordinates": {"latitude": 42.5689744903938, "longitude": -71.8152981251478}, "transactions": ["pickup", "delivery"], "location": {"address1": "96 Franklin Rd", "address2": "", "address3": null, "city": "Fitchburg", "zip_code": "01420", "country": "US", "state": "MA", "display_address": ["96 Franklin Rd", "Fitchburg, MA 01420"]}, "phone": "+19786965064", "display_phone": "(978) 696-5064", "distance": 18552.293381839754}, {"id": "aWYujjBXWiC-8oY7MrZG3w", "alias": "wild-child-express-princeton", "name": "Wild Child Express", "image_url": "", "is_closed": false, "url": "https://www.yelp.com/biz/wild-child-express-princeton?adjust_creative=ywY5UnLZrNrRl2b93Ruy_g&utm_campaign=yelp_api_v3&utm_medium=api_v3_business_search&utm_source=ywY5UnLZrNrRl2b93Ruy_g", "review_count": 2, "categories": [{"alias": "icecream", "title": "Ice Cream & Frozen Yogurt"}, {"alias": "foodstands", "title": "Food Stands"}], "rating": 5.0, "coordinates": {"latitude": 42.4229399, "longitude": -71.92728}, "transactions": [], "location": {"address1": "29 Dowds Ln", "address2": null, "address3": "", "city": "Princeton", "zip_code": "01541", "country": "US", "state": "MA", "display_address": ["29 Dowds Ln", "Princeton, MA 01541"]}, "phone": "+19784644570", "display_phone": "(978) 464-4570", "distance": 9569.615796662112}, {"id": "97y3gmLhu_nXnFtofF_p-A", "alias": "snowland-gingerbread-house-at-great-wolf-lodge-fitchburg-2", "name": "Snowland Gingerbread House at Great Wolf Lodge", "image_url": "https://s3-media3.fl.yelpcdn.com/bphoto/nldxMYf_HBD38HDX5U2ihw/o.jpg", "is_closed": false, "url": "https://www.yelp.com/biz/snowland-gingerbread-house-at-great-wolf-lodge-fitchburg-2?adjust_creative=ywY5UnLZrNrRl2b93Ruy_g&utm_campaign=yelp_api_v3&utm_medium=api_v3_business_search&utm_source=ywY5UnLZrNrRl2b93Ruy_g", "review_count": 4, "categories": [{"alias": "gourmet", "title": "Specialty Food"}, {"alias": "newamerican", "title": "American (New)"}, {"alias": "resorts", "title": "Resorts"}], "rating": 4.5, "coordinates": {"latitude": 42.54711, "longitude": -71.854378}, "transactions": [], "price": "$$", "location": {"address1": "150 Great Wolf Dr", "address2": null, "address3": null, "city": "Fitchburg", "zip_code": "01420", "country": "US", "state": "MA", "display_address": ["150 Great Wolf Dr", "Fitchburg, MA 01420"]}, "phone": "+19783439653", "display_phone": "(978) 343-9653", "distance": 14566.097179627193}, {"id": "G6aP7ybRAR1k8_7PuIsmpw", "alias": "mill-no-3-farmstand-fitchburg", "name": "Mill No 3 Farmstand", "image_url": "https://s3-media3.fl.yelpcdn.com/bphoto/v1hJI5yDgkZGheZjr8L8dg/o.jpg", "is_closed": false, "url": "https://www.yelp.com/biz/mill-no-3-farmstand-fitchburg?adjust_creative=ywY5UnLZrNrRl2b93Ruy_g&utm_campaign=yelp_api_v3&utm_medium=api_v3_business_search&utm_source=ywY5UnLZrNrRl2b93Ruy_g", "review_count": 49, "categories": [{"alias": "sandwiches", "title": "Sandwiches"}, {"alias": "beer_and_wine", "title": "Beer, Wine & Spirits"}], "rating": 4.0, "coordinates": {"latitude": 42.57485, "longitude": -71.83574}, "transactions": ["delivery"], "price": "$$", "location": {"address1": "85 Westminster St", "address2": "", "address3": "", "city": "Fitchburg", "zip_code": "01420", "country": "US", "state": "MA", "display_address": ["85 Westminster St", "Fitchburg, MA 01420"]}, "phone": "+19783451100", "display_phone": "(978) 345-1100", "distance": 17492.912970534057}, {"id": "NSR3gnnaeCJfL99xif_PNQ", "alias": "petersham-country-store-petersham", "name": "Petersham Country Store", "image_url": "https://s3-media2.fl.yelpcdn.com/bphoto/MGNdpq_qs24ltsY9fBcmWQ/o.jpg", "is_closed": false, "url": "https://www.yelp.com/biz/petersham-country-store-petersham?adjust_creative=ywY5UnLZrNrRl2b93Ruy_g&utm_campaign=yelp_api_v3&utm_medium=api_v3_business_search&utm_source=ywY5UnLZrNrRl2b93Ruy_g", "review_count": 29, "categories": [{"alias": "grocery", "title": "Grocery"}, {"alias": "cafes", "title": "Cafes"}, {"alias": "artsandcrafts", "title": "Arts & Crafts"}], "rating": 4.5, "coordinates": {"latitude": 42.48871, "longitude": -72.18573}, "transactions": [], "price": "$$", "location": {"address1": "2 N Main St", "address2": "", "address3": "", "city": "Petersham", "zip_code": "01366", "country": "US", "state": "MA", "display_address": ["2 N Main St", "Petersham, MA 01366"]}, "phone": "+19787240000", "display_phone": "(978) 724-0000", "distance": 14456.203126021339}, {"id": "Er46vYBcDS6EjNNSUkZymA", "alias": "southside-grille-and-margarita-factory-gardner", "name": "Southside Grille & Margarita Factory", "image_url": "https://s3-media2.fl.yelpcdn.com/bphoto/tikYPLIQMd0z1iQErdjLag/o.jpg", "is_closed": false, "url": "https://www.yelp.com/biz/southside-grille-and-margarita-factory-gardner?adjust_creative=ywY5UnLZrNrRl2b93Ruy_g&utm_campaign=yelp_api_v3&utm_medium=api_v3_business_search&utm_source=ywY5UnLZrNrRl2b93Ruy_g", "review_count": 49, "categories": [{"alias": "tradamerican", "title": "American (Traditional)"}, {"alias": "mexican", "title": "Mexican"}], "rating": 2.5, "coordinates": {"latitude": 42.56069, "longitude": -71.98926}, "transactions": [], "price": "$$", "location": {"address1": "242 W Broadway", "address2": "", "address3": "", "city": "Gardner", "zip_code": "01440", "country": "US", "state": "MA", "display_address": ["242 W Broadway", "Gardner, MA 01440"]}, "phone": "+19786321057", "display_phone": "(978) 632-1057", "distance": 8727.81033582}, {"id": "mPe60pDS3EXv22cdKwvBWg", "alias": "the-g-vegas-cafe-gardner-3", "name": "The G-Vegas Cafe", "image_url": "https://s3-media4.fl.yelpcdn.com/bphoto/J82gmv9lL6CPrBk8WMqzSg/o.jpg", "is_closed": false, "url": "https://www.yelp.com/biz/the-g-vegas-cafe-gardner-3?adjust_creative=ywY5UnLZrNrRl2b93Ruy_g&utm_campaign=yelp_api_v3&utm_medium=api_v3_business_search&utm_source=ywY5UnLZrNrRl2b93Ruy_g", "review_count": 41, "categories": [{"alias": "tradamerican", "title": "American (Traditional)"}, {"alias": "diners", "title": "Diners"}], "rating": 3.0, "coordinates": {"latitude": 42.57645, "longitude": -71.99463}, "transactions": [], "price": "$", "location": {"address1": "280 Central St", "address2": null, "address3": null, "city": "Gardner", "zip_code": "01440", "country": "US", "state": "MA", "display_address": ["280 Central St", "Gardner, MA 01440"]}, "phone": "+19786324040", "display_phone": "(978) 632-4040", "distance": 10397.286666142649}, {"id": "CHSG_1GTPDJtbP7CMjNVVw", "alias": "toulas-house-of-pizza-rutland", "name": "Toula's House of Pizza", "image_url": "https://s3-media2.fl.yelpcdn.com/bphoto/piSL9596sSDhdrIR9AUy2g/o.jpg", "is_closed": false, "url": "https://www.yelp.com/biz/toulas-house-of-pizza-rutland?adjust_creative=ywY5UnLZrNrRl2b93Ruy_g&utm_campaign=yelp_api_v3&utm_medium=api_v3_business_search&utm_source=ywY5UnLZrNrRl2b93Ruy_g", "review_count": 17, "categories": [{"alias": "pizza", "title": "Pizza"}, {"alias": "seafood", "title": "Seafood"}], "rating": 3.5, "coordinates": {"latitude": 42.37652, "longitude": -71.93563}, "transactions": [], "price": "$", "location": {"address1": "87 Main St", "address2": "", "address3": "", "city": "Rutland", "zip_code": "01543", "country": "US", "state": "MA", "display_address": ["87 Main St", "Rutland, MA 01543"]}, "phone": "+15088868888", "display_phone": "(508) 886-8888", "distance": 13397.192020072433}, {"id": "tgXlgpUx0KcCIlyU3_dNQQ", "alias": "wong-dynasty-and-yankee-grill-holden", "name": "Wong Dynasty And Yankee Grill", "image_url": "https://s3-media2.fl.yelpcdn.com/bphoto/cjCydv3hK_XxSX7Spb2ClQ/o.jpg", "is_closed": false, "url": "https://www.yelp.com/biz/wong-dynasty-and-yankee-grill-holden?adjust_creative=ywY5UnLZrNrRl2b93Ruy_g&utm_campaign=yelp_api_v3&utm_medium=api_v3_business_search&utm_source=ywY5UnLZrNrRl2b93Ruy_g", "review_count": 47, "categories": [{"alias": "chinese", "title": "Chinese"}, {"alias": "sushi", "title": "Sushi Bars"}], "rating": 3.5, "coordinates": {"latitude": 42.342972, "longitude": -71.862584}, "transactions": ["delivery"], "price": "$$", "location": {"address1": "176 Reservoir St", "address2": "", "address3": "", "city": "Holden", "zip_code": "01520", "country": "US", "state": "MA", "display_address": ["176 Reservoir St", "Holden, MA 01520"]}, "phone": "+15088292188", "display_phone": "(508) 829-2188", "distance": 19776.241076868995}, {"id": "pSBQkytH3cknYyZVcREyvg", "alias": "patriots-roast-beef-and-grill-templeton", "name": "Patriots Roast Beef and Grill", "image_url": "https://s3-media1.fl.yelpcdn.com/bphoto/jQT2dQaX-oAPGqS9MG8Mvg/o.jpg", "is_closed": false, "url": "https://www.yelp.com/biz/patriots-roast-beef-and-grill-templeton?adjust_creative=ywY5UnLZrNrRl2b93Ruy_g&utm_campaign=yelp_api_v3&utm_medium=api_v3_business_search&utm_source=ywY5UnLZrNrRl2b93Ruy_g", "review_count": 17, "categories": [{"alias": "pizza", "title": "Pizza"}, {"alias": "tradamerican", "title": "American (Traditional)"}], "rating": 3.5, "coordinates": {"latitude": 42.5615082, "longitude": -72.038887}, "transactions": ["pickup", "delivery"], "price": "$", "location": {"address1": "146 Patriots Rd", "address2": null, "address3": null, "city": "Templeton", "zip_code": "01468", "country": "US", "state": "MA", "display_address": ["146 Patriots Rd", "Templeton, MA 01468"]}, "phone": "+19786329951", "display_phone": "(978) 632-9951", "distance": 8965.251521852471}, {"id": "MMDcTPhGXYDu0-HhBHqMrw", "alias": "shanes-hot-dogs-gardner", "name": "Shane's Hot Dogs", "image_url": "", "is_closed": false, "url": "https://www.yelp.com/biz/shanes-hot-dogs-gardner?adjust_creative=ywY5UnLZrNrRl2b93Ruy_g&utm_campaign=yelp_api_v3&utm_medium=api_v3_business_search&utm_source=ywY5UnLZrNrRl2b93Ruy_g", "review_count": 1, "categories": [{"alias": "hotdog", "title": "Hot Dogs"}, {"alias": "foodstands", "title": "Food Stands"}], "rating": 2.0, "coordinates": {"latitude": 42.5677898, "longitude": -71.9836277}, "transactions": [], "price": "$", "location": {"address1": "500 Chestnut St", "address2": "", "address3": null, "city": "Gardner", "zip_code": "01440", "country": "US", "state": "MA", "display_address": ["500 Chestnut St", "Gardner, MA 01440"]}, "phone": "+19782735068", "display_phone": "(978) 273-5068", "distance": 9589.199652925525}, {"id": "Kr3vRRhCDsLj6LY6OEaR5A", "alias": "king-phillip-motel-phillipston", "name": "King Phillip Motel", "image_url": "", "is_closed": false, "url": "https://www.yelp.com/biz/king-phillip-motel-phillipston?adjust_creative=ywY5UnLZrNrRl2b93Ruy_g&utm_campaign=yelp_api_v3&utm_medium=api_v3_business_search&utm_source=ywY5UnLZrNrRl2b93Ruy_g", "review_count": 3, "categories": [{"alias": "hotels", "title": "Hotels"}, {"alias": "restaurants", "title": "Restaurants"}], "rating": 3.0, "coordinates": {"latitude": 42.5698651, "longitude": -72.1321599}, "transactions": [], "location": {"address1": "35 State Rd", "address2": "", "address3": "", "city": "Phillipston", "zip_code": "01331", "country": "US", "state": "MA", "display_address": ["35 State Rd", "Phillipston, MA 01331"]}, "phone": "+19782495300", "display_phone": "(978) 249-5300", "distance": 13846.730622210036}, {"id": "tkD81L69HUt0ZUzvdSYNog", "alias": "monti-farms-and-deli-princeton", "name": "Monti Farms & Deli", "image_url": "", "is_closed": false, "url": "https://www.yelp.com/biz/monti-farms-and-deli-princeton?adjust_creative=ywY5UnLZrNrRl2b93Ruy_g&utm_campaign=yelp_api_v3&utm_medium=api_v3_business_search&utm_source=ywY5UnLZrNrRl2b93Ruy_g", "review_count": 3, "categories": [{"alias": "farmersmarket", "title": "Farmers Market"}, {"alias": "delis", "title": "Delis"}], "rating": 5.0, "coordinates": {"latitude": 42.4228106, "longitude": -71.8783023}, "transactions": [], "location": {"address1": "194 Worcester Rd", "address2": "", "address3": null, "city": "Princeton", "zip_code": "01541", "country": "US", "state": "MA", "display_address": ["194 Worcester Rd", "Princeton, MA 01541"]}, "phone": "+19194284758", "display_phone": "(919) 428-4758", "distance": 12742.999194846243}, {"id": "E2PBDgjjwdGvZPnFX8_P4A", "alias": "princeton-house-of-pizza-princeton", "name": "Princeton House of Pizza", "image_url": "https://s3-media2.fl.yelpcdn.com/bphoto/xo0WUiNcc8y2UMGDMwh6qg/o.jpg", "is_closed": false, "url": "https://www.yelp.com/biz/princeton-house-of-pizza-princeton?adjust_creative=ywY5UnLZrNrRl2b93Ruy_g&utm_campaign=yelp_api_v3&utm_medium=api_v3_business_search&utm_source=ywY5UnLZrNrRl2b93Ruy_g", "review_count": 13, "categories": [{"alias": "pizza", "title": "Pizza"}], "rating": 3.0, "coordinates": {"latitude": 42.4501459300518, "longitude": -71.8805374950171}, "transactions": [], "price": "$$", "location": {"address1": "25 Hubbardston Rd", "address2": "", "address3": "", "city": "Princeton", "zip_code": "01541", "country": "US", "state": "MA", "display_address": ["25 Hubbardston Rd", "Princeton, MA 01541"]}, "phone": "+19784645858", "display_phone": "(978) 464-5858", "distance": 11226.70196906986}, {"id": "tR-90QTzmqgR9u2nHnz73A", "alias": "lucky-dragon-ii-ashburnham", "name": "Lucky Dragon II", "image_url": "https://s3-media4.fl.yelpcdn.com/bphoto/XQDljQI7rXmPqxpMWy852g/o.jpg", "is_closed": false, "url": "https://www.yelp.com/biz/lucky-dragon-ii-ashburnham?adjust_creative=ywY5UnLZrNrRl2b93Ruy_g&utm_campaign=yelp_api_v3&utm_medium=api_v3_business_search&utm_source=ywY5UnLZrNrRl2b93Ruy_g", "review_count": 5, "categories": [{"alias": "chinese", "title": "Chinese"}], "rating": 3.5, "coordinates": {"latitude": 42.60912, "longitude": -71.94059}, "transactions": ["pickup", "delivery"], "price": "$", "location": {"address1": "2 S Pleasant St", "address2": null, "address3": null, "city": "Ashburnham", "zip_code": "01430", "country": "US", "state": "MA", "display_address": ["2 S Pleasant St", "Ashburnham, MA 01430"]}, "phone": "+19788271318", "display_phone": "(978) 827-1318", "distance": 15062.815062048381}, {"id": "3PdRmNoO-NYX1eU3Zu3A1w", "alias": "jade-ii-gardner", "name": "Jade II", "image_url": "", "is_closed": false, "url": "https://www.yelp.com/biz/jade-ii-gardner?adjust_creative=ywY5UnLZrNrRl2b93Ruy_g&utm_campaign=yelp_api_v3&utm_medium=api_v3_business_search&utm_source=ywY5UnLZrNrRl2b93Ruy_g", "review_count": 4, "categories": [{"alias": "restaurants", "title": "Restaurants"}], "rating": 3.0, "coordinates": {"latitude": 42.567081451416, "longitude": -71.9835357666016}, "transactions": [], "location": {"address1": "19 Union Sq", "address2": null, "address3": null, "city": "Gardner", "zip_code": "01440", "country": "US", "state": "MA", "display_address": ["19 Union Sq", "Gardner, MA 01440"]}, "phone": "+19786308868", "display_phone": "(978) 630-8868", "distance": 9514.773945574407}, {"id": "zO6XVdcnBaFIiG9rxdKVrw", "alias": "heavy-evies-diner-rutland", "name": "Heavy Evie's Diner", "image_url": "https://s3-media4.fl.yelpcdn.com/bphoto/5l2DxKoKM-oothvoLdGDag/o.jpg", "is_closed": false, "url": "https://www.yelp.com/biz/heavy-evies-diner-rutland?adjust_creative=ywY5UnLZrNrRl2b93Ruy_g&utm_campaign=yelp_api_v3&utm_medium=api_v3_business_search&utm_source=ywY5UnLZrNrRl2b93Ruy_g", "review_count": 18, "categories": [{"alias": "diners", "title": "Diners"}], "rating": 4.0, "coordinates": {"latitude": 42.3768478631973, "longitude": -71.9532662630081}, "transactions": [], "price": "$", "location": {"address1": "2 Maple Ave", "address2": "", "address3": "", "city": "Rutland", "zip_code": "01543", "country": "US", "state": "MA", "display_address": ["2 Maple Ave", "Rutland, MA 01543"]}, "phone": "+17742340600", "display_phone": "(774) 234-0600", "distance": 12742.402231796132}, {"id": "iVk5L0JWf_92isJK9JWpwA", "alias": "village-pizza-and-subs-baldwinville-2", "name": "Village Pizza & Subs", "image_url": "https://s3-media2.fl.yelpcdn.com/bphoto/MccvnRH-t1sS0jyeKzBrCQ/o.jpg", "is_closed": false, "url": "https://www.yelp.com/biz/village-pizza-and-subs-baldwinville-2?adjust_creative=ywY5UnLZrNrRl2b93Ruy_g&utm_campaign=yelp_api_v3&utm_medium=api_v3_business_search&utm_source=ywY5UnLZrNrRl2b93Ruy_g", "review_count": 6, "categories": [{"alias": "pizza", "title": "Pizza"}, {"alias": "seafood", "title": "Seafood"}], "rating": 4.0, "coordinates": {"latitude": 42.60683, "longitude": -72.07494}, "transactions": [], "price": "$", "location": {"address1": "5 Elm St", "address2": "", "address3": "", "city": "Baldwinville", "zip_code": "01436", "country": "US", "state": "MA", "display_address": ["5 Elm St", "Baldwinville, MA 01436"]}, "phone": "+19789394401", "display_phone": "(978) 939-4401", "distance": 14691.918098189904}, {"id": "OpRAzgT3CzIx2qpZ2V2_1w", "alias": "the-50-50-diner-fitchburg", "name": "The 50/50 Diner", "image_url": "https://s3-media3.fl.yelpcdn.com/bphoto/dOL50X7gZLdF6p8SsVz3dQ/o.jpg", "is_closed": false, "url": "https://www.yelp.com/biz/the-50-50-diner-fitchburg?adjust_creative=ywY5UnLZrNrRl2b93Ruy_g&utm_campaign=yelp_api_v3&utm_medium=api_v3_business_search&utm_source=ywY5UnLZrNrRl2b93Ruy_g", "review_count": 35, "categories": [{"alias": "diners", "title": "Diners"}, {"alias": "coffee", "title": "Coffee & Tea"}], "rating": 3.5, "coordinates": {"latitude": 42.58123, "longitude": -71.82228}, "transactions": ["delivery"], "price": "$", "location": {"address1": "440 River St", "address2": "", "address3": "", "city": "Fitchburg", "zip_code": "01420", "country": "US", "state": "MA", "display_address": ["440 River St", "Fitchburg, MA 01420"]}, "phone": "+19783458030", "display_phone": "(978) 345-8030", "distance": 18813.76710222891}, {"id": "Nwd8vF2dgSY5JP2zc0qMAQ", "alias": "rutland-house-of-pizza-rutland-2", "name": "Rutland House of Pizza", "image_url": "https://s3-media1.fl.yelpcdn.com/bphoto/xeybHAygluewNU7_7HM1wg/o.jpg", "is_closed": false, "url": "https://www.yelp.com/biz/rutland-house-of-pizza-rutland-2?adjust_creative=ywY5UnLZrNrRl2b93Ruy_g&utm_campaign=yelp_api_v3&utm_medium=api_v3_business_search&utm_source=ywY5UnLZrNrRl2b93Ruy_g", "review_count": 13, "categories": [{"alias": "pizza", "title": "Pizza"}], "rating": 3.0, "coordinates": {"latitude": 42.3766975, "longitude": -71.9528885}, "transactions": [], "price": "$$", "location": {"address1": "5 Maple Ave", "address2": null, "address3": null, "city": "Rutland", "zip_code": "01543", "country": "US", "state": "MA", "display_address": ["5 Maple Ave", "Rutland, MA 01543"]}, "phone": "+15088862500", "display_phone": "(508) 886-2500", "distance": 12796.54670965997}, {"id": "caZ_VkDE5opTNQ_uHR-p9w", "alias": "yangs-kitchen-rutland", "name": "Yang's Kitchen", "image_url": "https://s3-media4.fl.yelpcdn.com/bphoto/u4SrZuWsCj2U69mblu8mVg/o.jpg", "is_closed": false, "url": "https://www.yelp.com/biz/yangs-kitchen-rutland?adjust_creative=ywY5UnLZrNrRl2b93Ruy_g&utm_campaign=yelp_api_v3&utm_medium=api_v3_business_search&utm_source=ywY5UnLZrNrRl2b93Ruy_g", "review_count": 16, "categories": [{"alias": "chinese", "title": "Chinese"}], "rating": 3.5, "coordinates": {"latitude": 42.3760185, "longitude": -71.954483}, "transactions": [], "price": "$", "location": {"address1": "249 Main St", "address2": "Ste 2", "address3": null, "city": "Rutland", "zip_code": "01543", "country": "US", "state": "MA", "display_address": ["249 Main St", "Ste 2", "Rutland, MA 01543"]}, "phone": "+15088862228", "display_phone": "(508) 886-2228", "distance": 12807.67780620279}, {"id": "D9gUBJQEvdTydNz2AfKHgg", "alias": "mexicali-cantina-grill-holden", "name": "Mexicali Cantina Grill", "image_url": "https://s3-media3.fl.yelpcdn.com/bphoto/TfkaDODqYteS75LQdrH4LQ/o.jpg", "is_closed": false, "url": "https://www.yelp.com/biz/mexicali-cantina-grill-holden?adjust_creative=ywY5UnLZrNrRl2b93Ruy_g&utm_campaign=yelp_api_v3&utm_medium=api_v3_business_search&utm_source=ywY5UnLZrNrRl2b93Ruy_g", "review_count": 80, "categories": [{"alias": "mexican", "title": "Mexican"}], "rating": 3.0, "coordinates": {"latitude": 42.3411323, "longitude": -71.8399955}, "transactions": ["pickup", "delivery"], "price": "$$", "location": {"address1": "700 Main St", "address2": "", "address3": "", "city": "Holden", "zip_code": "01520", "country": "US", "state": "MA", "display_address": ["700 Main St", "Holden, MA 01520"]}, "phone": "+15088297700", "display_phone": "(508) 829-7700", "distance": 21114.880727483633}, {"id": "JsyervcPMfFnRwRbtdsIAg", "alias": "the-pizza-barn-baldwinville", "name": "The Pizza Barn", "image_url": "https://s3-media1.fl.yelpcdn.com/bphoto/Ce7-bTdAMVVbfEbue3hUog/o.jpg", "is_closed": false, "url": "https://www.yelp.com/biz/the-pizza-barn-baldwinville?adjust_creative=ywY5UnLZrNrRl2b93Ruy_g&utm_campaign=yelp_api_v3&utm_medium=api_v3_business_search&utm_source=ywY5UnLZrNrRl2b93Ruy_g", "review_count": 5, "categories": [{"alias": "pizza", "title": "Pizza"}, {"alias": "italian", "title": "Italian"}, {"alias": "mediterranean", "title": "Mediterranean"}], "rating": 2.0, "coordinates": {"latitude": 42.60673, "longitude": -72.07426}, "transactions": [], "price": "$$", "location": {"address1": "9 Central St", "address2": "", "address3": "", "city": "Baldwinville", "zip_code": "01436", "country": "US", "state": "MA", "display_address": ["9 Central St", "Baldwinville, MA 01436"]}, "phone": "+19789392156", "display_phone": "(978) 939-2156", "distance": 14676.662549801511}, {"id": "M5aNw3UEOPiibQ_zBw_Ohg", "alias": "lees-hot-dog-stand-baldwinville", "name": "Lee's Hot Dog Stand", "image_url": "https://s3-media1.fl.yelpcdn.com/bphoto/i-DbLkQboOz9my41GtJ_8g/o.jpg", "is_closed": false, "url": "https://www.yelp.com/biz/lees-hot-dog-stand-baldwinville?adjust_creative=ywY5UnLZrNrRl2b93Ruy_g&utm_campaign=yelp_api_v3&utm_medium=api_v3_business_search&utm_source=ywY5UnLZrNrRl2b93Ruy_g", "review_count": 5, "categories": [{"alias": "restaurants", "title": "Restaurants"}], "rating": 2.5, "coordinates": {"latitude": 42.60635, "longitude": -72.072093}, "transactions": [], "price": "$", "location": {"address1": "31 Central St", "address2": "", "address3": "", "city": "Baldwinville", "zip_code": "01436", "country": "US", "state": "MA", "display_address": ["31 Central St", "Baldwinville, MA 01436"]}, "phone": "+19789395346", "display_phone": "(978) 939-5346", "distance": 14559.154776553512}, {"id": "eIRuELHslKEMAmHm0DHbxw", "alias": "pleasant-house-of-pizza-gardner", "name": "Pleasant House of Pizza", "image_url": "", "is_closed": false, "url": "https://www.yelp.com/biz/pleasant-house-of-pizza-gardner?adjust_creative=ywY5UnLZrNrRl2b93Ruy_g&utm_campaign=yelp_api_v3&utm_medium=api_v3_business_search&utm_source=ywY5UnLZrNrRl2b93Ruy_g", "review_count": 1, "categories": [{"alias": "pizza", "title": "Pizza"}], "rating": 3.0, "coordinates": {"latitude": 42.5748923481699, "longitude": -71.9946629036695}, "transactions": [], "location": {"address1": "68 Main St", "address2": "", "address3": "", "city": "Gardner", "zip_code": "01440", "country": "US", "state": "MA", "display_address": ["68 Main St", "Gardner, MA 01440"]}, "phone": "", "display_phone": "", "distance": 10216.724960740024}, {"id": "HVqcCnaRGDOa5oOg2ZgHkg", "alias": "the-wellness-bar-princeton", "name": "The Wellness Bar", "image_url": "https://s3-media2.fl.yelpcdn.com/bphoto/tl0vwaMAapbIuGgpTJiRGQ/o.jpg", "is_closed": false, "url": "https://www.yelp.com/biz/the-wellness-bar-princeton?adjust_creative=ywY5UnLZrNrRl2b93Ruy_g&utm_campaign=yelp_api_v3&utm_medium=api_v3_business_search&utm_source=ywY5UnLZrNrRl2b93Ruy_g", "review_count": 5, "categories": [{"alias": "juicebars", "title": "Juice Bars & Smoothies"}, {"alias": "coffee", "title": "Coffee & Tea"}, {"alias": "sandwiches", "title": "Sandwiches"}], "rating": 4.5, "coordinates": {"latitude": 42.42134, "longitude": -71.87812}, "transactions": [], "price": "$$", "location": {"address1": "206 Worcester Rd", "address2": "", "address3": "The Thirsty Lab", "city": "Princeton", "zip_code": "01541", "country": "US", "state": "MA", "display_address": ["206 Worcester Rd", "The Thirsty Lab", "Princeton, MA 01541"]}, "phone": "+19784640600", "display_phone": "(978) 464-0600", "distance": 12839.046025489726}, {"id": "-2WIQ0AcWUxXH7LMAHFOAg", "alias": "orbit-pizza-holden", "name": "Orbit Pizza", "image_url": "https://s3-media1.fl.yelpcdn.com/bphoto/yHek_ZOHVDILdUg1twMQJA/o.jpg", "is_closed": false, "url": "https://www.yelp.com/biz/orbit-pizza-holden?adjust_creative=ywY5UnLZrNrRl2b93Ruy_g&utm_campaign=yelp_api_v3&utm_medium=api_v3_business_search&utm_source=ywY5UnLZrNrRl2b93Ruy_g", "review_count": 14, "categories": [{"alias": "pizza", "title": "Pizza"}], "rating": 4.0, "coordinates": {"latitude": 42.34505, "longitude": -71.8543095}, "transactions": ["delivery"], "price": "$", "location": {"address1": "985 Main St", "address2": "", "address3": "", "city": "Holden", "zip_code": "01520", "country": "US", "state": "MA", "display_address": ["985 Main St", "Holden, MA 01520"]}, "phone": "+15088295030", "display_phone": "(508) 829-5030", "distance": 20008.924726702222}, {"id": "5ld1TVlEcddnCbeq0ulxkQ", "alias": "barre-pizza-barre", "name": "Barre Pizza", "image_url": "https://s3-media1.fl.yelpcdn.com/bphoto/Lk1bGeWFqv1WyoReOh9jyA/o.jpg", "is_closed": false, "url": "https://www.yelp.com/biz/barre-pizza-barre?adjust_creative=ywY5UnLZrNrRl2b93Ruy_g&utm_campaign=yelp_api_v3&utm_medium=api_v3_business_search&utm_source=ywY5UnLZrNrRl2b93Ruy_g", "review_count": 12, "categories": [{"alias": "pizza", "title": "Pizza"}, {"alias": "salad", "title": "Salad"}, {"alias": "sandwiches", "title": "Sandwiches"}], "rating": 3.0, "coordinates": {"latitude": 42.42168, "longitude": -72.10447}, "transactions": [], "price": "$$", "location": {"address1": "10 Moulton St", "address2": "", "address3": "", "city": "Barre", "zip_code": "01005", "country": "US", "state": "MA", "display_address": ["10 Moulton St", "Barre, MA 01005"]}, "phone": "+19783554595", "display_phone": "(978) 355-4595", "distance": 10380.953399503696}, {"id": "0lcbZSAnt_34MVo8kcLNHA", "alias": "over-easy-cafe-sterling", "name": "Over Easy Cafe", "image_url": "https://s3-media2.fl.yelpcdn.com/bphoto/nSebv_aDs5m6Qx4vt2O8HA/o.jpg", "is_closed": false, "url": "https://www.yelp.com/biz/over-easy-cafe-sterling?adjust_creative=ywY5UnLZrNrRl2b93Ruy_g&utm_campaign=yelp_api_v3&utm_medium=api_v3_business_search&utm_source=ywY5UnLZrNrRl2b93Ruy_g", "review_count": 85, "categories": [{"alias": "breakfast_brunch", "title": "Breakfast & Brunch"}, {"alias": "diners", "title": "Diners"}], "rating": 4.0, "coordinates": {"latitude": 42.43011, "longitude": -71.810998}, "transactions": [], "price": "$", "location": {"address1": "220 Redemption Rock Trl", "address2": "", "address3": "", "city": "Sterling", "zip_code": "01564", "country": "US", "state": "MA", "display_address": ["220 Redemption Rock Trl", "Sterling, MA 01564"]}, "phone": "+19784226686", "display_phone": "(978) 422-6686", "distance": 17355.325382788607}, {"id": "A0w8OvREopJC9IoInjXWog", "alias": "parkhill-pizza-fitchburg", "name": "Parkhill Pizza", "image_url": "https://s3-media3.fl.yelpcdn.com/bphoto/QX4gB8A0cW5waHVvAiAxuw/o.jpg", "is_closed": false, "url": "https://www.yelp.com/biz/parkhill-pizza-fitchburg?adjust_creative=ywY5UnLZrNrRl2b93Ruy_g&utm_campaign=yelp_api_v3&utm_medium=api_v3_business_search&utm_source=ywY5UnLZrNrRl2b93Ruy_g", "review_count": 42, "categories": [{"alias": "pizza", "title": "Pizza"}], "rating": 3.5, "coordinates": {"latitude": 42.56837, "longitude": -71.81707}, "transactions": ["delivery"], "price": "$$", "location": {"address1": "96 Franklin Rd", "address2": "", "address3": "", "city": "Fitchburg", "zip_code": "01420", "country": "US", "state": "MA", "display_address": ["96 Franklin Rd", "Fitchburg, MA 01420"]}, "phone": "+19783437100", "display_phone": "(978) 343-7100", "distance": 18552.328360641204}, {"id": "X3cQsdbtqNiIxj3hkaUleQ", "alias": "holden-pizza-holden", "name": "Holden Pizza", "image_url": "https://s3-media1.fl.yelpcdn.com/bphoto/uGGF_81tGsd7JWqquBjOuA/o.jpg", "is_closed": false, "url": "https://www.yelp.com/biz/holden-pizza-holden?adjust_creative=ywY5UnLZrNrRl2b93Ruy_g&utm_campaign=yelp_api_v3&utm_medium=api_v3_business_search&utm_source=ywY5UnLZrNrRl2b93Ruy_g", "review_count": 20, "categories": [{"alias": "pizza", "title": "Pizza"}], "rating": 3.5, "coordinates": {"latitude": 42.3363418, "longitude": -71.8363138}, "transactions": ["delivery"], "price": "$$", "location": {"address1": "597 Main St", "address2": "", "address3": "", "city": "Holden", "zip_code": "01520", "country": "US", "state": "MA", "display_address": ["597 Main St", "Holden, MA 01520"]}, "phone": "+15088295406", "display_phone": "(508) 829-5406", "distance": 21586.312643037483}, {"id": "PhQ3uxMgUl-T6aAKhoQZ9A", "alias": "west-broadway-pizza-gardner", "name": "West Broadway Pizza", "image_url": "https://s3-media2.fl.yelpcdn.com/bphoto/ypGtnWkRqQLnXkiHN6nWHg/o.jpg", "is_closed": false, "url": "https://www.yelp.com/biz/west-broadway-pizza-gardner?adjust_creative=ywY5UnLZrNrRl2b93Ruy_g&utm_campaign=yelp_api_v3&utm_medium=api_v3_business_search&utm_source=ywY5UnLZrNrRl2b93Ruy_g", "review_count": 11, "categories": [{"alias": "pizza", "title": "Pizza"}], "rating": 3.5, "coordinates": {"latitude": 42.5579833984375, "longitude": -71.9809036254883}, "transactions": [], "price": "$$", "location": {"address1": "15 W Broadway", "address2": "", "address3": "", "city": "Gardner", "zip_code": "01440", "country": "US", "state": "MA", "display_address": ["15 W Broadway", "Gardner, MA 01440"]}, "phone": "+19786303111", "display_phone": "(978) 630-3111", "distance": 8594.84097276515}, {"id": "ca-cNiTee3s_oxTewG1CDg", "alias": "subway-gardner-7", "name": "Subway", "image_url": "https://s3-media3.fl.yelpcdn.com/bphoto/-GDNHfONoo-cnd-5mtzipg/o.jpg", "is_closed": false, "url": "https://www.yelp.com/biz/subway-gardner-7?adjust_creative=ywY5UnLZrNrRl2b93Ruy_g&utm_campaign=yelp_api_v3&utm_medium=api_v3_business_search&utm_source=ywY5UnLZrNrRl2b93Ruy_g", "review_count": 3, "categories": [{"alias": "sandwiches", "title": "Sandwiches"}], "rating": 3.5, "coordinates": {"latitude": 42.566047, "longitude": -71.977501}, "transactions": [], "price": "$", "location": {"address1": "30 Pearson Blvd", "address2": "", "address3": "", "city": "Gardner", "zip_code": "01440", "country": "US", "state": "MA", "display_address": ["30 Pearson Blvd", "Gardner, MA 01440"]}, "phone": "+19786325213", "display_phone": "(978) 632-5213", "distance": 9533.590907427615}, {"id": "e331pQV1I-SSnWw_w0PfMA", "alias": "wendys-gardner", "name": "Wendy's", "image_url": "https://s3-media1.fl.yelpcdn.com/bphoto/yGojYMgHFk_orMJG7_CAdQ/o.jpg", "is_closed": false, "url": "https://www.yelp.com/biz/wendys-gardner?adjust_creative=ywY5UnLZrNrRl2b93Ruy_g&utm_campaign=yelp_api_v3&utm_medium=api_v3_business_search&utm_source=ywY5UnLZrNrRl2b93Ruy_g", "review_count": 5, "categories": [{"alias": "hotdogs", "title": "Fast Food"}, {"alias": "burgers", "title": "Burgers"}], "rating": 3.5, "coordinates": {"latitude": 42.56622, "longitude": -71.97991}, "transactions": [], "price": "$", "location": {"address1": "28 Pearson Blvd", "address2": "", "address3": "", "city": "Gardner", "zip_code": "01440", "country": "US", "state": "MA", "display_address": ["28 Pearson Blvd", "Gardner, MA 01440"]}, "phone": "+19786303490", "display_phone": "(978) 630-3490", "distance": 9525.615529988294}, {"id": "lBW15hrQi7ZmoviO03sEuw", "alias": "mikes-pizza-of-westminster-westminster-2", "name": "Mike's Pizza of Westminster", "image_url": "https://s3-media2.fl.yelpcdn.com/bphoto/DWQliLLzaiE-SAQ25l-70Q/o.jpg", "is_closed": false, "url": "https://www.yelp.com/biz/mikes-pizza-of-westminster-westminster-2?adjust_creative=ywY5UnLZrNrRl2b93Ruy_g&utm_campaign=yelp_api_v3&utm_medium=api_v3_business_search&utm_source=ywY5UnLZrNrRl2b93Ruy_g", "review_count": 14, "categories": [{"alias": "pizza", "title": "Pizza"}, {"alias": "salad", "title": "Salad"}, {"alias": "italian", "title": "Italian"}], "rating": 2.5, "coordinates": {"latitude": 42.5572891235352, "longitude": -71.8745956420898}, "transactions": [], "price": "$", "location": {"address1": "158 State Rd E", "address2": "", "address3": "", "city": "Westminster", "zip_code": "01473", "country": "US", "state": "MA", "display_address": ["158 State Rd E", "Westminster, MA 01473"]}, "phone": "+19788741800", "display_phone": "(978) 874-1800", "distance": 13774.503196583202}, {"id": "ybkcxwJrjVxwHu5LCWT71Q", "alias": "d-angelo-gardner", "name": "D'Angelo", "image_url": "", "is_closed": false, "url": "https://www.yelp.com/biz/d-angelo-gardner?adjust_creative=ywY5UnLZrNrRl2b93Ruy_g&utm_campaign=yelp_api_v3&utm_medium=api_v3_business_search&utm_source=ywY5UnLZrNrRl2b93Ruy_g", "review_count": 5, "categories": [{"alias": "sandwiches", "title": "Sandwiches"}], "rating": 2.5, "coordinates": {"latitude": 42.5666254, "longitude": -71.9823995}, "transactions": [], "location": {"address1": "43 Union Sq", "address2": "", "address3": "", "city": "Gardner", "zip_code": "01440", "country": "US", "state": "MA", "display_address": ["43 Union Sq", "Gardner, MA 01440"]}, "phone": "+19786327533", "display_phone": "(978) 632-7533", "distance": 9486.751496250221}, {"id": "gSfnBL-TNZVXjAx_1PVa1w", "alias": "sweets-n-java-holden-2", "name": "Sweets N' Java", "image_url": "https://s3-media2.fl.yelpcdn.com/bphoto/c1Kzw6hWRRVJh28ugrr92Q/o.jpg", "is_closed": false, "url": "https://www.yelp.com/biz/sweets-n-java-holden-2?adjust_creative=ywY5UnLZrNrRl2b93Ruy_g&utm_campaign=yelp_api_v3&utm_medium=api_v3_business_search&utm_source=ywY5UnLZrNrRl2b93Ruy_g", "review_count": 35, "categories": [{"alias": "cafes", "title": "Cafes"}], "rating": 4.0, "coordinates": {"latitude": 42.350904, "longitude": -71.8633653}, "transactions": [], "price": "$", "location": {"address1": "1207 Main St", "address2": "", "address3": "", "city": "Holden", "zip_code": "01520", "country": "US", "state": "MA", "display_address": ["1207 Main St", "Holden, MA 01520"]}, "phone": "+15088297900", "display_phone": "(508) 829-7900", "distance": 19044.922596935525}, {"id": "lI7pYUGOA3vbkMv8EvN9TQ", "alias": "122-diner-holden", "name": "122 Diner", "image_url": "https://s3-media2.fl.yelpcdn.com/bphoto/iP9fA0phKSJHD_Q6361oWA/o.jpg", "is_closed": false, "url": "https://www.yelp.com/biz/122-diner-holden?adjust_creative=ywY5UnLZrNrRl2b93Ruy_g&utm_campaign=yelp_api_v3&utm_medium=api_v3_business_search&utm_source=ywY5UnLZrNrRl2b93Ruy_g", "review_count": 40, "categories": [{"alias": "breakfast_brunch", "title": "Breakfast & Brunch"}], "rating": 4.0, "coordinates": {"latitude": 42.3540791000577, "longitude": -71.8721226835714}, "transactions": ["delivery"], "price": "$$", "location": {"address1": "1392 Main St", "address2": "", "address3": "", "city": "Holden", "zip_code": "01520", "country": "US", "state": "MA", "display_address": ["1392 Main St", "Holden, MA 01520"]}, "phone": "+15082100707", "display_phone": "(508) 210-0707", "distance": 18320.043764660128}, {"id": "boiEL8LxY8US_zN67Hd8gQ", "alias": "patriot-pizza-and-subs-gardner", "name": "Patriot Pizza & Subs", "image_url": "https://s3-media2.fl.yelpcdn.com/bphoto/9HO7wpIHyROEIqk9G2C_lw/o.jpg", "is_closed": false, "url": "https://www.yelp.com/biz/patriot-pizza-and-subs-gardner?adjust_creative=ywY5UnLZrNrRl2b93Ruy_g&utm_campaign=yelp_api_v3&utm_medium=api_v3_business_search&utm_source=ywY5UnLZrNrRl2b93Ruy_g", "review_count": 18, "categories": [{"alias": "pizza", "title": "Pizza"}], "rating": 3.5, "coordinates": {"latitude": 42.5662419, "longitude": -71.9800468}, "transactions": [], "price": "$$", "location": {"address1": "52 Pearson Blvd", "address2": "Ste 1", "address3": null, "city": "Gardner", "zip_code": "01440", "country": "US", "state": "MA", "display_address": ["52 Pearson Blvd", "Ste 1", "Gardner, MA 01440"]}, "phone": "+19786324500", "display_phone": "(978) 632-4500", "distance": 9481.454781820576}, {"id": "F1K8iHcH22xWJoLHJ898sw", "alias": "mountainside-bakery-and-cafe-princeton-2", "name": "Mountainside Bakery & Cafe", "image_url": "https://s3-media2.fl.yelpcdn.com/bphoto/UagP18_tn441kCP6vNF6ag/o.jpg", "is_closed": false, "url": "https://www.yelp.com/biz/mountainside-bakery-and-cafe-princeton-2?adjust_creative=ywY5UnLZrNrRl2b93Ruy_g&utm_campaign=yelp_api_v3&utm_medium=api_v3_business_search&utm_source=ywY5UnLZrNrRl2b93Ruy_g", "review_count": 46, "categories": [{"alias": "bakeries", "title": "Bakeries"}, {"alias": "cafes", "title": "Cafes"}, {"alias": "communitycenters", "title": "Community Centers"}], "rating": 4.5, "coordinates": {"latitude": 42.475367139192, "longitude": -71.8835869731025}, "transactions": [], "price": "$$", "location": {"address1": "213 Mountain Rd", "address2": null, "address3": null, "city": "Princeton", "zip_code": "01541", "country": "US", "state": "MA", "display_address": ["213 Mountain Rd", "Princeton, MA 01541"]}, "phone": "+19784640300", "display_phone": "(978) 464-0300", "distance": 10351.331459812494}, {"id": "37gP7ifq1CpZz9L9Pz80YQ", "alias": "stefanos-house-of-pizza-westminster", "name": "Stefanos' House of Pizza", "image_url": "https://s3-media1.fl.yelpcdn.com/bphoto/tE-DWbxiKdwXZItchnG96w/o.jpg", "is_closed": false, "url": "https://www.yelp.com/biz/stefanos-house-of-pizza-westminster?adjust_creative=ywY5UnLZrNrRl2b93Ruy_g&utm_campaign=yelp_api_v3&utm_medium=api_v3_business_search&utm_source=ywY5UnLZrNrRl2b93Ruy_g", "review_count": 15, "categories": [{"alias": "pizza", "title": "Pizza"}, {"alias": "salad", "title": "Salad"}, {"alias": "sandwiches", "title": "Sandwiches"}], "rating": 3.0, "coordinates": {"latitude": 42.546079, "longitude": -71.91376}, "transactions": [], "price": "$", "location": {"address1": "105 Main St", "address2": "", "address3": "", "city": "Westminster", "zip_code": "01473", "country": "US", "state": "MA", "display_address": ["105 Main St", "Westminster, MA 01473"]}, "phone": "+19788741922", "display_phone": "(978) 874-1922", "distance": 10497.08817616173}, {"id": "cmbDmIZzy72xY4jHt6pnXw", "alias": "cleghorn-house-of-pizza-fitchburg", "name": "Cleghorn House of Pizza", "image_url": "https://s3-media2.fl.yelpcdn.com/bphoto/dv2xuBLuDNc1azwZpKxT4w/o.jpg", "is_closed": false, "url": "https://www.yelp.com/biz/cleghorn-house-of-pizza-fitchburg?adjust_creative=ywY5UnLZrNrRl2b93Ruy_g&utm_campaign=yelp_api_v3&utm_medium=api_v3_business_search&utm_source=ywY5UnLZrNrRl2b93Ruy_g", "review_count": 23, "categories": [{"alias": "pizza", "title": "Pizza"}], "rating": 3.5, "coordinates": {"latitude": 42.568867, "longitude": -71.826717}, "transactions": [], "price": "$$", "location": {"address1": "416 Franklin Rd", "address2": "", "address3": "", "city": "Fitchburg", "zip_code": "01420", "country": "US", "state": "MA", "display_address": ["416 Franklin Rd", "Fitchburg, MA 01420"]}, "phone": "+19783457558", "display_phone": "(978) 345-7558", "distance": 17741.784743251057}, {"id": "z5SDOfUA5zNhGmyXIAXe8A", "alias": "northeast-pizza-barre", "name": "Northeast Pizza", "image_url": "https://s3-media1.fl.yelpcdn.com/bphoto/tNBoaH8M7BxY1upCowwS4A/o.jpg", "is_closed": false, "url": "https://www.yelp.com/biz/northeast-pizza-barre?adjust_creative=ywY5UnLZrNrRl2b93Ruy_g&utm_campaign=yelp_api_v3&utm_medium=api_v3_business_search&utm_source=ywY5UnLZrNrRl2b93Ruy_g", "review_count": 11, "categories": [{"alias": "pizza", "title": "Pizza"}], "rating": 2.5, "coordinates": {"latitude": 42.4102211, "longitude": -72.0980759}, "transactions": [], "price": "$", "location": {"address1": "570 Summer St", "address2": null, "address3": null, "city": "Barre", "zip_code": "01005", "country": "US", "state": "MA", "display_address": ["570 Summer St", "Barre, MA 01005"]}, "phone": "+19783554333", "display_phone": "(978) 355-4333", "distance": 10968.979295464154}, {"id": "6zgm4JX3gyWFWXFktXHMbQ", "alias": "burger-king-restaurant-gardner", "name": "Burger King Restaurant", "image_url": "", "is_closed": false, "url": "https://www.yelp.com/biz/burger-king-restaurant-gardner?adjust_creative=ywY5UnLZrNrRl2b93Ruy_g&utm_campaign=yelp_api_v3&utm_medium=api_v3_business_search&utm_source=ywY5UnLZrNrRl2b93Ruy_g", "review_count": 5, "categories": [{"alias": "restaurants", "title": "Restaurants"}], "rating": 1.0, "coordinates": {"latitude": 42.5658, "longitude": -71.99153}, "transactions": [], "price": "$", "location": {"address1": "9 Crawford St", "address2": "", "address3": "", "city": "Gardner", "zip_code": "01440", "country": "US", "state": "MA", "display_address": ["9 Crawford St", "Gardner, MA 01440"]}, "phone": "+19786326015", "display_phone": "(978) 632-6015", "distance": 9232.574624857525}, {"id": "NbgDeLbiysCEZcfOQax2Tw", "alias": "waites-corner-variety-and-luncheonette-fitchburg", "name": "Waites Corner Variety & Luncheonette", "image_url": "", "is_closed": false, "url": "https://www.yelp.com/biz/waites-corner-variety-and-luncheonette-fitchburg?adjust_creative=ywY5UnLZrNrRl2b93Ruy_g&utm_campaign=yelp_api_v3&utm_medium=api_v3_business_search&utm_source=ywY5UnLZrNrRl2b93Ruy_g", "review_count": 3, "categories": [{"alias": "restaurants", "title": "Restaurants"}], "rating": 3.5, "coordinates": {"latitude": 42.5653047901206, "longitude": -71.8454228242399}, "transactions": [], "location": {"address1": "550 Westminster St", "address2": "", "address3": "", "city": "Fitchburg", "zip_code": "01420", "country": "US", "state": "MA", "display_address": ["550 Westminster St", "Fitchburg, MA 01420"]}, "phone": "+19783452011", "display_phone": "(978) 345-2011", "distance": 16180.452232917398}, {"id": "BioqAWmVFY8b8X_KzIlW2A", "alias": "pizza-17-jefferson", "name": "Pizza 17", "image_url": "https://s3-media2.fl.yelpcdn.com/bphoto/8pViup6AZHzwix-3eLafxw/o.jpg", "is_closed": false, "url": "https://www.yelp.com/biz/pizza-17-jefferson?adjust_creative=ywY5UnLZrNrRl2b93Ruy_g&utm_campaign=yelp_api_v3&utm_medium=api_v3_business_search&utm_source=ywY5UnLZrNrRl2b93Ruy_g", "review_count": 16, "categories": [{"alias": "pizza", "title": "Pizza"}], "rating": 2.0, "coordinates": {"latitude": 42.3592529296875, "longitude": -71.8823852539062}, "transactions": ["delivery"], "price": "$$", "location": {"address1": "1625 Main St", "address2": null, "address3": null, "city": "Jefferson", "zip_code": "01522", "country": "US", "state": "MA", "display_address": ["1625 Main St", "Jefferson, MA 01522"]}, "phone": "+15088291744", "display_phone": "(508) 829-1744", "distance": 17352.92367391073}, {"id": "bxPkkUUZSgpcIECmiOVHBA", "alias": "westminster-cafe-westminster", "name": "Westminster Cafe", "image_url": "https://s3-media2.fl.yelpcdn.com/bphoto/oDlOcq4-1Lwei9pIqBrCIw/o.jpg", "is_closed": false, "url": "https://www.yelp.com/biz/westminster-cafe-westminster?adjust_creative=ywY5UnLZrNrRl2b93Ruy_g&utm_campaign=yelp_api_v3&utm_medium=api_v3_business_search&utm_source=ywY5UnLZrNrRl2b93Ruy_g", "review_count": 29, "categories": [{"alias": "breakfast_brunch", "title": "Breakfast & Brunch"}, {"alias": "seafood", "title": "Seafood"}, {"alias": "icecream", "title": "Ice Cream & Frozen Yogurt"}], "rating": 4.0, "coordinates": {"latitude": 42.548792, "longitude": -71.917325}, "transactions": [], "price": "$", "location": {"address1": "51 Main St", "address2": null, "address3": null, "city": "Westminster", "zip_code": "01473", "country": "US", "state": "MA", "display_address": ["51 Main St", "Westminster, MA 01473"]}, "phone": "+19788741833", "display_phone": "(978) 874-1833", "distance": 10485.393462356333}, {"id": "Hy1POwROoA4iTsszJUHyFg", "alias": "blue-moon-diner-gardner", "name": "Blue Moon Diner", "image_url": "https://s3-media1.fl.yelpcdn.com/bphoto/eEMNRD6Zzb0WmuUSlybVVQ/o.jpg", "is_closed": false, "url": "https://www.yelp.com/biz/blue-moon-diner-gardner?adjust_creative=ywY5UnLZrNrRl2b93Ruy_g&utm_campaign=yelp_api_v3&utm_medium=api_v3_business_search&utm_source=ywY5UnLZrNrRl2b93Ruy_g", "review_count": 48, "categories": [{"alias": "diners", "title": "Diners"}, {"alias": "newamerican", "title": "American (New)"}], "rating": 3.5, "coordinates": {"latitude": 42.574156, "longitude": -71.994432}, "transactions": [], "price": "$", "location": {"address1": "102 Main St", "address2": "", "address3": "", "city": "Gardner", "zip_code": "01440", "country": "US", "state": "MA", "display_address": ["102 Main St", "Gardner, MA 01440"]}, "phone": "+19786324333", "display_phone": "(978) 632-4333", "distance": 10137.811812535017}, {"id": "3ejotiHbd3qB8M1ZSr6iuw", "alias": "friendlys-gardner", "name": "Friendly's", "image_url": "https://s3-media2.fl.yelpcdn.com/bphoto/wcoUh5wyZ3aTbl6usrO4Ww/o.jpg", "is_closed": false, "url": "https://www.yelp.com/biz/friendlys-gardner?adjust_creative=ywY5UnLZrNrRl2b93Ruy_g&utm_campaign=yelp_api_v3&utm_medium=api_v3_business_search&utm_source=ywY5UnLZrNrRl2b93Ruy_g", "review_count": 24, "categories": [{"alias": "icecream", "title": "Ice Cream & Frozen Yogurt"}, {"alias": "burgers", "title": "Burgers"}, {"alias": "tradamerican", "title": "American (Traditional)"}], "rating": 2.0, "coordinates": {"latitude": 42.566247470663, "longitude": -71.979320066874}, "transactions": [], "price": "$", "location": {"address1": "18 Pearson Blvd", "address2": "", "address3": "", "city": "Gardner", "zip_code": "01440", "country": "US", "state": "MA", "display_address": ["18 Pearson Blvd", "Gardner, MA 01440"]}, "phone": "+19786301821", "display_phone": "(978) 630-1821", "distance": 9514.673110210899}, {"id": "ulTdoEH6AfozwdGeAfHL0A", "alias": "pine-ridge-snack-bar-barre", "name": "Pine Ridge Snack Bar", "image_url": "", "is_closed": false, "url": "https://www.yelp.com/biz/pine-ridge-snack-bar-barre?adjust_creative=ywY5UnLZrNrRl2b93Ruy_g&utm_campaign=yelp_api_v3&utm_medium=api_v3_business_search&utm_source=ywY5UnLZrNrRl2b93Ruy_g", "review_count": 2, "categories": [{"alias": "breakfast_brunch", "title": "Breakfast & Brunch"}], "rating": 3.0, "coordinates": {"latitude": 42.4226265, "longitude": -72.1043243}, "transactions": [], "location": {"address1": "25 Exchange St", "address2": null, "address3": null, "city": "Barre", "zip_code": "01005", "country": "US", "state": "MA", "display_address": ["25 Exchange St", "Barre, MA 01005"]}, "phone": "+19783550012", "display_phone": "(978) 355-0012", "distance": 10304.982544541119}, {"id": "Je1gbLcoqWn-R9Wsw09J2g", "alias": "burger-king-gardner-2", "name": "Burger King", "image_url": "https://s3-media4.fl.yelpcdn.com/bphoto/PtHJDw19UTmeX8yvo60qtw/o.jpg", "is_closed": false, "url": "https://www.yelp.com/biz/burger-king-gardner-2?adjust_creative=ywY5UnLZrNrRl2b93Ruy_g&utm_campaign=yelp_api_v3&utm_medium=api_v3_business_search&utm_source=ywY5UnLZrNrRl2b93Ruy_g", "review_count": 2, "categories": [{"alias": "burgers", "title": "Burgers"}, {"alias": "hotdogs", "title": "Fast Food"}], "rating": 1.0, "coordinates": {"latitude": 42.565589, "longitude": -71.991512}, "transactions": [], "price": "$", "location": {"address1": "9 Crawford Street", "address2": "", "address3": "", "city": "Gardner", "zip_code": "01440", "country": "US", "state": "MA", "display_address": ["9 Crawford Street", "Gardner, MA 01440"]}, "phone": "", "display_phone": "", "distance": 9232.574624857525}, {"id": "5EqgL_w6uCxCUtcB2DnAmw", "alias": "goodhiles-jefferson", "name": "Goodhile's", "image_url": "https://s3-media2.fl.yelpcdn.com/bphoto/lon9eN8swzntJ5w8Q6kk4g/o.jpg", "is_closed": false, "url": "https://www.yelp.com/biz/goodhiles-jefferson?adjust_creative=ywY5UnLZrNrRl2b93Ruy_g&utm_campaign=yelp_api_v3&utm_medium=api_v3_business_search&utm_source=ywY5UnLZrNrRl2b93Ruy_g", "review_count": 10, "categories": [{"alias": "icecream", "title": "Ice Cream & Frozen Yogurt"}, {"alias": "sandwiches", "title": "Sandwiches"}], "rating": 3.0, "coordinates": {"latitude": 42.375281, "longitude": -71.848729}, "transactions": [], "price": "$", "location": {"address1": "1122 Wachusett St", "address2": "", "address3": "", "city": "Jefferson", "zip_code": "01522", "country": "US", "state": "MA", "display_address": ["1122 Wachusett St", "Jefferson, MA 01522"]}, "phone": "+15088299429", "display_phone": "(508) 829-9429", "distance": 17896.51620840149}, {"id": "Oa9YXvAs50RB-Xhc2BwXlg", "alias": "mimis-coffeehouse-of-hardwick-hardwick", "name": "Mimi's CoffeeHouse Of Hardwick", "image_url": "https://s3-media4.fl.yelpcdn.com/bphoto/NMlDkOX7whn4nYEiejmeSg/o.jpg", "is_closed": false, "url": "https://www.yelp.com/biz/mimis-coffeehouse-of-hardwick-hardwick?adjust_creative=ywY5UnLZrNrRl2b93Ruy_g&utm_campaign=yelp_api_v3&utm_medium=api_v3_business_search&utm_source=ywY5UnLZrNrRl2b93Ruy_g", "review_count": 3, "categories": [{"alias": "coffee", "title": "Coffee & Tea"}, {"alias": "breakfast_brunch", "title": "Breakfast & Brunch"}, {"alias": "sandwiches", "title": "Sandwiches"}], "rating": 4.5, "coordinates": {"latitude": 42.3486171468542, "longitude": -72.1993167786787}, "transactions": [], "price": "$$", "location": {"address1": "14 Barre Rd", "address2": "", "address3": null, "city": "Hardwick", "zip_code": "01037", "country": "US", "state": "MA", "display_address": ["14 Barre Rd", "Hardwick, MA 01037"]}, "phone": "+14134771144", "display_phone": "(413) 477-1144", "distance": 21620.07787868715}, {"id": "OR1oEc_Nb3xXDQMBypMg-Q", "alias": "lodge-wood-fired-grill-fitchburg-2", "name": "Lodge Wood Fired Grill", "image_url": "https://s3-media1.fl.yelpcdn.com/bphoto/A0-aQ0DSrYUfk98nswiuUw/o.jpg", "is_closed": false, "url": "https://www.yelp.com/biz/lodge-wood-fired-grill-fitchburg-2?adjust_creative=ywY5UnLZrNrRl2b93Ruy_g&utm_campaign=yelp_api_v3&utm_medium=api_v3_business_search&utm_source=ywY5UnLZrNrRl2b93Ruy_g", "review_count": 38, "categories": [{"alias": "tradamerican", "title": "American (Traditional)"}], "rating": 2.5, "coordinates": {"latitude": 42.547116, "longitude": -71.854376}, "transactions": [], "price": "$$", "location": {"address1": "150 Great Wolf Dr", "address2": "", "address3": "Great Wolf Lodge", "city": "Fitchburg", "zip_code": "01420", "country": "US", "state": "MA", "display_address": ["150 Great Wolf Dr", "Great Wolf Lodge", "Fitchburg, MA 01420"]}, "phone": "+18666789653", "display_phone": "(866) 678-9653", "distance": 14566.563046042776}, {"id": "Rhdy-ajpkVZWhoFlBWhd-g", "alias": "stooges-pub-fitchburg", "name": "Stooges Pub", "image_url": "", "is_closed": false, "url": "https://www.yelp.com/biz/stooges-pub-fitchburg?adjust_creative=ywY5UnLZrNrRl2b93Ruy_g&utm_campaign=yelp_api_v3&utm_medium=api_v3_business_search&utm_source=ywY5UnLZrNrRl2b93Ruy_g", "review_count": 2, "categories": [{"alias": "restaurants", "title": "Restaurants"}], "rating": 2.5, "coordinates": {"latitude": 42.5855128, "longitude": -71.8130188}, "transactions": ["delivery"], "location": {"address1": "114 River St", "address2": "", "address3": "", "city": "Fitchburg", "zip_code": "01420", "country": "US", "state": "MA", "display_address": ["114 River St", "Fitchburg, MA 01420"]}, "phone": "+19783420017", "display_phone": "(978) 342-0017", "distance": 19753.35624568256}, {"id": "HB6K8YUKwDnL2uRN_nu77w", "alias": "specialty-sandwich-holden", "name": "Specialty Sandwich", "image_url": "https://s3-media4.fl.yelpcdn.com/bphoto/XzwZonUkjUDAOo6Lx5e-rA/o.jpg", "is_closed": false, "url": "https://www.yelp.com/biz/specialty-sandwich-holden?adjust_creative=ywY5UnLZrNrRl2b93Ruy_g&utm_campaign=yelp_api_v3&utm_medium=api_v3_business_search&utm_source=ywY5UnLZrNrRl2b93Ruy_g", "review_count": 78, "categories": [{"alias": "sandwiches", "title": "Sandwiches"}, {"alias": "beerbar", "title": "Beer Bar"}, {"alias": "pizza", "title": "Pizza"}], "rating": 4.0, "coordinates": {"latitude": 42.338885, "longitude": -71.836453}, "transactions": ["delivery"], "price": "$", "location": {"address1": "624 Main St", "address2": "", "address3": "", "city": "Holden", "zip_code": "01520", "country": "US", "state": "MA", "display_address": ["624 Main St", "Holden, MA 01520"]}, "phone": "+15088294848", "display_phone": "(508) 829-4848", "distance": 21503.053840776734}, {"id": "hce2WyKR6p9j0zGa3cl1lg", "alias": "wendys-athol", "name": "Wendy's", "image_url": "https://s3-media1.fl.yelpcdn.com/bphoto/eVXgbWFKJOuB6TAuoTftyw/o.jpg", "is_closed": false, "url": "https://www.yelp.com/biz/wendys-athol?adjust_creative=ywY5UnLZrNrRl2b93Ruy_g&utm_campaign=yelp_api_v3&utm_medium=api_v3_business_search&utm_source=ywY5UnLZrNrRl2b93Ruy_g", "review_count": 1, "categories": [{"alias": "burgers", "title": "Burgers"}, {"alias": "hotdogs", "title": "Fast Food"}], "rating": 1.0, "coordinates": {"latitude": 42.58012, "longitude": -72.18376}, "transactions": [], "location": {"address1": "56 Market Dr", "address2": null, "address3": null, "city": "Athol", "zip_code": "01331", "country": "US", "state": "MA", "display_address": ["56 Market Dr", "Athol, MA 01331"]}, "phone": "", "display_phone": "", "distance": 17807.2349196972}, {"id": "CoD6a7I12uB3UIbCdgXQHQ", "alias": "rock-bottom-cafe-fitchburg", "name": "Rock Bottom Cafe", "image_url": "", "is_closed": false, "url": "https://www.yelp.com/biz/rock-bottom-cafe-fitchburg?adjust_creative=ywY5UnLZrNrRl2b93Ruy_g&utm_campaign=yelp_api_v3&utm_medium=api_v3_business_search&utm_source=ywY5UnLZrNrRl2b93Ruy_g", "review_count": 2, "categories": [{"alias": "cafes", "title": "Cafes"}], "rating": 3.0, "coordinates": {"latitude": 42.583032, "longitude": -71.816149}, "transactions": [], "location": {"address1": "6 Beech Street Ln", "address2": "", "address3": "", "city": "Fitchburg", "zip_code": "01420", "country": "US", "state": "MA", "display_address": ["6 Beech Street Ln", "Fitchburg, MA 01420"]}, "phone": "+19786274313", "display_phone": "(978) 627-4313", "distance": 19339.055913423308}, {"id": "u5nb1tjdvVrQU0TSp_ZD5g", "alias": "parrot-pizza-holden", "name": "Parrot Pizza", "image_url": "https://s3-media1.fl.yelpcdn.com/bphoto/saP5U9fl9Rud8ra5Ef-Bew/o.jpg", "is_closed": false, "url": "https://www.yelp.com/biz/parrot-pizza-holden?adjust_creative=ywY5UnLZrNrRl2b93Ruy_g&utm_campaign=yelp_api_v3&utm_medium=api_v3_business_search&utm_source=ywY5UnLZrNrRl2b93Ruy_g", "review_count": 19, "categories": [{"alias": "pizza", "title": "Pizza"}], "rating": 3.5, "coordinates": {"latitude": 42.3447885733489, "longitude": -71.8632037192583}, "transactions": ["pickup", "delivery"], "price": "$$", "location": {"address1": "160 Reservoir St", "address2": "", "address3": "", "city": "Holden", "zip_code": "01520", "country": "US", "state": "MA", "display_address": ["160 Reservoir St", "Holden, MA 01520"]}, "phone": "+15088299111", "display_phone": "(508) 829-9111", "distance": 19585.372655526495}, {"id": "kqir5dO2JZ5Y0HYO33wbCQ", "alias": "dominos-pizza-gardner", "name": "Domino's Pizza", "image_url": "https://s3-media1.fl.yelpcdn.com/bphoto/xblCtNJCS2ds7BgENryLEw/o.jpg", "is_closed": false, "url": "https://www.yelp.com/biz/dominos-pizza-gardner?adjust_creative=ywY5UnLZrNrRl2b93Ruy_g&utm_campaign=yelp_api_v3&utm_medium=api_v3_business_search&utm_source=ywY5UnLZrNrRl2b93Ruy_g", "review_count": 6, "categories": [{"alias": "pizza", "title": "Pizza"}, {"alias": "chicken_wings", "title": "Chicken Wings"}, {"alias": "sandwiches", "title": "Sandwiches"}], "rating": 2.5, "coordinates": {"latitude": 42.5749306, "longitude": -72.006989}, "transactions": [], "price": "$", "location": {"address1": "401 Parker St", "address2": "", "address3": "", "city": "Gardner", "zip_code": "01440", "country": "US", "state": "MA", "display_address": ["401 Parker St", "Gardner, MA 01440"]}, "phone": "+19786328170", "display_phone": "(978) 632-8170", "distance": 10150.330398823975}, {"id": "kKKJ4J05Jii-oAc6oEJifg", "alias": "town-house-of-pizza-westminster", "name": "Town House of Pizza", "image_url": "https://s3-media3.fl.yelpcdn.com/bphoto/mJvtfHsssMJqGTvEAJ-uyw/o.jpg", "is_closed": false, "url": "https://www.yelp.com/biz/town-house-of-pizza-westminster?adjust_creative=ywY5UnLZrNrRl2b93Ruy_g&utm_campaign=yelp_api_v3&utm_medium=api_v3_business_search&utm_source=ywY5UnLZrNrRl2b93Ruy_g", "review_count": 23, "categories": [{"alias": "pizza", "title": "Pizza"}, {"alias": "italian", "title": "Italian"}, {"alias": "breakfast_brunch", "title": "Breakfast & Brunch"}], "rating": 3.5, "coordinates": {"latitude": 42.5484099, "longitude": -71.91575}, "transactions": [], "price": "$", "location": {"address1": "68 Main St", "address2": "", "address3": "", "city": "Westminster", "zip_code": "01473", "country": "US", "state": "MA", "display_address": ["68 Main St", "Westminster, MA 01473"]}, "phone": "+19788740326", "display_phone": "(978) 874-0326", "distance": 10558.414644629194}, {"id": "OIhtqkIQSbb9jaGbqGxrXw", "alias": "dominos-pizza-holden", "name": "Dominos Pizza", "image_url": "https://s3-media4.fl.yelpcdn.com/bphoto/jgJonGW-ctw7FjG7RmDUSQ/o.jpg", "is_closed": false, "url": "https://www.yelp.com/biz/dominos-pizza-holden?adjust_creative=ywY5UnLZrNrRl2b93Ruy_g&utm_campaign=yelp_api_v3&utm_medium=api_v3_business_search&utm_source=ywY5UnLZrNrRl2b93Ruy_g", "review_count": 3, "categories": [{"alias": "pizza", "title": "Pizza"}], "rating": 2.5, "coordinates": {"latitude": 42.3498648, "longitude": -71.8596719}, "transactions": [], "price": "$", "location": {"address1": "1140 Main St", "address2": "", "address3": null, "city": "Holden", "zip_code": "01520", "country": "US", "state": "MA", "display_address": ["1140 Main St", "Holden, MA 01520"]}, "phone": "+15088291919", "display_phone": "(508) 829-1919", "distance": 19336.6742167029}, {"id": "iFhZ31feMlCA1F6H-rLVUA", "alias": "subway-westminster-42", "name": "Subway", "image_url": "https://s3-media3.fl.yelpcdn.com/bphoto/Q4DHyx93UuD2MKm09Qp6ZA/o.jpg", "is_closed": false, "url": "https://www.yelp.com/biz/subway-westminster-42?adjust_creative=ywY5UnLZrNrRl2b93Ruy_g&utm_campaign=yelp_api_v3&utm_medium=api_v3_business_search&utm_source=ywY5UnLZrNrRl2b93Ruy_g", "review_count": 4, "categories": [{"alias": "sandwiches", "title": "Sandwiches"}], "rating": 3.5, "coordinates": {"latitude": 42.5464934656065, "longitude": -71.9140293000952}, "transactions": [], "price": "$", "location": {"address1": "97 Main St", "address2": "", "address3": null, "city": "Westminster", "zip_code": "01473", "country": "US", "state": "MA", "display_address": ["97 Main St", "Westminster, MA 01473"]}, "phone": "+19788742185", "display_phone": "(978) 874-2185", "distance": 10511.070341195358}, {"id": "d48AT3yBv0yC-dw7Kf0mAA", "alias": "centre-pizza-fitchburg", "name": "Centre Pizza", "image_url": "https://s3-media1.fl.yelpcdn.com/bphoto/RDB4vVMlk5C2t-tKpKRUbQ/o.jpg", "is_closed": false, "url": "https://www.yelp.com/biz/centre-pizza-fitchburg?adjust_creative=ywY5UnLZrNrRl2b93Ruy_g&utm_campaign=yelp_api_v3&utm_medium=api_v3_business_search&utm_source=ywY5UnLZrNrRl2b93Ruy_g", "review_count": 19, "categories": [{"alias": "pizza", "title": "Pizza"}, {"alias": "catering", "title": "Caterers"}], "rating": 3.0, "coordinates": {"latitude": 42.5855874791702, "longitude": -71.813104037766}, "transactions": ["delivery"], "price": "$$", "location": {"address1": "118 River St", "address2": "", "address3": "", "city": "Fitchburg", "zip_code": "01420", "country": "US", "state": "MA", "display_address": ["118 River St", "Fitchburg, MA 01420"]}, "phone": "+19783423350", "display_phone": "(978) 342-3350", "distance": 19762.844304435293}, {"id": "eIl4-S0XOnUZ4SLZrcaJgw", "alias": "papa-ginos-pizzeria-gardner", "name": "Papa Gino's Pizzeria", "image_url": "https://s3-media2.fl.yelpcdn.com/bphoto/k7kt3dUGqz2Ptw87y3fvtw/o.jpg", "is_closed": false, "url": "https://www.yelp.com/biz/papa-ginos-pizzeria-gardner?adjust_creative=ywY5UnLZrNrRl2b93Ruy_g&utm_campaign=yelp_api_v3&utm_medium=api_v3_business_search&utm_source=ywY5UnLZrNrRl2b93Ruy_g", "review_count": 14, "categories": [{"alias": "pizza", "title": "Pizza"}], "rating": 2.5, "coordinates": {"latitude": 42.55884, "longitude": -71.98973}, "transactions": [], "price": "$", "location": {"address1": "326 Timpany Blvd", "address2": "", "address3": "", "city": "Gardner", "zip_code": "01440", "country": "US", "state": "MA", "display_address": ["326 Timpany Blvd", "Gardner, MA 01440"]}, "phone": "+19786328051", "display_phone": "(978) 632-8051", "distance": 8666.371173312999}, {"id": "Y-INEv-QS9f7qJVDe5HjTA", "alias": "kfc-gardner-4", "name": "KFC", "image_url": "https://s3-media2.fl.yelpcdn.com/bphoto/oUqXZ9cnIUXRt_Gkqj7t2Q/o.jpg", "is_closed": false, "url": "https://www.yelp.com/biz/kfc-gardner-4?adjust_creative=ywY5UnLZrNrRl2b93Ruy_g&utm_campaign=yelp_api_v3&utm_medium=api_v3_business_search&utm_source=ywY5UnLZrNrRl2b93Ruy_g", "review_count": 5, "categories": [{"alias": "hotdogs", "title": "Fast Food"}, {"alias": "chicken_wings", "title": "Chicken Wings"}, {"alias": "chickenshop", "title": "Chicken Shop"}], "rating": 2.0, "coordinates": {"latitude": 42.566685997889, "longitude": -71.980529}, "transactions": ["pickup"], "price": "$", "location": {"address1": "8 Pearson Blvd", "address2": "", "address3": "", "city": "Gardner", "zip_code": "01440", "country": "US", "state": "MA", "display_address": ["8 Pearson Blvd", "Gardner, MA 01440"]}, "phone": "+19786302011", "display_phone": "(978) 630-2011", "distance": 9536.246152768133}, {"id": "DuxMLpZ8z1jJ8Z-58HTPqA", "alias": "golden-crust-pizza-restaurant-holden", "name": "Golden Crust Pizza Restaurant", "image_url": "", "is_closed": false, "url": "https://www.yelp.com/biz/golden-crust-pizza-restaurant-holden?adjust_creative=ywY5UnLZrNrRl2b93Ruy_g&utm_campaign=yelp_api_v3&utm_medium=api_v3_business_search&utm_source=ywY5UnLZrNrRl2b93Ruy_g", "review_count": 1, "categories": [{"alias": "pizza", "title": "Pizza"}], "rating": 2.0, "coordinates": {"latitude": 42.34454, "longitude": -71.86221}, "transactions": [], "location": {"address1": "160 Reservoir St", "address2": "Ste 2", "address3": "", "city": "Holden", "zip_code": "01520", "country": "US", "state": "MA", "display_address": ["160 Reservoir St", "Ste 2", "Holden, MA 01520"]}, "phone": "+15088299111", "display_phone": "(508) 829-9111", "distance": 19716.791263748168}, {"id": "hDvkTp4bTKcR9AsXA-5_IQ", "alias": "subway-gardner-8", "name": "Subway", "image_url": "https://s3-media1.fl.yelpcdn.com/bphoto/WM4Y6gUg-7rY_jCSUH8bZw/o.jpg", "is_closed": false, "url": "https://www.yelp.com/biz/subway-gardner-8?adjust_creative=ywY5UnLZrNrRl2b93Ruy_g&utm_campaign=yelp_api_v3&utm_medium=api_v3_business_search&utm_source=ywY5UnLZrNrRl2b93Ruy_g", "review_count": 1, "categories": [{"alias": "sandwiches", "title": "Sandwiches"}], "rating": 1.0, "coordinates": {"latitude": 42.5514561, "longitude": -71.9946827}, "transactions": [], "price": "$", "location": {"address1": "677 Timpany Blvd", "address2": null, "address3": null, "city": "Gardner", "zip_code": "01440", "country": "US", "state": "MA", "display_address": ["677 Timpany Blvd", "Gardner, MA 01440"]}, "phone": "+19786301113", "display_phone": "(978) 630-1113", "distance": 7636.643734925281}, {"id": "EEtExmA7AQIDbzWTv7tobA", "alias": "subway-fitchburg-7", "name": "Subway", "image_url": "https://s3-media2.fl.yelpcdn.com/bphoto/ynKfCirSLYh0WJYdiNB1bg/o.jpg", "is_closed": false, "url": "https://www.yelp.com/biz/subway-fitchburg-7?adjust_creative=ywY5UnLZrNrRl2b93Ruy_g&utm_campaign=yelp_api_v3&utm_medium=api_v3_business_search&utm_source=ywY5UnLZrNrRl2b93Ruy_g", "review_count": 5, "categories": [{"alias": "sandwiches", "title": "Sandwiches"}], "rating": 4.0, "coordinates": {"latitude": 42.5689816703519, "longitude": -71.813609}, "transactions": ["pickup", "delivery"], "price": "$", "location": {"address1": "493 Electric Ave", "address2": "Unit 118", "address3": null, "city": "Fitchburg", "zip_code": "01420", "country": "US", "state": "MA", "display_address": ["493 Electric Ave", "Unit 118", "Fitchburg, MA 01420"]}, "phone": "+19783457788", "display_phone": "(978) 345-7788", "distance": 18671.80492747992}, {"id": "hn0hKAYqGXMdjQaz5epMiw", "alias": "cheoy-lees-holden", "name": "Cheoy Lee's", "image_url": "", "is_closed": false, "url": "https://www.yelp.com/biz/cheoy-lees-holden?adjust_creative=ywY5UnLZrNrRl2b93Ruy_g&utm_campaign=yelp_api_v3&utm_medium=api_v3_business_search&utm_source=ywY5UnLZrNrRl2b93Ruy_g", "review_count": 22, "categories": [{"alias": "chinese", "title": "Chinese"}], "rating": 3.5, "coordinates": {"latitude": 42.3394158, "longitude": -71.8378262}, "transactions": ["delivery"], "price": "$$", "location": {"address1": "684 Main St", "address2": "", "address3": "", "city": "Holden", "zip_code": "01520", "country": "US", "state": "MA", "display_address": ["684 Main St", "Holden, MA 01520"]}, "phone": "+15088296331", "display_phone": "(508) 829-6331", "distance": 21270.10108275642}, {"id": "Om8GYpWVr0YoGGCGXsgYCw", "alias": "taco-bell-gardner-3", "name": "Taco Bell", "image_url": "https://s3-media4.fl.yelpcdn.com/bphoto/w6z4YtPLkgbXbxvfC01nIw/o.jpg", "is_closed": false, "url": "https://www.yelp.com/biz/taco-bell-gardner-3?adjust_creative=ywY5UnLZrNrRl2b93Ruy_g&utm_campaign=yelp_api_v3&utm_medium=api_v3_business_search&utm_source=ywY5UnLZrNrRl2b93Ruy_g", "review_count": 2, "categories": [{"alias": "hotdogs", "title": "Fast Food"}, {"alias": "tacos", "title": "Tacos"}], "rating": 1.0, "coordinates": {"latitude": 42.566521, "longitude": -71.981384}, "transactions": [], "price": "$", "location": {"address1": "8 Pearson Blvd", "address2": null, "address3": null, "city": "Gardner", "zip_code": "01440", "country": "US", "state": "MA", "display_address": ["8 Pearson Blvd", "Gardner, MA 01440"]}, "phone": "+19786302011", "display_phone": "(978) 630-2011", "distance": 9501.026614765755}, {"id": "x6QsBPDXB5ZUkKxMPjaR5A", "alias": "papa-ginos-pizzeria-holden", "name": "Papa Gino's Pizzeria", "image_url": "https://s3-media4.fl.yelpcdn.com/bphoto/nDnTFFxXBtzhbl3PhZD6Qw/o.jpg", "is_closed": false, "url": "https://www.yelp.com/biz/papa-ginos-pizzeria-holden?adjust_creative=ywY5UnLZrNrRl2b93Ruy_g&utm_campaign=yelp_api_v3&utm_medium=api_v3_business_search&utm_source=ywY5UnLZrNrRl2b93Ruy_g", "review_count": 13, "categories": [{"alias": "pizza", "title": "Pizza"}], "rating": 2.5, "coordinates": {"latitude": 42.3421499, "longitude": -71.84571}, "transactions": ["delivery"], "price": "$$", "location": {"address1": "797 Main St", "address2": "", "address3": "", "city": "Holden", "zip_code": "01520", "country": "US", "state": "MA", "display_address": ["797 Main St", "Holden, MA 01520"]}, "phone": "+15088295491", "display_phone": "(508) 829-5491", "distance": 20739.039100807553}, {"id": "Z6I1yY7uBkBmaLe1L_3VJQ", "alias": "taco-bell-athol-2", "name": "Taco Bell", "image_url": "https://s3-media3.fl.yelpcdn.com/bphoto/BlCGgvYn63MYBYfFFhnDrg/o.jpg", "is_closed": false, "url": "https://www.yelp.com/biz/taco-bell-athol-2?adjust_creative=ywY5UnLZrNrRl2b93Ruy_g&utm_campaign=yelp_api_v3&utm_medium=api_v3_business_search&utm_source=ywY5UnLZrNrRl2b93Ruy_g", "review_count": 1, "categories": [{"alias": "tacos", "title": "Tacos"}, {"alias": "breakfast_brunch", "title": "Breakfast & Brunch"}], "rating": 4.0, "coordinates": {"latitude": 42.58012, "longitude": -72.18376}, "transactions": [], "location": {"address1": "79 Market Dr", "address2": null, "address3": null, "city": "Athol", "zip_code": "01331", "country": "US", "state": "MA", "display_address": ["79 Market Dr", "Athol, MA 01331"]}, "phone": "", "display_phone": "", "distance": 17869.86147643869}, {"id": "LyHOEwOxC1AhaI3WcWvHHw", "alias": "subway-athol-4", "name": "Subway", "image_url": "https://s3-media2.fl.yelpcdn.com/bphoto/Nx4UlEcn3DY-iWlOIEh7Pw/o.jpg", "is_closed": false, "url": "https://www.yelp.com/biz/subway-athol-4?adjust_creative=ywY5UnLZrNrRl2b93Ruy_g&utm_campaign=yelp_api_v3&utm_medium=api_v3_business_search&utm_source=ywY5UnLZrNrRl2b93Ruy_g", "review_count": 1, "categories": [{"alias": "sandwiches", "title": "Sandwiches"}], "rating": 1.0, "coordinates": {"latitude": 42.5844830027347, "longitude": -72.2049929815626}, "transactions": [], "price": "$", "location": {"address1": "2250 Main St", "address2": "", "address3": "", "city": "Athol", "zip_code": "01331", "country": "US", "state": "MA", "display_address": ["2250 Main St", "Athol, MA 01331"]}, "phone": "+19782495001", "display_phone": "(978) 249-5001", "distance": 19523.08907398967}, {"id": "bVbAQw_laKoEw8HUBEdj5w", "alias": "mcdonalds-gardner-2", "name": "McDonald's", "image_url": "https://s3-media3.fl.yelpcdn.com/bphoto/tkmz1oWJb4xuSYkFE_absg/o.jpg", "is_closed": false, "url": "https://www.yelp.com/biz/mcdonalds-gardner-2?adjust_creative=ywY5UnLZrNrRl2b93Ruy_g&utm_campaign=yelp_api_v3&utm_medium=api_v3_business_search&utm_source=ywY5UnLZrNrRl2b93Ruy_g", "review_count": 15, "categories": [{"alias": "hotdogs", "title": "Fast Food"}, {"alias": "burgers", "title": "Burgers"}, {"alias": "coffee", "title": "Coffee & Tea"}], "rating": 2.5, "coordinates": {"latitude": 42.5632433186274, "longitude": -71.99085699943}, "transactions": [], "price": "$", "location": {"address1": "223 Timpany Blvd", "address2": "", "address3": "", "city": "Gardner", "zip_code": "01440", "country": "US", "state": "MA", "display_address": ["223 Timpany Blvd", "Gardner, MA 01440"]}, "phone": "+19786329859", "display_phone": "(978) 632-9859", "distance": 8981.400212515495}, {"id": "RSMOVFq_J1TZGiieKY_G8Q", "alias": "subway-holden-7", "name": "Subway", "image_url": "https://s3-media2.fl.yelpcdn.com/bphoto/Ko2x2Evt4pjAMnTtFyi8Bw/o.jpg", "is_closed": false, "url": "https://www.yelp.com/biz/subway-holden-7?adjust_creative=ywY5UnLZrNrRl2b93Ruy_g&utm_campaign=yelp_api_v3&utm_medium=api_v3_business_search&utm_source=ywY5UnLZrNrRl2b93Ruy_g", "review_count": 7, "categories": [{"alias": "sandwiches", "title": "Sandwiches"}], "rating": 1.5, "coordinates": {"latitude": 42.3493648, "longitude": -71.8591977}, "transactions": [], "price": "$", "location": {"address1": "1115 Main St", "address2": "", "address3": "", "city": "Holden", "zip_code": "01520", "country": "US", "state": "MA", "display_address": ["1115 Main St", "Holden, MA 01520"]}, "phone": "+15088299365", "display_phone": "(508) 829-9365", "distance": 19431.449710104316}, {"id": "cRL42oGaCxq0BQ_mFTXbyg", "alias": "mcdonalds-holden", "name": "McDonald's", "image_url": "https://s3-media1.fl.yelpcdn.com/bphoto/VtmLwXoU7yB62wv777Kq_g/o.jpg", "is_closed": false, "url": "https://www.yelp.com/biz/mcdonalds-holden?adjust_creative=ywY5UnLZrNrRl2b93Ruy_g&utm_campaign=yelp_api_v3&utm_medium=api_v3_business_search&utm_source=ywY5UnLZrNrRl2b93Ruy_g", "review_count": 21, "categories": [{"alias": "burgers", "title": "Burgers"}, {"alias": "hotdogs", "title": "Fast Food"}, {"alias": "coffee", "title": "Coffee & Tea"}], "rating": 2.0, "coordinates": {"latitude": 42.339512, "longitude": -71.837653}, "transactions": ["delivery"], "price": "$", "location": {"address1": "638 S Main St", "address2": "", "address3": "", "city": "Holden", "zip_code": "01520", "country": "US", "state": "MA", "display_address": ["638 S Main St", "Holden, MA 01520"]}, "phone": "+15088295615", "display_phone": "(508) 829-5615", "distance": 21377.314418295402}]