[{"id": "QJYU56p7TYpLo_r61q0RZQ", "alias": "glen-caffe-winchendon", "name": "Glen Caffe", "image_url": "https://s3-media3.fl.yelpcdn.com/bphoto/hdLJzdQfBYu25yY9tFVkhg/o.jpg", "is_closed": false, "url": "https://www.yelp.com/biz/glen-caffe-winchendon?adjust_creative=ywY5UnLZrNrRl2b93Ruy_g&utm_campaign=yelp_api_v3&utm_medium=api_v3_business_search&utm_source=ywY5UnLZrNrRl2b93Ruy_g", "review_count": 5, "categories": [{"alias": "tradamerican", "title": "American (Traditional)"}], "rating": 5.0, "coordinates": {"latitude": 42.6826401, "longitude": -72.0235138}, "transactions": [], "location": {"address1": "63 Glenallen St", "address2": null, "address3": null, "city": "Winchendon", "zip_code": "01475", "country": "US", "state": "MA", "display_address": ["63 Glenallen St", "Winchendon, MA 01475"]}, "phone": "+19782970800", "display_phone": "(978) 297-0800", "distance": 3348.8856654379324}, {"id": "HKyN2UJvkakOCblSOKQLUQ", "alias": "gardner-ale-house-gardner-2", "name": "Gardner Ale House", "image_url": "https://s3-media2.fl.yelpcdn.com/bphoto/6DhrQB5Hr_Z6hj-dZTN0hw/o.jpg", "is_closed": false, "url": "https://www.yelp.com/biz/gardner-ale-house-gardner-2?adjust_creative=ywY5UnLZrNrRl2b93Ruy_g&utm_campaign=yelp_api_v3&utm_medium=api_v3_business_search&utm_source=ywY5UnLZrNrRl2b93Ruy_g", "review_count": 274, "categories": [{"alias": "pubs", "title": "Pubs"}, {"alias": "tradamerican", "title": "American (Traditional)"}, {"alias": "brewpubs", "title": "Brewpubs"}], "rating": 4.0, "coordinates": {"latitude": 42.575771, "longitude": -71.997131}, "transactions": [], "price": "$$", "location": {"address1": "74 Parker St", "address2": "", "address3": "", "city": "Gardner", "zip_code": "01440", "country": "US", "state": "MA", "display_address": ["74 Parker St", "Gardner, MA 01440"]}, "phone": "+19786690122", "display_phone": "(978) 669-0122", "distance": 10250.176169415117}, {"id": "wKX-Vhcx0bxLCFvoM-qy7A", "alias": "crusin-12-diner-winchendon-2", "name": "Crusin 12 Diner", "image_url": "https://s3-media2.fl.yelpcdn.com/bphoto/8bzCj-b9CgHL_Z3EQlkDMA/o.jpg", "is_closed": false, "url": "https://www.yelp.com/biz/crusin-12-diner-winchendon-2?adjust_creative=ywY5UnLZrNrRl2b93Ruy_g&utm_campaign=yelp_api_v3&utm_medium=api_v3_business_search&utm_source=ywY5UnLZrNrRl2b93Ruy_g", "review_count": 13, "categories": [{"alias": "diners", "title": "Diners"}], "rating": 4.0, "coordinates": {"latitude": 42.688899, "longitude": -72.057312}, "transactions": [], "price": "$", "location": {"address1": "241 School St", "address2": null, "address3": "", "city": "Winchendon", "zip_code": "01475", "country": "US", "state": "MA", "display_address": ["241 School St", "Winchendon, MA 01475"]}, "phone": "+19782972001", "display_phone": "(978) 297-2001", "distance": 3322.808633094626}, {"id": "txZsuJHzyUuxauIRymkd1Q", "alias": "the-harbour-sports-bar-winchendon", "name": "The Harbour Sports Bar", "image_url": "https://s3-media2.fl.yelpcdn.com/bphoto/m-dA8xoxpq-BrqxttgifgA/o.jpg", "is_closed": false, "url": "https://www.yelp.com/biz/the-harbour-sports-bar-winchendon?adjust_creative=ywY5UnLZrNrRl2b93Ruy_g&utm_campaign=yelp_api_v3&utm_medium=api_v3_business_search&utm_source=ywY5UnLZrNrRl2b93Ruy_g", "review_count": 27, "categories": [{"alias": "newamerican", "title": "American (New)"}, {"alias": "sportsbars", "title": "Sports Bars"}, {"alias": "seafood", "title": "Seafood"}], "rating": 3.5, "coordinates": {"latitude": 42.6916458, "longitude": -72.0211916}, "transactions": [], "price": "$$", "location": {"address1": "456 Maple St", "address2": "", "address3": "", "city": "Winchendon", "zip_code": "01475", "country": "US", "state": "MA", "display_address": ["456 Maple St", "Winchendon, MA 01475"]}, "phone": "+19782972133", "display_phone": "(978) 297-2133", "distance": 4221.310974345397}, {"id": "pFjkbm5Z5lYiaWHuOLRV8A", "alias": "little-anthonys-and-little-lizzys-winchendon", "name": "Little Anthonys & Little Lizzy's", "image_url": "https://s3-media3.fl.yelpcdn.com/bphoto/AYEd3ty3ul5yf4NuEUbz-g/o.jpg", "is_closed": false, "url": "https://www.yelp.com/biz/little-anthonys-and-little-lizzys-winchendon?adjust_creative=ywY5UnLZrNrRl2b93Ruy_g&utm_campaign=yelp_api_v3&utm_medium=api_v3_business_search&utm_source=ywY5UnLZrNrRl2b93Ruy_g", "review_count": 9, "categories": [{"alias": "seafood", "title": "Seafood"}, {"alias": "tradamerican", "title": "American (Traditional)"}, {"alias": "cocktailbars", "title": "Cocktail Bars"}], "rating": 4.0, "coordinates": {"latitude": 42.66681, "longitude": -72.00934}, "transactions": [], "price": "$$", "location": {"address1": "678 Spring St", "address2": null, "address3": null, "city": "Winchendon", "zip_code": "01475", "country": "US", "state": "MA", "display_address": ["678 Spring St", "Winchendon, MA 01475"]}, "phone": "+19782972669", "display_phone": "(978) 297-2669", "distance": 3321.2932196991837}, {"id": "3t_Qa1MxsD0KTBbvefT-hw", "alias": "great-wall-chinese-restaurant-templeton-2", "name": "Great Wall Chinese Restaurant", "image_url": "https://s3-media1.fl.yelpcdn.com/bphoto/xoVVGL1XAyzXWWCosHO5QQ/o.jpg", "is_closed": false, "url": "https://www.yelp.com/biz/great-wall-chinese-restaurant-templeton-2?adjust_creative=ywY5UnLZrNrRl2b93Ruy_g&utm_campaign=yelp_api_v3&utm_medium=api_v3_business_search&utm_source=ywY5UnLZrNrRl2b93Ruy_g", "review_count": 18, "categories": [{"alias": "chinese", "title": "Chinese"}], "rating": 4.0, "coordinates": {"latitude": 42.6069717, "longitude": -72.0744476}, "transactions": [], "price": "$$", "location": {"address1": "5 Central St", "address2": "", "address3": "", "city": "Templeton", "zip_code": "01436", "country": "US", "state": "MA", "display_address": ["5 Central St", "Templeton, MA 01436"]}, "phone": "+19789398600", "display_phone": "(978) 939-8600", "distance": 6213.336930920971}, {"id": "InO-YBiVrA6sBTU0nwzKlg", "alias": "zoes-restaurant-winchendon", "name": "Zoe's Restaurant", "image_url": "https://s3-media3.fl.yelpcdn.com/bphoto/w7KLHPgrEAbKwf9akJ8wtw/o.jpg", "is_closed": false, "url": "https://www.yelp.com/biz/zoes-restaurant-winchendon?adjust_creative=ywY5UnLZrNrRl2b93Ruy_g&utm_campaign=yelp_api_v3&utm_medium=api_v3_business_search&utm_source=ywY5UnLZrNrRl2b93Ruy_g", "review_count": 12, "categories": [{"alias": "pizza", "title": "Pizza"}], "rating": 3.0, "coordinates": {"latitude": 42.67668833, "longitude": -72.02859667}, "transactions": [], "location": {"address1": "435 Spring St", "address2": "", "address3": "", "city": "Winchendon", "zip_code": "01475", "country": "US", "state": "MA", "display_address": ["435 Spring St", "Winchendon, MA 01475"]}, "phone": "", "display_phone": "", "distance": 2525.617333070558}, {"id": "XNhx5nEGbXKE4k0xXLijbw", "alias": "110-grill-athol", "name": "110 Grill", "image_url": "https://s3-media3.fl.yelpcdn.com/bphoto/_HxS-NfOJAqo0PFSUoOUxQ/o.jpg", "is_closed": false, "url": "https://www.yelp.com/biz/110-grill-athol?adjust_creative=ywY5UnLZrNrRl2b93Ruy_g&utm_campaign=yelp_api_v3&utm_medium=api_v3_business_search&utm_source=ywY5UnLZrNrRl2b93Ruy_g", "review_count": 57, "categories": [{"alias": "newamerican", "title": "American (New)"}, {"alias": "tradamerican", "title": "American (Traditional)"}, {"alias": "bars", "title": "Bars"}], "rating": 4.0, "coordinates": {"latitude": 42.580767, "longitude": -72.187031}, "transactions": [], "price": "$$", "location": {"address1": "307 Market Dr", "address2": null, "address3": "", "city": "Athol", "zip_code": "01331", "country": "US", "state": "MA", "display_address": ["307 Market Dr", "Athol, MA 01331"]}, "phone": "+19788304601", "display_phone": "(978) 830-4601", "distance": 14299.892271383482}, {"id": "ZotvCkZnaImGJUyIEBX4Mw", "alias": "gabbys-pizza-winchendon-2", "name": "Gabby's Pizza", "image_url": "https://s3-media4.fl.yelpcdn.com/bphoto/eb75nQNfktU1Fzfdz6ya4g/o.jpg", "is_closed": false, "url": "https://www.yelp.com/biz/gabbys-pizza-winchendon-2?adjust_creative=ywY5UnLZrNrRl2b93Ruy_g&utm_campaign=yelp_api_v3&utm_medium=api_v3_business_search&utm_source=ywY5UnLZrNrRl2b93Ruy_g", "review_count": 21, "categories": [{"alias": "pizza", "title": "Pizza"}], "rating": 4.0, "coordinates": {"latitude": 42.6858862, "longitude": -72.0447741}, "transactions": [], "price": "$", "location": {"address1": "255 Central St", "address2": "", "address3": "", "city": "Winchendon", "zip_code": "01475", "country": "US", "state": "MA", "display_address": ["255 Central St", "Winchendon, MA 01475"]}, "phone": "+19782973909", "display_phone": "(978) 297-3909", "distance": 2935.7038845695574}, {"id": "1DsZhW09_NvRzWubZEDZ1A", "alias": "turnpike-crossing-new-ipswich", "name": "Turnpike Crossing", "image_url": "https://s3-media2.fl.yelpcdn.com/bphoto/amef49YXYjXorSTQ5NFDUA/o.jpg", "is_closed": false, "url": "https://www.yelp.com/biz/turnpike-crossing-new-ipswich?adjust_creative=ywY5UnLZrNrRl2b93Ruy_g&utm_campaign=yelp_api_v3&utm_medium=api_v3_business_search&utm_source=ywY5UnLZrNrRl2b93Ruy_g", "review_count": 8, "categories": [{"alias": "tradamerican", "title": "American (Traditional)"}], "rating": 4.5, "coordinates": {"latitude": 42.759697, "longitude": -71.873607}, "transactions": [], "price": "$", "location": {"address1": "800 Turnpike Rd", "address2": "", "address3": null, "city": "New Ipswich", "zip_code": "03071", "country": "US", "state": "NH", "display_address": ["800 Turnpike Rd", "New Ipswich, NH 03071"]}, "phone": "+16032910862", "display_phone": "(603) 291-0862", "distance": 18133.59746354033}, {"id": "yHRurK18GoXezP5QuyI39w", "alias": "carriage-house-restaurant-winchendon", "name": "Carriage House Restaurant", "image_url": "", "is_closed": false, "url": "https://www.yelp.com/biz/carriage-house-restaurant-winchendon?adjust_creative=ywY5UnLZrNrRl2b93Ruy_g&utm_campaign=yelp_api_v3&utm_medium=api_v3_business_search&utm_source=ywY5UnLZrNrRl2b93Ruy_g", "review_count": 34, "categories": [{"alias": "seafood", "title": "Seafood"}, {"alias": "hotdogs", "title": "Fast Food"}, {"alias": "tradamerican", "title": "American (Traditional)"}], "rating": 3.0, "coordinates": {"latitude": 42.668126, "longitude": -72.014773}, "transactions": [], "price": "$$", "location": {"address1": "660 Spring St", "address2": "", "address3": "", "city": "Winchendon", "zip_code": "01475", "country": "US", "state": "MA", "display_address": ["660 Spring St", "Winchendon, MA 01475"]}, "phone": "+19782971089", "display_phone": "(978) 297-1089", "distance": 2954.3757671187072}, {"id": "UgstPkWGXVMhLagXG2sOZg", "alias": "tavern-on-central-ashburnham", "name": "Tavern on Central", "image_url": "https://s3-media3.fl.yelpcdn.com/bphoto/LPJsK0JrirZuwh0u049mmw/o.jpg", "is_closed": false, "url": "https://www.yelp.com/biz/tavern-on-central-ashburnham?adjust_creative=ywY5UnLZrNrRl2b93Ruy_g&utm_campaign=yelp_api_v3&utm_medium=api_v3_business_search&utm_source=ywY5UnLZrNrRl2b93Ruy_g", "review_count": 32, "categories": [{"alias": "bars", "title": "Bars"}, {"alias": "tradamerican", "title": "American (Traditional)"}], "rating": 4.0, "coordinates": {"latitude": 42.6352169, "longitude": -71.909670100163}, "transactions": [], "price": "$$", "location": {"address1": "3 Central St", "address2": "", "address3": "", "city": "Ashburnham", "zip_code": "01430", "country": "US", "state": "MA", "display_address": ["3 Central St", "Ashburnham, MA 01430"]}, "phone": "+19788271272", "display_phone": "(978) 827-1272", "distance": 11717.512630154182}, {"id": "MsAsPmMTX5uPzvmVov6B9w", "alias": "king-phillip-restaurant-phillipston", "name": "King Phillip Restaurant", "image_url": "https://s3-media2.fl.yelpcdn.com/bphoto/ojO3BoLwHN2nkE1FRdJ5Qw/o.jpg", "is_closed": false, "url": "https://www.yelp.com/biz/king-phillip-restaurant-phillipston?adjust_creative=ywY5UnLZrNrRl2b93Ruy_g&utm_campaign=yelp_api_v3&utm_medium=api_v3_business_search&utm_source=ywY5UnLZrNrRl2b93Ruy_g", "review_count": 48, "categories": [{"alias": "tradamerican", "title": "American (Traditional)"}], "rating": 3.0, "coordinates": {"latitude": 42.5698651, "longitude": -72.1321599}, "transactions": [], "price": "$$", "location": {"address1": "35 State Rd", "address2": "", "address3": "", "city": "Phillipston", "zip_code": "01331", "country": "US", "state": "MA", "display_address": ["35 State Rd", "Phillipston, MA 01331"]}, "phone": "+19782496300", "display_phone": "(978) 249-6300", "distance": 12098.78109809406}, {"id": "qPpO6p-5m9mojV9W99f4Xg", "alias": "sandwich-master-plus-rindge", "name": "Sandwich Master Plus", "image_url": "https://s3-media4.fl.yelpcdn.com/bphoto/uagHBT3BbG9o1jgwBz3KmQ/o.jpg", "is_closed": false, "url": "https://www.yelp.com/biz/sandwich-master-plus-rindge?adjust_creative=ywY5UnLZrNrRl2b93Ruy_g&utm_campaign=yelp_api_v3&utm_medium=api_v3_business_search&utm_source=ywY5UnLZrNrRl2b93Ruy_g", "review_count": 93, "categories": [{"alias": "tradamerican", "title": "American (Traditional)"}, {"alias": "sandwiches", "title": "Sandwiches"}], "rating": 4.0, "coordinates": {"latitude": 42.742544, "longitude": -72.036752}, "transactions": [], "price": "$$", "location": {"address1": "19 Sonja Dr", "address2": "", "address3": "", "city": "Rindge", "zip_code": "03461", "country": "US", "state": "NH", "display_address": ["19 Sonja Dr", "Rindge, NH 03461"]}, "phone": "+16038992211", "display_phone": "(603) 899-2211", "distance": 9269.52740692837}, {"id": "phJ5V31ofZKCOXByamdsWg", "alias": "woodbound-inn-rindge-3", "name": "Woodbound Inn", "image_url": "https://s3-media3.fl.yelpcdn.com/bphoto/BeMn2cM_wbNgWORUImVTfw/o.jpg", "is_closed": false, "url": "https://www.yelp.com/biz/woodbound-inn-rindge-3?adjust_creative=ywY5UnLZrNrRl2b93Ruy_g&utm_campaign=yelp_api_v3&utm_medium=api_v3_business_search&utm_source=ywY5UnLZrNrRl2b93Ruy_g", "review_count": 77, "categories": [{"alias": "newamerican", "title": "American (New)"}, {"alias": "hotels", "title": "Hotels"}], "rating": 3.5, "coordinates": {"latitude": 42.7883186, "longitude": -72.0034637}, "transactions": [], "price": "$$", "location": {"address1": "247 Wooodbound Rd", "address2": "", "address3": "", "city": "Rindge", "zip_code": "03461", "country": "US", "state": "NH", "display_address": ["247 Wooodbound Rd", "Rindge, NH 03461"]}, "phone": "+16035328341", "display_phone": "(603) 532-8341", "distance": 14591.40373722337}, {"id": "o-YDa0b_hjwLFHYeEnvywA", "alias": "pigknuckles-burger-and-barbeque-rindge", "name": "Pigknuckles Burger & Barbeque", "image_url": "https://s3-media3.fl.yelpcdn.com/bphoto/SON2_NUeH3vaIcEYvOmftQ/o.jpg", "is_closed": false, "url": "https://www.yelp.com/biz/pigknuckles-burger-and-barbeque-rindge?adjust_creative=ywY5UnLZrNrRl2b93Ruy_g&utm_campaign=yelp_api_v3&utm_medium=api_v3_business_search&utm_source=ywY5UnLZrNrRl2b93Ruy_g", "review_count": 1, "categories": [{"alias": "bbq", "title": "Barbeque"}, {"alias": "burgers", "title": "Burgers"}, {"alias": "hotdog", "title": "Hot Dogs"}], "rating": 4.0, "coordinates": {"latitude": 42.7638516091877, "longitude": -72.0441821661107}, "transactions": [], "location": {"address1": "NH-119", "address2": "", "address3": null, "city": "Rindge", "zip_code": "03461", "country": "US", "state": "NH", "display_address": ["NH-119", "Rindge, NH 03461"]}, "phone": "", "display_phone": "", "distance": 11591.154213572256}, {"id": "wzs8aDcYZyAWOWghMoaGzw", "alias": "angler-fish-market-and-chowder-westminster-2", "name": "Angler Fish Market & Chowder", "image_url": "https://s3-media1.fl.yelpcdn.com/bphoto/rhCv_g0tD3O4VI19oGcsKA/o.jpg", "is_closed": false, "url": "https://www.yelp.com/biz/angler-fish-market-and-chowder-westminster-2?adjust_creative=ywY5UnLZrNrRl2b93Ruy_g&utm_campaign=yelp_api_v3&utm_medium=api_v3_business_search&utm_source=ywY5UnLZrNrRl2b93Ruy_g", "review_count": 105, "categories": [{"alias": "seafoodmarkets", "title": "Seafood Markets"}, {"alias": "seafood", "title": "Seafood"}], "rating": 4.0, "coordinates": {"latitude": 42.545545, "longitude": -71.914566}, "transactions": ["pickup", "delivery"], "price": "$$", "location": {"address1": "1 Village Sq", "address2": null, "address3": null, "city": "Westminster", "zip_code": "01473", "country": "US", "state": "MA", "display_address": ["1 Village Sq", "Westminster, MA 01473"]}, "phone": "+19788742202", "display_phone": "(978) 874-2202", "distance": 16797.42661257021}, {"id": "q0qhifHcJgTSAWMVAy4O-w", "alias": "old-time-new-england-seafood-company-athol-2", "name": "Old Time New England Seafood Company", "image_url": "https://s3-media1.fl.yelpcdn.com/bphoto/Sp6PDSBoupOkUCeEtuHD-g/o.jpg", "is_closed": false, "url": "https://www.yelp.com/biz/old-time-new-england-seafood-company-athol-2?adjust_creative=ywY5UnLZrNrRl2b93Ruy_g&utm_campaign=yelp_api_v3&utm_medium=api_v3_business_search&utm_source=ywY5UnLZrNrRl2b93Ruy_g", "review_count": 20, "categories": [{"alias": "seafood", "title": "Seafood"}], "rating": 4.0, "coordinates": {"latitude": 42.5840096, "longitude": -72.204467}, "transactions": [], "price": "$$", "location": {"address1": "2294 Main St", "address2": "", "address3": "", "city": "Athol", "zip_code": "01331", "country": "US", "state": "MA", "display_address": ["2294 Main St", "Athol, MA 01331"]}, "phone": "+19782495373", "display_phone": "(978) 249-5373", "distance": 15242.334903792895}, {"id": "y7uF47HIjx7uAPiXSiVEOQ", "alias": "christos-place-winchendon", "name": "Christo's Place", "image_url": "https://s3-media1.fl.yelpcdn.com/bphoto/eONDEM9lZv_mrtIPdkTx8w/o.jpg", "is_closed": false, "url": "https://www.yelp.com/biz/christos-place-winchendon?adjust_creative=ywY5UnLZrNrRl2b93Ruy_g&utm_campaign=yelp_api_v3&utm_medium=api_v3_business_search&utm_source=ywY5UnLZrNrRl2b93Ruy_g", "review_count": 10, "categories": [{"alias": "pizza", "title": "Pizza"}], "rating": 3.0, "coordinates": {"latitude": 42.681835, "longitude": -72.047646}, "transactions": [], "price": "$$", "location": {"address1": "51 Central St", "address2": "", "address3": "", "city": "Winchendon", "zip_code": "01475", "country": "US", "state": "MA", "display_address": ["51 Central St", "Winchendon, MA 01475"]}, "phone": "+19782971142", "display_phone": "(978) 297-1142", "distance": 2467.1569600529306}, {"id": "SB9nvFYt5w_dBqmblN9diQ", "alias": "c-and-s-pizza-of-winchendon-winchendon", "name": "C & S Pizza of Winchendon", "image_url": "https://s3-media2.fl.yelpcdn.com/bphoto/amwciQINWANoDPgIgLwlEw/o.jpg", "is_closed": false, "url": "https://www.yelp.com/biz/c-and-s-pizza-of-winchendon-winchendon?adjust_creative=ywY5UnLZrNrRl2b93Ruy_g&utm_campaign=yelp_api_v3&utm_medium=api_v3_business_search&utm_source=ywY5UnLZrNrRl2b93Ruy_g", "review_count": 20, "categories": [{"alias": "pizza", "title": "Pizza"}], "rating": 4.0, "coordinates": {"latitude": 42.68464, "longitude": -72.04595}, "transactions": [], "price": "$$", "location": {"address1": "188 Central St", "address2": "", "address3": "", "city": "Winchendon", "zip_code": "01475", "country": "US", "state": "MA", "display_address": ["188 Central St", "Winchendon, MA 01475"]}, "phone": "+19782972202", "display_phone": "(978) 297-2202", "distance": 2790.538850738601}, {"id": "6rcmMBO7GBGAB356Pw05IQ", "alias": "hometown-cafe-winchendon", "name": "Hometown Cafe", "image_url": "https://s3-media2.fl.yelpcdn.com/bphoto/dlyJrrhtQsq3izUyKGZsAg/o.jpg", "is_closed": false, "url": "https://www.yelp.com/biz/hometown-cafe-winchendon?adjust_creative=ywY5UnLZrNrRl2b93Ruy_g&utm_campaign=yelp_api_v3&utm_medium=api_v3_business_search&utm_source=ywY5UnLZrNrRl2b93Ruy_g", "review_count": 28, "categories": [{"alias": "cafes", "title": "Cafes"}, {"alias": "breakfast_brunch", "title": "Breakfast & Brunch"}], "rating": 5.0, "coordinates": {"latitude": 42.6869202, "longitude": -72.0442123}, "transactions": [], "price": "$", "location": {"address1": "314 Central St", "address2": "", "address3": "", "city": "Winchendon", "zip_code": "01475", "country": "US", "state": "MA", "display_address": ["314 Central St", "Winchendon, MA 01475"]}, "phone": "+19782972233", "display_phone": "(978) 297-2233", "distance": 3065.6596280708645}, {"id": "n0JWe_ju9sEOGte3yeq4Cw", "alias": "hometown-diner-rindge", "name": "Hometown Diner", "image_url": "https://s3-media3.fl.yelpcdn.com/bphoto/sfjHGoVhBQsoOGzr0cKAgw/o.jpg", "is_closed": false, "url": "https://www.yelp.com/biz/hometown-diner-rindge?adjust_creative=ywY5UnLZrNrRl2b93Ruy_g&utm_campaign=yelp_api_v3&utm_medium=api_v3_business_search&utm_source=ywY5UnLZrNrRl2b93Ruy_g", "review_count": 79, "categories": [{"alias": "diners", "title": "Diners"}], "rating": 4.0, "coordinates": {"latitude": 42.7615736483221, "longitude": -72.0366055184967}, "transactions": [], "price": "$$", "location": {"address1": "1421 Nh Rt 119", "address2": "", "address3": "", "city": "Rindge", "zip_code": "03461", "country": "US", "state": "NH", "display_address": ["1421 Nh Rt 119", "Rindge, NH 03461"]}, "phone": "+16038993200", "display_phone": "(603) 899-3200", "distance": 11376.453286157812}, {"id": "agVzx3wkIbsVsEnzWWzVzw", "alias": "identity-coffee-lab-rindge", "name": "Identity Coffee Lab", "image_url": "https://s3-media1.fl.yelpcdn.com/bphoto/yKgAXDqQk_0WO43-F5bXTQ/o.jpg", "is_closed": false, "url": "https://www.yelp.com/biz/identity-coffee-lab-rindge?adjust_creative=ywY5UnLZrNrRl2b93Ruy_g&utm_campaign=yelp_api_v3&utm_medium=api_v3_business_search&utm_source=ywY5UnLZrNrRl2b93Ruy_g", "review_count": 9, "categories": [{"alias": "cafes", "title": "Cafes"}], "rating": 5.0, "coordinates": {"latitude": 42.7564995849597, "longitude": -72.0063982183255}, "transactions": [], "location": {"address1": "1090 Nh Route 119", "address2": "", "address3": null, "city": "Rindge", "zip_code": "03461", "country": "US", "state": "NH", "display_address": ["1090 Nh Route 119", "Rindge, NH 03461"]}, "phone": "+14015759444", "display_phone": "(401) 575-9444", "distance": 11316.256341926}, {"id": "RTLXoRUCWGbObYnKnRVZJg", "alias": "baldwinville-station-baldwinville", "name": "Baldwinville Station", "image_url": "https://s3-media1.fl.yelpcdn.com/bphoto/HXetzYz2BV8jltsAmMa1-g/o.jpg", "is_closed": false, "url": "https://www.yelp.com/biz/baldwinville-station-baldwinville?adjust_creative=ywY5UnLZrNrRl2b93Ruy_g&utm_campaign=yelp_api_v3&utm_medium=api_v3_business_search&utm_source=ywY5UnLZrNrRl2b93Ruy_g", "review_count": 18, "categories": [{"alias": "breakfast_brunch", "title": "Breakfast & Brunch"}, {"alias": "tradamerican", "title": "American (Traditional)"}], "rating": 3.5, "coordinates": {"latitude": 42.6078996849769, "longitude": -72.0744104798049}, "transactions": [], "price": "$", "location": {"address1": "9 Circle St", "address2": null, "address3": null, "city": "Baldwinville", "zip_code": "01436", "country": "US", "state": "MA", "display_address": ["9 Circle St", "Baldwinville, MA 01436"]}, "phone": "+19789394800", "display_phone": "(978) 939-4800", "distance": 6119.729867071173}, {"id": "xd-G4ijhAy3m3UUwecSF8w", "alias": "albatross-westminster", "name": "Albatross", "image_url": "https://s3-media2.fl.yelpcdn.com/bphoto/zOECZh7kMbmGuuFDpk4NEg/o.jpg", "is_closed": false, "url": "https://www.yelp.com/biz/albatross-westminster?adjust_creative=ywY5UnLZrNrRl2b93Ruy_g&utm_campaign=yelp_api_v3&utm_medium=api_v3_business_search&utm_source=ywY5UnLZrNrRl2b93Ruy_g", "review_count": 5, "categories": [{"alias": "newamerican", "title": "American (New)"}, {"alias": "breakfast_brunch", "title": "Breakfast & Brunch"}, {"alias": "bars", "title": "Bars"}], "rating": 5.0, "coordinates": {"latitude": 42.54569, "longitude": -71.93143}, "transactions": [], "location": {"address1": "51 Ellis Rd", "address2": null, "address3": "", "city": "Westminster", "zip_code": "01473", "country": "US", "state": "MA", "display_address": ["51 Ellis Rd", "Westminster, MA 01473"]}, "phone": "+19788745900", "display_phone": "(978) 874-5900", "distance": 16447.449015319355}, {"id": "mxWNNxba4bmQ5ke5wQsQdw", "alias": "boiler-bar-and-grille-orange-2", "name": "Boiler Bar & Grille", "image_url": "https://s3-media2.fl.yelpcdn.com/bphoto/SxpP3zjHjOUTLdGZ_FWCXw/o.jpg", "is_closed": false, "url": "https://www.yelp.com/biz/boiler-bar-and-grille-orange-2?adjust_creative=ywY5UnLZrNrRl2b93Ruy_g&utm_campaign=yelp_api_v3&utm_medium=api_v3_business_search&utm_source=ywY5UnLZrNrRl2b93Ruy_g", "review_count": 33, "categories": [{"alias": "bars", "title": "Bars"}, {"alias": "tradamerican", "title": "American (Traditional)"}, {"alias": "bbq", "title": "Barbeque"}], "rating": 3.0, "coordinates": {"latitude": 42.636516, "longitude": -72.247943}, "transactions": [], "price": "$$", "location": {"address1": "245 Tully Rd", "address2": "", "address3": "", "city": "Orange", "zip_code": "01364", "country": "US", "state": "MA", "display_address": ["245 Tully Rd", "Orange, MA 01364"]}, "phone": "+19782489700", "display_phone": "(978) 248-9700", "distance": 16471.244268859522}, {"id": "nfeb9YXVrPx1cJOlgOHDNA", "alias": "the-1761-old-mill-westminster", "name": "The 1761 Old Mill", "image_url": "https://s3-media2.fl.yelpcdn.com/bphoto/tdAVI4Xm0xA_WaHWSMPWfQ/o.jpg", "is_closed": false, "url": "https://www.yelp.com/biz/the-1761-old-mill-westminster?adjust_creative=ywY5UnLZrNrRl2b93Ruy_g&utm_campaign=yelp_api_v3&utm_medium=api_v3_business_search&utm_source=ywY5UnLZrNrRl2b93Ruy_g", "review_count": 204, "categories": [{"alias": "tradamerican", "title": "American (Traditional)"}], "rating": 3.5, "coordinates": {"latitude": 42.549262, "longitude": -71.885783}, "transactions": [], "price": "$$", "location": {"address1": "69 State Rd E", "address2": null, "address3": "", "city": "Westminster", "zip_code": "01473", "country": "US", "state": "MA", "display_address": ["69 State Rd E", "Westminster, MA 01473"]}, "phone": "+19788745941", "display_phone": "(978) 874-5941", "distance": 18122.677793628714}, {"id": "OCz5muYPUncuu6_eTwY_aQ", "alias": "royalston-general-store-royalston", "name": "Royalston General Store", "image_url": "https://s3-media2.fl.yelpcdn.com/bphoto/dwJ29OIt0IIcgVpQOvnGPw/o.jpg", "is_closed": false, "url": "https://www.yelp.com/biz/royalston-general-store-royalston?adjust_creative=ywY5UnLZrNrRl2b93Ruy_g&utm_campaign=yelp_api_v3&utm_medium=api_v3_business_search&utm_source=ywY5UnLZrNrRl2b93Ruy_g", "review_count": 2, "categories": [{"alias": "breakfast_brunch", "title": "Breakfast & Brunch"}], "rating": 4.0, "coordinates": {"latitude": 42.63058, "longitude": -72.14802}, "transactions": [], "location": {"address1": "21 Main St", "address2": "", "address3": "", "city": "Royalston", "zip_code": "01368", "country": "US", "state": "MA", "display_address": ["21 Main St", "Royalston, MA 01368"]}, "phone": "+19782499798", "display_phone": "(978) 249-9798", "distance": 8736.296980626594}, {"id": "jTPPscieN_KRrwxq3Cvoxg", "alias": "sawa-asian-bistro-gardner", "name": "Sawa Asian Bistro", "image_url": "https://s3-media3.fl.yelpcdn.com/bphoto/6OeCkKRnF5CX73drFhHyaw/o.jpg", "is_closed": false, "url": "https://www.yelp.com/biz/sawa-asian-bistro-gardner?adjust_creative=ywY5UnLZrNrRl2b93Ruy_g&utm_campaign=yelp_api_v3&utm_medium=api_v3_business_search&utm_source=ywY5UnLZrNrRl2b93Ruy_g", "review_count": 76, "categories": [{"alias": "asianfusion", "title": "Asian Fusion"}], "rating": 3.5, "coordinates": {"latitude": 42.559041712705, "longitude": -71.989148206288}, "transactions": ["pickup"], "price": "$$", "location": {"address1": "360 Timpany Blvd", "address2": "", "address3": "", "city": "Gardner", "zip_code": "01440", "country": "US", "state": "MA", "display_address": ["360 Timpany Blvd", "Gardner, MA 01440"]}, "phone": "+19786323888", "display_phone": "(978) 632-3888", "distance": 12215.389322632538}, {"id": "PkUQS1Egv8vhxxJtDVjBaA", "alias": "asia-gourmet-athol", "name": "Asia Gourmet", "image_url": "https://s3-media1.fl.yelpcdn.com/bphoto/GjsJgR7BC4fSlGm2Eopppw/o.jpg", "is_closed": false, "url": "https://www.yelp.com/biz/asia-gourmet-athol?adjust_creative=ywY5UnLZrNrRl2b93Ruy_g&utm_campaign=yelp_api_v3&utm_medium=api_v3_business_search&utm_source=ywY5UnLZrNrRl2b93Ruy_g", "review_count": 7, "categories": [{"alias": "chinese", "title": "Chinese"}, {"alias": "sushi", "title": "Sushi Bars"}, {"alias": "thai", "title": "Thai"}], "rating": 3.5, "coordinates": {"latitude": 42.58012, "longitude": -72.18376}, "transactions": [], "location": {"address1": "144 Market Dr", "address2": "", "address3": null, "city": "Athol", "zip_code": "01331", "country": "US", "state": "MA", "display_address": ["144 Market Dr", "Athol, MA 01331"]}, "phone": "+19782493918", "display_phone": "(978) 249-3918", "distance": 14271.798956342107}, {"id": "EZhQ41NJaq4no3RTzs7cmw", "alias": "colonial-grille-gardner", "name": "Colonial Grille", "image_url": "https://s3-media1.fl.yelpcdn.com/bphoto/voCLPpE2SaAJdfbfn5BHRg/o.jpg", "is_closed": false, "url": "https://www.yelp.com/biz/colonial-grille-gardner?adjust_creative=ywY5UnLZrNrRl2b93Ruy_g&utm_campaign=yelp_api_v3&utm_medium=api_v3_business_search&utm_source=ywY5UnLZrNrRl2b93Ruy_g", "review_count": 22, "categories": [{"alias": "tradamerican", "title": "American (Traditional)"}, {"alias": "seafood", "title": "Seafood"}, {"alias": "pizza", "title": "Pizza"}], "rating": 3.5, "coordinates": {"latitude": 42.562668, "longitude": -71.949158}, "transactions": [], "price": "$$", "location": {"address1": "625 Betty Spring Rd", "address2": "", "address3": "", "city": "Gardner", "zip_code": "01440", "country": "US", "state": "MA", "display_address": ["625 Betty Spring Rd", "Gardner, MA 01440"]}, "phone": "+19786302500", "display_phone": "(978) 630-2500", "distance": 13532.775315489978}, {"id": "7x3ahfSXy7WIbiyTWXP9Ow", "alias": "blueprint-american-bar-and-grille-westminster", "name": "Blueprint American Bar And Grille", "image_url": "https://s3-media1.fl.yelpcdn.com/bphoto/RZ-2SoH1vHklaszInf0x_w/o.jpg", "is_closed": false, "url": "https://www.yelp.com/biz/blueprint-american-bar-and-grille-westminster?adjust_creative=ywY5UnLZrNrRl2b93Ruy_g&utm_campaign=yelp_api_v3&utm_medium=api_v3_business_search&utm_source=ywY5UnLZrNrRl2b93Ruy_g", "review_count": 84, "categories": [{"alias": "newamerican", "title": "American (New)"}, {"alias": "bars", "title": "Bars"}], "rating": 3.5, "coordinates": {"latitude": 42.5457633862712, "longitude": -71.9147932863456}, "transactions": [], "price": "$$", "location": {"address1": "10 Village Square", "address2": "", "address3": null, "city": "Westminster", "zip_code": "01473", "country": "US", "state": "MA", "display_address": ["10 Village Square", "Westminster, MA 01473"]}, "phone": "+19786685580", "display_phone": "(978) 668-5580", "distance": 16766.880552136285}, {"id": "M4pDTg4c5gUmYsvHXpTllw", "alias": "friends-garden-winchendon", "name": "Friend's Garden", "image_url": "https://s3-media2.fl.yelpcdn.com/bphoto/jKW6chQtwYeR_MQZkExGIA/o.jpg", "is_closed": false, "url": "https://www.yelp.com/biz/friends-garden-winchendon?adjust_creative=ywY5UnLZrNrRl2b93Ruy_g&utm_campaign=yelp_api_v3&utm_medium=api_v3_business_search&utm_source=ywY5UnLZrNrRl2b93Ruy_g", "review_count": 10, "categories": [{"alias": "chinese", "title": "Chinese"}], "rating": 3.0, "coordinates": {"latitude": 42.6819683, "longitude": -72.04811}, "transactions": [], "price": "$$", "location": {"address1": "56 Central St", "address2": "", "address3": "", "city": "Winchendon", "zip_code": "01475", "country": "US", "state": "MA", "display_address": ["56 Central St", "Winchendon, MA 01475"]}, "phone": "+19782972277", "display_phone": "(978) 297-2277", "distance": 2493.725251679073}, {"id": "C7ThqIKJfCAMEvReN7_MYg", "alias": "main-street-grill-athol", "name": "Main Street Grill", "image_url": "https://s3-media4.fl.yelpcdn.com/bphoto/qwvmLJSTR3M4l7j2Bg9Z6g/o.jpg", "is_closed": false, "url": "https://www.yelp.com/biz/main-street-grill-athol?adjust_creative=ywY5UnLZrNrRl2b93Ruy_g&utm_campaign=yelp_api_v3&utm_medium=api_v3_business_search&utm_source=ywY5UnLZrNrRl2b93Ruy_g", "review_count": 5, "categories": [{"alias": "tradamerican", "title": "American (Traditional)"}], "rating": 4.0, "coordinates": {"latitude": 42.5938164, "longitude": -72.2300407}, "transactions": [], "location": {"address1": "491 Main St", "address2": "", "address3": "", "city": "Athol", "zip_code": "01331", "country": "US", "state": "MA", "display_address": ["491 Main St", "Athol, MA 01331"]}, "phone": "+19788304374", "display_phone": "(978) 830-4374", "distance": 16521.12468851011}, {"id": "jQV1x9aI6gfQLtlpUcj2FA", "alias": "duguays-chicken-and-seafood-gardner", "name": "Duguays Chicken & Seafood", "image_url": "https://s3-media2.fl.yelpcdn.com/bphoto/C1iDu-eEp0WuUJJP1eNjVA/o.jpg", "is_closed": false, "url": "https://www.yelp.com/biz/duguays-chicken-and-seafood-gardner?adjust_creative=ywY5UnLZrNrRl2b93Ruy_g&utm_campaign=yelp_api_v3&utm_medium=api_v3_business_search&utm_source=ywY5UnLZrNrRl2b93Ruy_g", "review_count": 47, "categories": [{"alias": "seafood", "title": "Seafood"}, {"alias": "burgers", "title": "Burgers"}, {"alias": "chickenshop", "title": "Chicken Shop"}], "rating": 4.0, "coordinates": {"latitude": 42.57311, "longitude": -72.01599}, "transactions": [], "price": "$$", "location": {"address1": "632 Parker St", "address2": "", "address3": "", "city": "Gardner", "zip_code": "01440", "country": "US", "state": "MA", "display_address": ["632 Parker St", "Gardner, MA 01440"]}, "phone": "+19786324493", "display_phone": "(978) 632-4493", "distance": 9981.876675601989}, {"id": "6eDMigdX2fH32_2cuaHzpw", "alias": "jk-crossroads-east-templeton", "name": "JK Crossroads", "image_url": "https://s3-media3.fl.yelpcdn.com/bphoto/X9b-I_ndI2z1jI4m_Fh-4g/o.jpg", "is_closed": false, "url": "https://www.yelp.com/biz/jk-crossroads-east-templeton?adjust_creative=ywY5UnLZrNrRl2b93Ruy_g&utm_campaign=yelp_api_v3&utm_medium=api_v3_business_search&utm_source=ywY5UnLZrNrRl2b93Ruy_g", "review_count": 22, "categories": [{"alias": "tradamerican", "title": "American (Traditional)"}], "rating": 3.0, "coordinates": {"latitude": 42.56267, "longitude": -72.03679}, "transactions": [], "price": "$$", "location": {"address1": "119 Patriots Rd", "address2": "", "address3": "", "city": "East Templeton", "zip_code": "01438", "country": "US", "state": "MA", "display_address": ["119 Patriots Rd", "East Templeton, MA 01438"]}, "phone": "+19786327070", "display_phone": "(978) 632-7070", "distance": 10836.969887940359}, {"id": "M5aNw3UEOPiibQ_zBw_Ohg", "alias": "lees-hot-dog-stand-baldwinville", "name": "Lee's Hot Dog Stand", "image_url": "https://s3-media1.fl.yelpcdn.com/bphoto/i-DbLkQboOz9my41GtJ_8g/o.jpg", "is_closed": false, "url": "https://www.yelp.com/biz/lees-hot-dog-stand-baldwinville?adjust_creative=ywY5UnLZrNrRl2b93Ruy_g&utm_campaign=yelp_api_v3&utm_medium=api_v3_business_search&utm_source=ywY5UnLZrNrRl2b93Ruy_g", "review_count": 5, "categories": [{"alias": "restaurants", "title": "Restaurants"}], "rating": 2.5, "coordinates": {"latitude": 42.60635, "longitude": -72.072093}, "transactions": [], "price": "$", "location": {"address1": "31 Central St", "address2": "", "address3": "", "city": "Baldwinville", "zip_code": "01436", "country": "US", "state": "MA", "display_address": ["31 Central St", "Baldwinville, MA 01436"]}, "phone": "+19789395346", "display_phone": "(978) 939-5346", "distance": 6222.009392894595}, {"id": "v_Hpc-MgJvfyKWSspDETlw", "alias": "taco-rey-coliman-gardner-2", "name": "Taco Rey Coliman", "image_url": "https://s3-media4.fl.yelpcdn.com/bphoto/FZ0gWTPf72YnsmmM6OQNuA/o.jpg", "is_closed": false, "url": "https://www.yelp.com/biz/taco-rey-coliman-gardner-2?adjust_creative=ywY5UnLZrNrRl2b93Ruy_g&utm_campaign=yelp_api_v3&utm_medium=api_v3_business_search&utm_source=ywY5UnLZrNrRl2b93Ruy_g", "review_count": 35, "categories": [{"alias": "tex-mex", "title": "Tex-Mex"}, {"alias": "mexican", "title": "Mexican"}, {"alias": "spanish", "title": "Spanish"}], "rating": 4.5, "coordinates": {"latitude": 42.5757434, "longitude": -71.9951119}, "transactions": [], "price": "$", "location": {"address1": "7 Pleasant St", "address2": "", "address3": "", "city": "Gardner", "zip_code": "01440", "country": "US", "state": "MA", "display_address": ["7 Pleasant St", "Gardner, MA 01440"]}, "phone": "+19786327400", "display_phone": "(978) 632-7400", "distance": 10322.492659646037}, {"id": "KOmBaRuOp6ZrxiLC3hC-sw", "alias": "paramount-cafe-gardner", "name": "Paramount Cafe", "image_url": "https://s3-media2.fl.yelpcdn.com/bphoto/9ciEyCWZ1VdIAQoiqYjnfQ/o.jpg", "is_closed": false, "url": "https://www.yelp.com/biz/paramount-cafe-gardner?adjust_creative=ywY5UnLZrNrRl2b93Ruy_g&utm_campaign=yelp_api_v3&utm_medium=api_v3_business_search&utm_source=ywY5UnLZrNrRl2b93Ruy_g", "review_count": 5, "categories": [{"alias": "cafes", "title": "Cafes"}], "rating": 4.5, "coordinates": {"latitude": 42.575092, "longitude": -71.994545}, "transactions": [], "location": {"address1": "46 Main St", "address2": "", "address3": "", "city": "Gardner", "zip_code": "01440", "country": "US", "state": "MA", "display_address": ["46 Main St", "Gardner, MA 01440"]}, "phone": "+19786329869", "display_phone": "(978) 632-9869", "distance": 10407.817645679297}, {"id": "mRj1oNilgeEiMyTDE-XRFA", "alias": "sorrentos-brick-oven-pizza-gardner", "name": "Sorrento's Brick Oven Pizza", "image_url": "https://s3-media2.fl.yelpcdn.com/bphoto/r5nIeUKuciMl8LP5jSvaWw/o.jpg", "is_closed": false, "url": "https://www.yelp.com/biz/sorrentos-brick-oven-pizza-gardner?adjust_creative=ywY5UnLZrNrRl2b93Ruy_g&utm_campaign=yelp_api_v3&utm_medium=api_v3_business_search&utm_source=ywY5UnLZrNrRl2b93Ruy_g", "review_count": 32, "categories": [{"alias": "pizza", "title": "Pizza"}], "rating": 3.5, "coordinates": {"latitude": 42.56806, "longitude": -71.98405}, "transactions": [], "price": "$$", "location": {"address1": "487 Chestnut St", "address2": "", "address3": "", "city": "Gardner", "zip_code": "01440", "country": "US", "state": "MA", "display_address": ["487 Chestnut St", "Gardner, MA 01440"]}, "phone": "+19786300045", "display_phone": "(978) 630-0045", "distance": 11492.558117166935}, {"id": "TVd2898Jy_u8ro-GLrZEIQ", "alias": "green-tea-westminster", "name": "Green Tea", "image_url": "https://s3-media4.fl.yelpcdn.com/bphoto/mT4nA7r9_QfD0Nk7CiRqjg/o.jpg", "is_closed": false, "url": "https://www.yelp.com/biz/green-tea-westminster?adjust_creative=ywY5UnLZrNrRl2b93Ruy_g&utm_campaign=yelp_api_v3&utm_medium=api_v3_business_search&utm_source=ywY5UnLZrNrRl2b93Ruy_g", "review_count": 16, "categories": [{"alias": "chinese", "title": "Chinese"}], "rating": 4.5, "coordinates": {"latitude": 42.5467888580999, "longitude": -71.9142293930054}, "transactions": [], "price": "$$", "location": {"address1": "7 Village Sq", "address2": null, "address3": null, "city": "Westminster", "zip_code": "01473", "country": "US", "state": "MA", "display_address": ["7 Village Sq", "Westminster, MA 01473"]}, "phone": "+19788742288", "display_phone": "(978) 874-2288", "distance": 16711.28426901295}, {"id": "nlaFN5Qx6OiwQfEZmaYYjw", "alias": "old-mill-restaurant-and-crackerbarrel-pub-and-lounge-westminster", "name": "Old Mill Restaurant & Crackerbarrel Pub & Lounge", "image_url": "https://s3-media1.fl.yelpcdn.com/bphoto/juP9N3sZcuP9IoYgwR62nw/o.jpg", "is_closed": false, "url": "https://www.yelp.com/biz/old-mill-restaurant-and-crackerbarrel-pub-and-lounge-westminster?adjust_creative=ywY5UnLZrNrRl2b93Ruy_g&utm_campaign=yelp_api_v3&utm_medium=api_v3_business_search&utm_source=ywY5UnLZrNrRl2b93Ruy_g", "review_count": 61, "categories": [{"alias": "newamerican", "title": "American (New)"}], "rating": 3.0, "coordinates": {"latitude": 42.5497726279832, "longitude": -71.8857302846505}, "transactions": [], "price": "$$", "location": {"address1": "Rt 2A", "address2": "", "address3": "", "city": "Westminster", "zip_code": "01473", "country": "US", "state": "MA", "display_address": ["Rt 2A", "Westminster, MA 01473"]}, "phone": "+19788745941", "display_phone": "(978) 874-5941", "distance": 18109.33806936715}, {"id": "-PRPQJUowAthn2mmh0_mbA", "alias": "garden-pizza-and-seafood-gardner", "name": "Garden Pizza & Seafood", "image_url": "https://s3-media1.fl.yelpcdn.com/bphoto/Ma_A1uu1KF8sKgnz3eVygA/o.jpg", "is_closed": false, "url": "https://www.yelp.com/biz/garden-pizza-and-seafood-gardner?adjust_creative=ywY5UnLZrNrRl2b93Ruy_g&utm_campaign=yelp_api_v3&utm_medium=api_v3_business_search&utm_source=ywY5UnLZrNrRl2b93Ruy_g", "review_count": 14, "categories": [{"alias": "seafood", "title": "Seafood"}, {"alias": "pizza", "title": "Pizza"}], "rating": 3.0, "coordinates": {"latitude": 42.5759978, "longitude": -71.995618}, "transactions": [], "price": "$$", "location": {"address1": "24 Parker St", "address2": "", "address3": "", "city": "Gardner", "zip_code": "01440", "country": "US", "state": "MA", "display_address": ["24 Parker St", "Gardner, MA 01440"]}, "phone": "+19786302424", "display_phone": "(978) 630-2424", "distance": 10279.246766818062}, {"id": "lfQN5QSEPMr4ng0eW3lvEA", "alias": "williams-restaurant-gardner", "name": "Williams Restaurant", "image_url": "https://s3-media2.fl.yelpcdn.com/bphoto/YEek_aEDa2SU79a1-TPvZA/o.jpg", "is_closed": false, "url": "https://www.yelp.com/biz/williams-restaurant-gardner?adjust_creative=ywY5UnLZrNrRl2b93Ruy_g&utm_campaign=yelp_api_v3&utm_medium=api_v3_business_search&utm_source=ywY5UnLZrNrRl2b93Ruy_g", "review_count": 38, "categories": [{"alias": "newamerican", "title": "American (New)"}, {"alias": "seafood", "title": "Seafood"}, {"alias": "sandwiches", "title": "Sandwiches"}], "rating": 3.5, "coordinates": {"latitude": 42.55953, "longitude": -71.98036}, "transactions": [], "price": "$$", "location": {"address1": "184 Pearson Blvd", "address2": "", "address3": "", "city": "Gardner", "zip_code": "01440", "country": "US", "state": "MA", "display_address": ["184 Pearson Blvd", "Gardner, MA 01440"]}, "phone": "+19786327794", "display_phone": "(978) 632-7794", "distance": 12471.139284407083}, {"id": "Hb1WV-XO3pZYMpZ3HaMf0Q", "alias": "kennys-house-gardner", "name": "Kenny's House", "image_url": "https://s3-media3.fl.yelpcdn.com/bphoto/ulcP7iOkpNHWa9bouLZbrQ/o.jpg", "is_closed": false, "url": "https://www.yelp.com/biz/kennys-house-gardner?adjust_creative=ywY5UnLZrNrRl2b93Ruy_g&utm_campaign=yelp_api_v3&utm_medium=api_v3_business_search&utm_source=ywY5UnLZrNrRl2b93Ruy_g", "review_count": 18, "categories": [{"alias": "chinese", "title": "Chinese"}, {"alias": "seafood", "title": "Seafood"}, {"alias": "soup", "title": "Soup"}], "rating": 4.0, "coordinates": {"latitude": 42.5757372, "longitude": -71.9983973}, "transactions": [], "location": {"address1": "128 Parker St", "address2": "", "address3": "", "city": "Gardner", "zip_code": "01440", "country": "US", "state": "MA", "display_address": ["128 Parker St", "Gardner, MA 01440"]}, "phone": "+19786322888", "display_phone": "(978) 632-2888", "distance": 10214.115392891037}, {"id": "Mip88PCakG5_gVLpi-jxXw", "alias": "yaka-sawa-sushi-and-grill-ashburnham", "name": "Yaka Sawa Sushi And Grill", "image_url": "https://s3-media1.fl.yelpcdn.com/bphoto/HB2TVqMlCxXp9nem4K2Ttw/o.jpg", "is_closed": false, "url": "https://www.yelp.com/biz/yaka-sawa-sushi-and-grill-ashburnham?adjust_creative=ywY5UnLZrNrRl2b93Ruy_g&utm_campaign=yelp_api_v3&utm_medium=api_v3_business_search&utm_source=ywY5UnLZrNrRl2b93Ruy_g", "review_count": 19, "categories": [{"alias": "sushi", "title": "Sushi Bars"}, {"alias": "japanese", "title": "Japanese"}, {"alias": "seafood", "title": "Seafood"}], "rating": 4.0, "coordinates": {"latitude": 42.6356778843989, "longitude": -71.9100105494592}, "transactions": [], "price": "$$", "location": {"address1": "57 Main St", "address2": "", "address3": "", "city": "Ashburnham", "zip_code": "01430", "country": "US", "state": "MA", "display_address": ["57 Main St", "Ashburnham, MA 01430"]}, "phone": "+19782525679", "display_phone": "(978) 252-5679", "distance": 11678.572791343571}, {"id": "KIzGy3Vh5zYbB0AD3aV_6w", "alias": "village-grill-and-pizzeria-athol", "name": "Village Grill & Pizzeria", "image_url": "https://s3-media3.fl.yelpcdn.com/bphoto/mcattaeuVmzdUjgB3xs8_g/o.jpg", "is_closed": false, "url": "https://www.yelp.com/biz/village-grill-and-pizzeria-athol?adjust_creative=ywY5UnLZrNrRl2b93Ruy_g&utm_campaign=yelp_api_v3&utm_medium=api_v3_business_search&utm_source=ywY5UnLZrNrRl2b93Ruy_g", "review_count": 5, "categories": [{"alias": "pizza", "title": "Pizza"}, {"alias": "tradamerican", "title": "American (Traditional)"}, {"alias": "chicken_wings", "title": "Chicken Wings"}], "rating": 4.5, "coordinates": {"latitude": 42.5919225, "longitude": -72.2411213}, "transactions": [], "price": "$", "location": {"address1": "131 S Main St", "address2": "", "address3": "", "city": "Athol", "zip_code": "01331", "country": "US", "state": "MA", "display_address": ["131 S Main St", "Athol, MA 01331"]}, "phone": "+19785750058", "display_phone": "(978) 575-0058", "distance": 17428.629703225208}, {"id": "JsyervcPMfFnRwRbtdsIAg", "alias": "the-pizza-barn-baldwinville", "name": "The Pizza Barn", "image_url": "https://s3-media1.fl.yelpcdn.com/bphoto/Ce7-bTdAMVVbfEbue3hUog/o.jpg", "is_closed": false, "url": "https://www.yelp.com/biz/the-pizza-barn-baldwinville?adjust_creative=ywY5UnLZrNrRl2b93Ruy_g&utm_campaign=yelp_api_v3&utm_medium=api_v3_business_search&utm_source=ywY5UnLZrNrRl2b93Ruy_g", "review_count": 5, "categories": [{"alias": "pizza", "title": "Pizza"}, {"alias": "italian", "title": "Italian"}, {"alias": "mediterranean", "title": "Mediterranean"}], "rating": 2.0, "coordinates": {"latitude": 42.60673, "longitude": -72.07426}, "transactions": [], "price": "$$", "location": {"address1": "9 Central St", "address2": "", "address3": "", "city": "Baldwinville", "zip_code": "01436", "country": "US", "state": "MA", "display_address": ["9 Central St", "Baldwinville, MA 01436"]}, "phone": "+19789392156", "display_phone": "(978) 939-2156", "distance": 6219.503172706756}, {"id": "-6SXunk8sa57KHosd5CSYQ", "alias": "yen-yen-chinese-restaurant-gardner", "name": "Yen Yen Chinese Restaurant", "image_url": "https://s3-media1.fl.yelpcdn.com/bphoto/jIy4g7yVDJkBtuFpok2hVQ/o.jpg", "is_closed": false, "url": "https://www.yelp.com/biz/yen-yen-chinese-restaurant-gardner?adjust_creative=ywY5UnLZrNrRl2b93Ruy_g&utm_campaign=yelp_api_v3&utm_medium=api_v3_business_search&utm_source=ywY5UnLZrNrRl2b93Ruy_g", "review_count": 28, "categories": [{"alias": "chinese", "title": "Chinese"}], "rating": 3.0, "coordinates": {"latitude": 42.5662039, "longitude": -71.9769619}, "transactions": [], "price": "$$", "location": {"address1": "42 Pearson Blvd", "address2": "", "address3": "", "city": "Gardner", "zip_code": "01440", "country": "US", "state": "MA", "display_address": ["42 Pearson Blvd", "Gardner, MA 01440"]}, "phone": "+19786301535", "display_phone": "(978) 630-1535", "distance": 11949.574569153754}, {"id": "6-zw4ZlZlamO-felkRuQEA", "alias": "pizza-pie-rindge", "name": "Pizza Pie", "image_url": "https://s3-media4.fl.yelpcdn.com/bphoto/P3D19wUOY7QjsqJuAoFaUw/o.jpg", "is_closed": false, "url": "https://www.yelp.com/biz/pizza-pie-rindge?adjust_creative=ywY5UnLZrNrRl2b93Ruy_g&utm_campaign=yelp_api_v3&utm_medium=api_v3_business_search&utm_source=ywY5UnLZrNrRl2b93Ruy_g", "review_count": 6, "categories": [{"alias": "pizza", "title": "Pizza"}], "rating": 4.0, "coordinates": {"latitude": 42.7585, "longitude": -72.00948}, "transactions": [], "price": "$$", "location": {"address1": "1116 Nh Route 119", "address2": null, "address3": null, "city": "Rindge", "zip_code": "03461", "country": "US", "state": "NH", "display_address": ["1116 Nh Route 119", "Rindge, NH 03461"]}, "phone": "+16038992080", "display_phone": "(603) 899-2080", "distance": 11438.774303669923}, {"id": "FTG4lwB-GXEBbUwK17x-7g", "alias": "pizza-haven-rindge-2", "name": "Pizza Haven", "image_url": "https://s3-media1.fl.yelpcdn.com/bphoto/LZZn0sRrrSGh7NMc7U6PJA/o.jpg", "is_closed": false, "url": "https://www.yelp.com/biz/pizza-haven-rindge-2?adjust_creative=ywY5UnLZrNrRl2b93Ruy_g&utm_campaign=yelp_api_v3&utm_medium=api_v3_business_search&utm_source=ywY5UnLZrNrRl2b93Ruy_g", "review_count": 30, "categories": [{"alias": "pizza", "title": "Pizza"}, {"alias": "gluten_free", "title": "Gluten-Free"}, {"alias": "salad", "title": "Salad"}], "rating": 3.0, "coordinates": {"latitude": 42.7604579173385, "longitude": -72.0282044518038}, "transactions": [], "price": "$", "location": {"address1": "1343 Nh Rt 119", "address2": "", "address3": "", "city": "Rindge", "zip_code": "03461", "country": "US", "state": "NH", "display_address": ["1343 Nh Rt 119", "Rindge, NH 03461"]}, "phone": "+16038992828", "display_phone": "(603) 899-2828", "distance": 11335.428381891335}, {"id": "46HA2dX8l3KZWHdLmu-U8Q", "alias": "parker-house-of-pizza-gardner-2", "name": "Parker House Of Pizza", "image_url": "https://s3-media1.fl.yelpcdn.com/bphoto/MhE4Kqq3cklu9CpgnS90ng/o.jpg", "is_closed": false, "url": "https://www.yelp.com/biz/parker-house-of-pizza-gardner-2?adjust_creative=ywY5UnLZrNrRl2b93Ruy_g&utm_campaign=yelp_api_v3&utm_medium=api_v3_business_search&utm_source=ywY5UnLZrNrRl2b93Ruy_g", "review_count": 10, "categories": [{"alias": "pizza", "title": "Pizza"}, {"alias": "burgers", "title": "Burgers"}, {"alias": "wraps", "title": "Wraps"}], "rating": 4.5, "coordinates": {"latitude": 42.5753219691741, "longitude": -71.9953142025354}, "transactions": [], "price": "$", "location": {"address1": "17 Pleasant St", "address2": "", "address3": "", "city": "Gardner", "zip_code": "01440", "country": "US", "state": "MA", "display_address": ["17 Pleasant St", "Gardner, MA 01440"]}, "phone": "+19786329383", "display_phone": "(978) 632-9383", "distance": 10357.848833677781}, {"id": "Gfjq1BF0s1vocvs5GDBtiQ", "alias": "soup-on-the-fly-athol", "name": "Soup On The Fly", "image_url": "https://s3-media3.fl.yelpcdn.com/bphoto/pLSSAJEqXccZVoYjC3fxTg/o.jpg", "is_closed": false, "url": "https://www.yelp.com/biz/soup-on-the-fly-athol?adjust_creative=ywY5UnLZrNrRl2b93Ruy_g&utm_campaign=yelp_api_v3&utm_medium=api_v3_business_search&utm_source=ywY5UnLZrNrRl2b93Ruy_g", "review_count": 60, "categories": [{"alias": "soup", "title": "Soup"}, {"alias": "sandwiches", "title": "Sandwiches"}, {"alias": "burgers", "title": "Burgers"}], "rating": 5.0, "coordinates": {"latitude": 42.5901547959732, "longitude": -72.216189316008}, "transactions": [], "price": "$$", "location": {"address1": "1493 Main St", "address2": "", "address3": "", "city": "Athol", "zip_code": "01331", "country": "US", "state": "MA", "display_address": ["1493 Main St", "Athol, MA 01331"]}, "phone": "+19788304633", "display_phone": "(978) 830-4633", "distance": 15710.037396188276}, {"id": "iVk5L0JWf_92isJK9JWpwA", "alias": "village-pizza-and-subs-baldwinville-2", "name": "Village Pizza & Subs", "image_url": "https://s3-media2.fl.yelpcdn.com/bphoto/MccvnRH-t1sS0jyeKzBrCQ/o.jpg", "is_closed": false, "url": "https://www.yelp.com/biz/village-pizza-and-subs-baldwinville-2?adjust_creative=ywY5UnLZrNrRl2b93Ruy_g&utm_campaign=yelp_api_v3&utm_medium=api_v3_business_search&utm_source=ywY5UnLZrNrRl2b93Ruy_g", "review_count": 6, "categories": [{"alias": "pizza", "title": "Pizza"}, {"alias": "seafood", "title": "Seafood"}], "rating": 4.0, "coordinates": {"latitude": 42.60683, "longitude": -72.07494}, "transactions": [], "price": "$", "location": {"address1": "5 Elm St", "address2": "", "address3": "", "city": "Baldwinville", "zip_code": "01436", "country": "US", "state": "MA", "display_address": ["5 Elm St", "Baldwinville, MA 01436"]}, "phone": "+19789394401", "display_phone": "(978) 939-4401", "distance": 6247.161653330158}, {"id": "97y3gmLhu_nXnFtofF_p-A", "alias": "snowland-gingerbread-house-at-great-wolf-lodge-fitchburg-2", "name": "Snowland Gingerbread House at Great Wolf Lodge", "image_url": "https://s3-media3.fl.yelpcdn.com/bphoto/nldxMYf_HBD38HDX5U2ihw/o.jpg", "is_closed": false, "url": "https://www.yelp.com/biz/snowland-gingerbread-house-at-great-wolf-lodge-fitchburg-2?adjust_creative=ywY5UnLZrNrRl2b93Ruy_g&utm_campaign=yelp_api_v3&utm_medium=api_v3_business_search&utm_source=ywY5UnLZrNrRl2b93Ruy_g", "review_count": 4, "categories": [{"alias": "gourmet", "title": "Specialty Food"}, {"alias": "newamerican", "title": "American (New)"}, {"alias": "resorts", "title": "Resorts"}], "rating": 4.5, "coordinates": {"latitude": 42.54711, "longitude": -71.854378}, "transactions": [], "price": "$$", "location": {"address1": "150 Great Wolf Dr", "address2": null, "address3": null, "city": "Fitchburg", "zip_code": "01420", "country": "US", "state": "MA", "display_address": ["150 Great Wolf Dr", "Fitchburg, MA 01420"]}, "phone": "+19783439653", "display_phone": "(978) 343-9653", "distance": 20259.686432842853}, {"id": "o686NvNNRF8TecM4j0KxwQ", "alias": "lickity-splitz-winchendon", "name": "Lickity Splitz", "image_url": "https://s3-media3.fl.yelpcdn.com/bphoto/P12JecDQJnJB5lVQK8AepQ/o.jpg", "is_closed": false, "url": "https://www.yelp.com/biz/lickity-splitz-winchendon?adjust_creative=ywY5UnLZrNrRl2b93Ruy_g&utm_campaign=yelp_api_v3&utm_medium=api_v3_business_search&utm_source=ywY5UnLZrNrRl2b93Ruy_g", "review_count": 18, "categories": [{"alias": "icecream", "title": "Ice Cream & Frozen Yogurt"}, {"alias": "burgers", "title": "Burgers"}, {"alias": "hotdog", "title": "Hot Dogs"}], "rating": 4.0, "coordinates": {"latitude": 42.67049, "longitude": -72.07639}, "transactions": [], "price": "$", "location": {"address1": "231 Main St", "address2": "", "address3": "", "city": "Winchendon", "zip_code": "01475", "country": "US", "state": "MA", "display_address": ["231 Main St", "Winchendon, MA 01475"]}, "phone": "+19782971777", "display_phone": "(978) 297-1777", "distance": 2611.521082842864}, {"id": "Er46vYBcDS6EjNNSUkZymA", "alias": "southside-grille-and-margarita-factory-gardner", "name": "Southside Grille & Margarita Factory", "image_url": "https://s3-media2.fl.yelpcdn.com/bphoto/tikYPLIQMd0z1iQErdjLag/o.jpg", "is_closed": false, "url": "https://www.yelp.com/biz/southside-grille-and-margarita-factory-gardner?adjust_creative=ywY5UnLZrNrRl2b93Ruy_g&utm_campaign=yelp_api_v3&utm_medium=api_v3_business_search&utm_source=ywY5UnLZrNrRl2b93Ruy_g", "review_count": 49, "categories": [{"alias": "tradamerican", "title": "American (Traditional)"}, {"alias": "mexican", "title": "Mexican"}], "rating": 2.5, "coordinates": {"latitude": 42.56069, "longitude": -71.98926}, "transactions": [], "price": "$$", "location": {"address1": "242 W Broadway", "address2": "", "address3": "", "city": "Gardner", "zip_code": "01440", "country": "US", "state": "MA", "display_address": ["242 W Broadway", "Gardner, MA 01440"]}, "phone": "+19786321057", "display_phone": "(978) 632-1057", "distance": 12037.23029707558}, {"id": "8LMS-2CQc5eU1Eg7OnDZng", "alias": "brothers-pizza-ashburnham", "name": "Brothers Pizza", "image_url": "", "is_closed": false, "url": "https://www.yelp.com/biz/brothers-pizza-ashburnham?adjust_creative=ywY5UnLZrNrRl2b93Ruy_g&utm_campaign=yelp_api_v3&utm_medium=api_v3_business_search&utm_source=ywY5UnLZrNrRl2b93Ruy_g", "review_count": 10, "categories": [{"alias": "pizza", "title": "Pizza"}], "rating": 4.5, "coordinates": {"latitude": 42.6355896, "longitude": -71.9095764}, "transactions": [], "location": {"address1": "47 Main St", "address2": null, "address3": "", "city": "Ashburnham", "zip_code": "01430", "country": "US", "state": "MA", "display_address": ["47 Main St", "Ashburnham, MA 01430"]}, "phone": "+19788271111", "display_phone": "(978) 827-1111", "distance": 11715.32998246466}, {"id": "6pLlwN3TsOCPYOtaPtIQlw", "alias": "crossroads-pizza-and-subs-fitzwilliam-2", "name": "Crossroads Pizza & Subs", "image_url": "https://s3-media4.fl.yelpcdn.com/bphoto/cQ7jVv8jjjKC7OqzXBl34w/o.jpg", "is_closed": false, "url": "https://www.yelp.com/biz/crossroads-pizza-and-subs-fitzwilliam-2?adjust_creative=ywY5UnLZrNrRl2b93Ruy_g&utm_campaign=yelp_api_v3&utm_medium=api_v3_business_search&utm_source=ywY5UnLZrNrRl2b93Ruy_g", "review_count": 20, "categories": [{"alias": "pizza", "title": "Pizza"}, {"alias": "sandwiches", "title": "Sandwiches"}, {"alias": "sportsbars", "title": "Sports Bars"}], "rating": 3.0, "coordinates": {"latitude": 42.780459, "longitude": -72.138319}, "transactions": [], "price": "$$", "location": {"address1": "21 NH Rte 12 S", "address2": "", "address3": "", "city": "Fitzwilliam", "zip_code": "03447", "country": "US", "state": "NH", "display_address": ["21 NH Rte 12 S", "Fitzwilliam, NH 03447"]}, "phone": "+16035857077", "display_phone": "(603) 585-7077", "distance": 15284.072876048529}, {"id": "EyLPztQeYwpgILRjSV1mqw", "alias": "kimball-farm-seafood-and-grill-shack-jaffrey", "name": "Kimball Farm Seafood & Grill Shack", "image_url": "https://s3-media4.fl.yelpcdn.com/bphoto/OWN9yxUr4D-XyblFO39QaA/o.jpg", "is_closed": false, "url": "https://www.yelp.com/biz/kimball-farm-seafood-and-grill-shack-jaffrey?adjust_creative=ywY5UnLZrNrRl2b93Ruy_g&utm_campaign=yelp_api_v3&utm_medium=api_v3_business_search&utm_source=ywY5UnLZrNrRl2b93Ruy_g", "review_count": 16, "categories": [{"alias": "seafood", "title": "Seafood"}, {"alias": "icecream", "title": "Ice Cream & Frozen Yogurt"}, {"alias": "mini_golf", "title": "Mini Golf"}], "rating": 2.5, "coordinates": {"latitude": 42.8099118960997, "longitude": -72.0073337708406}, "transactions": [], "price": "$$", "location": {"address1": "158 Turnpike Rd", "address2": "", "address3": "", "city": "Jaffrey", "zip_code": "03452", "country": "US", "state": "NH", "display_address": ["158 Turnpike Rd", "Jaffrey, NH 03452"]}, "phone": "+16035325765", "display_phone": "(603) 532-5765", "distance": 17049.561189301952}, {"id": "1eB2vliYFtBP8or5oG5RuA", "alias": "the-hen-house-gardner", "name": "The Hen House", "image_url": "https://s3-media3.fl.yelpcdn.com/bphoto/w2gihixfKhsOAhUzKJPtSg/o.jpg", "is_closed": false, "url": "https://www.yelp.com/biz/the-hen-house-gardner?adjust_creative=ywY5UnLZrNrRl2b93Ruy_g&utm_campaign=yelp_api_v3&utm_medium=api_v3_business_search&utm_source=ywY5UnLZrNrRl2b93Ruy_g", "review_count": 21, "categories": [{"alias": "coffee", "title": "Coffee & Tea"}, {"alias": "breakfast_brunch", "title": "Breakfast & Brunch"}], "rating": 4.0, "coordinates": {"latitude": 42.576934, "longitude": -72.000701}, "transactions": [], "price": "$", "location": {"address1": "95 West St", "address2": null, "address3": null, "city": "Gardner", "zip_code": "01440", "country": "US", "state": "MA", "display_address": ["95 West St", "Gardner, MA 01440"]}, "phone": "+19786326322", "display_phone": "(978) 632-6322", "distance": 10011.52029737827}, {"id": "LD-RgCjEvITIBLap0VuSeA", "alias": "cafe-edesia-gardner-2", "name": "Cafe Edesia", "image_url": "https://s3-media3.fl.yelpcdn.com/bphoto/gAjSkL4-WZC7unuxStflaQ/o.jpg", "is_closed": false, "url": "https://www.yelp.com/biz/cafe-edesia-gardner-2?adjust_creative=ywY5UnLZrNrRl2b93Ruy_g&utm_campaign=yelp_api_v3&utm_medium=api_v3_business_search&utm_source=ywY5UnLZrNrRl2b93Ruy_g", "review_count": 41, "categories": [{"alias": "cafes", "title": "Cafes"}], "rating": 3.5, "coordinates": {"latitude": 42.5682063218004, "longitude": -71.9837307929993}, "transactions": [], "price": "$", "location": {"address1": "486 Chestnut St", "address2": "Ste 2", "address3": "", "city": "Gardner", "zip_code": "01440", "country": "US", "state": "MA", "display_address": ["486 Chestnut St", "Ste 2", "Gardner, MA 01440"]}, "phone": "+19786301555", "display_phone": "(978) 630-1555", "distance": 11488.533404408468}, {"id": "YFUYllVibHXwawGD2WxG5g", "alias": "99-restaurants-gardner", "name": "99 Restaurants", "image_url": "https://s3-media3.fl.yelpcdn.com/bphoto/Z_yBm5P7QKjWhMHHvGTBcg/o.jpg", "is_closed": false, "url": "https://www.yelp.com/biz/99-restaurants-gardner?adjust_creative=ywY5UnLZrNrRl2b93Ruy_g&utm_campaign=yelp_api_v3&utm_medium=api_v3_business_search&utm_source=ywY5UnLZrNrRl2b93Ruy_g", "review_count": 10, "categories": [{"alias": "tradamerican", "title": "American (Traditional)"}, {"alias": "pubs", "title": "Pubs"}], "rating": 3.5, "coordinates": {"latitude": 42.5605143, "longitude": -71.9906149}, "transactions": [], "location": {"address1": "299 Timpany Blvd", "address2": null, "address3": "", "city": "Gardner", "zip_code": "01440", "country": "US", "state": "MA", "display_address": ["299 Timpany Blvd", "Gardner, MA 01440"]}, "phone": "+19789580399", "display_phone": "(978) 958-0399", "distance": 12084.762573305617}, {"id": "P3gCKTfiKvq8JhCiqI-XVg", "alias": "tea-garden-restaurant-athol", "name": "Tea Garden Restaurant", "image_url": "https://s3-media3.fl.yelpcdn.com/bphoto/YikdjBs7rlNRUh78y0HYEQ/o.jpg", "is_closed": false, "url": "https://www.yelp.com/biz/tea-garden-restaurant-athol?adjust_creative=ywY5UnLZrNrRl2b93Ruy_g&utm_campaign=yelp_api_v3&utm_medium=api_v3_business_search&utm_source=ywY5UnLZrNrRl2b93Ruy_g", "review_count": 12, "categories": [{"alias": "chinese", "title": "Chinese"}], "rating": 2.5, "coordinates": {"latitude": 42.5936470031738, "longitude": -72.2273483276367}, "transactions": [], "price": "$$", "location": {"address1": "631 Main St", "address2": null, "address3": null, "city": "Athol", "zip_code": "01331", "country": "US", "state": "MA", "display_address": ["631 Main St", "Athol, MA 01331"]}, "phone": "+19782498388", "display_phone": "(978) 249-8388", "distance": 16354.232704948603}, {"id": "mPe60pDS3EXv22cdKwvBWg", "alias": "the-g-vegas-cafe-gardner-3", "name": "The G-Vegas Cafe", "image_url": "https://s3-media4.fl.yelpcdn.com/bphoto/J82gmv9lL6CPrBk8WMqzSg/o.jpg", "is_closed": false, "url": "https://www.yelp.com/biz/the-g-vegas-cafe-gardner-3?adjust_creative=ywY5UnLZrNrRl2b93Ruy_g&utm_campaign=yelp_api_v3&utm_medium=api_v3_business_search&utm_source=ywY5UnLZrNrRl2b93Ruy_g", "review_count": 41, "categories": [{"alias": "tradamerican", "title": "American (Traditional)"}, {"alias": "diners", "title": "Diners"}], "rating": 3.0, "coordinates": {"latitude": 42.57645, "longitude": -71.99463}, "transactions": [], "price": "$", "location": {"address1": "280 Central St", "address2": null, "address3": null, "city": "Gardner", "zip_code": "01440", "country": "US", "state": "MA", "display_address": ["280 Central St", "Gardner, MA 01440"]}, "phone": "+19786324040", "display_phone": "(978) 632-4040", "distance": 10265.804100314173}, {"id": "pSBQkytH3cknYyZVcREyvg", "alias": "patriots-roast-beef-and-grill-templeton", "name": "Patriots Roast Beef and Grill", "image_url": "https://s3-media1.fl.yelpcdn.com/bphoto/jQT2dQaX-oAPGqS9MG8Mvg/o.jpg", "is_closed": false, "url": "https://www.yelp.com/biz/patriots-roast-beef-and-grill-templeton?adjust_creative=ywY5UnLZrNrRl2b93Ruy_g&utm_campaign=yelp_api_v3&utm_medium=api_v3_business_search&utm_source=ywY5UnLZrNrRl2b93Ruy_g", "review_count": 17, "categories": [{"alias": "pizza", "title": "Pizza"}, {"alias": "tradamerican", "title": "American (Traditional)"}], "rating": 3.5, "coordinates": {"latitude": 42.5615082, "longitude": -72.038887}, "transactions": ["pickup", "delivery"], "price": "$", "location": {"address1": "146 Patriots Rd", "address2": null, "address3": null, "city": "Templeton", "zip_code": "01468", "country": "US", "state": "MA", "display_address": ["146 Patriots Rd", "Templeton, MA 01468"]}, "phone": "+19786329951", "display_phone": "(978) 632-9951", "distance": 10954.133812471937}, {"id": "7BXlpaPDZcEgZGv80b_Pjg", "alias": "village-pizza-ashburnham", "name": "Village Pizza", "image_url": "", "is_closed": false, "url": "https://www.yelp.com/biz/village-pizza-ashburnham?adjust_creative=ywY5UnLZrNrRl2b93Ruy_g&utm_campaign=yelp_api_v3&utm_medium=api_v3_business_search&utm_source=ywY5UnLZrNrRl2b93Ruy_g", "review_count": 6, "categories": [{"alias": "pizza", "title": "Pizza"}], "rating": 4.0, "coordinates": {"latitude": 42.635459, "longitude": -71.910931}, "transactions": ["pickup", "delivery"], "price": "$$", "location": {"address1": "65 Main St", "address2": "", "address3": "", "city": "Ashburnham", "zip_code": "01430", "country": "US", "state": "MA", "display_address": ["65 Main St", "Ashburnham, MA 01430"]}, "phone": "+19788273007", "display_phone": "(978) 827-3007", "distance": 11613.597760739607}, {"id": "a8wLG4HuNxWHoEYtNrYogw", "alias": "south-gardner-hotel-gardner", "name": "South Gardner Hotel", "image_url": "https://s3-media1.fl.yelpcdn.com/bphoto/iWdIsIGbCqXHbAVbQ7zyXw/o.jpg", "is_closed": false, "url": "https://www.yelp.com/biz/south-gardner-hotel-gardner?adjust_creative=ywY5UnLZrNrRl2b93Ruy_g&utm_campaign=yelp_api_v3&utm_medium=api_v3_business_search&utm_source=ywY5UnLZrNrRl2b93Ruy_g", "review_count": 5, "categories": [{"alias": "bars", "title": "Bars"}, {"alias": "tradamerican", "title": "American (Traditional)"}], "rating": 4.0, "coordinates": {"latitude": 42.557515, "longitude": -71.9801713}, "transactions": [], "price": "$", "location": {"address1": "8 E Broadway", "address2": "", "address3": "", "city": "Gardner", "zip_code": "01440", "country": "US", "state": "MA", "display_address": ["8 E Broadway", "Gardner, MA 01440"]}, "phone": "+19786301322", "display_phone": "(978) 630-1322", "distance": 12680.069271527063}, {"id": "6X755NM6my9JyexFB_XX_A", "alias": "kays-dairy-bar-westminster-2", "name": "Kay's Dairy Bar", "image_url": "https://s3-media1.fl.yelpcdn.com/bphoto/ancJPX2z7M0R9o0hEeMVVw/o.jpg", "is_closed": false, "url": "https://www.yelp.com/biz/kays-dairy-bar-westminster-2?adjust_creative=ywY5UnLZrNrRl2b93Ruy_g&utm_campaign=yelp_api_v3&utm_medium=api_v3_business_search&utm_source=ywY5UnLZrNrRl2b93Ruy_g", "review_count": 29, "categories": [{"alias": "icecream", "title": "Ice Cream & Frozen Yogurt"}, {"alias": "seafood", "title": "Seafood"}], "rating": 4.0, "coordinates": {"latitude": 42.5517, "longitude": -71.9587}, "transactions": [], "price": "$$", "location": {"address1": "196 State Rd W", "address2": "", "address3": null, "city": "Westminster", "zip_code": "01473", "country": "US", "state": "MA", "display_address": ["196 State Rd W", "Westminster, MA 01473"]}, "phone": "+19786327191", "display_phone": "(978) 632-7191", "distance": 14085.61807892383}, {"id": "UobatlVMDwz7k_iYHqn8NQ", "alias": "ashburnham-wine-and-spirits-ashburnham", "name": "Ashburnham Wine & Spirits", "image_url": "", "is_closed": false, "url": "https://www.yelp.com/biz/ashburnham-wine-and-spirits-ashburnham?adjust_creative=ywY5UnLZrNrRl2b93Ruy_g&utm_campaign=yelp_api_v3&utm_medium=api_v3_business_search&utm_source=ywY5UnLZrNrRl2b93Ruy_g", "review_count": 4, "categories": [{"alias": "beer_and_wine", "title": "Beer, Wine & Spirits"}, {"alias": "delis", "title": "Delis"}], "rating": 5.0, "coordinates": {"latitude": 42.63619, "longitude": -71.90957}, "transactions": [], "price": "$", "location": {"address1": "3 Memorial Dr", "address2": "", "address3": "", "city": "Ashburnham", "zip_code": "01430", "country": "US", "state": "MA", "display_address": ["3 Memorial Dr", "Ashburnham, MA 01430"]}, "phone": "+19788275872", "display_phone": "(978) 827-5872", "distance": 11713.286527341}, {"id": "yeqwDdLvP_9693lzRpAPug", "alias": "zedas-athol", "name": "Zedas", "image_url": "https://s3-media2.fl.yelpcdn.com/bphoto/Vn1AWiq6c0ATtDW7Za8U8w/o.jpg", "is_closed": false, "url": "https://www.yelp.com/biz/zedas-athol?adjust_creative=ywY5UnLZrNrRl2b93Ruy_g&utm_campaign=yelp_api_v3&utm_medium=api_v3_business_search&utm_source=ywY5UnLZrNrRl2b93Ruy_g", "review_count": 11, "categories": [{"alias": "pizza", "title": "Pizza"}], "rating": 3.0, "coordinates": {"latitude": 42.5920096, "longitude": -72.2316385}, "transactions": [], "price": "$$", "location": {"address1": "11 Tunnel St", "address2": "", "address3": "", "city": "Athol", "zip_code": "01331", "country": "US", "state": "MA", "display_address": ["11 Tunnel St", "Athol, MA 01331"]}, "phone": "+19782499876", "display_phone": "(978) 249-9876", "distance": 16740.83512578104}, {"id": "TrnTjJ1-_E6C73HYGLwsKw", "alias": "renos-pizza-templeton", "name": "Reno's Pizza", "image_url": "https://s3-media3.fl.yelpcdn.com/bphoto/fqIJrOaa8cfgu-xw7htIzw/o.jpg", "is_closed": false, "url": "https://www.yelp.com/biz/renos-pizza-templeton?adjust_creative=ywY5UnLZrNrRl2b93Ruy_g&utm_campaign=yelp_api_v3&utm_medium=api_v3_business_search&utm_source=ywY5UnLZrNrRl2b93Ruy_g", "review_count": 2, "categories": [{"alias": "pizza", "title": "Pizza"}, {"alias": "burgers", "title": "Burgers"}, {"alias": "delis", "title": "Delis"}], "rating": 5.0, "coordinates": {"latitude": 42.5620072921407, "longitude": -72.0375560224056}, "transactions": [], "location": {"address1": "132 Patriots Rd", "address2": "", "address3": null, "city": "Templeton", "zip_code": "01438", "country": "US", "state": "MA", "display_address": ["132 Patriots Rd", "Templeton, MA 01438"]}, "phone": "+19786323200", "display_phone": "(978) 632-3200", "distance": 10900.138842804923}, {"id": "o1Xpz68xeOYNEvl132r79g", "alias": "domino-s-athol", "name": "Domino\u2019s", "image_url": "", "is_closed": false, "url": "https://www.yelp.com/biz/domino-s-athol?adjust_creative=ywY5UnLZrNrRl2b93Ruy_g&utm_campaign=yelp_api_v3&utm_medium=api_v3_business_search&utm_source=ywY5UnLZrNrRl2b93Ruy_g", "review_count": 1, "categories": [{"alias": "pizza", "title": "Pizza"}], "rating": 2.0, "coordinates": {"latitude": 42.593632, "longitude": -72.23293}, "transactions": [], "location": {"address1": "321 Main St", "address2": "", "address3": null, "city": "Athol", "zip_code": "01331", "country": "US", "state": "MA", "display_address": ["321 Main St", "Athol, MA 01331"]}, "phone": "+19783307676", "display_phone": "(978) 330-7676", "distance": 16742.355924182695}, {"id": "P54MnoErmGdonro_OcbxCg", "alias": "gabbys-place-gardner", "name": "Gabbys Place", "image_url": "https://s3-media2.fl.yelpcdn.com/bphoto/UdASXZiw2uD8HiuyRbfmew/o.jpg", "is_closed": false, "url": "https://www.yelp.com/biz/gabbys-place-gardner?adjust_creative=ywY5UnLZrNrRl2b93Ruy_g&utm_campaign=yelp_api_v3&utm_medium=api_v3_business_search&utm_source=ywY5UnLZrNrRl2b93Ruy_g", "review_count": 34, "categories": [{"alias": "breakfast_brunch", "title": "Breakfast & Brunch"}], "rating": 4.5, "coordinates": {"latitude": 42.5602303, "longitude": -71.9806137}, "transactions": [], "price": "$", "location": {"address1": "173 Pearson Blvd", "address2": null, "address3": null, "city": "Gardner", "zip_code": "01440", "country": "US", "state": "MA", "display_address": ["173 Pearson Blvd", "Gardner, MA 01440"]}, "phone": "+19786322282", "display_phone": "(978) 632-2282", "distance": 12411.599156703214}, {"id": "MUs396IkY6SHf4pI0l9gnA", "alias": "tool-town-pizza-athol", "name": "Tool Town Pizza", "image_url": "https://s3-media3.fl.yelpcdn.com/bphoto/UGHTbZneNVMJgB1e2ziCow/o.jpg", "is_closed": false, "url": "https://www.yelp.com/biz/tool-town-pizza-athol?adjust_creative=ywY5UnLZrNrRl2b93Ruy_g&utm_campaign=yelp_api_v3&utm_medium=api_v3_business_search&utm_source=ywY5UnLZrNrRl2b93Ruy_g", "review_count": 11, "categories": [{"alias": "pizza", "title": "Pizza"}, {"alias": "italian", "title": "Italian"}], "rating": 3.5, "coordinates": {"latitude": 42.595664, "longitude": -72.232418}, "transactions": [], "price": "$", "location": {"address1": "246 Exchange St", "address2": "", "address3": "", "city": "Athol", "zip_code": "01331", "country": "US", "state": "MA", "display_address": ["246 Exchange St", "Athol, MA 01331"]}, "phone": "+19782493366", "display_phone": "(978) 249-3366", "distance": 16606.41656113172}, {"id": "rgSLMsrWdCSAra0Nnh4s6Q", "alias": "pizza-haven-too-new-ipswich", "name": "Pizza Haven Too", "image_url": "https://s3-media1.fl.yelpcdn.com/bphoto/G0lFijvq3sIQJFl__8lY5A/o.jpg", "is_closed": false, "url": "https://www.yelp.com/biz/pizza-haven-too-new-ipswich?adjust_creative=ywY5UnLZrNrRl2b93Ruy_g&utm_campaign=yelp_api_v3&utm_medium=api_v3_business_search&utm_source=ywY5UnLZrNrRl2b93Ruy_g", "review_count": 9, "categories": [{"alias": "pizza", "title": "Pizza"}], "rating": 3.0, "coordinates": {"latitude": 42.75773, "longitude": -71.85422}, "transactions": [], "price": "$$", "location": {"address1": "7 Main St", "address2": "", "address3": "", "city": "New Ipswich", "zip_code": "03071", "country": "US", "state": "NH", "display_address": ["7 Main St", "New Ipswich, NH 03071"]}, "phone": "+16038789090", "display_phone": "(603) 878-9090", "distance": 19269.59183793834}, {"id": "-K-JE-XwyrytnEQlSqJwXg", "alias": "subway-winchendon-2", "name": "Subway", "image_url": "https://s3-media1.fl.yelpcdn.com/bphoto/zYt-V8vyTjY46dvcLXezdg/o.jpg", "is_closed": false, "url": "https://www.yelp.com/biz/subway-winchendon-2?adjust_creative=ywY5UnLZrNrRl2b93Ruy_g&utm_campaign=yelp_api_v3&utm_medium=api_v3_business_search&utm_source=ywY5UnLZrNrRl2b93Ruy_g", "review_count": 3, "categories": [{"alias": "sandwiches", "title": "Sandwiches"}], "rating": 3.5, "coordinates": {"latitude": 42.6810712435512, "longitude": -72.0476153215999}, "transactions": [], "price": "$", "location": {"address1": "29 Central St", "address2": "", "address3": "", "city": "Winchendon", "zip_code": "01475", "country": "US", "state": "MA", "display_address": ["29 Central St", "Winchendon, MA 01475"]}, "phone": "+19782970011", "display_phone": "(978) 297-0011", "distance": 2382.443471035773}, {"id": "tR-90QTzmqgR9u2nHnz73A", "alias": "lucky-dragon-ii-ashburnham", "name": "Lucky Dragon II", "image_url": "https://s3-media4.fl.yelpcdn.com/bphoto/XQDljQI7rXmPqxpMWy852g/o.jpg", "is_closed": false, "url": "https://www.yelp.com/biz/lucky-dragon-ii-ashburnham?adjust_creative=ywY5UnLZrNrRl2b93Ruy_g&utm_campaign=yelp_api_v3&utm_medium=api_v3_business_search&utm_source=ywY5UnLZrNrRl2b93Ruy_g", "review_count": 5, "categories": [{"alias": "chinese", "title": "Chinese"}], "rating": 3.5, "coordinates": {"latitude": 42.60912, "longitude": -71.94059}, "transactions": ["pickup", "delivery"], "price": "$", "location": {"address1": "2 S Pleasant St", "address2": null, "address3": null, "city": "Ashburnham", "zip_code": "01430", "country": "US", "state": "MA", "display_address": ["2 S Pleasant St", "Ashburnham, MA 01430"]}, "phone": "+19788271318", "display_phone": "(978) 827-1318", "distance": 10475.666862148799}, {"id": "Hy1POwROoA4iTsszJUHyFg", "alias": "blue-moon-diner-gardner", "name": "Blue Moon Diner", "image_url": "https://s3-media1.fl.yelpcdn.com/bphoto/eEMNRD6Zzb0WmuUSlybVVQ/o.jpg", "is_closed": false, "url": "https://www.yelp.com/biz/blue-moon-diner-gardner?adjust_creative=ywY5UnLZrNrRl2b93Ruy_g&utm_campaign=yelp_api_v3&utm_medium=api_v3_business_search&utm_source=ywY5UnLZrNrRl2b93Ruy_g", "review_count": 48, "categories": [{"alias": "diners", "title": "Diners"}, {"alias": "newamerican", "title": "American (New)"}], "rating": 3.5, "coordinates": {"latitude": 42.574156, "longitude": -71.994432}, "transactions": [], "price": "$", "location": {"address1": "102 Main St", "address2": "", "address3": "", "city": "Gardner", "zip_code": "01440", "country": "US", "state": "MA", "display_address": ["102 Main St", "Gardner, MA 01440"]}, "phone": "+19786324333", "display_phone": "(978) 632-4333", "distance": 10505.90206641444}, {"id": "3PdRmNoO-NYX1eU3Zu3A1w", "alias": "jade-ii-gardner", "name": "Jade II", "image_url": "", "is_closed": false, "url": "https://www.yelp.com/biz/jade-ii-gardner?adjust_creative=ywY5UnLZrNrRl2b93Ruy_g&utm_campaign=yelp_api_v3&utm_medium=api_v3_business_search&utm_source=ywY5UnLZrNrRl2b93Ruy_g", "review_count": 4, "categories": [{"alias": "restaurants", "title": "Restaurants"}], "rating": 3.0, "coordinates": {"latitude": 42.567081451416, "longitude": -71.9835357666016}, "transactions": [], "location": {"address1": "19 Union Sq", "address2": null, "address3": null, "city": "Gardner", "zip_code": "01440", "country": "US", "state": "MA", "display_address": ["19 Union Sq", "Gardner, MA 01440"]}, "phone": "+19786308868", "display_phone": "(978) 630-8868", "distance": 11623.730385543931}, {"id": "Kr3vRRhCDsLj6LY6OEaR5A", "alias": "king-phillip-motel-phillipston", "name": "King Phillip Motel", "image_url": "", "is_closed": false, "url": "https://www.yelp.com/biz/king-phillip-motel-phillipston?adjust_creative=ywY5UnLZrNrRl2b93Ruy_g&utm_campaign=yelp_api_v3&utm_medium=api_v3_business_search&utm_source=ywY5UnLZrNrRl2b93Ruy_g", "review_count": 3, "categories": [{"alias": "hotels", "title": "Hotels"}, {"alias": "restaurants", "title": "Restaurants"}], "rating": 3.0, "coordinates": {"latitude": 42.5698651, "longitude": -72.1321599}, "transactions": [], "location": {"address1": "35 State Rd", "address2": "", "address3": "", "city": "Phillipston", "zip_code": "01331", "country": "US", "state": "MA", "display_address": ["35 State Rd", "Phillipston, MA 01331"]}, "phone": "+19782495300", "display_phone": "(978) 249-5300", "distance": 12098.78109809406}, {"id": "boiEL8LxY8US_zN67Hd8gQ", "alias": "patriot-pizza-and-subs-gardner", "name": "Patriot Pizza & Subs", "image_url": "https://s3-media2.fl.yelpcdn.com/bphoto/9HO7wpIHyROEIqk9G2C_lw/o.jpg", "is_closed": false, "url": "https://www.yelp.com/biz/patriot-pizza-and-subs-gardner?adjust_creative=ywY5UnLZrNrRl2b93Ruy_g&utm_campaign=yelp_api_v3&utm_medium=api_v3_business_search&utm_source=ywY5UnLZrNrRl2b93Ruy_g", "review_count": 18, "categories": [{"alias": "pizza", "title": "Pizza"}], "rating": 3.5, "coordinates": {"latitude": 42.5662419, "longitude": -71.9800468}, "transactions": [], "price": "$$", "location": {"address1": "52 Pearson Blvd", "address2": "Ste 1", "address3": null, "city": "Gardner", "zip_code": "01440", "country": "US", "state": "MA", "display_address": ["52 Pearson Blvd", "Ste 1", "Gardner, MA 01440"]}, "phone": "+19786324500", "display_phone": "(978) 632-4500", "distance": 12047.51093091447}, {"id": "OOfG7vHmJhU1ii-XvDu1oA", "alias": "nicks-breakfast-and-lunch-athol", "name": "Nicks Breakfast and Lunch", "image_url": "https://s3-media3.fl.yelpcdn.com/bphoto/DkQ81_0J-azZTYh2pL_hfg/o.jpg", "is_closed": false, "url": "https://www.yelp.com/biz/nicks-breakfast-and-lunch-athol?adjust_creative=ywY5UnLZrNrRl2b93Ruy_g&utm_campaign=yelp_api_v3&utm_medium=api_v3_business_search&utm_source=ywY5UnLZrNrRl2b93Ruy_g", "review_count": 16, "categories": [{"alias": "breakfast_brunch", "title": "Breakfast & Brunch"}], "rating": 3.5, "coordinates": {"latitude": 42.5937958, "longitude": -72.228775}, "transactions": [], "price": "$$", "location": {"address1": "567 Main St", "address2": "", "address3": "", "city": "Athol", "zip_code": "01331", "country": "US", "state": "MA", "display_address": ["567 Main St", "Athol, MA 01331"]}, "phone": "+19782498400", "display_phone": "(978) 249-8400", "distance": 16410.80997323082}, {"id": "QmH4dcGpZ12X6OZ0XyCZlw", "alias": "shortstop-new-ipswich", "name": "Shortstop", "image_url": "https://s3-media4.fl.yelpcdn.com/bphoto/EnKZupaDlVyJbHQhqkmsrQ/o.jpg", "is_closed": false, "url": "https://www.yelp.com/biz/shortstop-new-ipswich?adjust_creative=ywY5UnLZrNrRl2b93Ruy_g&utm_campaign=yelp_api_v3&utm_medium=api_v3_business_search&utm_source=ywY5UnLZrNrRl2b93Ruy_g", "review_count": 9, "categories": [{"alias": "coffee", "title": "Coffee & Tea"}, {"alias": "sandwiches", "title": "Sandwiches"}], "rating": 4.0, "coordinates": {"latitude": 42.7580705, "longitude": -71.8535646}, "transactions": [], "location": {"address1": "584 Turnpike Rd", "address2": "", "address3": "", "city": "New Ipswich", "zip_code": "03071", "country": "US", "state": "NH", "display_address": ["584 Turnpike Rd", "New Ipswich, NH 03071"]}, "phone": "+16038784446", "display_phone": "(603) 878-4446", "distance": 19400.395741326072}, {"id": "7n6zer0H-_fGvlekZ0U0tg", "alias": "new-ipswich-house-of-pizza-new-ipswich", "name": "New Ipswich House of Pizza", "image_url": "https://s3-media2.fl.yelpcdn.com/bphoto/Sma9Q6PfshAAuG3yKsI_Mg/o.jpg", "is_closed": false, "url": "https://www.yelp.com/biz/new-ipswich-house-of-pizza-new-ipswich?adjust_creative=ywY5UnLZrNrRl2b93Ruy_g&utm_campaign=yelp_api_v3&utm_medium=api_v3_business_search&utm_source=ywY5UnLZrNrRl2b93Ruy_g", "review_count": 5, "categories": [{"alias": "pizza", "title": "Pizza"}], "rating": 3.0, "coordinates": {"latitude": 42.7598526606765, "longitude": -71.8738274661652}, "transactions": [], "price": "$$", "location": {"address1": "RR 124", "address2": "", "address3": "", "city": "New Ipswich", "zip_code": "03071", "country": "US", "state": "NH", "display_address": ["RR 124", "New Ipswich, NH 03071"]}, "phone": "+16038781269", "display_phone": "(603) 878-1269", "distance": 18138.53296831156}, {"id": "OR1oEc_Nb3xXDQMBypMg-Q", "alias": "lodge-wood-fired-grill-fitchburg-2", "name": "Lodge Wood Fired Grill", "image_url": "https://s3-media1.fl.yelpcdn.com/bphoto/A0-aQ0DSrYUfk98nswiuUw/o.jpg", "is_closed": false, "url": "https://www.yelp.com/biz/lodge-wood-fired-grill-fitchburg-2?adjust_creative=ywY5UnLZrNrRl2b93Ruy_g&utm_campaign=yelp_api_v3&utm_medium=api_v3_business_search&utm_source=ywY5UnLZrNrRl2b93Ruy_g", "review_count": 38, "categories": [{"alias": "tradamerican", "title": "American (Traditional)"}], "rating": 2.5, "coordinates": {"latitude": 42.547116, "longitude": -71.854376}, "transactions": [], "price": "$$", "location": {"address1": "150 Great Wolf Dr", "address2": "", "address3": "Great Wolf Lodge", "city": "Fitchburg", "zip_code": "01420", "country": "US", "state": "MA", "display_address": ["150 Great Wolf Dr", "Great Wolf Lodge", "Fitchburg, MA 01420"]}, "phone": "+18666789653", "display_phone": "(866) 678-9653", "distance": 20259.402390631676}, {"id": "BTJ-cXSsKXrXtSrhPFqD8A", "alias": "eight-dragons-take-out-restaurant-athol", "name": "Eight Dragons Take-Out Restaurant", "image_url": "https://s3-media3.fl.yelpcdn.com/bphoto/zJLO1P1o6vR28A5g2tRc0w/o.jpg", "is_closed": false, "url": "https://www.yelp.com/biz/eight-dragons-take-out-restaurant-athol?adjust_creative=ywY5UnLZrNrRl2b93Ruy_g&utm_campaign=yelp_api_v3&utm_medium=api_v3_business_search&utm_source=ywY5UnLZrNrRl2b93Ruy_g", "review_count": 17, "categories": [{"alias": "chinese", "title": "Chinese"}, {"alias": "seafood", "title": "Seafood"}], "rating": 2.5, "coordinates": {"latitude": 42.593049, "longitude": -72.234464}, "transactions": [], "price": "$$", "location": {"address1": "32 Freedom St", "address2": "", "address3": "", "city": "Athol", "zip_code": "01331", "country": "US", "state": "MA", "display_address": ["32 Freedom St", "Athol, MA 01331"]}, "phone": "+19782492777", "display_phone": "(978) 249-2777", "distance": 16885.35848537925}, {"id": "eIRuELHslKEMAmHm0DHbxw", "alias": "pleasant-house-of-pizza-gardner", "name": "Pleasant House of Pizza", "image_url": "", "is_closed": false, "url": "https://www.yelp.com/biz/pleasant-house-of-pizza-gardner?adjust_creative=ywY5UnLZrNrRl2b93Ruy_g&utm_campaign=yelp_api_v3&utm_medium=api_v3_business_search&utm_source=ywY5UnLZrNrRl2b93Ruy_g", "review_count": 1, "categories": [{"alias": "pizza", "title": "Pizza"}], "rating": 3.0, "coordinates": {"latitude": 42.5748923481699, "longitude": -71.9946629036695}, "transactions": [], "location": {"address1": "68 Main St", "address2": "", "address3": "", "city": "Gardner", "zip_code": "01440", "country": "US", "state": "MA", "display_address": ["68 Main St", "Gardner, MA 01440"]}, "phone": "", "display_phone": "", "distance": 10423.764664873073}, {"id": "MMDcTPhGXYDu0-HhBHqMrw", "alias": "shanes-hot-dogs-gardner", "name": "Shane's Hot Dogs", "image_url": "", "is_closed": false, "url": "https://www.yelp.com/biz/shanes-hot-dogs-gardner?adjust_creative=ywY5UnLZrNrRl2b93Ruy_g&utm_campaign=yelp_api_v3&utm_medium=api_v3_business_search&utm_source=ywY5UnLZrNrRl2b93Ruy_g", "review_count": 1, "categories": [{"alias": "hotdog", "title": "Hot Dogs"}, {"alias": "foodstands", "title": "Food Stands"}], "rating": 2.0, "coordinates": {"latitude": 42.5677898, "longitude": -71.9836277}, "transactions": [], "price": "$", "location": {"address1": "500 Chestnut St", "address2": "", "address3": null, "city": "Gardner", "zip_code": "01440", "country": "US", "state": "MA", "display_address": ["500 Chestnut St", "Gardner, MA 01440"]}, "phone": "+19782735068", "display_phone": "(978) 273-5068", "distance": 11541.70865655105}, {"id": "R-vkZRm9n6wLsApICyGAaw", "alias": "athol-house-of-pizza-restaurant-and-bakery-athol", "name": "Athol House of Pizza Restaurant & Bakery", "image_url": "https://s3-media4.fl.yelpcdn.com/bphoto/3FRiTWJglhE7qOR6gZdMTw/o.jpg", "is_closed": false, "url": "https://www.yelp.com/biz/athol-house-of-pizza-restaurant-and-bakery-athol?adjust_creative=ywY5UnLZrNrRl2b93Ruy_g&utm_campaign=yelp_api_v3&utm_medium=api_v3_business_search&utm_source=ywY5UnLZrNrRl2b93Ruy_g", "review_count": 25, "categories": [{"alias": "bakeries", "title": "Bakeries"}, {"alias": "pizza", "title": "Pizza"}], "rating": 3.0, "coordinates": {"latitude": 42.594047, "longitude": -72.229459}, "transactions": [], "price": "$$", "location": {"address1": "522 Main St", "address2": null, "address3": "", "city": "Athol", "zip_code": "01331", "country": "US", "state": "MA", "display_address": ["522 Main St", "Athol, MA 01331"]}, "phone": "+19782493762", "display_phone": "(978) 249-3762", "distance": 16467.073577681083}, {"id": "H4s_m-4F8x__1kroZ2I66Q", "alias": "kfc-rindge-2", "name": "KFC", "image_url": "https://s3-media4.fl.yelpcdn.com/bphoto/2Zw6nXnYz0RulewJUzZNxw/o.jpg", "is_closed": false, "url": "https://www.yelp.com/biz/kfc-rindge-2?adjust_creative=ywY5UnLZrNrRl2b93Ruy_g&utm_campaign=yelp_api_v3&utm_medium=api_v3_business_search&utm_source=ywY5UnLZrNrRl2b93Ruy_g", "review_count": 3, "categories": [{"alias": "hotdogs", "title": "Fast Food"}, {"alias": "chicken_wings", "title": "Chicken Wings"}, {"alias": "chickenshop", "title": "Chicken Shop"}], "rating": 1.5, "coordinates": {"latitude": 42.74295, "longitude": -72.03664}, "transactions": ["pickup"], "price": "$", "location": {"address1": "5 Sonja Rd", "address2": "", "address3": "", "city": "Rindge", "zip_code": "03461", "country": "US", "state": "NH", "display_address": ["5 Sonja Rd", "Rindge, NH 03461"]}, "phone": "+16038995711", "display_phone": "(603) 899-5711", "distance": 9248.070557651128}, {"id": "NbgDeLbiysCEZcfOQax2Tw", "alias": "waites-corner-variety-and-luncheonette-fitchburg", "name": "Waites Corner Variety & Luncheonette", "image_url": "", "is_closed": false, "url": "https://www.yelp.com/biz/waites-corner-variety-and-luncheonette-fitchburg?adjust_creative=ywY5UnLZrNrRl2b93Ruy_g&utm_campaign=yelp_api_v3&utm_medium=api_v3_business_search&utm_source=ywY5UnLZrNrRl2b93Ruy_g", "review_count": 3, "categories": [{"alias": "restaurants", "title": "Restaurants"}], "rating": 3.5, "coordinates": {"latitude": 42.5653047901206, "longitude": -71.8454228242399}, "transactions": [], "location": {"address1": "550 Westminster St", "address2": "", "address3": "", "city": "Fitchburg", "zip_code": "01420", "country": "US", "state": "MA", "display_address": ["550 Westminster St", "Fitchburg, MA 01420"]}, "phone": "+19783452011", "display_phone": "(978) 345-2011", "distance": 19681.570202969117}, {"id": "ZuiYzeLI0xkuaKtK344W7g", "alias": "mcdonalds-winchendon", "name": "McDonald's", "image_url": "https://s3-media3.fl.yelpcdn.com/bphoto/rvm1pTAhYvCSxMfjEkZ2Ig/o.jpg", "is_closed": false, "url": "https://www.yelp.com/biz/mcdonalds-winchendon?adjust_creative=ywY5UnLZrNrRl2b93Ruy_g&utm_campaign=yelp_api_v3&utm_medium=api_v3_business_search&utm_source=ywY5UnLZrNrRl2b93Ruy_g", "review_count": 10, "categories": [{"alias": "hotdogs", "title": "Fast Food"}, {"alias": "burgers", "title": "Burgers"}, {"alias": "coffee", "title": "Coffee & Tea"}], "rating": 3.0, "coordinates": {"latitude": 42.6788121982942, "longitude": -72.039158642292}, "transactions": [], "price": "$", "location": {"address1": "235 Spring St", "address2": "", "address3": "", "city": "Winchendon", "zip_code": "01475", "country": "US", "state": "MA", "display_address": ["235 Spring St", "Winchendon, MA 01475"]}, "phone": "+19782973528", "display_phone": "(978) 297-3528", "distance": 2276.2297863596295}, {"id": "kKKJ4J05Jii-oAc6oEJifg", "alias": "town-house-of-pizza-westminster", "name": "Town House of Pizza", "image_url": "https://s3-media3.fl.yelpcdn.com/bphoto/mJvtfHsssMJqGTvEAJ-uyw/o.jpg", "is_closed": false, "url": "https://www.yelp.com/biz/town-house-of-pizza-westminster?adjust_creative=ywY5UnLZrNrRl2b93Ruy_g&utm_campaign=yelp_api_v3&utm_medium=api_v3_business_search&utm_source=ywY5UnLZrNrRl2b93Ruy_g", "review_count": 23, "categories": [{"alias": "pizza", "title": "Pizza"}, {"alias": "italian", "title": "Italian"}, {"alias": "breakfast_brunch", "title": "Breakfast & Brunch"}], "rating": 3.5, "coordinates": {"latitude": 42.5484099, "longitude": -71.91575}, "transactions": [], "price": "$", "location": {"address1": "68 Main St", "address2": "", "address3": "", "city": "Westminster", "zip_code": "01473", "country": "US", "state": "MA", "display_address": ["68 Main St", "Westminster, MA 01473"]}, "phone": "+19788740326", "display_phone": "(978) 874-0326", "distance": 16484.827766785158}, {"id": "F4yelOONhwZOpJIDLvnHMQ", "alias": "nikis-pizza-athol", "name": "Niki's Pizza", "image_url": "https://s3-media3.fl.yelpcdn.com/bphoto/9wYpf3PUarCCpmLsrm2dNg/o.jpg", "is_closed": false, "url": "https://www.yelp.com/biz/nikis-pizza-athol?adjust_creative=ywY5UnLZrNrRl2b93Ruy_g&utm_campaign=yelp_api_v3&utm_medium=api_v3_business_search&utm_source=ywY5UnLZrNrRl2b93Ruy_g", "review_count": 5, "categories": [{"alias": "pizza", "title": "Pizza"}], "rating": 2.5, "coordinates": {"latitude": 42.58874, "longitude": -72.215375}, "transactions": [], "price": "$", "location": {"address1": "1261 Chestnut St", "address2": null, "address3": null, "city": "Athol", "zip_code": "01331", "country": "US", "state": "MA", "display_address": ["1261 Chestnut St", "Athol, MA 01331"]}, "phone": "+19782492500", "display_phone": "(978) 249-2500", "distance": 15730.489354271727}, {"id": "EseiX0MDxRxSqGHLanw18w", "alias": "taco-bell-rindge", "name": "Taco Bell", "image_url": "https://s3-media1.fl.yelpcdn.com/bphoto/I47Rf9KGThaEenJieZM-9g/o.jpg", "is_closed": false, "url": "https://www.yelp.com/biz/taco-bell-rindge?adjust_creative=ywY5UnLZrNrRl2b93Ruy_g&utm_campaign=yelp_api_v3&utm_medium=api_v3_business_search&utm_source=ywY5UnLZrNrRl2b93Ruy_g", "review_count": 12, "categories": [{"alias": "tex-mex", "title": "Tex-Mex"}, {"alias": "hotdogs", "title": "Fast Food"}, {"alias": "mexican", "title": "Mexican"}], "rating": 1.5, "coordinates": {"latitude": 42.737707, "longitude": -72.034688}, "transactions": [], "price": "$", "location": {"address1": "5 Sonja Road", "address2": null, "address3": null, "city": "Rindge", "zip_code": "03461", "country": "US", "state": "NH", "display_address": ["5 Sonja Road", "Rindge, NH 03461"]}, "phone": "+16038995711", "display_phone": "(603) 899-5711", "distance": 8756.007032881584}, {"id": "PhQ3uxMgUl-T6aAKhoQZ9A", "alias": "west-broadway-pizza-gardner", "name": "West Broadway Pizza", "image_url": "https://s3-media2.fl.yelpcdn.com/bphoto/ypGtnWkRqQLnXkiHN6nWHg/o.jpg", "is_closed": false, "url": "https://www.yelp.com/biz/west-broadway-pizza-gardner?adjust_creative=ywY5UnLZrNrRl2b93Ruy_g&utm_campaign=yelp_api_v3&utm_medium=api_v3_business_search&utm_source=ywY5UnLZrNrRl2b93Ruy_g", "review_count": 11, "categories": [{"alias": "pizza", "title": "Pizza"}], "rating": 3.5, "coordinates": {"latitude": 42.5579833984375, "longitude": -71.9809036254883}, "transactions": [], "price": "$$", "location": {"address1": "15 W Broadway", "address2": "", "address3": "", "city": "Gardner", "zip_code": "01440", "country": "US", "state": "MA", "display_address": ["15 W Broadway", "Gardner, MA 01440"]}, "phone": "+19786303111", "display_phone": "(978) 630-3111", "distance": 12606.805061933432}, {"id": "kqir5dO2JZ5Y0HYO33wbCQ", "alias": "dominos-pizza-gardner", "name": "Domino's Pizza", "image_url": "https://s3-media1.fl.yelpcdn.com/bphoto/xblCtNJCS2ds7BgENryLEw/o.jpg", "is_closed": false, "url": "https://www.yelp.com/biz/dominos-pizza-gardner?adjust_creative=ywY5UnLZrNrRl2b93Ruy_g&utm_campaign=yelp_api_v3&utm_medium=api_v3_business_search&utm_source=ywY5UnLZrNrRl2b93Ruy_g", "review_count": 6, "categories": [{"alias": "pizza", "title": "Pizza"}, {"alias": "chicken_wings", "title": "Chicken Wings"}, {"alias": "sandwiches", "title": "Sandwiches"}], "rating": 2.5, "coordinates": {"latitude": 42.5749306, "longitude": -72.006989}, "transactions": [], "price": "$", "location": {"address1": "401 Parker St", "address2": "", "address3": "", "city": "Gardner", "zip_code": "01440", "country": "US", "state": "MA", "display_address": ["401 Parker St", "Gardner, MA 01440"]}, "phone": "+19786328170", "display_phone": "(978) 632-8170", "distance": 10031.162894984975}, {"id": "Z6I1yY7uBkBmaLe1L_3VJQ", "alias": "taco-bell-athol-2", "name": "Taco Bell", "image_url": "https://s3-media3.fl.yelpcdn.com/bphoto/BlCGgvYn63MYBYfFFhnDrg/o.jpg", "is_closed": false, "url": "https://www.yelp.com/biz/taco-bell-athol-2?adjust_creative=ywY5UnLZrNrRl2b93Ruy_g&utm_campaign=yelp_api_v3&utm_medium=api_v3_business_search&utm_source=ywY5UnLZrNrRl2b93Ruy_g", "review_count": 1, "categories": [{"alias": "tacos", "title": "Tacos"}, {"alias": "breakfast_brunch", "title": "Breakfast & Brunch"}], "rating": 4.0, "coordinates": {"latitude": 42.58012, "longitude": -72.18376}, "transactions": [], "location": {"address1": "79 Market Dr", "address2": null, "address3": null, "city": "Athol", "zip_code": "01331", "country": "US", "state": "MA", "display_address": ["79 Market Dr", "Athol, MA 01331"]}, "phone": "", "display_phone": "", "distance": 14171.883486379154}, {"id": "ca-cNiTee3s_oxTewG1CDg", "alias": "subway-gardner-7", "name": "Subway", "image_url": "https://s3-media3.fl.yelpcdn.com/bphoto/-GDNHfONoo-cnd-5mtzipg/o.jpg", "is_closed": false, "url": "https://www.yelp.com/biz/subway-gardner-7?adjust_creative=ywY5UnLZrNrRl2b93Ruy_g&utm_campaign=yelp_api_v3&utm_medium=api_v3_business_search&utm_source=ywY5UnLZrNrRl2b93Ruy_g", "review_count": 3, "categories": [{"alias": "sandwiches", "title": "Sandwiches"}], "rating": 3.5, "coordinates": {"latitude": 42.566047, "longitude": -71.977501}, "transactions": [], "price": "$", "location": {"address1": "30 Pearson Blvd", "address2": "", "address3": "", "city": "Gardner", "zip_code": "01440", "country": "US", "state": "MA", "display_address": ["30 Pearson Blvd", "Gardner, MA 01440"]}, "phone": "+19786325213", "display_phone": "(978) 632-5213", "distance": 11943.072495206385}, {"id": "bxPkkUUZSgpcIECmiOVHBA", "alias": "westminster-cafe-westminster", "name": "Westminster Cafe", "image_url": "https://s3-media2.fl.yelpcdn.com/bphoto/oDlOcq4-1Lwei9pIqBrCIw/o.jpg", "is_closed": false, "url": "https://www.yelp.com/biz/westminster-cafe-westminster?adjust_creative=ywY5UnLZrNrRl2b93Ruy_g&utm_campaign=yelp_api_v3&utm_medium=api_v3_business_search&utm_source=ywY5UnLZrNrRl2b93Ruy_g", "review_count": 29, "categories": [{"alias": "breakfast_brunch", "title": "Breakfast & Brunch"}, {"alias": "seafood", "title": "Seafood"}, {"alias": "icecream", "title": "Ice Cream & Frozen Yogurt"}], "rating": 4.0, "coordinates": {"latitude": 42.548792, "longitude": -71.917325}, "transactions": [], "price": "$", "location": {"address1": "51 Main St", "address2": null, "address3": null, "city": "Westminster", "zip_code": "01473", "country": "US", "state": "MA", "display_address": ["51 Main St", "Westminster, MA 01473"]}, "phone": "+19788741833", "display_phone": "(978) 874-1833", "distance": 16376.661198345522}, {"id": "lBW15hrQi7ZmoviO03sEuw", "alias": "mikes-pizza-of-westminster-westminster-2", "name": "Mike's Pizza of Westminster", "image_url": "https://s3-media2.fl.yelpcdn.com/bphoto/DWQliLLzaiE-SAQ25l-70Q/o.jpg", "is_closed": false, "url": "https://www.yelp.com/biz/mikes-pizza-of-westminster-westminster-2?adjust_creative=ywY5UnLZrNrRl2b93Ruy_g&utm_campaign=yelp_api_v3&utm_medium=api_v3_business_search&utm_source=ywY5UnLZrNrRl2b93Ruy_g", "review_count": 14, "categories": [{"alias": "pizza", "title": "Pizza"}, {"alias": "salad", "title": "Salad"}, {"alias": "italian", "title": "Italian"}], "rating": 2.5, "coordinates": {"latitude": 42.5572891235352, "longitude": -71.8745956420898}, "transactions": [], "price": "$", "location": {"address1": "158 State Rd E", "address2": "", "address3": "", "city": "Westminster", "zip_code": "01473", "country": "US", "state": "MA", "display_address": ["158 State Rd E", "Westminster, MA 01473"]}, "phone": "+19788741800", "display_phone": "(978) 874-1800", "distance": 18248.95791728481}, {"id": "6zgm4JX3gyWFWXFktXHMbQ", "alias": "burger-king-restaurant-gardner", "name": "Burger King Restaurant", "image_url": "", "is_closed": false, "url": "https://www.yelp.com/biz/burger-king-restaurant-gardner?adjust_creative=ywY5UnLZrNrRl2b93Ruy_g&utm_campaign=yelp_api_v3&utm_medium=api_v3_business_search&utm_source=ywY5UnLZrNrRl2b93Ruy_g", "review_count": 5, "categories": [{"alias": "restaurants", "title": "Restaurants"}], "rating": 1.0, "coordinates": {"latitude": 42.5658, "longitude": -71.99153}, "transactions": [], "price": "$", "location": {"address1": "9 Crawford St", "address2": "", "address3": "", "city": "Gardner", "zip_code": "01440", "country": "US", "state": "MA", "display_address": ["9 Crawford St", "Gardner, MA 01440"]}, "phone": "+19786326015", "display_phone": "(978) 632-6015", "distance": 11465.77853003412}, {"id": "3ejotiHbd3qB8M1ZSr6iuw", "alias": "friendlys-gardner", "name": "Friendly's", "image_url": "https://s3-media2.fl.yelpcdn.com/bphoto/wcoUh5wyZ3aTbl6usrO4Ww/o.jpg", "is_closed": false, "url": "https://www.yelp.com/biz/friendlys-gardner?adjust_creative=ywY5UnLZrNrRl2b93Ruy_g&utm_campaign=yelp_api_v3&utm_medium=api_v3_business_search&utm_source=ywY5UnLZrNrRl2b93Ruy_g", "review_count": 24, "categories": [{"alias": "icecream", "title": "Ice Cream & Frozen Yogurt"}, {"alias": "burgers", "title": "Burgers"}, {"alias": "tradamerican", "title": "American (Traditional)"}], "rating": 2.0, "coordinates": {"latitude": 42.566247470663, "longitude": -71.979320066874}, "transactions": [], "price": "$", "location": {"address1": "18 Pearson Blvd", "address2": "", "address3": "", "city": "Gardner", "zip_code": "01440", "country": "US", "state": "MA", "display_address": ["18 Pearson Blvd", "Gardner, MA 01440"]}, "phone": "+19786301821", "display_phone": "(978) 630-1821", "distance": 11851.27850700386}, {"id": "hce2WyKR6p9j0zGa3cl1lg", "alias": "wendys-athol", "name": "Wendy's", "image_url": "https://s3-media1.fl.yelpcdn.com/bphoto/eVXgbWFKJOuB6TAuoTftyw/o.jpg", "is_closed": false, "url": "https://www.yelp.com/biz/wendys-athol?adjust_creative=ywY5UnLZrNrRl2b93Ruy_g&utm_campaign=yelp_api_v3&utm_medium=api_v3_business_search&utm_source=ywY5UnLZrNrRl2b93Ruy_g", "review_count": 1, "categories": [{"alias": "burgers", "title": "Burgers"}, {"alias": "hotdogs", "title": "Fast Food"}], "rating": 1.0, "coordinates": {"latitude": 42.58012, "longitude": -72.18376}, "transactions": [], "location": {"address1": "56 Market Dr", "address2": null, "address3": null, "city": "Athol", "zip_code": "01331", "country": "US", "state": "MA", "display_address": ["56 Market Dr", "Athol, MA 01331"]}, "phone": "", "display_phone": "", "distance": 14079.024520595434}, {"id": "eIl4-S0XOnUZ4SLZrcaJgw", "alias": "papa-ginos-pizzeria-gardner", "name": "Papa Gino's Pizzeria", "image_url": "https://s3-media2.fl.yelpcdn.com/bphoto/k7kt3dUGqz2Ptw87y3fvtw/o.jpg", "is_closed": false, "url": "https://www.yelp.com/biz/papa-ginos-pizzeria-gardner?adjust_creative=ywY5UnLZrNrRl2b93Ruy_g&utm_campaign=yelp_api_v3&utm_medium=api_v3_business_search&utm_source=ywY5UnLZrNrRl2b93Ruy_g", "review_count": 14, "categories": [{"alias": "pizza", "title": "Pizza"}], "rating": 2.5, "coordinates": {"latitude": 42.55884, "longitude": -71.98973}, "transactions": [], "price": "$", "location": {"address1": "326 Timpany Blvd", "address2": "", "address3": "", "city": "Gardner", "zip_code": "01440", "country": "US", "state": "MA", "display_address": ["326 Timpany Blvd", "Gardner, MA 01440"]}, "phone": "+19786328051", "display_phone": "(978) 632-8051", "distance": 12112.713922806062}, {"id": "iFhZ31feMlCA1F6H-rLVUA", "alias": "subway-westminster-42", "name": "Subway", "image_url": "https://s3-media3.fl.yelpcdn.com/bphoto/Q4DHyx93UuD2MKm09Qp6ZA/o.jpg", "is_closed": false, "url": "https://www.yelp.com/biz/subway-westminster-42?adjust_creative=ywY5UnLZrNrRl2b93Ruy_g&utm_campaign=yelp_api_v3&utm_medium=api_v3_business_search&utm_source=ywY5UnLZrNrRl2b93Ruy_g", "review_count": 4, "categories": [{"alias": "sandwiches", "title": "Sandwiches"}], "rating": 3.5, "coordinates": {"latitude": 42.5464934656065, "longitude": -71.9140293000952}, "transactions": [], "price": "$", "location": {"address1": "97 Main St", "address2": "", "address3": null, "city": "Westminster", "zip_code": "01473", "country": "US", "state": "MA", "display_address": ["97 Main St", "Westminster, MA 01473"]}, "phone": "+19788742185", "display_phone": "(978) 874-2185", "distance": 16746.786637322006}, {"id": "Je1gbLcoqWn-R9Wsw09J2g", "alias": "burger-king-gardner-2", "name": "Burger King", "image_url": "https://s3-media4.fl.yelpcdn.com/bphoto/PtHJDw19UTmeX8yvo60qtw/o.jpg", "is_closed": false, "url": "https://www.yelp.com/biz/burger-king-gardner-2?adjust_creative=ywY5UnLZrNrRl2b93Ruy_g&utm_campaign=yelp_api_v3&utm_medium=api_v3_business_search&utm_source=ywY5UnLZrNrRl2b93Ruy_g", "review_count": 2, "categories": [{"alias": "burgers", "title": "Burgers"}, {"alias": "hotdogs", "title": "Fast Food"}], "rating": 1.0, "coordinates": {"latitude": 42.565589, "longitude": -71.991512}, "transactions": [], "price": "$", "location": {"address1": "9 Crawford Street", "address2": "", "address3": "", "city": "Gardner", "zip_code": "01440", "country": "US", "state": "MA", "display_address": ["9 Crawford Street", "Gardner, MA 01440"]}, "phone": "", "display_phone": "", "distance": 11465.77853003412}, {"id": "e331pQV1I-SSnWw_w0PfMA", "alias": "wendys-gardner", "name": "Wendy's", "image_url": "https://s3-media1.fl.yelpcdn.com/bphoto/yGojYMgHFk_orMJG7_CAdQ/o.jpg", "is_closed": false, "url": "https://www.yelp.com/biz/wendys-gardner?adjust_creative=ywY5UnLZrNrRl2b93Ruy_g&utm_campaign=yelp_api_v3&utm_medium=api_v3_business_search&utm_source=ywY5UnLZrNrRl2b93Ruy_g", "review_count": 5, "categories": [{"alias": "hotdogs", "title": "Fast Food"}, {"alias": "burgers", "title": "Burgers"}], "rating": 3.5, "coordinates": {"latitude": 42.56622, "longitude": -71.97991}, "transactions": [], "price": "$", "location": {"address1": "28 Pearson Blvd", "address2": "", "address3": "", "city": "Gardner", "zip_code": "01440", "country": "US", "state": "MA", "display_address": ["28 Pearson Blvd", "Gardner, MA 01440"]}, "phone": "+19786303490", "display_phone": "(978) 630-3490", "distance": 11909.466066229323}, {"id": "37gP7ifq1CpZz9L9Pz80YQ", "alias": "stefanos-house-of-pizza-westminster", "name": "Stefanos' House of Pizza", "image_url": "https://s3-media1.fl.yelpcdn.com/bphoto/tE-DWbxiKdwXZItchnG96w/o.jpg", "is_closed": false, "url": "https://www.yelp.com/biz/stefanos-house-of-pizza-westminster?adjust_creative=ywY5UnLZrNrRl2b93Ruy_g&utm_campaign=yelp_api_v3&utm_medium=api_v3_business_search&utm_source=ywY5UnLZrNrRl2b93Ruy_g", "review_count": 15, "categories": [{"alias": "pizza", "title": "Pizza"}, {"alias": "salad", "title": "Salad"}, {"alias": "sandwiches", "title": "Sandwiches"}], "rating": 3.0, "coordinates": {"latitude": 42.546079, "longitude": -71.91376}, "transactions": [], "price": "$", "location": {"address1": "105 Main St", "address2": "", "address3": "", "city": "Westminster", "zip_code": "01473", "country": "US", "state": "MA", "display_address": ["105 Main St", "Westminster, MA 01473"]}, "phone": "+19788741922", "display_phone": "(978) 874-1922", "distance": 16795.991167986853}, {"id": "Y-INEv-QS9f7qJVDe5HjTA", "alias": "kfc-gardner-4", "name": "KFC", "image_url": "https://s3-media2.fl.yelpcdn.com/bphoto/oUqXZ9cnIUXRt_Gkqj7t2Q/o.jpg", "is_closed": false, "url": "https://www.yelp.com/biz/kfc-gardner-4?adjust_creative=ywY5UnLZrNrRl2b93Ruy_g&utm_campaign=yelp_api_v3&utm_medium=api_v3_business_search&utm_source=ywY5UnLZrNrRl2b93Ruy_g", "review_count": 5, "categories": [{"alias": "hotdogs", "title": "Fast Food"}, {"alias": "chicken_wings", "title": "Chicken Wings"}, {"alias": "chickenshop", "title": "Chicken Shop"}], "rating": 2.0, "coordinates": {"latitude": 42.566685997889, "longitude": -71.980529}, "transactions": ["pickup"], "price": "$", "location": {"address1": "8 Pearson Blvd", "address2": "", "address3": "", "city": "Gardner", "zip_code": "01440", "country": "US", "state": "MA", "display_address": ["8 Pearson Blvd", "Gardner, MA 01440"]}, "phone": "+19786302011", "display_phone": "(978) 630-2011", "distance": 11761.07956219919}, {"id": "ybkcxwJrjVxwHu5LCWT71Q", "alias": "d-angelo-gardner", "name": "D'Angelo", "image_url": "", "is_closed": false, "url": "https://www.yelp.com/biz/d-angelo-gardner?adjust_creative=ywY5UnLZrNrRl2b93Ruy_g&utm_campaign=yelp_api_v3&utm_medium=api_v3_business_search&utm_source=ywY5UnLZrNrRl2b93Ruy_g", "review_count": 5, "categories": [{"alias": "sandwiches", "title": "Sandwiches"}], "rating": 2.5, "coordinates": {"latitude": 42.5666254, "longitude": -71.9823995}, "transactions": [], "location": {"address1": "43 Union Sq", "address2": "", "address3": "", "city": "Gardner", "zip_code": "01440", "country": "US", "state": "MA", "display_address": ["43 Union Sq", "Gardner, MA 01440"]}, "phone": "+19786327533", "display_phone": "(978) 632-7533", "distance": 11697.357922022044}, {"id": "LyHOEwOxC1AhaI3WcWvHHw", "alias": "subway-athol-4", "name": "Subway", "image_url": "https://s3-media2.fl.yelpcdn.com/bphoto/Nx4UlEcn3DY-iWlOIEh7Pw/o.jpg", "is_closed": false, "url": "https://www.yelp.com/biz/subway-athol-4?adjust_creative=ywY5UnLZrNrRl2b93Ruy_g&utm_campaign=yelp_api_v3&utm_medium=api_v3_business_search&utm_source=ywY5UnLZrNrRl2b93Ruy_g", "review_count": 1, "categories": [{"alias": "sandwiches", "title": "Sandwiches"}], "rating": 1.0, "coordinates": {"latitude": 42.5844830027347, "longitude": -72.2049929815626}, "transactions": [], "price": "$", "location": {"address1": "2250 Main St", "address2": "", "address3": "", "city": "Athol", "zip_code": "01331", "country": "US", "state": "MA", "display_address": ["2250 Main St", "Athol, MA 01331"]}, "phone": "+19782495001", "display_phone": "(978) 249-5001", "distance": 15256.130165263758}, {"id": "Om8GYpWVr0YoGGCGXsgYCw", "alias": "taco-bell-gardner-3", "name": "Taco Bell", "image_url": "https://s3-media4.fl.yelpcdn.com/bphoto/w6z4YtPLkgbXbxvfC01nIw/o.jpg", "is_closed": false, "url": "https://www.yelp.com/biz/taco-bell-gardner-3?adjust_creative=ywY5UnLZrNrRl2b93Ruy_g&utm_campaign=yelp_api_v3&utm_medium=api_v3_business_search&utm_source=ywY5UnLZrNrRl2b93Ruy_g", "review_count": 2, "categories": [{"alias": "hotdogs", "title": "Fast Food"}, {"alias": "tacos", "title": "Tacos"}], "rating": 1.0, "coordinates": {"latitude": 42.566521, "longitude": -71.981384}, "transactions": [], "price": "$", "location": {"address1": "8 Pearson Blvd", "address2": null, "address3": null, "city": "Gardner", "zip_code": "01440", "country": "US", "state": "MA", "display_address": ["8 Pearson Blvd", "Gardner, MA 01440"]}, "phone": "+19786302011", "display_phone": "(978) 630-2011", "distance": 11744.075899704805}, {"id": "hDvkTp4bTKcR9AsXA-5_IQ", "alias": "subway-gardner-8", "name": "Subway", "image_url": "https://s3-media1.fl.yelpcdn.com/bphoto/WM4Y6gUg-7rY_jCSUH8bZw/o.jpg", "is_closed": false, "url": "https://www.yelp.com/biz/subway-gardner-8?adjust_creative=ywY5UnLZrNrRl2b93Ruy_g&utm_campaign=yelp_api_v3&utm_medium=api_v3_business_search&utm_source=ywY5UnLZrNrRl2b93Ruy_g", "review_count": 1, "categories": [{"alias": "sandwiches", "title": "Sandwiches"}], "rating": 1.0, "coordinates": {"latitude": 42.5514561, "longitude": -71.9946827}, "transactions": [], "price": "$", "location": {"address1": "677 Timpany Blvd", "address2": null, "address3": null, "city": "Gardner", "zip_code": "01440", "country": "US", "state": "MA", "display_address": ["677 Timpany Blvd", "Gardner, MA 01440"]}, "phone": "+19786301113", "display_phone": "(978) 630-1113", "distance": 12828.555375358057}, {"id": "bVbAQw_laKoEw8HUBEdj5w", "alias": "mcdonalds-gardner-2", "name": "McDonald's", "image_url": "https://s3-media3.fl.yelpcdn.com/bphoto/tkmz1oWJb4xuSYkFE_absg/o.jpg", "is_closed": false, "url": "https://www.yelp.com/biz/mcdonalds-gardner-2?adjust_creative=ywY5UnLZrNrRl2b93Ruy_g&utm_campaign=yelp_api_v3&utm_medium=api_v3_business_search&utm_source=ywY5UnLZrNrRl2b93Ruy_g", "review_count": 15, "categories": [{"alias": "hotdogs", "title": "Fast Food"}, {"alias": "burgers", "title": "Burgers"}, {"alias": "coffee", "title": "Coffee & Tea"}], "rating": 2.5, "coordinates": {"latitude": 42.5632433186274, "longitude": -71.99085699943}, "transactions": [], "price": "$", "location": {"address1": "223 Timpany Blvd", "address2": "", "address3": "", "city": "Gardner", "zip_code": "01440", "country": "US", "state": "MA", "display_address": ["223 Timpany Blvd", "Gardner, MA 01440"]}, "phone": "+19786329859", "display_phone": "(978) 632-9859", "distance": 11731.418393878163}]