[{"id": "T2y6Cue1SkDt55lSNkmrIg", "alias": "district-kitchen-and-bar-pittsfield", "name": "District Kitchen & Bar", "image_url": "https://s3-media4.fl.yelpcdn.com/bphoto/1S7pKPfaGwGh6wWd9MorYQ/o.jpg", "is_closed": false, "url": "https://www.yelp.com/biz/district-kitchen-and-bar-pittsfield?adjust_creative=h5HwbyQ0TYvQjBo6Ys5Bgw&utm_campaign=yelp_api_v3&utm_medium=api_v3_business_search&utm_source=h5HwbyQ0TYvQjBo6Ys5Bgw", "review_count": 202, "categories": [{"alias": "newamerican", "title": "American (New)"}, {"alias": "gastropubs", "title": "Gastropubs"}], "rating": 4.5, "coordinates": {"latitude": 42.4487065, "longitude": -73.2547291}, "transactions": ["delivery"], "price": "$$", "location": {"address1": "40 West St", "address2": null, "address3": "", "city": "Pittsfield", "zip_code": "01201", "country": "US", "state": "MA", "display_address": ["40 West St", "Pittsfield, MA 01201"]}, "phone": "+14134420303", "display_phone": "(413) 442-0303", "distance": 14711.44111620539}, {"id": "IRDbtfi_STNrrinh1V3csg", "alias": "the-rabbit-hole-worthington-3", "name": "The Rabbit Hole", "image_url": "https://s3-media1.fl.yelpcdn.com/bphoto/EdhUcHZXdrg_qRpOyqAsSw/o.jpg", "is_closed": false, "url": "https://www.yelp.com/biz/the-rabbit-hole-worthington-3?adjust_creative=h5HwbyQ0TYvQjBo6Ys5Bgw&utm_campaign=yelp_api_v3&utm_medium=api_v3_business_search&utm_source=h5HwbyQ0TYvQjBo6Ys5Bgw", "review_count": 5, "categories": [{"alias": "newamerican", "title": "American (New)"}], "rating": 4.0, "coordinates": {"latitude": 42.40078, "longitude": -72.93759}, "transactions": [], "location": {"address1": "144 Huntington Rd", "address2": null, "address3": "", "city": "Worthington", "zip_code": "01098", "country": "US", "state": "MA", "display_address": ["144 Huntington Rd", "Worthington, MA 01098"]}, "phone": "+14132380144", "display_phone": "(413) 238-0144", "distance": 11924.374596224301}, {"id": "C4skTr66kKHctEQH7U-T7Q", "alias": "elizabeths-pittsfield", "name": "Elizabeth's", "image_url": "https://s3-media1.fl.yelpcdn.com/bphoto/H8Vn6lhIqFVPIqEuOkGohA/o.jpg", "is_closed": false, "url": "https://www.yelp.com/biz/elizabeths-pittsfield?adjust_creative=h5HwbyQ0TYvQjBo6Ys5Bgw&utm_campaign=yelp_api_v3&utm_medium=api_v3_business_search&utm_source=h5HwbyQ0TYvQjBo6Ys5Bgw", "review_count": 111, "categories": [{"alias": "italian", "title": "Italian"}, {"alias": "newamerican", "title": "American (New)"}], "rating": 4.5, "coordinates": {"latitude": 42.453037, "longitude": -73.224449}, "transactions": ["delivery"], "price": "$$", "location": {"address1": "1264 East St", "address2": "", "address3": "", "city": "Pittsfield", "zip_code": "01201", "country": "US", "state": "MA", "display_address": ["1264 East St", "Pittsfield, MA 01201"]}, "phone": "+14134488244", "display_phone": "(413) 448-8244", "distance": 12354.209816549368}, {"id": "LsBWcjUV9pWHx18TFHmgxw", "alias": "deweys-public-house-dalton", "name": "Dewey's Public House", "image_url": "https://s3-media1.fl.yelpcdn.com/bphoto/IexiQnkl0NHDCGObVhW8QQ/o.jpg", "is_closed": false, "url": "https://www.yelp.com/biz/deweys-public-house-dalton?adjust_creative=h5HwbyQ0TYvQjBo6Ys5Bgw&utm_campaign=yelp_api_v3&utm_medium=api_v3_business_search&utm_source=h5HwbyQ0TYvQjBo6Ys5Bgw", "review_count": 17, "categories": [{"alias": "bars", "title": "Bars"}, {"alias": "tradamerican", "title": "American (Traditional)"}], "rating": 4.0, "coordinates": {"latitude": 42.4734917, "longitude": -73.156044}, "transactions": [], "price": "$$", "location": {"address1": "16 Depot St", "address2": "", "address3": "", "city": "Dalton", "zip_code": "01226", "country": "US", "state": "MA", "display_address": ["16 Depot St", "Dalton, MA 01226"]}, "phone": "+14136840900", "display_phone": "(413) 684-0900", "distance": 8030.0349515145135}, {"id": "L23iQ-ONcUb0edZeJJX_nA", "alias": "chester-common-table-chester", "name": "Chester Common Table", "image_url": "https://s3-media4.fl.yelpcdn.com/bphoto/DAStUuP7cBK4DbiHf3HhTQ/o.jpg", "is_closed": false, "url": "https://www.yelp.com/biz/chester-common-table-chester?adjust_creative=h5HwbyQ0TYvQjBo6Ys5Bgw&utm_campaign=yelp_api_v3&utm_medium=api_v3_business_search&utm_source=h5HwbyQ0TYvQjBo6Ys5Bgw", "review_count": 32, "categories": [{"alias": "comfortfood", "title": "Comfort Food"}, {"alias": "tradamerican", "title": "American (Traditional)"}], "rating": 4.5, "coordinates": {"latitude": 42.280002, "longitude": -72.980058}, "transactions": [], "price": "$$", "location": {"address1": "30 Main St", "address2": null, "address3": "", "city": "Chester", "zip_code": "01011", "country": "US", "state": "MA", "display_address": ["30 Main St", "Chester, MA 01011"]}, "phone": "+14133541076", "display_phone": "(413) 354-1076", "distance": 18582.9824995942}, {"id": "aw0FDqkiYDIE33KmHW7YHQ", "alias": "listons-bar-and-grill-worthington", "name": "Listons Bar & Grill", "image_url": "https://s3-media2.fl.yelpcdn.com/bphoto/Zw2va6P_vOdum1skN8J6cQ/o.jpg", "is_closed": false, "url": "https://www.yelp.com/biz/listons-bar-and-grill-worthington?adjust_creative=h5HwbyQ0TYvQjBo6Ys5Bgw&utm_campaign=yelp_api_v3&utm_medium=api_v3_business_search&utm_source=h5HwbyQ0TYvQjBo6Ys5Bgw", "review_count": 7, "categories": [{"alias": "sportsbars", "title": "Sports Bars"}, {"alias": "tradamerican", "title": "American (Traditional)"}], "rating": 4.5, "coordinates": {"latitude": 42.42713, "longitude": -72.95322}, "transactions": [], "location": {"address1": "324 Old North Rd Rte 143", "address2": "", "address3": null, "city": "Worthington", "zip_code": "01098", "country": "US", "state": "MA", "display_address": ["324 Old North Rd Rte 143", "Worthington, MA 01098"]}, "phone": "+14132385353", "display_phone": "(413) 238-5353", "distance": 10152.634726350007}, {"id": "b__Dz9yt1BUcKlfwH02hng", "alias": "mazzeos-ristorante-pittsfield", "name": "Mazzeo's Ristorante", "image_url": "https://s3-media4.fl.yelpcdn.com/bphoto/qbpAa7i58lM4a8VQ5RYRjA/o.jpg", "is_closed": false, "url": "https://www.yelp.com/biz/mazzeos-ristorante-pittsfield?adjust_creative=h5HwbyQ0TYvQjBo6Ys5Bgw&utm_campaign=yelp_api_v3&utm_medium=api_v3_business_search&utm_source=h5HwbyQ0TYvQjBo6Ys5Bgw", "review_count": 142, "categories": [{"alias": "italian", "title": "Italian"}, {"alias": "gluten_free", "title": "Gluten-Free"}, {"alias": "bars", "title": "Bars"}], "rating": 3.5, "coordinates": {"latitude": 42.413089, "longitude": -73.260826}, "transactions": ["delivery", "restaurant_reservation"], "price": "$$$", "location": {"address1": "1015 South St", "address2": "", "address3": "", "city": "Pittsfield", "zip_code": "01201", "country": "US", "state": "MA", "display_address": ["1015 South St", "Pittsfield, MA 01201"]}, "phone": "+14134482095", "display_phone": "(413) 448-2095", "distance": 15297.185619420585}, {"id": "jJi_0_zVAENFO1jNHFr2QA", "alias": "ozzies-steak-and-eggs-hinsdale", "name": "Ozzie's Steak & Eggs", "image_url": "https://s3-media2.fl.yelpcdn.com/bphoto/HmbCm2yJiHYPp3ccuEY5Tg/o.jpg", "is_closed": false, "url": "https://www.yelp.com/biz/ozzies-steak-and-eggs-hinsdale?adjust_creative=h5HwbyQ0TYvQjBo6Ys5Bgw&utm_campaign=yelp_api_v3&utm_medium=api_v3_business_search&utm_source=h5HwbyQ0TYvQjBo6Ys5Bgw", "review_count": 51, "categories": [{"alias": "newamerican", "title": "American (New)"}, {"alias": "breakfast_brunch", "title": "Breakfast & Brunch"}, {"alias": "seafood", "title": "Seafood"}], "rating": 4.5, "coordinates": {"latitude": 42.43803, "longitude": -73.125002}, "transactions": [], "price": "$$", "location": {"address1": "26 Maple St", "address2": "", "address3": "", "city": "Hinsdale", "zip_code": "01235", "country": "US", "state": "MA", "display_address": ["26 Maple St", "Hinsdale, MA 01235"]}, "phone": "+14136558309", "display_phone": "(413) 655-8309", "distance": 4032.126917610649}, {"id": "b5dwwLNwKstRwY78mxS0nQ", "alias": "hinsdale-trading-company-hinsdale", "name": "Hinsdale Trading Company", "image_url": "https://s3-media1.fl.yelpcdn.com/bphoto/HpL6CkqF7IWTTOzbUp6WWA/o.jpg", "is_closed": false, "url": "https://www.yelp.com/biz/hinsdale-trading-company-hinsdale?adjust_creative=h5HwbyQ0TYvQjBo6Ys5Bgw&utm_campaign=yelp_api_v3&utm_medium=api_v3_business_search&utm_source=h5HwbyQ0TYvQjBo6Ys5Bgw", "review_count": 2, "categories": [{"alias": "pizza", "title": "Pizza"}, {"alias": "sandwiches", "title": "Sandwiches"}], "rating": 4.0, "coordinates": {"latitude": 42.4469440430403, "longitude": -73.1244655698538}, "transactions": [], "location": {"address1": "371 Old Dalton Rd", "address2": "", "address3": "", "city": "Hinsdale", "zip_code": "01235", "country": "US", "state": "MA", "display_address": ["371 Old Dalton Rd", "Hinsdale, MA 01235"]}, "phone": "+14136550161", "display_phone": "(413) 655-0161", "distance": 4691.370439082433}, {"id": "f1SCA_ua5SrnH4o-GC_frg", "alias": "la-fogata-pittsfield-3", "name": "La Fogata", "image_url": "https://s3-media3.fl.yelpcdn.com/bphoto/fO86g0LI2WiwS-HWZPKjIA/o.jpg", "is_closed": false, "url": "https://www.yelp.com/biz/la-fogata-pittsfield-3?adjust_creative=h5HwbyQ0TYvQjBo6Ys5Bgw&utm_campaign=yelp_api_v3&utm_medium=api_v3_business_search&utm_source=h5HwbyQ0TYvQjBo6Ys5Bgw", "review_count": 84, "categories": [{"alias": "colombian", "title": "Colombian"}], "rating": 4.5, "coordinates": {"latitude": 42.4564261392309, "longitude": -73.2350534294449}, "transactions": ["delivery"], "price": "$$", "location": {"address1": "770 Tyler St", "address2": null, "address3": null, "city": "Pittsfield", "zip_code": "01201", "country": "US", "state": "MA", "display_address": ["770 Tyler St", "Pittsfield, MA 01201"]}, "phone": "+14134436969", "display_phone": "(413) 443-6969", "distance": 13287.981120500577}, {"id": "x3-jvYZX8SyNa0szugmiEQ", "alias": "powder-hounds-hancock", "name": "Powder Hounds", "image_url": "https://s3-media1.fl.yelpcdn.com/bphoto/v3ighIHFRideJ3wRho8ArA/o.jpg", "is_closed": false, "url": "https://www.yelp.com/biz/powder-hounds-hancock?adjust_creative=h5HwbyQ0TYvQjBo6Ys5Bgw&utm_campaign=yelp_api_v3&utm_medium=api_v3_business_search&utm_source=h5HwbyQ0TYvQjBo6Ys5Bgw", "review_count": 93, "categories": [{"alias": "tradamerican", "title": "American (Traditional)"}, {"alias": "italian", "title": "Italian"}, {"alias": "cocktailbars", "title": "Cocktail Bars"}], "rating": 4.0, "coordinates": {"latitude": 42.5695066053232, "longitude": -73.251499}, "transactions": [], "price": "$$", "location": {"address1": "137 Brodie Mountain Rd", "address2": "", "address3": "", "city": "Hancock", "zip_code": "01237", "country": "US", "state": "MA", "display_address": ["137 Brodie Mountain Rd", "Hancock, MA 01237"]}, "phone": "+14137385660", "display_phone": "(413) 738-5660", "distance": 21022.75219547509}, {"id": "stiXPmdazYbPuvk7-DZoXQ", "alias": "old-forge-restaurant-lanesborough", "name": "Old Forge Restaurant", "image_url": "https://s3-media3.fl.yelpcdn.com/bphoto/7KF1ed-S_RqxHV5qnj2qJQ/o.jpg", "is_closed": false, "url": "https://www.yelp.com/biz/old-forge-restaurant-lanesborough?adjust_creative=h5HwbyQ0TYvQjBo6Ys5Bgw&utm_campaign=yelp_api_v3&utm_medium=api_v3_business_search&utm_source=h5HwbyQ0TYvQjBo6Ys5Bgw", "review_count": 257, "categories": [{"alias": "tradamerican", "title": "American (Traditional)"}, {"alias": "chicken_wings", "title": "Chicken Wings"}], "rating": 3.5, "coordinates": {"latitude": 42.5254754817585, "longitude": -73.228554725647}, "transactions": [], "price": "$$", "location": {"address1": "125 N Main St", "address2": "", "address3": "", "city": "Lanesborough", "zip_code": "01237", "country": "US", "state": "MA", "display_address": ["125 N Main St", "Lanesborough, MA 01237"]}, "phone": "+14134426797", "display_phone": "(413) 442-6797", "distance": 16277.01335592591}, {"id": "5pMuo6RdZ6JZF0E_Dl1eDQ", "alias": "home-club-hinsdale", "name": "Home Club", "image_url": "", "is_closed": false, "url": "https://www.yelp.com/biz/home-club-hinsdale?adjust_creative=h5HwbyQ0TYvQjBo6Ys5Bgw&utm_campaign=yelp_api_v3&utm_medium=api_v3_business_search&utm_source=h5HwbyQ0TYvQjBo6Ys5Bgw", "review_count": 1, "categories": [{"alias": "restaurants", "title": "Restaurants"}], "rating": 5.0, "coordinates": {"latitude": 42.4343329668045, "longitude": -73.1187625229359}, "transactions": [], "price": "$", "location": {"address1": "213 South St", "address2": "", "address3": "", "city": "Hinsdale", "zip_code": "01235", "country": "US", "state": "MA", "display_address": ["213 South St", "Hinsdale, MA 01235"]}, "phone": "+14136550167", "display_phone": "(413) 655-0167", "distance": 3448.215140649123}, {"id": "NQILKfW2PMwlWb1V-ppJMQ", "alias": "morgan-house-lee", "name": "Morgan House", "image_url": "https://s3-media3.fl.yelpcdn.com/bphoto/AWQ6KBz-N19MXaHmW_2BiQ/o.jpg", "is_closed": false, "url": "https://www.yelp.com/biz/morgan-house-lee?adjust_creative=h5HwbyQ0TYvQjBo6Ys5Bgw&utm_campaign=yelp_api_v3&utm_medium=api_v3_business_search&utm_source=h5HwbyQ0TYvQjBo6Ys5Bgw", "review_count": 110, "categories": [{"alias": "bedbreakfast", "title": "Bed & Breakfast"}, {"alias": "newamerican", "title": "American (New)"}, {"alias": "tradamerican", "title": "American (Traditional)"}], "rating": 4.0, "coordinates": {"latitude": 42.30484, "longitude": -73.24921}, "transactions": ["delivery"], "price": "$$", "location": {"address1": "33 Main St", "address2": "", "address3": "", "city": "Lee", "zip_code": "01238", "country": "US", "state": "MA", "display_address": ["33 Main St", "Lee, MA 01238"]}, "phone": "+14132433661", "display_phone": "(413) 243-3661", "distance": 19919.888538572955}, {"id": "o972aKqdzYGiCzWWZx6vWQ", "alias": "chez-nous-lee", "name": "Chez Nous", "image_url": "https://s3-media3.fl.yelpcdn.com/bphoto/iBqQB-SYonf87TmSaxy4XA/o.jpg", "is_closed": false, "url": "https://www.yelp.com/biz/chez-nous-lee?adjust_creative=h5HwbyQ0TYvQjBo6Ys5Bgw&utm_campaign=yelp_api_v3&utm_medium=api_v3_business_search&utm_source=h5HwbyQ0TYvQjBo6Ys5Bgw", "review_count": 195, "categories": [{"alias": "french", "title": "French"}], "rating": 4.5, "coordinates": {"latitude": 42.30769, "longitude": -73.25031}, "transactions": ["delivery", "restaurant_reservation", "pickup"], "price": "$$$", "location": {"address1": "150 Main St", "address2": "", "address3": "", "city": "Lee", "zip_code": "01238", "country": "US", "state": "MA", "display_address": ["150 Main St", "Lee, MA 01238"]}, "phone": "+14132436397", "display_phone": "(413) 243-6397", "distance": 19771.640649037316}, {"id": "0eMkyB2D0Cw3gszNyAaUdQ", "alias": "mission-restaurant-pittsfield", "name": "Mission Restaurant", "image_url": "https://s3-media3.fl.yelpcdn.com/bphoto/p81W3A_1VlHAeJlbkuw96Q/o.jpg", "is_closed": false, "url": "https://www.yelp.com/biz/mission-restaurant-pittsfield?adjust_creative=h5HwbyQ0TYvQjBo6Ys5Bgw&utm_campaign=yelp_api_v3&utm_medium=api_v3_business_search&utm_source=h5HwbyQ0TYvQjBo6Ys5Bgw", "review_count": 125, "categories": [{"alias": "spanish", "title": "Spanish"}, {"alias": "tapasmallplates", "title": "Tapas/Small Plates"}, {"alias": "musicvenues", "title": "Music Venues"}], "rating": 4.0, "coordinates": {"latitude": 42.4548334, "longitude": -73.2518942}, "transactions": ["delivery"], "price": "$$", "location": {"address1": "438 N St", "address2": "", "address3": "", "city": "Pittsfield", "zip_code": "01201", "country": "US", "state": "MA", "display_address": ["438 N St", "Pittsfield, MA 01201"]}, "phone": "+14134991736", "display_phone": "(413) 499-1736", "distance": 14585.861393810712}, {"id": "KwAaAZte_nWKeny_lAb0nA", "alias": "dream-away-lodge-becket", "name": "Dream Away Lodge", "image_url": "https://s3-media2.fl.yelpcdn.com/bphoto/Oh289v27yllCU-Zj_WK1MA/o.jpg", "is_closed": false, "url": "https://www.yelp.com/biz/dream-away-lodge-becket?adjust_creative=h5HwbyQ0TYvQjBo6Ys5Bgw&utm_campaign=yelp_api_v3&utm_medium=api_v3_business_search&utm_source=h5HwbyQ0TYvQjBo6Ys5Bgw", "review_count": 87, "categories": [{"alias": "bars", "title": "Bars"}, {"alias": "newamerican", "title": "American (New)"}], "rating": 3.5, "coordinates": {"latitude": 42.32495, "longitude": -73.14103}, "transactions": [], "price": "$$", "location": {"address1": "1342 County Rd", "address2": "", "address3": "", "city": "Becket", "zip_code": "01223", "country": "US", "state": "MA", "display_address": ["1342 County Rd", "Becket, MA 01223"]}, "phone": "+14136238725", "display_phone": "(413) 623-8725", "distance": 12915.270585350267}, {"id": "1rI6pNcpm187YIP4Q1kIkw", "alias": "51-park-restaurant-and-tavern-lee", "name": "51 Park Restaurant & Tavern", "image_url": "https://s3-media4.fl.yelpcdn.com/bphoto/i8pfpWfkKcDreIreT5F80Q/o.jpg", "is_closed": false, "url": "https://www.yelp.com/biz/51-park-restaurant-and-tavern-lee?adjust_creative=h5HwbyQ0TYvQjBo6Ys5Bgw&utm_campaign=yelp_api_v3&utm_medium=api_v3_business_search&utm_source=h5HwbyQ0TYvQjBo6Ys5Bgw", "review_count": 293, "categories": [{"alias": "pizza", "title": "Pizza"}, {"alias": "bars", "title": "Bars"}, {"alias": "tradamerican", "title": "American (Traditional)"}], "rating": 4.0, "coordinates": {"latitude": 42.3041968750153, "longitude": -73.2482657867333}, "transactions": ["delivery"], "price": "$$", "location": {"address1": "51 Park St", "address2": "", "address3": "", "city": "Lee", "zip_code": "01238", "country": "US", "state": "MA", "display_address": ["51 Park St", "Lee, MA 01238"]}, "phone": "+14132432153", "display_phone": "(413) 243-2153", "distance": 19924.11055578385}, {"id": "RtMPXedJocZX0VyTB3o6dQ", "alias": "smokey-divas-pittsfield", "name": "Smokey Divas", "image_url": "https://s3-media2.fl.yelpcdn.com/bphoto/eR_ibLv6mWTkZxRqHrL_FQ/o.jpg", "is_closed": false, "url": "https://www.yelp.com/biz/smokey-divas-pittsfield?adjust_creative=h5HwbyQ0TYvQjBo6Ys5Bgw&utm_campaign=yelp_api_v3&utm_medium=api_v3_business_search&utm_source=h5HwbyQ0TYvQjBo6Ys5Bgw", "review_count": 22, "categories": [{"alias": "bbq", "title": "Barbeque"}], "rating": 4.5, "coordinates": {"latitude": 42.4589165630306, "longitude": -73.2636564597487}, "transactions": ["delivery"], "location": {"address1": "239 Onota St", "address2": "", "address3": null, "city": "Pittsfield", "zip_code": "01201", "country": "US", "state": "MA", "display_address": ["239 Onota St", "Pittsfield, MA 01201"]}, "phone": "+14133444206", "display_phone": "(413) 344-4206", "distance": 15632.181560692567}, {"id": "VPDBd1fuy7kp2tQ9cFlkgQ", "alias": "trattoria-rustica-pittsfield", "name": "Trattoria Rustica", "image_url": "https://s3-media1.fl.yelpcdn.com/bphoto/pGGZRqKuxQa3ODa3gWDIxQ/o.jpg", "is_closed": false, "url": "https://www.yelp.com/biz/trattoria-rustica-pittsfield?adjust_creative=h5HwbyQ0TYvQjBo6Ys5Bgw&utm_campaign=yelp_api_v3&utm_medium=api_v3_business_search&utm_source=h5HwbyQ0TYvQjBo6Ys5Bgw", "review_count": 77, "categories": [{"alias": "italian", "title": "Italian"}], "rating": 4.0, "coordinates": {"latitude": 42.449648597523, "longitude": -73.254720133583}, "transactions": ["delivery"], "price": "$$$", "location": {"address1": "27 McKay St", "address2": null, "address3": "", "city": "Pittsfield", "zip_code": "01201", "country": "US", "state": "MA", "display_address": ["27 McKay St", "Pittsfield, MA 01201"]}, "phone": "+14134991192", "display_phone": "(413) 499-1192", "distance": 14735.41820410179}, {"id": "cCrInUewlA89sDza70MvCA", "alias": "vongs-pittsfield-2", "name": "Vongs", "image_url": "https://s3-media3.fl.yelpcdn.com/bphoto/ldVZ4TDrHmFZhoBD_uSEqg/o.jpg", "is_closed": false, "url": "https://www.yelp.com/biz/vongs-pittsfield-2?adjust_creative=h5HwbyQ0TYvQjBo6Ys5Bgw&utm_campaign=yelp_api_v3&utm_medium=api_v3_business_search&utm_source=h5HwbyQ0TYvQjBo6Ys5Bgw", "review_count": 63, "categories": [{"alias": "vietnamese", "title": "Vietnamese"}, {"alias": "thai", "title": "Thai"}], "rating": 4.0, "coordinates": {"latitude": 42.4608192996704, "longitude": -73.2507721752335}, "transactions": ["delivery"], "price": "$$", "location": {"address1": "157 Seymour St", "address2": "", "address3": "", "city": "Pittsfield", "zip_code": "01201", "country": "US", "state": "MA", "display_address": ["157 Seymour St", "Pittsfield, MA 01201"]}, "phone": "+14134426000", "display_phone": "(413) 442-6000", "distance": 14643.742292417868}, {"id": "rCi5XRAlbjFJBD05OWfR1A", "alias": "velvet-restaurant-worthington-2", "name": "Velvet Restaurant", "image_url": "https://s3-media3.fl.yelpcdn.com/bphoto/UlVYHq_A04HTAXFdC6ALBA/o.jpg", "is_closed": false, "url": "https://www.yelp.com/biz/velvet-restaurant-worthington-2?adjust_creative=h5HwbyQ0TYvQjBo6Ys5Bgw&utm_campaign=yelp_api_v3&utm_medium=api_v3_business_search&utm_source=h5HwbyQ0TYvQjBo6Ys5Bgw", "review_count": 7, "categories": [{"alias": "bars", "title": "Bars"}, {"alias": "newamerican", "title": "American (New)"}], "rating": 4.0, "coordinates": {"latitude": 42.40855, "longitude": -72.94236}, "transactions": [], "location": {"address1": "113 Ridge Rd", "address2": null, "address3": "", "city": "Worthington", "zip_code": "01098", "country": "US", "state": "MA", "display_address": ["113 Ridge Rd", "Worthington, MA 01098"]}, "phone": "+14132384492", "display_phone": "(413) 238-4492", "distance": 11325.252027854318}, {"id": "QbDOsebLf7kr-VDWFmvokg", "alias": "flavours-of-malaysia-pittsfield", "name": "Flavours of Malaysia", "image_url": "https://s3-media1.fl.yelpcdn.com/bphoto/Rfxdg9pbecME0tkZnkLAEA/o.jpg", "is_closed": false, "url": "https://www.yelp.com/biz/flavours-of-malaysia-pittsfield?adjust_creative=h5HwbyQ0TYvQjBo6Ys5Bgw&utm_campaign=yelp_api_v3&utm_medium=api_v3_business_search&utm_source=h5HwbyQ0TYvQjBo6Ys5Bgw", "review_count": 204, "categories": [{"alias": "asianfusion", "title": "Asian Fusion"}, {"alias": "malaysian", "title": "Malaysian"}], "rating": 4.0, "coordinates": {"latitude": 42.449903, "longitude": -73.254548}, "transactions": ["delivery"], "price": "$$", "location": {"address1": "75 North St", "address2": null, "address3": null, "city": "Pittsfield", "zip_code": "01201", "country": "US", "state": "MA", "display_address": ["75 North St", "Pittsfield, MA 01201"]}, "phone": "+14134433188", "display_phone": "(413) 443-3188", "distance": 14725.412684886323}, {"id": "nvn2Tly1BvlmglJ9p-4uDA", "alias": "mad-jacks-lanesborough", "name": "Mad Jack's", "image_url": "https://s3-media2.fl.yelpcdn.com/bphoto/BLw3pU5R6injfiUL6pCbwA/o.jpg", "is_closed": false, "url": "https://www.yelp.com/biz/mad-jacks-lanesborough?adjust_creative=h5HwbyQ0TYvQjBo6Ys5Bgw&utm_campaign=yelp_api_v3&utm_medium=api_v3_business_search&utm_source=h5HwbyQ0TYvQjBo6Ys5Bgw", "review_count": 11, "categories": [{"alias": "bbq", "title": "Barbeque"}, {"alias": "tradamerican", "title": "American (Traditional)"}, {"alias": "soulfood", "title": "Soul Food"}], "rating": 4.0, "coordinates": {"latitude": 42.51325, "longitude": -73.22938}, "transactions": ["delivery"], "location": {"address1": "126 S Main St", "address2": "", "address3": null, "city": "Lanesborough", "zip_code": "01237", "country": "US", "state": "MA", "display_address": ["126 S Main St", "Lanesborough, MA 01237"]}, "phone": "+14134422290", "display_phone": "(413) 442-2290", "distance": 15469.237997923383}, {"id": "5SEv6lCoqsHuIvd5bseAPw", "alias": "thrive-diner-pittsfield", "name": "Thrive Diner", "image_url": "https://s3-media3.fl.yelpcdn.com/bphoto/tXURYKnF1UmV5Mlw6XyiTg/o.jpg", "is_closed": false, "url": "https://www.yelp.com/biz/thrive-diner-pittsfield?adjust_creative=h5HwbyQ0TYvQjBo6Ys5Bgw&utm_campaign=yelp_api_v3&utm_medium=api_v3_business_search&utm_source=h5HwbyQ0TYvQjBo6Ys5Bgw", "review_count": 43, "categories": [{"alias": "vegan", "title": "Vegan"}], "rating": 4.5, "coordinates": {"latitude": 42.4625, "longitude": -73.25181}, "transactions": ["delivery"], "price": "$$", "location": {"address1": "145 Wahconah St", "address2": null, "address3": "", "city": "Pittsfield", "zip_code": "01201", "country": "US", "state": "MA", "display_address": ["145 Wahconah St", "Pittsfield, MA 01201"]}, "phone": "+14133449353", "display_phone": "(413) 344-9353", "distance": 14764.873916980137}, {"id": "bPB51VTWLgvlO_afOXGfVg", "alias": "lucias-latin-kitchen-lee", "name": "Lucia's Latin Kitchen", "image_url": "https://s3-media2.fl.yelpcdn.com/bphoto/m7K8y3UcSnE_wc6EZBkDJQ/o.jpg", "is_closed": false, "url": "https://www.yelp.com/biz/lucias-latin-kitchen-lee?adjust_creative=h5HwbyQ0TYvQjBo6Ys5Bgw&utm_campaign=yelp_api_v3&utm_medium=api_v3_business_search&utm_source=h5HwbyQ0TYvQjBo6Ys5Bgw", "review_count": 17, "categories": [{"alias": "latin", "title": "Latin American"}], "rating": 4.5, "coordinates": {"latitude": 42.30863, "longitude": -73.25241}, "transactions": ["delivery"], "location": {"address1": "109 Railroad St", "address2": "", "address3": null, "city": "Lee", "zip_code": "01238", "country": "US", "state": "MA", "display_address": ["109 Railroad St", "Lee, MA 01238"]}, "phone": "+14133945009", "display_phone": "(413) 394-5009", "distance": 19831.82692029927}, {"id": "oCsKQ2Ns4NZtIjvu4PODBg", "alias": "the-roasted-garlic-pittsfield", "name": "The Roasted Garlic", "image_url": "https://s3-media3.fl.yelpcdn.com/bphoto/9u5QaUpT90u9r2vCPL_oGA/o.jpg", "is_closed": false, "url": "https://www.yelp.com/biz/the-roasted-garlic-pittsfield?adjust_creative=h5HwbyQ0TYvQjBo6Ys5Bgw&utm_campaign=yelp_api_v3&utm_medium=api_v3_business_search&utm_source=h5HwbyQ0TYvQjBo6Ys5Bgw", "review_count": 116, "categories": [{"alias": "tradamerican", "title": "American (Traditional)"}, {"alias": "sportsbars", "title": "Sports Bars"}], "rating": 3.5, "coordinates": {"latitude": 42.44215, "longitude": -73.27677}, "transactions": ["delivery"], "price": "$$", "location": {"address1": "483 W Housatonic St", "address2": "", "address3": "", "city": "Pittsfield", "zip_code": "01201", "country": "US", "state": "MA", "display_address": ["483 W Housatonic St", "Pittsfield, MA 01201"]}, "phone": "+14134999910", "display_phone": "(413) 499-9910", "distance": 16446.355693956935}, {"id": "wzSu93NPvW0DiSXABoAM8w", "alias": "methuselah-bar-and-lounge-pittsfield", "name": "Methuselah Bar and Lounge", "image_url": "https://s3-media2.fl.yelpcdn.com/bphoto/iZxRn6irr7IdDvV5mkCRtw/o.jpg", "is_closed": false, "url": "https://www.yelp.com/biz/methuselah-bar-and-lounge-pittsfield?adjust_creative=h5HwbyQ0TYvQjBo6Ys5Bgw&utm_campaign=yelp_api_v3&utm_medium=api_v3_business_search&utm_source=h5HwbyQ0TYvQjBo6Ys5Bgw", "review_count": 57, "categories": [{"alias": "lounges", "title": "Lounges"}, {"alias": "tacos", "title": "Tacos"}, {"alias": "tapas", "title": "Tapas Bars"}], "rating": 4.0, "coordinates": {"latitude": 42.4542253216836, "longitude": -73.2525427266955}, "transactions": ["delivery", "pickup"], "price": "$$", "location": {"address1": "391 N St", "address2": "", "address3": "", "city": "Pittsfield", "zip_code": "01201", "country": "US", "state": "MA", "display_address": ["391 N St", "Pittsfield, MA 01201"]}, "phone": "+14133472888", "display_phone": "(413) 347-2888", "distance": 14639.12427488492}, {"id": "5LnwS_kqnyooA4DAeo5TtQ", "alias": "baja-charlies-lee", "name": "Baja Charlie's", "image_url": "https://s3-media3.fl.yelpcdn.com/bphoto/VHSamI5wGd2TzCuZwkIFbQ/o.jpg", "is_closed": false, "url": "https://www.yelp.com/biz/baja-charlies-lee?adjust_creative=h5HwbyQ0TYvQjBo6Ys5Bgw&utm_campaign=yelp_api_v3&utm_medium=api_v3_business_search&utm_source=h5HwbyQ0TYvQjBo6Ys5Bgw", "review_count": 140, "categories": [{"alias": "newamerican", "title": "American (New)"}, {"alias": "mexican", "title": "Mexican"}], "rating": 4.0, "coordinates": {"latitude": 42.3100508004427, "longitude": -73.2527308166027}, "transactions": ["delivery"], "price": "$$", "location": {"address1": "62 W Center St", "address2": "", "address3": "", "city": "Lee", "zip_code": "01238", "country": "US", "state": "MA", "display_address": ["62 W Center St", "Lee, MA 01238"]}, "phone": "+14132434322", "display_phone": "(413) 243-4322", "distance": 19753.786948547593}, {"id": "UE7ZoJkkX3Enq8MS5X4ASw", "alias": "alpamayo-restaurant-lee-2", "name": "Alpamayo Restaurant", "image_url": "https://s3-media2.fl.yelpcdn.com/bphoto/5jIxLQ4LXaiJPpyTnJ1d9g/o.jpg", "is_closed": false, "url": "https://www.yelp.com/biz/alpamayo-restaurant-lee-2?adjust_creative=h5HwbyQ0TYvQjBo6Ys5Bgw&utm_campaign=yelp_api_v3&utm_medium=api_v3_business_search&utm_source=h5HwbyQ0TYvQjBo6Ys5Bgw", "review_count": 120, "categories": [{"alias": "peruvian", "title": "Peruvian"}, {"alias": "seafood", "title": "Seafood"}, {"alias": "soup", "title": "Soup"}], "rating": 4.0, "coordinates": {"latitude": 42.3056, "longitude": -73.249264}, "transactions": ["delivery"], "price": "$$", "location": {"address1": "60 Main St", "address2": "", "address3": "", "city": "Lee", "zip_code": "01238", "country": "US", "state": "MA", "display_address": ["60 Main St", "Lee, MA 01238"]}, "phone": "+14132436000", "display_phone": "(413) 243-6000", "distance": 19872.222664458866}, {"id": "ZREJXvUqQZD4xKI7UD878Q", "alias": "jaes-pittsfield-3", "name": "Jae's", "image_url": "https://s3-media3.fl.yelpcdn.com/bphoto/1RvlUWeAMCIEYNASpntHCg/o.jpg", "is_closed": false, "url": "https://www.yelp.com/biz/jaes-pittsfield-3?adjust_creative=h5HwbyQ0TYvQjBo6Ys5Bgw&utm_campaign=yelp_api_v3&utm_medium=api_v3_business_search&utm_source=h5HwbyQ0TYvQjBo6Ys5Bgw", "review_count": 32, "categories": [{"alias": "sushi", "title": "Sushi Bars"}, {"alias": "korean", "title": "Korean"}], "rating": 3.5, "coordinates": {"latitude": 42.407877, "longitude": -73.265441}, "transactions": ["delivery"], "location": {"address1": "1032 South St", "address2": "", "address3": "The Hilton Garden Inn", "city": "Pittsfield", "zip_code": "01201", "country": "US", "state": "MA", "display_address": ["1032 South St", "The Hilton Garden Inn", "Pittsfield, MA 01201"]}, "phone": "+14134648791", "display_phone": "(413) 464-8791", "distance": 15686.288420416951}, {"id": "Ij8RafJOGZno1-M4ueMrdQ", "alias": "salmon-run-fish-house-lee", "name": "Salmon Run Fish House", "image_url": "https://s3-media2.fl.yelpcdn.com/bphoto/HHwT3NihuQCFUc2ba2-8uQ/o.jpg", "is_closed": false, "url": "https://www.yelp.com/biz/salmon-run-fish-house-lee?adjust_creative=h5HwbyQ0TYvQjBo6Ys5Bgw&utm_campaign=yelp_api_v3&utm_medium=api_v3_business_search&utm_source=h5HwbyQ0TYvQjBo6Ys5Bgw", "review_count": 146, "categories": [{"alias": "seafood", "title": "Seafood"}], "rating": 3.5, "coordinates": {"latitude": 42.3060492, "longitude": -73.2495023}, "transactions": ["delivery", "pickup"], "price": "$$", "location": {"address1": "78 Main St", "address2": "", "address3": "", "city": "Lee", "zip_code": "01238", "country": "US", "state": "MA", "display_address": ["78 Main St", "Lee, MA 01238"]}, "phone": "+14132433900", "display_phone": "(413) 243-3900", "distance": 19856.49214024891}, {"id": "Rr4cVS2LhKTmPM8bozHf_A", "alias": "post-eatery-and-bar-lee", "name": "Post Eatery & Bar", "image_url": "https://s3-media3.fl.yelpcdn.com/bphoto/UaHbdUfgC0rrX2R43_mKDQ/o.jpg", "is_closed": false, "url": "https://www.yelp.com/biz/post-eatery-and-bar-lee?adjust_creative=h5HwbyQ0TYvQjBo6Ys5Bgw&utm_campaign=yelp_api_v3&utm_medium=api_v3_business_search&utm_source=h5HwbyQ0TYvQjBo6Ys5Bgw", "review_count": 42, "categories": [{"alias": "newamerican", "title": "American (New)"}], "rating": 4.5, "coordinates": {"latitude": 42.30537, "longitude": -73.24988}, "transactions": [], "location": {"address1": "5 Railroad St", "address2": "", "address3": null, "city": "Lee", "zip_code": "01238", "country": "US", "state": "MA", "display_address": ["5 Railroad St", "Lee, MA 01238"]}, "phone": "+14133944275", "display_phone": "(413) 394-4275", "distance": 19924.512600842212}, {"id": "xkKYVwDYXzUV62udwUaboQ", "alias": "bass-water-grill-cheshire", "name": "Bass Water Grill", "image_url": "https://s3-media2.fl.yelpcdn.com/bphoto/eq2hPkZOGZ8t5uzrOQQuPQ/o.jpg", "is_closed": false, "url": "https://www.yelp.com/biz/bass-water-grill-cheshire?adjust_creative=h5HwbyQ0TYvQjBo6Ys5Bgw&utm_campaign=yelp_api_v3&utm_medium=api_v3_business_search&utm_source=h5HwbyQ0TYvQjBo6Ys5Bgw", "review_count": 23, "categories": [{"alias": "newamerican", "title": "American (New)"}, {"alias": "salad", "title": "Salad"}, {"alias": "burgers", "title": "Burgers"}], "rating": 4.0, "coordinates": {"latitude": 42.554713, "longitude": -73.165292}, "transactions": [], "price": "$$", "location": {"address1": "287 S State Rd", "address2": null, "address3": null, "city": "Cheshire", "zip_code": "01225", "country": "US", "state": "MA", "display_address": ["287 S State Rd", "Cheshire, MA 01225"]}, "phone": "+14137431911", "display_phone": "(413) 743-1911", "distance": 15545.959686768862}, {"id": "qdEOFaDMWYcGqGFUTZa7IQ", "alias": "biggins-diggins-lanesborough", "name": "Biggins Diggins", "image_url": "https://s3-media2.fl.yelpcdn.com/bphoto/mIZVB-5aQcMT1KlXaK56Pg/o.jpg", "is_closed": false, "url": "https://www.yelp.com/biz/biggins-diggins-lanesborough?adjust_creative=h5HwbyQ0TYvQjBo6Ys5Bgw&utm_campaign=yelp_api_v3&utm_medium=api_v3_business_search&utm_source=h5HwbyQ0TYvQjBo6Ys5Bgw", "review_count": 16, "categories": [{"alias": "breakfast_brunch", "title": "Breakfast & Brunch"}], "rating": 4.0, "coordinates": {"latitude": 42.5008113, "longitude": -73.236971}, "transactions": ["delivery"], "location": {"address1": "543 S Main St", "address2": "", "address3": null, "city": "Lanesborough", "zip_code": "01237", "country": "US", "state": "MA", "display_address": ["543 S Main St", "Lanesborough, MA 01237"]}, "phone": "+14134963141", "display_phone": "(413) 496-3141", "distance": 15249.857234319506}, {"id": "fffJgJEdkV01ods74qDKzA", "alias": "zucchinis-restaurant-and-wood-fired-pizza-pittsfield", "name": "Zucchini's Restaurant & Wood Fired Pizza", "image_url": "https://s3-media1.fl.yelpcdn.com/bphoto/RlF3NAEuS6E976AXD2lJcA/o.jpg", "is_closed": false, "url": "https://www.yelp.com/biz/zucchinis-restaurant-and-wood-fired-pizza-pittsfield?adjust_creative=h5HwbyQ0TYvQjBo6Ys5Bgw&utm_campaign=yelp_api_v3&utm_medium=api_v3_business_search&utm_source=h5HwbyQ0TYvQjBo6Ys5Bgw", "review_count": 64, "categories": [{"alias": "pizza", "title": "Pizza"}, {"alias": "italian", "title": "Italian"}, {"alias": "newamerican", "title": "American (New)"}], "rating": 3.5, "coordinates": {"latitude": 42.48183, "longitude": -73.24674}, "transactions": ["delivery"], "price": "$$", "location": {"address1": "1331 North St", "address2": "", "address3": "", "city": "Pittsfield", "zip_code": "01201", "country": "US", "state": "MA", "display_address": ["1331 North St", "Pittsfield, MA 01201"]}, "phone": "+14134422777", "display_phone": "(413) 442-2777", "distance": 15004.63926262977}, {"id": "5fGDL6__gYOZ3aEqUrnprA", "alias": "dalton-restaurant-dalton", "name": "Dalton Restaurant", "image_url": "https://s3-media3.fl.yelpcdn.com/bphoto/s2zuMPhQulG1TNyWx1EfAg/o.jpg", "is_closed": false, "url": "https://www.yelp.com/biz/dalton-restaurant-dalton?adjust_creative=h5HwbyQ0TYvQjBo6Ys5Bgw&utm_campaign=yelp_api_v3&utm_medium=api_v3_business_search&utm_source=h5HwbyQ0TYvQjBo6Ys5Bgw", "review_count": 12, "categories": [{"alias": "diners", "title": "Diners"}], "rating": 4.0, "coordinates": {"latitude": 42.4734982, "longitude": -73.1721344}, "transactions": ["delivery"], "price": "$", "location": {"address1": "401 Main St", "address2": "", "address3": "", "city": "Dalton", "zip_code": "01226", "country": "US", "state": "MA", "display_address": ["401 Main St", "Dalton, MA 01226"]}, "phone": "+14136840414", "display_phone": "(413) 684-0414", "distance": 9128.359548614664}, {"id": "RYrIR3PbsOfx4_iV_37RCw", "alias": "mazcots-sports-bar-and-grill-lenox", "name": "Mazcots Sports Bar & Grill", "image_url": "https://s3-media2.fl.yelpcdn.com/bphoto/erIDwW8YZCwQ9dlT72JT9A/o.jpg", "is_closed": false, "url": "https://www.yelp.com/biz/mazcots-sports-bar-and-grill-lenox?adjust_creative=h5HwbyQ0TYvQjBo6Ys5Bgw&utm_campaign=yelp_api_v3&utm_medium=api_v3_business_search&utm_source=h5HwbyQ0TYvQjBo6Ys5Bgw", "review_count": 72, "categories": [{"alias": "sportsbars", "title": "Sports Bars"}, {"alias": "tradamerican", "title": "American (Traditional)"}], "rating": 4.0, "coordinates": {"latitude": 42.4048409, "longitude": -73.265137}, "transactions": ["delivery"], "price": "$$", "location": {"address1": "490 Pittsfield Rd", "address2": "", "address3": "", "city": "Lenox", "zip_code": "01240", "country": "US", "state": "MA", "display_address": ["490 Pittsfield Rd", "Lenox, MA 01240"]}, "phone": "+14134991101", "display_phone": "(413) 499-1101", "distance": 15721.021613864703}, {"id": "IaXoc2JQs-4CYd3P2YA6FA", "alias": "o-laughlins-restaurant-pittsfield", "name": "O'laughlin's Restaurant", "image_url": "https://s3-media4.fl.yelpcdn.com/bphoto/kt_rEUI0423gfdSTtKxL_g/o.jpg", "is_closed": false, "url": "https://www.yelp.com/biz/o-laughlins-restaurant-pittsfield?adjust_creative=h5HwbyQ0TYvQjBo6Ys5Bgw&utm_campaign=yelp_api_v3&utm_medium=api_v3_business_search&utm_source=h5HwbyQ0TYvQjBo6Ys5Bgw", "review_count": 2, "categories": [{"alias": "tradamerican", "title": "American (Traditional)"}, {"alias": "irish_pubs", "title": "Irish Pub"}], "rating": 4.0, "coordinates": {"latitude": 42.4568138122559, "longitude": -73.212158203125}, "transactions": ["delivery"], "location": {"address1": "342 Merrill Rd", "address2": "", "address3": "", "city": "Pittsfield", "zip_code": "01201", "country": "US", "state": "MA", "display_address": ["342 Merrill Rd", "Pittsfield, MA 01201"]}, "phone": "+14134479507", "display_phone": "(413) 447-9507", "distance": 11460.569173636233}, {"id": "wqQ-cLMbLmxzc_p4jjDSxw", "alias": "the-old-creamery-cummington-2", "name": "The Old Creamery", "image_url": "https://s3-media3.fl.yelpcdn.com/bphoto/suPv8fzXhQdsR8elaUVfzg/o.jpg", "is_closed": false, "url": "https://www.yelp.com/biz/the-old-creamery-cummington-2?adjust_creative=h5HwbyQ0TYvQjBo6Ys5Bgw&utm_campaign=yelp_api_v3&utm_medium=api_v3_business_search&utm_source=h5HwbyQ0TYvQjBo6Ys5Bgw", "review_count": 31, "categories": [{"alias": "grocery", "title": "Grocery"}, {"alias": "bakeries", "title": "Bakeries"}, {"alias": "sandwiches", "title": "Sandwiches"}], "rating": 4.5, "coordinates": {"latitude": 42.464115, "longitude": -72.90535}, "transactions": [], "price": "$$", "location": {"address1": "445 Berkshire Trl", "address2": "", "address3": "", "city": "Cummington", "zip_code": "01026", "country": "US", "state": "MA", "display_address": ["445 Berkshire Trl", "Cummington, MA 01026"]}, "phone": "+14136345560", "display_phone": "(413) 634-5560", "distance": 14551.760457148828}, {"id": "N__y-HScFV08c6Hqs0U_BA", "alias": "eat-on-north-pittsfield", "name": "Eat on North", "image_url": "https://s3-media3.fl.yelpcdn.com/bphoto/FemTnXD2uVJEHK8gMjT6tg/o.jpg", "is_closed": false, "url": "https://www.yelp.com/biz/eat-on-north-pittsfield?adjust_creative=h5HwbyQ0TYvQjBo6Ys5Bgw&utm_campaign=yelp_api_v3&utm_medium=api_v3_business_search&utm_source=h5HwbyQ0TYvQjBo6Ys5Bgw", "review_count": 97, "categories": [{"alias": "newamerican", "title": "American (New)"}, {"alias": "bars", "title": "Bars"}, {"alias": "breakfast_brunch", "title": "Breakfast & Brunch"}], "rating": 3.5, "coordinates": {"latitude": 42.452699, "longitude": -73.253238}, "transactions": ["delivery"], "price": "$$", "location": {"address1": "297 North St", "address2": "", "address3": "", "city": "Pittsfield", "zip_code": "01201", "country": "US", "state": "MA", "display_address": ["297 North St", "Pittsfield, MA 01201"]}, "phone": "+14135534210", "display_phone": "(413) 553-4210", "distance": 14664.01361104039}, {"id": "NLvNv-Au5Jldu84CubsoEw", "alias": "trattoria-ii-vesuvio-lenox", "name": "Trattoria II Vesuvio", "image_url": "https://s3-media4.fl.yelpcdn.com/bphoto/NmJnrFxogqj1X_EIa8n19g/o.jpg", "is_closed": false, "url": "https://www.yelp.com/biz/trattoria-ii-vesuvio-lenox?adjust_creative=h5HwbyQ0TYvQjBo6Ys5Bgw&utm_campaign=yelp_api_v3&utm_medium=api_v3_business_search&utm_source=h5HwbyQ0TYvQjBo6Ys5Bgw", "review_count": 58, "categories": [{"alias": "italian", "title": "Italian"}], "rating": 3.5, "coordinates": {"latitude": 42.389434, "longitude": -73.272695}, "transactions": ["delivery"], "price": "$$$", "location": {"address1": "242 Pittsfield Rd", "address2": "", "address3": "", "city": "Lenox", "zip_code": "01240", "country": "US", "state": "MA", "display_address": ["242 Pittsfield Rd", "Lenox, MA 01240"]}, "phone": "+14136374904", "display_phone": "(413) 637-4904", "distance": 16723.501168112045}, {"id": "UtloTG5msKniX74Gll1GEw", "alias": "brooklyns-best-pittsfield", "name": "Brooklyn's Best", "image_url": "https://s3-media2.fl.yelpcdn.com/bphoto/D7moExjZjNntQ_t-RBRUaQ/o.jpg", "is_closed": false, "url": "https://www.yelp.com/biz/brooklyns-best-pittsfield?adjust_creative=h5HwbyQ0TYvQjBo6Ys5Bgw&utm_campaign=yelp_api_v3&utm_medium=api_v3_business_search&utm_source=h5HwbyQ0TYvQjBo6Ys5Bgw", "review_count": 20, "categories": [{"alias": "pizza", "title": "Pizza"}, {"alias": "italian", "title": "Italian"}], "rating": 4.0, "coordinates": {"latitude": 42.4491, "longitude": -73.2534}, "transactions": [], "price": "$$", "location": {"address1": "48 North St", "address2": "Unit A", "address3": null, "city": "Pittsfield", "zip_code": "01201", "country": "US", "state": "MA", "display_address": ["48 North St", "Unit A", "Pittsfield, MA 01201"]}, "phone": "+14132429050", "display_phone": "(413) 242-9050", "distance": 14619.799448429383}, {"id": "b4-4eClP0ksWjfBUMkI1-A", "alias": "becket-general-store-becket-2", "name": "Becket General Store", "image_url": "https://s3-media2.fl.yelpcdn.com/bphoto/O1QiC8MXq3W-AcqbU7FaFQ/o.jpg", "is_closed": false, "url": "https://www.yelp.com/biz/becket-general-store-becket-2?adjust_creative=h5HwbyQ0TYvQjBo6Ys5Bgw&utm_campaign=yelp_api_v3&utm_medium=api_v3_business_search&utm_source=h5HwbyQ0TYvQjBo6Ys5Bgw", "review_count": 11, "categories": [{"alias": "breakfast_brunch", "title": "Breakfast & Brunch"}, {"alias": "pizza", "title": "Pizza"}, {"alias": "bars", "title": "Bars"}], "rating": 4.5, "coordinates": {"latitude": 42.3275317514641, "longitude": -73.0836283305567}, "transactions": [], "location": {"address1": "3235 Main St", "address2": "", "address3": null, "city": "Becket", "zip_code": "01223", "country": "US", "state": "MA", "display_address": ["3235 Main St", "Becket, MA 01223"]}, "phone": "+14136236026", "display_phone": "(413) 623-6026", "distance": 11519.701115300859}, {"id": "6nTQ0bwWViNAKMD-mG645w", "alias": "titos-mexican-grill-pittsfield", "name": "Tito's Mexican Grill", "image_url": "https://s3-media3.fl.yelpcdn.com/bphoto/UG6sk3_G3wDB-5l4kqZXFQ/o.jpg", "is_closed": false, "url": "https://www.yelp.com/biz/titos-mexican-grill-pittsfield?adjust_creative=h5HwbyQ0TYvQjBo6Ys5Bgw&utm_campaign=yelp_api_v3&utm_medium=api_v3_business_search&utm_source=h5HwbyQ0TYvQjBo6Ys5Bgw", "review_count": 64, "categories": [{"alias": "mexican", "title": "Mexican"}, {"alias": "salad", "title": "Salad"}, {"alias": "seafood", "title": "Seafood"}], "rating": 3.5, "coordinates": {"latitude": 42.4507595, "longitude": -73.2542174}, "transactions": ["delivery"], "price": "$$", "location": {"address1": "34 Depot St", "address2": "", "address3": null, "city": "Pittsfield", "zip_code": "01201", "country": "US", "state": "MA", "display_address": ["34 Depot St", "Pittsfield, MA 01201"]}, "phone": "+14134649468", "display_phone": "(413) 464-9468", "distance": 14712.375276192122}, {"id": "D4_xUi9BdkjQeet8G1cogA", "alias": "the-bistro-lenox", "name": "The Bistro", "image_url": "https://s3-media1.fl.yelpcdn.com/bphoto/ez0NuT9or3hcVzek-8khbQ/o.jpg", "is_closed": false, "url": "https://www.yelp.com/biz/the-bistro-lenox?adjust_creative=h5HwbyQ0TYvQjBo6Ys5Bgw&utm_campaign=yelp_api_v3&utm_medium=api_v3_business_search&utm_source=h5HwbyQ0TYvQjBo6Ys5Bgw", "review_count": 5, "categories": [{"alias": "diners", "title": "Diners"}, {"alias": "bars", "title": "Bars"}, {"alias": "breakfast_brunch", "title": "Breakfast & Brunch"}], "rating": 4.5, "coordinates": {"latitude": 42.33615, "longitude": -73.25892}, "transactions": [], "location": {"address1": "16 Blantyre Rd", "address2": null, "address3": "", "city": "Lenox", "zip_code": "01240", "country": "US", "state": "MA", "display_address": ["16 Blantyre Rd", "Lenox, MA 01240"]}, "phone": "+14136373556", "display_phone": "(413) 637-3556", "distance": 18296.466886073405}, {"id": "bwKFfSyhtACDwJJu1SX90Q", "alias": "mint-indian-lakeside-dining-lee", "name": "Mint - Indian Lakeside Dining", "image_url": "https://s3-media3.fl.yelpcdn.com/bphoto/9_C5f6ZUtfaNxhaLothc1Q/o.jpg", "is_closed": false, "url": "https://www.yelp.com/biz/mint-indian-lakeside-dining-lee?adjust_creative=h5HwbyQ0TYvQjBo6Ys5Bgw&utm_campaign=yelp_api_v3&utm_medium=api_v3_business_search&utm_source=h5HwbyQ0TYvQjBo6Ys5Bgw", "review_count": 113, "categories": [{"alias": "indpak", "title": "Indian"}], "rating": 3.5, "coordinates": {"latitude": 42.32158, "longitude": -73.25985}, "transactions": ["pickup"], "price": "$$", "location": {"address1": "435 Laurel St", "address2": null, "address3": "", "city": "Lee", "zip_code": "01238", "country": "US", "state": "MA", "display_address": ["435 Laurel St", "Lee, MA 01238"]}, "phone": "+14132436731", "display_phone": "(413) 243-6731", "distance": 19350.28381504677}, {"id": "F1IYEjGBvRMUoCPk_CEQqA", "alias": "lakeside-bar-and-grill-lanesborough-2", "name": "Lakeside Bar & Grill", "image_url": "https://s3-media2.fl.yelpcdn.com/bphoto/xIgscHTIQ5ndaboqUOazcA/o.jpg", "is_closed": false, "url": "https://www.yelp.com/biz/lakeside-bar-and-grill-lanesborough-2?adjust_creative=h5HwbyQ0TYvQjBo6Ys5Bgw&utm_campaign=yelp_api_v3&utm_medium=api_v3_business_search&utm_source=h5HwbyQ0TYvQjBo6Ys5Bgw", "review_count": 20, "categories": [{"alias": "seafood", "title": "Seafood"}, {"alias": "tradamerican", "title": "American (Traditional)"}, {"alias": "bars", "title": "Bars"}], "rating": 2.5, "coordinates": {"latitude": 42.49434, "longitude": -73.23849}, "transactions": ["delivery", "pickup"], "location": {"address1": "750 S Main St", "address2": "", "address3": null, "city": "Lanesborough", "zip_code": "01237", "country": "US", "state": "MA", "display_address": ["750 S Main St", "Lanesborough, MA 01237"]}, "phone": "+14134479780", "display_phone": "(413) 447-9780", "distance": 15027.598431855407}, {"id": "W5mDQx_2NBwOFeFy2N6M8A", "alias": "the-lantern-bar-and-grill-pittsfield", "name": "The Lantern Bar & Grill", "image_url": "https://s3-media3.fl.yelpcdn.com/bphoto/Nqvaw5Ysth6P3e26Endz3A/o.jpg", "is_closed": false, "url": "https://www.yelp.com/biz/the-lantern-bar-and-grill-pittsfield?adjust_creative=h5HwbyQ0TYvQjBo6Ys5Bgw&utm_campaign=yelp_api_v3&utm_medium=api_v3_business_search&utm_source=h5HwbyQ0TYvQjBo6Ys5Bgw", "review_count": 55, "categories": [{"alias": "bars", "title": "Bars"}, {"alias": "newamerican", "title": "American (New)"}, {"alias": "tradamerican", "title": "American (Traditional)"}], "rating": 3.5, "coordinates": {"latitude": 42.4551194, "longitude": -73.2521345}, "transactions": ["delivery"], "price": "$$", "location": {"address1": "455 North St", "address2": "", "address3": "", "city": "Pittsfield", "zip_code": "01201", "country": "US", "state": "MA", "display_address": ["455 North St", "Pittsfield, MA 01201"]}, "phone": "+14133449227", "display_phone": "(413) 344-9227", "distance": 14622.40312067844}, {"id": "dTPRhcx8OZw-LhH1wlGuoQ", "alias": "koto-hibachi-steak-house-pittsfield", "name": "Koto Hibachi Steak House", "image_url": "https://s3-media1.fl.yelpcdn.com/bphoto/PC1JPjHBxzdpIZ5uDnjRpQ/o.jpg", "is_closed": false, "url": "https://www.yelp.com/biz/koto-hibachi-steak-house-pittsfield?adjust_creative=h5HwbyQ0TYvQjBo6Ys5Bgw&utm_campaign=yelp_api_v3&utm_medium=api_v3_business_search&utm_source=h5HwbyQ0TYvQjBo6Ys5Bgw", "review_count": 50, "categories": [{"alias": "sushi", "title": "Sushi Bars"}, {"alias": "japanese", "title": "Japanese"}, {"alias": "steak", "title": "Steakhouses"}], "rating": 3.0, "coordinates": {"latitude": 42.4674977, "longitude": -73.2051329}, "transactions": ["delivery"], "price": "$$", "location": {"address1": "795 Dalton Ave", "address2": "", "address3": "", "city": "Pittsfield", "zip_code": "01201", "country": "US", "state": "MA", "display_address": ["795 Dalton Ave", "Pittsfield, MA 01201"]}, "phone": "+14137707128", "display_phone": "(413) 770-7128", "distance": 11273.638576456608}, {"id": "EXx30QU0coEL_9svJPJwqw", "alias": "cims-tavern-pittsfield", "name": "Cim's Tavern", "image_url": "https://s3-media3.fl.yelpcdn.com/bphoto/CLgvUalKco1bW9an_6tTxA/o.jpg", "is_closed": false, "url": "https://www.yelp.com/biz/cims-tavern-pittsfield?adjust_creative=h5HwbyQ0TYvQjBo6Ys5Bgw&utm_campaign=yelp_api_v3&utm_medium=api_v3_business_search&utm_source=h5HwbyQ0TYvQjBo6Ys5Bgw", "review_count": 20, "categories": [{"alias": "tradamerican", "title": "American (Traditional)"}, {"alias": "sportsbars", "title": "Sports Bars"}], "rating": 4.0, "coordinates": {"latitude": 42.4491653442383, "longitude": -73.244987487793}, "transactions": ["delivery"], "price": "$", "location": {"address1": "429 Fenn St", "address2": "", "address3": "", "city": "Pittsfield", "zip_code": "01201", "country": "US", "state": "MA", "display_address": ["429 Fenn St", "Pittsfield, MA 01201"]}, "phone": "+14134429430", "display_phone": "(413) 442-9430", "distance": 13943.123498149025}, {"id": "-hkuDHIQGUQ6Zm0KoVyRVA", "alias": "friends-grille-pittsfield", "name": "Friends Grille", "image_url": "https://s3-media4.fl.yelpcdn.com/bphoto/68BujOlXTppe2jtmefgkDw/o.jpg", "is_closed": false, "url": "https://www.yelp.com/biz/friends-grille-pittsfield?adjust_creative=h5HwbyQ0TYvQjBo6Ys5Bgw&utm_campaign=yelp_api_v3&utm_medium=api_v3_business_search&utm_source=h5HwbyQ0TYvQjBo6Ys5Bgw", "review_count": 5, "categories": [{"alias": "pizza", "title": "Pizza"}, {"alias": "sportsbars", "title": "Sports Bars"}, {"alias": "tradamerican", "title": "American (Traditional)"}], "rating": 4.5, "coordinates": {"latitude": 42.4595794677734, "longitude": -73.2519683837891}, "transactions": ["delivery"], "price": "$", "location": {"address1": "117 Seymour St", "address2": "", "address3": "", "city": "Pittsfield", "zip_code": "01201", "country": "US", "state": "MA", "display_address": ["117 Seymour St", "Pittsfield, MA 01201"]}, "phone": "+14134434477", "display_phone": "(413) 443-4477", "distance": 14709.115903239615}, {"id": "PU85GdWhuT7Ucs8hefsDYQ", "alias": "stacies-corner-cafe-dalton", "name": "Stacie's Corner Cafe", "image_url": "https://s3-media1.fl.yelpcdn.com/bphoto/CwxXz-MYsKkEWZNhwaaP9g/o.jpg", "is_closed": false, "url": "https://www.yelp.com/biz/stacies-corner-cafe-dalton?adjust_creative=h5HwbyQ0TYvQjBo6Ys5Bgw&utm_campaign=yelp_api_v3&utm_medium=api_v3_business_search&utm_source=h5HwbyQ0TYvQjBo6Ys5Bgw", "review_count": 13, "categories": [{"alias": "cafes", "title": "Cafes"}, {"alias": "bakeries", "title": "Bakeries"}, {"alias": "breakfast_brunch", "title": "Breakfast & Brunch"}], "rating": 5.0, "coordinates": {"latitude": 42.43011, "longitude": -73.19659}, "transactions": ["delivery"], "location": {"address1": "813 Dalton Division Rd", "address2": null, "address3": "", "city": "Dalton", "zip_code": "01226", "country": "US", "state": "MA", "display_address": ["813 Dalton Division Rd", "Dalton, MA 01226"]}, "phone": "+14133444179", "display_phone": "(413) 344-4179", "distance": 9820.972445515565}, {"id": "ARnHCxfth45qbu5AU2g3Og", "alias": "classic-pizza-chester", "name": "Classic Pizza", "image_url": "https://s3-media3.fl.yelpcdn.com/bphoto/eAl51P7XAPmveVMWETkH2g/o.jpg", "is_closed": false, "url": "https://www.yelp.com/biz/classic-pizza-chester?adjust_creative=h5HwbyQ0TYvQjBo6Ys5Bgw&utm_campaign=yelp_api_v3&utm_medium=api_v3_business_search&utm_source=h5HwbyQ0TYvQjBo6Ys5Bgw", "review_count": 8, "categories": [{"alias": "pizza", "title": "Pizza"}], "rating": 3.5, "coordinates": {"latitude": 42.2799491882324, "longitude": -72.9793853759766}, "transactions": [], "price": "$$", "location": {"address1": "29 Main St", "address2": "", "address3": "", "city": "Chester", "zip_code": "01011", "country": "US", "state": "MA", "display_address": ["29 Main St", "Chester, MA 01011"]}, "phone": "+14133546554", "display_phone": "(413) 354-6554", "distance": 18600.619911292993}, {"id": "zfMgkBaSVR9KucqK1mmkOg", "alias": "jacobs-restaurant-dalton", "name": "Jacob's Restaurant", "image_url": "https://s3-media3.fl.yelpcdn.com/bphoto/70XUhQbB7N2n7moFQ37NaA/o.jpg", "is_closed": false, "url": "https://www.yelp.com/biz/jacobs-restaurant-dalton?adjust_creative=h5HwbyQ0TYvQjBo6Ys5Bgw&utm_campaign=yelp_api_v3&utm_medium=api_v3_business_search&utm_source=h5HwbyQ0TYvQjBo6Ys5Bgw", "review_count": 11, "categories": [{"alias": "restaurants", "title": "Restaurants"}], "rating": 3.0, "coordinates": {"latitude": 42.47424, "longitude": -73.16418}, "transactions": [], "price": "$", "location": {"address1": "51 Daly Ave", "address2": "", "address3": "", "city": "Dalton", "zip_code": "01226", "country": "US", "state": "MA", "display_address": ["51 Daly Ave", "Dalton, MA 01226"]}, "phone": "+14136849766", "display_phone": "(413) 684-9766", "distance": 8627.87482488204}, {"id": "S_NIgGNygGNQHUE0X4IkVw", "alias": "highland-restaurant-pittsfield", "name": "Highland Restaurant", "image_url": "https://s3-media2.fl.yelpcdn.com/bphoto/ZGfcnSA20to4zy-6Xwgiew/o.jpg", "is_closed": false, "url": "https://www.yelp.com/biz/highland-restaurant-pittsfield?adjust_creative=h5HwbyQ0TYvQjBo6Ys5Bgw&utm_campaign=yelp_api_v3&utm_medium=api_v3_business_search&utm_source=h5HwbyQ0TYvQjBo6Ys5Bgw", "review_count": 34, "categories": [{"alias": "italian", "title": "Italian"}], "rating": 3.5, "coordinates": {"latitude": 42.4497, "longitude": -73.25133}, "transactions": ["delivery"], "price": "$$", "location": {"address1": "100 Fenn St", "address2": "", "address3": "", "city": "Pittsfield", "zip_code": "01201", "country": "US", "state": "MA", "display_address": ["100 Fenn St", "Pittsfield, MA 01201"]}, "phone": "+14134422457", "display_phone": "(413) 442-2457", "distance": 14465.028168334376}, {"id": "A40Rx6mb2y4rX3bz2tCMug", "alias": "buckys-tavern-lee-2", "name": "Bucky's Tavern", "image_url": "", "is_closed": false, "url": "https://www.yelp.com/biz/buckys-tavern-lee-2?adjust_creative=h5HwbyQ0TYvQjBo6Ys5Bgw&utm_campaign=yelp_api_v3&utm_medium=api_v3_business_search&utm_source=h5HwbyQ0TYvQjBo6Ys5Bgw", "review_count": 3, "categories": [{"alias": "tradamerican", "title": "American (Traditional)"}, {"alias": "bars", "title": "Bars"}], "rating": 4.0, "coordinates": {"latitude": 42.3052711, "longitude": -73.2502518}, "transactions": ["delivery"], "location": {"address1": "25 Consolati Way", "address2": "", "address3": "", "city": "Lee", "zip_code": "01238", "country": "US", "state": "MA", "display_address": ["25 Consolati Way", "Lee, MA 01238"]}, "phone": "+14132436484", "display_phone": "(413) 243-6484", "distance": 19908.29399196165}, {"id": "1vSpetXLeZnGEI-16WVUog", "alias": "the-brookhouse-sports-pub-and-restaurant-lanesborough", "name": "The Brookhouse Sports Pub & Restaurant", "image_url": "https://s3-media2.fl.yelpcdn.com/bphoto/U2Xz6KkR-gdwLE7XheFJAg/o.jpg", "is_closed": false, "url": "https://www.yelp.com/biz/the-brookhouse-sports-pub-and-restaurant-lanesborough?adjust_creative=h5HwbyQ0TYvQjBo6Ys5Bgw&utm_campaign=yelp_api_v3&utm_medium=api_v3_business_search&utm_source=h5HwbyQ0TYvQjBo6Ys5Bgw", "review_count": 18, "categories": [{"alias": "sportsbars", "title": "Sports Bars"}, {"alias": "tradamerican", "title": "American (Traditional)"}], "rating": 3.0, "coordinates": {"latitude": 42.492263, "longitude": -73.202163}, "transactions": ["delivery"], "price": "$$", "location": {"address1": "650 Chesire Rd", "address2": "", "address3": "", "city": "Lanesborough", "zip_code": "01237", "country": "US", "state": "MA", "display_address": ["650 Chesire Rd", "Lanesborough, MA 01237"]}, "phone": "+14134993331", "display_phone": "(413) 499-3331", "distance": 12344.915999605824}, {"id": "qzb2lo-LNbUz2DaN6m5Qcw", "alias": "hot-harrys-fresh-burritos-dalton", "name": "Hot Harry's Fresh Burritos", "image_url": "https://s3-media1.fl.yelpcdn.com/bphoto/_LeE478T5T33qyGGCA9fgw/o.jpg", "is_closed": false, "url": "https://www.yelp.com/biz/hot-harrys-fresh-burritos-dalton?adjust_creative=h5HwbyQ0TYvQjBo6Ys5Bgw&utm_campaign=yelp_api_v3&utm_medium=api_v3_business_search&utm_source=h5HwbyQ0TYvQjBo6Ys5Bgw", "review_count": 5, "categories": [{"alias": "mexican", "title": "Mexican"}], "rating": 4.0, "coordinates": {"latitude": 42.4734965, "longitude": -73.1720944}, "transactions": ["delivery"], "location": {"address1": "403 Main St", "address2": "", "address3": null, "city": "Dalton", "zip_code": "01226", "country": "US", "state": "MA", "display_address": ["403 Main St", "Dalton, MA 01226"]}, "phone": "+14133000028", "display_phone": "(413) 300-0028", "distance": 9119.095894885557}, {"id": "YxyGGdlxUYVA3vkINjyNTQ", "alias": "locker-room-sports-bar-lee", "name": "Locker Room Sports Bar", "image_url": "https://s3-media2.fl.yelpcdn.com/bphoto/doxj4Q4nlRYbGy4Uf9IajA/o.jpg", "is_closed": false, "url": "https://www.yelp.com/biz/locker-room-sports-bar-lee?adjust_creative=h5HwbyQ0TYvQjBo6Ys5Bgw&utm_campaign=yelp_api_v3&utm_medium=api_v3_business_search&utm_source=h5HwbyQ0TYvQjBo6Ys5Bgw", "review_count": 49, "categories": [{"alias": "tradamerican", "title": "American (Traditional)"}, {"alias": "sportsbars", "title": "Sports Bars"}], "rating": 3.5, "coordinates": {"latitude": 42.309491, "longitude": -73.251066}, "transactions": ["delivery"], "price": "$$", "location": {"address1": "232 Main St", "address2": "", "address3": "", "city": "Lee", "zip_code": "01238", "country": "US", "state": "MA", "display_address": ["232 Main St", "Lee, MA 01238"]}, "phone": "+14132432662", "display_phone": "(413) 243-2662", "distance": 19696.0979341119}, {"id": "_4k5a9V9p6oDd0h8kCJbgg", "alias": "zuccos-family-restaurant-pittsfield", "name": "Zucco's Family Restaurant", "image_url": "https://s3-media3.fl.yelpcdn.com/bphoto/8kDDvVuGiEDPXeMZBNEPXA/o.jpg", "is_closed": false, "url": "https://www.yelp.com/biz/zuccos-family-restaurant-pittsfield?adjust_creative=h5HwbyQ0TYvQjBo6Ys5Bgw&utm_campaign=yelp_api_v3&utm_medium=api_v3_business_search&utm_source=h5HwbyQ0TYvQjBo6Ys5Bgw", "review_count": 24, "categories": [{"alias": "mediterranean", "title": "Mediterranean"}, {"alias": "italian", "title": "Italian"}, {"alias": "gluten_free", "title": "Gluten-Free"}], "rating": 3.0, "coordinates": {"latitude": 42.4633698981432, "longitude": -73.2147974686028}, "transactions": ["pickup", "delivery"], "price": "$$", "location": {"address1": "451 Dalton Ave", "address2": "", "address3": "", "city": "Pittsfield", "zip_code": "01201", "country": "US", "state": "MA", "display_address": ["451 Dalton Ave", "Pittsfield, MA 01201"]}, "phone": "+14134438112", "display_phone": "(413) 443-8112", "distance": 11870.126697173091}, {"id": "Oj3t1oGqak2dxj6_WaehzA", "alias": "sideline-saloon-pittsfield-2", "name": "Sideline Saloon", "image_url": "https://s3-media3.fl.yelpcdn.com/bphoto/Wun5JrsjfMoLwAFvcTO4nw/o.jpg", "is_closed": false, "url": "https://www.yelp.com/biz/sideline-saloon-pittsfield-2?adjust_creative=h5HwbyQ0TYvQjBo6Ys5Bgw&utm_campaign=yelp_api_v3&utm_medium=api_v3_business_search&utm_source=h5HwbyQ0TYvQjBo6Ys5Bgw", "review_count": 1, "categories": [{"alias": "cocktailbars", "title": "Cocktail Bars"}, {"alias": "diners", "title": "Diners"}], "rating": 5.0, "coordinates": {"latitude": 42.4491628888418, "longitude": -73.2464299723506}, "transactions": [], "location": {"address1": "423 Fenn St", "address2": "", "address3": "", "city": "Pittsfield", "zip_code": "01201", "country": "US", "state": "MA", "display_address": ["423 Fenn St", "Pittsfield, MA 01201"]}, "phone": "+14134997337", "display_phone": "(413) 499-7337", "distance": 14054.413164182382}, {"id": "j1Caj8bDL2gm4Q4OppvMQQ", "alias": "cork-n-hearth-lee-2", "name": "Cork N' Hearth", "image_url": "https://s3-media1.fl.yelpcdn.com/bphoto/NP_IxYEUvuC983-ZmoND3w/o.jpg", "is_closed": false, "url": "https://www.yelp.com/biz/cork-n-hearth-lee-2?adjust_creative=h5HwbyQ0TYvQjBo6Ys5Bgw&utm_campaign=yelp_api_v3&utm_medium=api_v3_business_search&utm_source=h5HwbyQ0TYvQjBo6Ys5Bgw", "review_count": 29, "categories": [{"alias": "desserts", "title": "Desserts"}, {"alias": "wine_bars", "title": "Wine Bars"}, {"alias": "diners", "title": "Diners"}], "rating": 3.5, "coordinates": {"latitude": 42.32676, "longitude": -73.26269}, "transactions": ["delivery"], "price": "$$$", "location": {"address1": "635 Laurel St", "address2": "", "address3": "", "city": "Lee", "zip_code": "01238", "country": "US", "state": "MA", "display_address": ["635 Laurel St", "Lee, MA 01238"]}, "phone": "+14132430535", "display_phone": "(413) 243-0535", "distance": 19156.423525646947}, {"id": "kikbfGQqB_s-Fstuix0S3w", "alias": "timothys-grill-and-pizzeria-lee", "name": "Timothy's Grill and Pizzeria", "image_url": "https://s3-media2.fl.yelpcdn.com/bphoto/mr6czjgrgKtj_zbKLm_0gw/o.jpg", "is_closed": false, "url": "https://www.yelp.com/biz/timothys-grill-and-pizzeria-lee?adjust_creative=h5HwbyQ0TYvQjBo6Ys5Bgw&utm_campaign=yelp_api_v3&utm_medium=api_v3_business_search&utm_source=h5HwbyQ0TYvQjBo6Ys5Bgw", "review_count": 61, "categories": [{"alias": "pizza", "title": "Pizza"}], "rating": 3.5, "coordinates": {"latitude": 42.30556, "longitude": -73.2491299}, "transactions": ["delivery"], "price": "$$", "location": {"address1": "54 Main St", "address2": "", "address3": "", "city": "Lee", "zip_code": "01238", "country": "US", "state": "MA", "display_address": ["54 Main St", "Lee, MA 01238"]}, "phone": "+14132438220", "display_phone": "(413) 243-8220", "distance": 19867.79269221099}, {"id": "PCeGA7kPoRSvYo7VNyotPA", "alias": "mannys-pizza-dalton", "name": "Manny's Pizza", "image_url": "https://s3-media2.fl.yelpcdn.com/bphoto/nq6wW8BPgLO2u5nSum8XPw/o.jpg", "is_closed": false, "url": "https://www.yelp.com/biz/mannys-pizza-dalton?adjust_creative=h5HwbyQ0TYvQjBo6Ys5Bgw&utm_campaign=yelp_api_v3&utm_medium=api_v3_business_search&utm_source=h5HwbyQ0TYvQjBo6Ys5Bgw", "review_count": 7, "categories": [{"alias": "pizza", "title": "Pizza"}], "rating": 3.5, "coordinates": {"latitude": 42.4811831058193, "longitude": -73.1548690795898}, "transactions": ["pickup", "delivery"], "price": "$$", "location": {"address1": "302 North St", "address2": "", "address3": "", "city": "Dalton", "zip_code": "01226", "country": "US", "state": "MA", "display_address": ["302 North St", "Dalton, MA 01226"]}, "phone": "+14138425289", "display_phone": "(413) 842-5289", "distance": 8485.288240421803}, {"id": "NE3t2ECJh8NDDsUbrlhwYQ", "alias": "mollisons-windy-hill-sugar-shack-worthington", "name": "Mollison's Windy Hill Sugar Shack", "image_url": "https://s3-media4.fl.yelpcdn.com/bphoto/4qQPuYhpx4YYjIR2a6o29A/o.jpg", "is_closed": false, "url": "https://www.yelp.com/biz/mollisons-windy-hill-sugar-shack-worthington?adjust_creative=h5HwbyQ0TYvQjBo6Ys5Bgw&utm_campaign=yelp_api_v3&utm_medium=api_v3_business_search&utm_source=h5HwbyQ0TYvQjBo6Ys5Bgw", "review_count": 2, "categories": [{"alias": "breakfast_brunch", "title": "Breakfast & Brunch"}], "rating": 4.5, "coordinates": {"latitude": 42.394454581771, "longitude": -72.9491633361976}, "transactions": [], "price": "$", "location": {"address1": "1 W Sam Hill Rd", "address2": "", "address3": "", "city": "Worthington", "zip_code": "01098", "country": "US", "state": "MA", "display_address": ["1 W Sam Hill Rd", "Worthington, MA 01098"]}, "phone": "+14132385869", "display_phone": "(413) 238-5869", "distance": 11249.643746249585}, {"id": "E0BNgyLQy3WUwFSnMLaQpA", "alias": "high-hopes-farm-worthington", "name": "High Hopes Farm", "image_url": "https://s3-media2.fl.yelpcdn.com/bphoto/VlgVhYdSvdonXZaV59JGtQ/o.jpg", "is_closed": false, "url": "https://www.yelp.com/biz/high-hopes-farm-worthington?adjust_creative=h5HwbyQ0TYvQjBo6Ys5Bgw&utm_campaign=yelp_api_v3&utm_medium=api_v3_business_search&utm_source=h5HwbyQ0TYvQjBo6Ys5Bgw", "review_count": 4, "categories": [{"alias": "breakfast_brunch", "title": "Breakfast & Brunch"}], "rating": 5.0, "coordinates": {"latitude": 42.3418042, "longitude": -72.8882095}, "transactions": [], "price": "$$", "location": {"address1": "1132 Huntington Rd", "address2": "", "address3": "", "city": "Worthington", "zip_code": "01098", "country": "US", "state": "MA", "display_address": ["1132 Huntington Rd", "Worthington, MA 01098"]}, "phone": "+14132385919", "display_phone": "(413) 238-5919", "distance": 18376.176799977908}, {"id": "isnxycnLtKZQ9Suc3R_IKA", "alias": "electras-cafe-lenox", "name": "Electra's Cafe", "image_url": "https://s3-media3.fl.yelpcdn.com/bphoto/Frd_k90pMwQgyfJqfagUzg/o.jpg", "is_closed": false, "url": "https://www.yelp.com/biz/electras-cafe-lenox?adjust_creative=h5HwbyQ0TYvQjBo6Ys5Bgw&utm_campaign=yelp_api_v3&utm_medium=api_v3_business_search&utm_source=h5HwbyQ0TYvQjBo6Ys5Bgw", "review_count": 70, "categories": [{"alias": "greek", "title": "Greek"}, {"alias": "tradamerican", "title": "American (Traditional)"}], "rating": 4.0, "coordinates": {"latitude": 42.401809, "longitude": -73.267399}, "transactions": ["pickup", "delivery"], "price": "$$", "location": {"address1": "439 Pittsfield Rd", "address2": "", "address3": "", "city": "Lenox", "zip_code": "01240", "country": "US", "state": "MA", "display_address": ["439 Pittsfield Rd", "Lenox, MA 01240"]}, "phone": "+14134421000", "display_phone": "(413) 442-1000", "distance": 15969.036426116303}, {"id": "2HNQ52VIATkFhvYvXIVkxg", "alias": "bascom-lodge-cheshire", "name": "Bascom Lodge", "image_url": "https://s3-media2.fl.yelpcdn.com/bphoto/OqAT0Zo-aER3M6sHxFMhWQ/o.jpg", "is_closed": false, "url": "https://www.yelp.com/biz/bascom-lodge-cheshire?adjust_creative=h5HwbyQ0TYvQjBo6Ys5Bgw&utm_campaign=yelp_api_v3&utm_medium=api_v3_business_search&utm_source=h5HwbyQ0TYvQjBo6Ys5Bgw", "review_count": 4, "categories": [{"alias": "bedbreakfast", "title": "Bed & Breakfast"}, {"alias": "tradamerican", "title": "American (Traditional)"}], "rating": 3.0, "coordinates": {"latitude": 42.5524235867851, "longitude": -73.2149627026462}, "transactions": [], "price": "$$", "location": {"address1": "30 Rockwell Rd", "address2": "", "address3": "", "city": "Cheshire", "zip_code": "01225", "country": "US", "state": "MA", "display_address": ["30 Rockwell Rd", "Cheshire, MA 01225"]}, "phone": "+14137431591", "display_phone": "(413) 743-1591", "distance": 17674.239312436373}, {"id": "6rXIezwsJbdUrAqDLgm6PA", "alias": "the-marketplace-caf\u00e9-pittsfield", "name": "The Marketplace Caf\u00e9", "image_url": "https://s3-media1.fl.yelpcdn.com/bphoto/sx2PUcmmvyRxIl3des99rA/o.jpg", "is_closed": false, "url": "https://www.yelp.com/biz/the-marketplace-caf%C3%A9-pittsfield?adjust_creative=h5HwbyQ0TYvQjBo6Ys5Bgw&utm_campaign=yelp_api_v3&utm_medium=api_v3_business_search&utm_source=h5HwbyQ0TYvQjBo6Ys5Bgw", "review_count": 154, "categories": [{"alias": "sandwiches", "title": "Sandwiches"}, {"alias": "coffee", "title": "Coffee & Tea"}, {"alias": "cafes", "title": "Cafes"}], "rating": 4.5, "coordinates": {"latitude": 42.4491299206995, "longitude": -73.2539157755931}, "transactions": [], "price": "$$", "location": {"address1": "53 North St", "address2": "", "address3": "", "city": "Pittsfield", "zip_code": "01201", "country": "US", "state": "MA", "display_address": ["53 North St", "Pittsfield, MA 01201"]}, "phone": "+14133584777", "display_phone": "(413) 358-4777", "distance": 14662.095891449275}, {"id": "cMHs-6paMHbDormhEF4qCw", "alias": "rainbow-restaurant-pittsfield", "name": "Rainbow Restaurant", "image_url": "https://s3-media2.fl.yelpcdn.com/bphoto/67Rxk3RUyV81M7VtXkAYAw/o.jpg", "is_closed": false, "url": "https://www.yelp.com/biz/rainbow-restaurant-pittsfield?adjust_creative=h5HwbyQ0TYvQjBo6Ys5Bgw&utm_campaign=yelp_api_v3&utm_medium=api_v3_business_search&utm_source=h5HwbyQ0TYvQjBo6Ys5Bgw", "review_count": 26, "categories": [{"alias": "italian", "title": "Italian"}, {"alias": "pizza", "title": "Pizza"}, {"alias": "sandwiches", "title": "Sandwiches"}], "rating": 3.5, "coordinates": {"latitude": 42.4515011161566, "longitude": -73.2502879947424}, "transactions": ["pickup", "delivery"], "price": "$$", "location": {"address1": "109 First St", "address2": null, "address3": null, "city": "Pittsfield", "zip_code": "01201", "country": "US", "state": "MA", "display_address": ["109 First St", "Pittsfield, MA 01201"]}, "phone": "+14134430002", "display_phone": "(413) 443-0002", "distance": 14421.488812857386}, {"id": "m2YgmONpPyqZHA9RNsNF3A", "alias": "luau-hale-restaurant-lenox", "name": "Luau Hale Restaurant", "image_url": "https://s3-media1.fl.yelpcdn.com/bphoto/qAEfT9rwHh3FP8KbJzvVHQ/o.jpg", "is_closed": false, "url": "https://www.yelp.com/biz/luau-hale-restaurant-lenox?adjust_creative=h5HwbyQ0TYvQjBo6Ys5Bgw&utm_campaign=yelp_api_v3&utm_medium=api_v3_business_search&utm_source=h5HwbyQ0TYvQjBo6Ys5Bgw", "review_count": 38, "categories": [{"alias": "chinese", "title": "Chinese"}, {"alias": "asianfusion", "title": "Asian Fusion"}], "rating": 3.0, "coordinates": {"latitude": 42.397719, "longitude": -73.269336}, "transactions": ["delivery"], "price": "$$", "location": {"address1": "569 Pittsfield Rd", "address2": "", "address3": "", "city": "Lenox", "zip_code": "01240", "country": "US", "state": "MA", "display_address": ["569 Pittsfield Rd", "Lenox, MA 01240"]}, "phone": "+14134434745", "display_phone": "(413) 443-4745", "distance": 16222.96368393733}, {"id": "h45SX9FI1QTRc7j7xsa-tg", "alias": "new-asian-garden-pittsfield", "name": "New Asian Garden", "image_url": "https://s3-media1.fl.yelpcdn.com/bphoto/v7lWcE-J_kbRTWZaqDNGcQ/o.jpg", "is_closed": false, "url": "https://www.yelp.com/biz/new-asian-garden-pittsfield?adjust_creative=h5HwbyQ0TYvQjBo6Ys5Bgw&utm_campaign=yelp_api_v3&utm_medium=api_v3_business_search&utm_source=h5HwbyQ0TYvQjBo6Ys5Bgw", "review_count": 14, "categories": [{"alias": "chinese", "title": "Chinese"}, {"alias": "japanese", "title": "Japanese"}, {"alias": "thai", "title": "Thai"}], "rating": 3.5, "coordinates": {"latitude": 42.4443758279085, "longitude": -73.2394176721573}, "transactions": ["delivery"], "price": "$", "location": {"address1": "1-3 Newell St", "address2": "", "address3": null, "city": "Pittsfield", "zip_code": "01201", "country": "US", "state": "MA", "display_address": ["1-3 Newell St", "Pittsfield, MA 01201"]}, "phone": "+14133449428", "display_phone": "(413) 344-9428", "distance": 13416.372317200965}, {"id": "eblzT9dPUY68f-yTC8DWFg", "alias": "lanesboro-restaurant-and-pizzeria-lanesboro", "name": "Lanesboro Restaurant & Pizzeria", "image_url": "https://s3-media3.fl.yelpcdn.com/bphoto/kwWtdSZvleEEwHEowueLRw/o.jpg", "is_closed": false, "url": "https://www.yelp.com/biz/lanesboro-restaurant-and-pizzeria-lanesboro?adjust_creative=h5HwbyQ0TYvQjBo6Ys5Bgw&utm_campaign=yelp_api_v3&utm_medium=api_v3_business_search&utm_source=h5HwbyQ0TYvQjBo6Ys5Bgw", "review_count": 10, "categories": [{"alias": "pizza", "title": "Pizza"}], "rating": 4.0, "coordinates": {"latitude": 42.494332, "longitude": -73.237745}, "transactions": ["delivery"], "price": "$$", "location": {"address1": "739 S Main St", "address2": "", "address3": "", "city": "Lanesboro", "zip_code": "01237", "country": "US", "state": "MA", "display_address": ["739 S Main St", "Lanesboro, MA 01237"]}, "phone": "+14134420600", "display_phone": "(413) 442-0600", "distance": 14957.547663641231}, {"id": "1J02t_gsLt_Rq2x0xPOzzg", "alias": "vivaldis-pizzeria-pittsfield", "name": "Vivaldi's Pizzeria", "image_url": "https://s3-media1.fl.yelpcdn.com/bphoto/4qvGd-y7a3vrDYNcI4-Cmw/o.jpg", "is_closed": false, "url": "https://www.yelp.com/biz/vivaldis-pizzeria-pittsfield?adjust_creative=h5HwbyQ0TYvQjBo6Ys5Bgw&utm_campaign=yelp_api_v3&utm_medium=api_v3_business_search&utm_source=h5HwbyQ0TYvQjBo6Ys5Bgw", "review_count": 32, "categories": [{"alias": "italian", "title": "Italian"}, {"alias": "pizza", "title": "Pizza"}, {"alias": "salad", "title": "Salad"}], "rating": 4.0, "coordinates": {"latitude": 42.46832, "longitude": -73.2038}, "transactions": ["delivery"], "price": "$", "location": {"address1": "5 Cheshire Rd", "address2": "", "address3": null, "city": "Pittsfield", "zip_code": "01201", "country": "US", "state": "MA", "display_address": ["5 Cheshire Rd", "Pittsfield, MA 01201"]}, "phone": "+14132365633", "display_phone": "(413) 236-5633", "distance": 11403.331273301214}, {"id": "O7MPn_Uo1M1t6AR3zccRow", "alias": "the-spot-pittsfield", "name": "The Spot", "image_url": "https://s3-media2.fl.yelpcdn.com/bphoto/7FULniBvy4K903dIIwnJCA/o.jpg", "is_closed": false, "url": "https://www.yelp.com/biz/the-spot-pittsfield?adjust_creative=h5HwbyQ0TYvQjBo6Ys5Bgw&utm_campaign=yelp_api_v3&utm_medium=api_v3_business_search&utm_source=h5HwbyQ0TYvQjBo6Ys5Bgw", "review_count": 10, "categories": [{"alias": "acaibowls", "title": "Acai Bowls"}, {"alias": "juicebars", "title": "Juice Bars & Smoothies"}, {"alias": "vegan", "title": "Vegan"}], "rating": 5.0, "coordinates": {"latitude": 42.4577047648292, "longitude": -73.2419114559889}, "transactions": ["delivery"], "location": {"address1": "381 Tyler St", "address2": "", "address3": null, "city": "Pittsfield", "zip_code": "01201", "country": "US", "state": "MA", "display_address": ["381 Tyler St", "Pittsfield, MA 01201"]}, "phone": "+14133444128", "display_phone": "(413) 344-4128", "distance": 13858.590106333078}, {"id": "7DWfOYBBFb00nOyPLlPAxQ", "alias": "panda-house-restaurant-lenox", "name": "Panda House Restaurant", "image_url": "https://s3-media3.fl.yelpcdn.com/bphoto/el_VnHmiKuPQng6dLT4fBA/o.jpg", "is_closed": false, "url": "https://www.yelp.com/biz/panda-house-restaurant-lenox?adjust_creative=h5HwbyQ0TYvQjBo6Ys5Bgw&utm_campaign=yelp_api_v3&utm_medium=api_v3_business_search&utm_source=h5HwbyQ0TYvQjBo6Ys5Bgw", "review_count": 59, "categories": [{"alias": "chinese", "title": "Chinese"}], "rating": 3.5, "coordinates": {"latitude": 42.4054848, "longitude": -73.2645128}, "transactions": ["pickup"], "price": "$$", "location": {"address1": "506 Pittsfield Rd", "address2": "", "address3": "", "city": "Lenox", "zip_code": "01240", "country": "US", "state": "MA", "display_address": ["506 Pittsfield Rd", "Lenox, MA 01240"]}, "phone": "+14134990660", "display_phone": "(413) 499-0660", "distance": 15657.4540085387}, {"id": "_44KcXxrWxc025YsRUq2Gw", "alias": "prado-s-cafe-lee", "name": "Prado\u2019s Cafe", "image_url": "https://s3-media3.fl.yelpcdn.com/bphoto/p6UYYaeX6jK3U7Hfgv20JA/o.jpg", "is_closed": false, "url": "https://www.yelp.com/biz/prado-s-cafe-lee?adjust_creative=h5HwbyQ0TYvQjBo6Ys5Bgw&utm_campaign=yelp_api_v3&utm_medium=api_v3_business_search&utm_source=h5HwbyQ0TYvQjBo6Ys5Bgw", "review_count": 7, "categories": [{"alias": "breakfast_brunch", "title": "Breakfast & Brunch"}, {"alias": "cafes", "title": "Cafes"}], "rating": 3.5, "coordinates": {"latitude": 42.30594, "longitude": -73.24992}, "transactions": ["pickup", "delivery"], "location": {"address1": "85 Main St", "address2": null, "address3": "", "city": "Lee", "zip_code": "01238", "country": "US", "state": "MA", "display_address": ["85 Main St", "Lee, MA 01238"]}, "phone": "+14132436561", "display_phone": "(413) 243-6561", "distance": 19885.318832777055}, {"id": "Ueg3DJxVNy2eTK4eqTReCQ", "alias": "panchos-mexican-restaurant-pittsfield", "name": "Panchos Mexican Restaurant", "image_url": "https://s3-media2.fl.yelpcdn.com/bphoto/dEgcAH4eH1WgDsVZJRWtVg/o.jpg", "is_closed": false, "url": "https://www.yelp.com/biz/panchos-mexican-restaurant-pittsfield?adjust_creative=h5HwbyQ0TYvQjBo6Ys5Bgw&utm_campaign=yelp_api_v3&utm_medium=api_v3_business_search&utm_source=h5HwbyQ0TYvQjBo6Ys5Bgw", "review_count": 82, "categories": [{"alias": "mexican", "title": "Mexican"}], "rating": 3.5, "coordinates": {"latitude": 42.4508775, "longitude": -73.2530541}, "transactions": ["delivery"], "price": "$$", "location": {"address1": "154 North St", "address2": "", "address3": "", "city": "Pittsfield", "zip_code": "01201", "country": "US", "state": "MA", "display_address": ["154 North St", "Pittsfield, MA 01201"]}, "phone": "+14134992266", "display_phone": "(413) 499-2266", "distance": 14619.955421422792}, {"id": "qp_z-BkrY0rQyK-8tCsICg", "alias": "house-of-india-pittsfield", "name": "House of India", "image_url": "https://s3-media1.fl.yelpcdn.com/bphoto/Xon56vXNA329CPdB9s4I3g/o.jpg", "is_closed": false, "url": "https://www.yelp.com/biz/house-of-india-pittsfield?adjust_creative=h5HwbyQ0TYvQjBo6Ys5Bgw&utm_campaign=yelp_api_v3&utm_medium=api_v3_business_search&utm_source=h5HwbyQ0TYvQjBo6Ys5Bgw", "review_count": 49, "categories": [{"alias": "indpak", "title": "Indian"}, {"alias": "salad", "title": "Salad"}, {"alias": "seafood", "title": "Seafood"}], "rating": 3.5, "coordinates": {"latitude": 42.4522856, "longitude": -73.253047}, "transactions": ["delivery"], "price": "$$", "location": {"address1": "261 North St", "address2": "", "address3": "", "city": "Pittsfield", "zip_code": "01201", "country": "US", "state": "MA", "display_address": ["261 North St", "Pittsfield, MA 01201"]}, "phone": "+14134433262", "display_phone": "(413) 443-3262", "distance": 14647.91419013459}, {"id": "HtGs8PlVveQGveMNfdLEDA", "alias": "hermanns-restaurant-pittsfield", "name": "Hermann's Restaurant", "image_url": "", "is_closed": false, "url": "https://www.yelp.com/biz/hermanns-restaurant-pittsfield?adjust_creative=h5HwbyQ0TYvQjBo6Ys5Bgw&utm_campaign=yelp_api_v3&utm_medium=api_v3_business_search&utm_source=h5HwbyQ0TYvQjBo6Ys5Bgw", "review_count": 1, "categories": [{"alias": "tradamerican", "title": "American (Traditional)"}], "rating": 5.0, "coordinates": {"latitude": 42.4483213, "longitude": -73.2384886}, "transactions": [], "location": {"address1": "24 Lyman St", "address2": "", "address3": "", "city": "Pittsfield", "zip_code": "01201", "country": "US", "state": "MA", "display_address": ["24 Lyman St", "Pittsfield, MA 01201"]}, "phone": "+14134439859", "display_phone": "(413) 443-9859", "distance": 13407.440034693436}, {"id": "HdqIODZiSRUzJ7WHfQepjw", "alias": "teos-hot-dogs-pittsfield", "name": "Teo's Hot Dogs", "image_url": "https://s3-media3.fl.yelpcdn.com/bphoto/IO73zBPj6a3UkTo4HDDjFA/o.jpg", "is_closed": false, "url": "https://www.yelp.com/biz/teos-hot-dogs-pittsfield?adjust_creative=h5HwbyQ0TYvQjBo6Ys5Bgw&utm_campaign=yelp_api_v3&utm_medium=api_v3_business_search&utm_source=h5HwbyQ0TYvQjBo6Ys5Bgw", "review_count": 108, "categories": [{"alias": "hotdog", "title": "Hot Dogs"}, {"alias": "bars", "title": "Bars"}], "rating": 4.0, "coordinates": {"latitude": 42.4539231, "longitude": -73.2175222}, "transactions": ["pickup", "delivery"], "price": "$", "location": {"address1": "1410 East St", "address2": "", "address3": "", "city": "Pittsfield", "zip_code": "01201", "country": "US", "state": "MA", "display_address": ["1410 East St", "Pittsfield, MA 01201"]}, "phone": "+14134479592", "display_phone": "(413) 447-9592", "distance": 11814.077744839367}, {"id": "5CXWAMF6RsmDg5MFMpMkCg", "alias": "romans-restaurant-and-ccuchifritos-pittsfield", "name": "Romans Restaurant and Ccuchifritos", "image_url": "https://s3-media1.fl.yelpcdn.com/bphoto/EE3xiWqHbUl5Ou_W3H1SBg/o.jpg", "is_closed": false, "url": "https://www.yelp.com/biz/romans-restaurant-and-ccuchifritos-pittsfield?adjust_creative=h5HwbyQ0TYvQjBo6Ys5Bgw&utm_campaign=yelp_api_v3&utm_medium=api_v3_business_search&utm_source=h5HwbyQ0TYvQjBo6Ys5Bgw", "review_count": 7, "categories": [{"alias": "puertorican", "title": "Puerto Rican"}, {"alias": "salad", "title": "Salad"}], "rating": 3.5, "coordinates": {"latitude": 42.4570997226981, "longitude": -73.2401690259576}, "transactions": ["pickup", "delivery"], "location": {"address1": "496 Tyler St", "address2": "", "address3": null, "city": "Pittsfield", "zip_code": "01201", "country": "US", "state": "MA", "display_address": ["496 Tyler St", "Pittsfield, MA 01201"]}, "phone": "+14133449166", "display_phone": "(413) 344-9166", "distance": 13704.633382438882}, {"id": "MA2NlasKq1PYg-qeLqC-PA", "alias": "samels-deli-and-catering-pittsfield", "name": "Samel's Deli and Catering", "image_url": "https://s3-media4.fl.yelpcdn.com/bphoto/gBT6E8fKIo-R5m5Ay6VzRA/o.jpg", "is_closed": false, "url": "https://www.yelp.com/biz/samels-deli-and-catering-pittsfield?adjust_creative=h5HwbyQ0TYvQjBo6Ys5Bgw&utm_campaign=yelp_api_v3&utm_medium=api_v3_business_search&utm_source=h5HwbyQ0TYvQjBo6Ys5Bgw", "review_count": 11, "categories": [{"alias": "delis", "title": "Delis"}], "rating": 4.0, "coordinates": {"latitude": 42.4447784, "longitude": -73.2409363}, "transactions": ["delivery"], "price": "$", "location": {"address1": "115 Elm St", "address2": "", "address3": "", "city": "Pittsfield", "zip_code": "01201", "country": "US", "state": "MA", "display_address": ["115 Elm St", "Pittsfield, MA 01201"]}, "phone": "+14134425927", "display_phone": "(413) 442-5927", "distance": 13548.679712323566}, {"id": "Ih_1dL1e_GcnZMCIzyWPxw", "alias": "river-dale-market-and-deli-lenox-dale", "name": "River Dale Market and Deli", "image_url": "https://s3-media4.fl.yelpcdn.com/bphoto/MTcXOfPq309gYnidVS3QMA/o.jpg", "is_closed": false, "url": "https://www.yelp.com/biz/river-dale-market-and-deli-lenox-dale?adjust_creative=h5HwbyQ0TYvQjBo6Ys5Bgw&utm_campaign=yelp_api_v3&utm_medium=api_v3_business_search&utm_source=h5HwbyQ0TYvQjBo6Ys5Bgw", "review_count": 1, "categories": [{"alias": "delis", "title": "Delis"}, {"alias": "convenience", "title": "Convenience Stores"}, {"alias": "meats", "title": "Meat Shops"}], "rating": 5.0, "coordinates": {"latitude": 42.33335, "longitude": -73.24598}, "transactions": [], "location": {"address1": "2 Crystal St", "address2": null, "address3": "", "city": "Lenox Dale", "zip_code": "01242", "country": "US", "state": "MA", "display_address": ["2 Crystal St", "Lenox Dale, MA 01242"]}, "phone": "+14138814136", "display_phone": "(413) 881-4136", "distance": 17625.557145881572}, {"id": "5drtlSos0Ek4-IvUn3vtVg", "alias": "marias-european-delights-pittsfield", "name": "Maria's European Delights", "image_url": "https://s3-media1.fl.yelpcdn.com/bphoto/T-OcmgD59df0jO7GerM3Cw/o.jpg", "is_closed": false, "url": "https://www.yelp.com/biz/marias-european-delights-pittsfield?adjust_creative=h5HwbyQ0TYvQjBo6Ys5Bgw&utm_campaign=yelp_api_v3&utm_medium=api_v3_business_search&utm_source=h5HwbyQ0TYvQjBo6Ys5Bgw", "review_count": 8, "categories": [{"alias": "delis", "title": "Delis"}, {"alias": "grocery", "title": "Grocery"}], "rating": 5.0, "coordinates": {"latitude": 42.450717, "longitude": -73.2527099}, "transactions": ["delivery"], "location": {"address1": "146 North St", "address2": "", "address3": "", "city": "Pittsfield", "zip_code": "01201", "country": "US", "state": "MA", "display_address": ["146 North St", "Pittsfield, MA 01201"]}, "phone": "+14134425100", "display_phone": "(413) 442-5100", "distance": 14589.363068485713}, {"id": "K7vJzL3zCvO2n8aXPts8xA", "alias": "golden-phoenix-pittsfield", "name": "Golden Phoenix", "image_url": "https://s3-media2.fl.yelpcdn.com/bphoto/Aew6caOCMiJ39AAAVxjO2Q/o.jpg", "is_closed": false, "url": "https://www.yelp.com/biz/golden-phoenix-pittsfield?adjust_creative=h5HwbyQ0TYvQjBo6Ys5Bgw&utm_campaign=yelp_api_v3&utm_medium=api_v3_business_search&utm_source=h5HwbyQ0TYvQjBo6Ys5Bgw", "review_count": 17, "categories": [{"alias": "chinese", "title": "Chinese"}], "rating": 3.5, "coordinates": {"latitude": 42.4550904, "longitude": -73.2521456}, "transactions": ["delivery"], "price": "$", "location": {"address1": "445 North St", "address2": null, "address3": null, "city": "Pittsfield", "zip_code": "01201", "country": "US", "state": "MA", "display_address": ["445 North St", "Pittsfield, MA 01201"]}, "phone": "+14132368688", "display_phone": "(413) 236-8688", "distance": 14624.255287769836}, {"id": "jDuxiHujWqUpUsDraF7Otg", "alias": "berkshire-mountain-bakery-pizza-cafe-pittsfield-4", "name": "Berkshire Mountain Bakery Pizza Cafe", "image_url": "https://s3-media3.fl.yelpcdn.com/bphoto/ZoSISihxrgNQ0WaPpTgKUA/o.jpg", "is_closed": false, "url": "https://www.yelp.com/biz/berkshire-mountain-bakery-pizza-cafe-pittsfield-4?adjust_creative=h5HwbyQ0TYvQjBo6Ys5Bgw&utm_campaign=yelp_api_v3&utm_medium=api_v3_business_search&utm_source=h5HwbyQ0TYvQjBo6Ys5Bgw", "review_count": 60, "categories": [{"alias": "pizza", "title": "Pizza"}, {"alias": "bakeries", "title": "Bakeries"}, {"alias": "vegan", "title": "Vegan"}], "rating": 4.0, "coordinates": {"latitude": 42.4430597991196, "longitude": -73.2378399823491}, "transactions": ["delivery"], "price": "$", "location": {"address1": "180 Elm St", "address2": "Ste A", "address3": "", "city": "Pittsfield", "zip_code": "01201", "country": "US", "state": "MA", "display_address": ["180 Elm St", "Ste A", "Pittsfield, MA 01201"]}, "phone": "+14134649394", "display_phone": "(413) 464-9394", "distance": 13272.277401377027}, {"id": "iJzH7sbo1H7VWWLSVjzxrw", "alias": "new-england-wraps-lee", "name": "New England Wraps", "image_url": "https://s3-media3.fl.yelpcdn.com/bphoto/8kEwgGyDR5LV_fR8krxaNg/o.jpg", "is_closed": false, "url": "https://www.yelp.com/biz/new-england-wraps-lee?adjust_creative=h5HwbyQ0TYvQjBo6Ys5Bgw&utm_campaign=yelp_api_v3&utm_medium=api_v3_business_search&utm_source=h5HwbyQ0TYvQjBo6Ys5Bgw", "review_count": 1, "categories": [{"alias": "wraps", "title": "Wraps"}, {"alias": "burgers", "title": "Burgers"}, {"alias": "sandwiches", "title": "Sandwiches"}], "rating": 5.0, "coordinates": {"latitude": 42.305738, "longitude": -73.249225}, "transactions": ["pickup", "delivery"], "location": {"address1": "62 Main St", "address2": null, "address3": null, "city": "Lee", "zip_code": "01238", "country": "US", "state": "MA", "display_address": ["62 Main St", "Lee, MA 01238"]}, "phone": "+14133944081", "display_phone": "(413) 394-4081", "distance": 19868.34807106256}, {"id": "hXSi6voU0mmcyr0SHHbSVQ", "alias": "joel-s-hot-dog-cart-lenox", "name": "Joel\u2019s Hot Dog Cart", "image_url": "https://s3-media4.fl.yelpcdn.com/bphoto/B8jFXBhCnKV2H_PVdL8TsQ/o.jpg", "is_closed": false, "url": "https://www.yelp.com/biz/joel-s-hot-dog-cart-lenox?adjust_creative=h5HwbyQ0TYvQjBo6Ys5Bgw&utm_campaign=yelp_api_v3&utm_medium=api_v3_business_search&utm_source=h5HwbyQ0TYvQjBo6Ys5Bgw", "review_count": 2, "categories": [{"alias": "hotdog", "title": "Hot Dogs"}, {"alias": "streetvendors", "title": "Street Vendors"}], "rating": 5.0, "coordinates": {"latitude": 42.36819, "longitude": -73.28831}, "transactions": [], "location": {"address1": "", "address2": "", "address3": null, "city": "Lenox", "zip_code": "01240", "country": "US", "state": "MA", "display_address": ["Lenox, MA 01240"]}, "phone": "", "display_phone": "", "distance": 16756.126535472333}, {"id": "0VAkYUcPyFvhr62FVzbpZg", "alias": "99-restaurants-pittsfield-2", "name": "99 Restaurants", "image_url": "https://s3-media3.fl.yelpcdn.com/bphoto/mKSEJrY9DvPWBM9rtWzllQ/o.jpg", "is_closed": false, "url": "https://www.yelp.com/biz/99-restaurants-pittsfield-2?adjust_creative=h5HwbyQ0TYvQjBo6Ys5Bgw&utm_campaign=yelp_api_v3&utm_medium=api_v3_business_search&utm_source=h5HwbyQ0TYvQjBo6Ys5Bgw", "review_count": 31, "categories": [{"alias": "tradamerican", "title": "American (Traditional)"}, {"alias": "seafood", "title": "Seafood"}, {"alias": "pubs", "title": "Pubs"}], "rating": 2.5, "coordinates": {"latitude": 42.4663972, "longitude": -73.2058286}, "transactions": [], "price": "$$", "location": {"address1": "609 Merrill Rd", "address2": "", "address3": "", "city": "Pittsfield", "zip_code": "01201", "country": "US", "state": "MA", "display_address": ["609 Merrill Rd", "Pittsfield, MA 01201"]}, "phone": "+14132360980", "display_phone": "(413) 236-0980", "distance": 11283.750741251954}, {"id": "u4dQZNZnZ_POC9FF3uL3AQ", "alias": "joannes-elm-street-luncheonette-pittsfield", "name": "Joanne's Elm Street Luncheonette", "image_url": "https://s3-media1.fl.yelpcdn.com/bphoto/rbQzISlzuLPsWIW2CHIdoQ/o.jpg", "is_closed": false, "url": "https://www.yelp.com/biz/joannes-elm-street-luncheonette-pittsfield?adjust_creative=h5HwbyQ0TYvQjBo6Ys5Bgw&utm_campaign=yelp_api_v3&utm_medium=api_v3_business_search&utm_source=h5HwbyQ0TYvQjBo6Ys5Bgw", "review_count": 7, "categories": [{"alias": "diners", "title": "Diners"}, {"alias": "breakfast_brunch", "title": "Breakfast & Brunch"}], "rating": 4.5, "coordinates": {"latitude": 42.4444, "longitude": -73.2403099}, "transactions": [], "location": {"address1": "123 Elm St", "address2": "", "address3": "", "city": "Pittsfield", "zip_code": "01201", "country": "US", "state": "MA", "display_address": ["123 Elm St", "Pittsfield, MA 01201"]}, "phone": "+14134479375", "display_phone": "(413) 447-9375", "distance": 13519.148701595885}, {"id": "WA3AjbPkZAy1V5ytokIrAQ", "alias": "hot-dog-ranch-pittsfield", "name": "Hot Dog Ranch", "image_url": "https://s3-media1.fl.yelpcdn.com/bphoto/S_hO2aJxj2YR4ZkjRCycJQ/o.jpg", "is_closed": false, "url": "https://www.yelp.com/biz/hot-dog-ranch-pittsfield?adjust_creative=h5HwbyQ0TYvQjBo6Ys5Bgw&utm_campaign=yelp_api_v3&utm_medium=api_v3_business_search&utm_source=h5HwbyQ0TYvQjBo6Ys5Bgw", "review_count": 43, "categories": [{"alias": "hotdog", "title": "Hot Dogs"}], "rating": 3.5, "coordinates": {"latitude": 42.4441632, "longitude": -73.2606906}, "transactions": ["delivery"], "price": "$", "location": {"address1": "114 W Housatonic St", "address2": "", "address3": "", "city": "Pittsfield", "zip_code": "01201", "country": "US", "state": "MA", "display_address": ["114 W Housatonic St", "Pittsfield, MA 01201"]}, "phone": "+14134990055", "display_phone": "(413) 499-0055", "distance": 15150.31213413575}, {"id": "oLaERtmDsjb6EUhEavOPWA", "alias": "angelinas-submarine-shops-dalton", "name": "Angelina's Submarine Shops", "image_url": "https://s3-media1.fl.yelpcdn.com/bphoto/lxov5wUSXOSsWqD-VHgOVQ/o.jpg", "is_closed": false, "url": "https://www.yelp.com/biz/angelinas-submarine-shops-dalton?adjust_creative=h5HwbyQ0TYvQjBo6Ys5Bgw&utm_campaign=yelp_api_v3&utm_medium=api_v3_business_search&utm_source=h5HwbyQ0TYvQjBo6Ys5Bgw", "review_count": 15, "categories": [{"alias": "sandwiches", "title": "Sandwiches"}], "rating": 3.5, "coordinates": {"latitude": 42.47359, "longitude": -73.16254}, "transactions": ["pickup", "delivery"], "price": "$", "location": {"address1": "657 Main St", "address2": "", "address3": "", "city": "Dalton", "zip_code": "01226", "country": "US", "state": "MA", "display_address": ["657 Main St", "Dalton, MA 01226"]}, "phone": "+14136841178", "display_phone": "(413) 684-1178", "distance": 8470.300930163994}, {"id": "WpkbEYbNkC252tMTmhFAKg", "alias": "chilis-pittsfield", "name": "Chili's", "image_url": "https://s3-media2.fl.yelpcdn.com/bphoto/Jm4gEu-XCkmcC5Fql-XDTA/o.jpg", "is_closed": false, "url": "https://www.yelp.com/biz/chilis-pittsfield?adjust_creative=h5HwbyQ0TYvQjBo6Ys5Bgw&utm_campaign=yelp_api_v3&utm_medium=api_v3_business_search&utm_source=h5HwbyQ0TYvQjBo6Ys5Bgw", "review_count": 20, "categories": [{"alias": "tex-mex", "title": "Tex-Mex"}, {"alias": "bars", "title": "Bars"}, {"alias": "tradamerican", "title": "American (Traditional)"}], "rating": 2.5, "coordinates": {"latitude": 42.46652, "longitude": -73.19619}, "transactions": [], "location": {"address1": "555 Hubbard Ave", "address2": "", "address3": null, "city": "Pittsfield", "zip_code": "01201", "country": "US", "state": "MA", "display_address": ["555 Hubbard Ave", "Pittsfield, MA 01201"]}, "phone": "", "display_phone": "", "distance": 10722.616662599528}, {"id": "6VWXDm7k3-iPfm0cArdRdA", "alias": "athenas-restaurant-and-pizzeria-lee", "name": "Athena's Restaurant & Pizzeria", "image_url": "https://s3-media1.fl.yelpcdn.com/bphoto/CAFnvS_aLKojUvTSKoM3RQ/o.jpg", "is_closed": false, "url": "https://www.yelp.com/biz/athenas-restaurant-and-pizzeria-lee?adjust_creative=h5HwbyQ0TYvQjBo6Ys5Bgw&utm_campaign=yelp_api_v3&utm_medium=api_v3_business_search&utm_source=h5HwbyQ0TYvQjBo6Ys5Bgw", "review_count": 40, "categories": [{"alias": "italian", "title": "Italian"}, {"alias": "burgers", "title": "Burgers"}, {"alias": "mediterranean", "title": "Mediterranean"}], "rating": 2.5, "coordinates": {"latitude": 42.303675, "longitude": -73.245625}, "transactions": [], "price": "$", "location": {"address1": "30 Housatonic St", "address2": "", "address3": "", "city": "Lee", "zip_code": "01238", "country": "US", "state": "MA", "display_address": ["30 Housatonic St", "Lee, MA 01238"]}, "phone": "+14132431215", "display_phone": "(413) 243-1215", "distance": 19812.907264811725}, {"id": "afkdEqotY1dwKcwNsjK3xQ", "alias": "portsmitts-pittsfield", "name": "PortSmitt's", "image_url": "", "is_closed": false, "url": "https://www.yelp.com/biz/portsmitts-pittsfield?adjust_creative=h5HwbyQ0TYvQjBo6Ys5Bgw&utm_campaign=yelp_api_v3&utm_medium=api_v3_business_search&utm_source=h5HwbyQ0TYvQjBo6Ys5Bgw", "review_count": 8, "categories": [{"alias": "tradamerican", "title": "American (Traditional)"}, {"alias": "bars", "title": "Bars"}], "rating": 3.5, "coordinates": {"latitude": 42.47639, "longitude": -73.26546}, "transactions": ["delivery"], "price": "$$$", "location": {"address1": "370 Pecks Rd", "address2": "", "address3": "", "city": "Pittsfield", "zip_code": "01201", "country": "US", "state": "MA", "display_address": ["370 Pecks Rd", "Pittsfield, MA 01201"]}, "phone": "+14132365727", "display_phone": "(413) 236-5727", "distance": 16266.254256444825}, {"id": "hMY9WV4Z8BKgIWwHgnL01g", "alias": "applebees-grill-bar-pittsfield", "name": "Applebee's Grill + Bar", "image_url": "https://s3-media3.fl.yelpcdn.com/bphoto/lcgH8oFDmmaKXUDt_OBFfg/o.jpg", "is_closed": false, "url": "https://www.yelp.com/biz/applebees-grill-bar-pittsfield?adjust_creative=h5HwbyQ0TYvQjBo6Ys5Bgw&utm_campaign=yelp_api_v3&utm_medium=api_v3_business_search&utm_source=h5HwbyQ0TYvQjBo6Ys5Bgw", "review_count": 29, "categories": [{"alias": "tradamerican", "title": "American (Traditional)"}, {"alias": "sportsbars", "title": "Sports Bars"}, {"alias": "burgers", "title": "Burgers"}], "rating": 2.5, "coordinates": {"latitude": 42.468614, "longitude": -73.198755}, "transactions": [], "price": "$$", "location": {"address1": "555 Hubbard Ave", "address2": "Berkshire Crossing Shopping Center", "address3": "", "city": "Pittsfield", "zip_code": "01201", "country": "US", "state": "MA", "display_address": ["555 Hubbard Ave", "Berkshire Crossing Shopping Center", "Pittsfield, MA 01201"]}, "phone": "+14134995157", "display_phone": "(413) 499-5157", "distance": 10834.257479714142}, {"id": "tGwILqB7e6xVa9GcreUsWQ", "alias": "southern-comfort-pittsfield", "name": "Southern Comfort", "image_url": "https://s3-media2.fl.yelpcdn.com/bphoto/_SyNRL6fJf9qm7jR8Y_55A/o.jpg", "is_closed": false, "url": "https://www.yelp.com/biz/southern-comfort-pittsfield?adjust_creative=h5HwbyQ0TYvQjBo6Ys5Bgw&utm_campaign=yelp_api_v3&utm_medium=api_v3_business_search&utm_source=h5HwbyQ0TYvQjBo6Ys5Bgw", "review_count": 1, "categories": [{"alias": "southern", "title": "Southern"}, {"alias": "soulfood", "title": "Soul Food"}], "rating": 1.0, "coordinates": {"latitude": 42.4527247428891, "longitude": -73.2609913498163}, "transactions": ["pickup", "delivery"], "location": {"address1": "302 Columbus Ave", "address2": "", "address3": null, "city": "Pittsfield", "zip_code": "01201", "country": "US", "state": "MA", "display_address": ["302 Columbus Ave", "Pittsfield, MA 01201"]}, "phone": "+14134648444", "display_phone": "(413) 464-8444", "distance": 15294.970853578738}, {"id": "WpF2gHsX2rjlTGj-ohGkNA", "alias": "the-garden-grill-and-tavern-lanesborough", "name": "The Garden Grill & Tavern", "image_url": "https://s3-media2.fl.yelpcdn.com/bphoto/hqhdVQJQNlR6bAOyEy9dKg/o.jpg", "is_closed": false, "url": "https://www.yelp.com/biz/the-garden-grill-and-tavern-lanesborough?adjust_creative=h5HwbyQ0TYvQjBo6Ys5Bgw&utm_campaign=yelp_api_v3&utm_medium=api_v3_business_search&utm_source=h5HwbyQ0TYvQjBo6Ys5Bgw", "review_count": 12, "categories": [{"alias": "tradamerican", "title": "American (Traditional)"}], "rating": 2.0, "coordinates": {"latitude": 42.4936729, "longitude": -73.2017712}, "transactions": [], "price": "$$", "location": {"address1": "655 Cheshire Rd", "address2": "", "address3": "Berkshire Mal", "city": "Lanesborough", "zip_code": "01237", "country": "US", "state": "MA", "display_address": ["655 Cheshire Rd", "Berkshire Mal", "Lanesborough, MA 01237"]}, "phone": "+14134455300", "display_phone": "(413) 445-5300", "distance": 12385.948231634893}, {"id": "jkc24FuEbMRC4IMotFup-Q", "alias": "teddys-pizza-and-restaurant-pittsfield", "name": "Teddy's Pizza & Restaurant", "image_url": "https://s3-media2.fl.yelpcdn.com/bphoto/aavh6T-sFHgSGeI-lditeg/o.jpg", "is_closed": false, "url": "https://www.yelp.com/biz/teddys-pizza-and-restaurant-pittsfield?adjust_creative=h5HwbyQ0TYvQjBo6Ys5Bgw&utm_campaign=yelp_api_v3&utm_medium=api_v3_business_search&utm_source=h5HwbyQ0TYvQjBo6Ys5Bgw", "review_count": 10, "categories": [{"alias": "pizza", "title": "Pizza"}], "rating": 3.0, "coordinates": {"latitude": 42.447055, "longitude": -73.243827}, "transactions": ["delivery"], "price": "$$", "location": {"address1": "508 East St", "address2": "", "address3": "", "city": "Pittsfield", "zip_code": "01201", "country": "US", "state": "MA", "display_address": ["508 East St", "Pittsfield, MA 01201"]}, "phone": "+14134439030", "display_phone": "(413) 443-9030", "distance": 13813.157096608795}, {"id": "ix1WhyVc9cWYQExuGrlQDQ", "alias": "vivaldis-pizzeria-lee", "name": "Vivaldi's Pizzeria", "image_url": "https://s3-media1.fl.yelpcdn.com/bphoto/BSFVi2zKRZfkvT4GkrgZzw/o.jpg", "is_closed": false, "url": "https://www.yelp.com/biz/vivaldis-pizzeria-lee?adjust_creative=h5HwbyQ0TYvQjBo6Ys5Bgw&utm_campaign=yelp_api_v3&utm_medium=api_v3_business_search&utm_source=h5HwbyQ0TYvQjBo6Ys5Bgw", "review_count": 27, "categories": [{"alias": "pizza", "title": "Pizza"}], "rating": 3.5, "coordinates": {"latitude": 42.303386, "longitude": -73.247599}, "transactions": ["delivery"], "price": "$$", "location": {"address1": "33 Park Plz", "address2": "", "address3": "", "city": "Lee", "zip_code": "01238", "country": "US", "state": "MA", "display_address": ["33 Park Plz", "Lee, MA 01238"]}, "phone": "+14132434041", "display_phone": "(413) 243-4041", "distance": 19949.55178323921}, {"id": "7V3RX-SPaYFt5aytErDK0g", "alias": "the-red-bucket-sugar-shack-worthington", "name": "The Red Bucket Sugar Shack", "image_url": "https://s3-media4.fl.yelpcdn.com/bphoto/dbHPKnAevuDhxLkRQIYEDw/o.jpg", "is_closed": false, "url": "https://www.yelp.com/biz/the-red-bucket-sugar-shack-worthington?adjust_creative=h5HwbyQ0TYvQjBo6Ys5Bgw&utm_campaign=yelp_api_v3&utm_medium=api_v3_business_search&utm_source=h5HwbyQ0TYvQjBo6Ys5Bgw", "review_count": 9, "categories": [{"alias": "breakfast_brunch", "title": "Breakfast & Brunch"}, {"alias": "tradamerican", "title": "American (Traditional)"}], "rating": 4.0, "coordinates": {"latitude": 42.344486, "longitude": -72.919398}, "transactions": [], "price": "$", "location": {"address1": "584 Kinnebrook Rd", "address2": "", "address3": "", "city": "Worthington", "zip_code": "01098", "country": "US", "state": "MA", "display_address": ["584 Kinnebrook Rd", "Worthington, MA 01098"]}, "phone": "+14132387710", "display_phone": "(413) 238-7710", "distance": 16123.519549693638}, {"id": "Yx5C122X54C6fQOmYskICQ", "alias": "ottos-kitchen-and-comfort-pittsfield-2", "name": "Otto's Kitchen & Comfort", "image_url": "https://s3-media1.fl.yelpcdn.com/bphoto/Dj-vPVgcJL12GvZAaryw7w/o.jpg", "is_closed": false, "url": "https://www.yelp.com/biz/ottos-kitchen-and-comfort-pittsfield-2?adjust_creative=h5HwbyQ0TYvQjBo6Ys5Bgw&utm_campaign=yelp_api_v3&utm_medium=api_v3_business_search&utm_source=h5HwbyQ0TYvQjBo6Ys5Bgw", "review_count": 107, "categories": [{"alias": "breakfast_brunch", "title": "Breakfast & Brunch"}, {"alias": "bars", "title": "Bars"}, {"alias": "tradamerican", "title": "American (Traditional)"}], "rating": 3.0, "coordinates": {"latitude": 42.44834, "longitude": -73.25205}, "transactions": [], "price": "$$", "location": {"address1": "95 East St", "address2": "", "address3": "", "city": "Pittsfield", "zip_code": "01201", "country": "US", "state": "MA", "display_address": ["95 East St", "Pittsfield, MA 01201"]}, "phone": "+14133444748", "display_phone": "(413) 344-4748", "distance": 14492.50232454483}, {"id": "6EQf1-9Jcha2gfDWTU2uCA", "alias": "hibachi-burffet-pittsfield", "name": "Hibachi Burffet", "image_url": "https://s3-media3.fl.yelpcdn.com/bphoto/Hw2AA6MhG3Xdq042h4nifA/o.jpg", "is_closed": false, "url": "https://www.yelp.com/biz/hibachi-burffet-pittsfield?adjust_creative=h5HwbyQ0TYvQjBo6Ys5Bgw&utm_campaign=yelp_api_v3&utm_medium=api_v3_business_search&utm_source=h5HwbyQ0TYvQjBo6Ys5Bgw", "review_count": 12, "categories": [{"alias": "chinese", "title": "Chinese"}], "rating": 3.0, "coordinates": {"latitude": 42.470356, "longitude": -73.2040024}, "transactions": [], "location": {"address1": "61 Cheshire Rd", "address2": "", "address3": "", "city": "Pittsfield", "zip_code": "01201", "country": "US", "state": "MA", "display_address": ["61 Cheshire Rd", "Pittsfield, MA 01201"]}, "phone": "", "display_phone": "", "distance": 11235.91187168986}, {"id": "7eYkLZ4rnX_Fs-de-R5VnA", "alias": "athenas-pizza-house-lee", "name": "Athena's Pizza House", "image_url": "https://s3-media2.fl.yelpcdn.com/bphoto/ej1eFj3hU3ZUFKJBue3MvA/o.jpg", "is_closed": false, "url": "https://www.yelp.com/biz/athenas-pizza-house-lee?adjust_creative=h5HwbyQ0TYvQjBo6Ys5Bgw&utm_campaign=yelp_api_v3&utm_medium=api_v3_business_search&utm_source=h5HwbyQ0TYvQjBo6Ys5Bgw", "review_count": 3, "categories": [{"alias": "pizza", "title": "Pizza"}], "rating": 3.5, "coordinates": {"latitude": 42.303669, "longitude": -73.245622}, "transactions": ["delivery"], "location": {"address1": "30 Housatonic St", "address2": "", "address3": "", "city": "Lee", "zip_code": "01238", "country": "US", "state": "MA", "display_address": ["30 Housatonic St", "Lee, MA 01238"]}, "phone": "+14132431223", "display_phone": "(413) 243-1223", "distance": 19813.212132987603}, {"id": "426aRoowpWia0UcI3Go0SA", "alias": "freddies-place-olde-fashion-soda-shoppe-pittsfield-2", "name": "Freddie's Place Olde Fashion Soda Shoppe", "image_url": "https://s3-media2.fl.yelpcdn.com/bphoto/7zrdAjMwteO_w73oY0zhTA/o.jpg", "is_closed": false, "url": "https://www.yelp.com/biz/freddies-place-olde-fashion-soda-shoppe-pittsfield-2?adjust_creative=h5HwbyQ0TYvQjBo6Ys5Bgw&utm_campaign=yelp_api_v3&utm_medium=api_v3_business_search&utm_source=h5HwbyQ0TYvQjBo6Ys5Bgw", "review_count": 57, "categories": [{"alias": "diners", "title": "Diners"}, {"alias": "breakfast_brunch", "title": "Breakfast & Brunch"}, {"alias": "cafes", "title": "Cafes"}], "rating": 4.5, "coordinates": {"latitude": 42.45002, "longitude": -73.25102}, "transactions": ["delivery"], "price": "$", "location": {"address1": "117 Fenn St", "address2": "", "address3": "", "city": "Pittsfield", "zip_code": "01201", "country": "US", "state": "MA", "display_address": ["117 Fenn St", "Pittsfield, MA 01201"]}, "phone": "+14134992014", "display_phone": "(413) 499-2014", "distance": 14440.957578327541}, {"id": "CoFihDflA9ff6k_s6QgMBA", "alias": "hot-tomatoes-neopolitan-pizza-pittsfield", "name": "Hot Tomatoes Neopolitan Pizza", "image_url": "https://s3-media2.fl.yelpcdn.com/bphoto/wJM9Yhn2QIUQRVFv4JOyCg/o.jpg", "is_closed": false, "url": "https://www.yelp.com/biz/hot-tomatoes-neopolitan-pizza-pittsfield?adjust_creative=h5HwbyQ0TYvQjBo6Ys5Bgw&utm_campaign=yelp_api_v3&utm_medium=api_v3_business_search&utm_source=h5HwbyQ0TYvQjBo6Ys5Bgw", "review_count": 30, "categories": [{"alias": "pizza", "title": "Pizza"}], "rating": 3.5, "coordinates": {"latitude": 42.4569893, "longitude": -73.2392578}, "transactions": ["delivery", "pickup"], "price": "$$", "location": {"address1": "542 Tyler St", "address2": null, "address3": null, "city": "Pittsfield", "zip_code": "01201", "country": "US", "state": "MA", "display_address": ["542 Tyler St", "Pittsfield, MA 01201"]}, "phone": "+14134436500", "display_phone": "(413) 443-6500", "distance": 13630.971960781842}, {"id": "KmMT3zDrNWO4geJzJBjB-A", "alias": "soda-chef-pittsfield", "name": "Soda Chef", "image_url": "https://s3-media1.fl.yelpcdn.com/bphoto/4pDNA59y_wrCPL4AMUVILw/o.jpg", "is_closed": false, "url": "https://www.yelp.com/biz/soda-chef-pittsfield?adjust_creative=h5HwbyQ0TYvQjBo6Ys5Bgw&utm_campaign=yelp_api_v3&utm_medium=api_v3_business_search&utm_source=h5HwbyQ0TYvQjBo6Ys5Bgw", "review_count": 6, "categories": [{"alias": "tradamerican", "title": "American (Traditional)"}, {"alias": "breakfast_brunch", "title": "Breakfast & Brunch"}, {"alias": "diners", "title": "Diners"}], "rating": 4.5, "coordinates": {"latitude": 42.4508553, "longitude": -73.2534561}, "transactions": ["delivery"], "price": "$", "location": {"address1": "161 N St", "address2": "", "address3": "", "city": "Pittsfield", "zip_code": "01201", "country": "US", "state": "MA", "display_address": ["161 N St", "Pittsfield, MA 01201"]}, "phone": "+14134479401", "display_phone": "(413) 447-9401", "distance": 14570.564232761211}, {"id": "44ajIWovMHN8UsBPLWw1GQ", "alias": "johnnies-variety-store-pittsfield", "name": "Johnnies Variety Store", "image_url": "", "is_closed": false, "url": "https://www.yelp.com/biz/johnnies-variety-store-pittsfield?adjust_creative=h5HwbyQ0TYvQjBo6Ys5Bgw&utm_campaign=yelp_api_v3&utm_medium=api_v3_business_search&utm_source=h5HwbyQ0TYvQjBo6Ys5Bgw", "review_count": 2, "categories": [{"alias": "delis", "title": "Delis"}], "rating": 4.0, "coordinates": {"latitude": 42.47631, "longitude": -73.26539}, "transactions": [], "location": {"address1": "370 Pecks Rd", "address2": "", "address3": "", "city": "Pittsfield", "zip_code": "01201", "country": "US", "state": "MA", "display_address": ["370 Pecks Rd", "Pittsfield, MA 01201"]}, "phone": "+14134991960", "display_phone": "(413) 499-1960", "distance": 16266.254256444825}, {"id": "p-HyVSwogxhHQs8xJ-t9vQ", "alias": "the-starving-artist-creperie-and-cafe-lee", "name": "The Starving Artist Creperie and Cafe", "image_url": "https://s3-media1.fl.yelpcdn.com/bphoto/HQIOZG95zR30GCSYkwInNw/o.jpg", "is_closed": false, "url": "https://www.yelp.com/biz/the-starving-artist-creperie-and-cafe-lee?adjust_creative=h5HwbyQ0TYvQjBo6Ys5Bgw&utm_campaign=yelp_api_v3&utm_medium=api_v3_business_search&utm_source=h5HwbyQ0TYvQjBo6Ys5Bgw", "review_count": 204, "categories": [{"alias": "creperies", "title": "Creperies"}, {"alias": "cafes", "title": "Cafes"}], "rating": 4.0, "coordinates": {"latitude": 42.30504, "longitude": -73.24892}, "transactions": ["delivery"], "price": "$$", "location": {"address1": "40 Main St", "address2": "Ste 2", "address3": "", "city": "Lee", "zip_code": "01238", "country": "US", "state": "MA", "display_address": ["40 Main St", "Ste 2", "Lee, MA 01238"]}, "phone": "+14133945046", "display_phone": "(413) 394-5046", "distance": 19875.629512063293}, {"id": "z0vWz6V94oaz4v9rKh3zdA", "alias": "bobs-country-kitchen-lanesborough", "name": "Bob's Country Kitchen", "image_url": "https://s3-media4.fl.yelpcdn.com/bphoto/Q6sjTVlnOlV8cLvEYUYeWQ/o.jpg", "is_closed": false, "url": "https://www.yelp.com/biz/bobs-country-kitchen-lanesborough?adjust_creative=h5HwbyQ0TYvQjBo6Ys5Bgw&utm_campaign=yelp_api_v3&utm_medium=api_v3_business_search&utm_source=h5HwbyQ0TYvQjBo6Ys5Bgw", "review_count": 84, "categories": [{"alias": "breakfast_brunch", "title": "Breakfast & Brunch"}, {"alias": "diners", "title": "Diners"}], "rating": 3.5, "coordinates": {"latitude": 42.51619, "longitude": -73.22827}, "transactions": [], "price": "$$", "location": {"address1": "42 S Main St", "address2": "", "address3": "", "city": "Lanesborough", "zip_code": "01237", "country": "US", "state": "MA", "display_address": ["42 S Main St", "Lanesborough, MA 01237"]}, "phone": "+14134993934", "display_phone": "(413) 499-3934", "distance": 15599.172835153706}, {"id": "fOEP_20-oZ-bihof_jQdJA", "alias": "papa-joes-ristorante-and-pizzeria-pittsfield", "name": "Papa Joe's Ristorante & Pizzeria", "image_url": "https://s3-media2.fl.yelpcdn.com/bphoto/GO3SKfNXtnlcrEf1nQZ75g/o.jpg", "is_closed": false, "url": "https://www.yelp.com/biz/papa-joes-ristorante-and-pizzeria-pittsfield?adjust_creative=h5HwbyQ0TYvQjBo6Ys5Bgw&utm_campaign=yelp_api_v3&utm_medium=api_v3_business_search&utm_source=h5HwbyQ0TYvQjBo6Ys5Bgw", "review_count": 25, "categories": [{"alias": "pizza", "title": "Pizza"}, {"alias": "italian", "title": "Italian"}], "rating": 3.5, "coordinates": {"latitude": 42.4464302062988, "longitude": -73.2355728149414}, "transactions": ["delivery", "pickup"], "price": "$$", "location": {"address1": "107 Newell St", "address2": "", "address3": "", "city": "Pittsfield", "zip_code": "01201", "country": "US", "state": "MA", "display_address": ["107 Newell St", "Pittsfield, MA 01201"]}, "phone": "+14134427272", "display_phone": "(413) 442-7272", "distance": 13129.600804274398}, {"id": "wxQ4WF6IOxObxPXJM6AlYw", "alias": "misty-moonlight-diner-pittsfield", "name": "Misty Moonlight Diner", "image_url": "https://s3-media1.fl.yelpcdn.com/bphoto/HxRE5Va6F7N8hV8WYBNU2A/o.jpg", "is_closed": false, "url": "https://www.yelp.com/biz/misty-moonlight-diner-pittsfield?adjust_creative=h5HwbyQ0TYvQjBo6Ys5Bgw&utm_campaign=yelp_api_v3&utm_medium=api_v3_business_search&utm_source=h5HwbyQ0TYvQjBo6Ys5Bgw", "review_count": 49, "categories": [{"alias": "diners", "title": "Diners"}], "rating": 3.5, "coordinates": {"latitude": 42.4656219482422, "longitude": -73.2095642089844}, "transactions": ["delivery"], "price": "$$", "location": {"address1": "565 Dalton Ave", "address2": "", "address3": "", "city": "Pittsfield", "zip_code": "01201", "country": "US", "state": "MA", "display_address": ["565 Dalton Ave", "Pittsfield, MA 01201"]}, "phone": "+14134992483", "display_phone": "(413) 499-2483", "distance": 11542.06484903622}, {"id": "EVGrHXuAo1bPFzs187TqDA", "alias": "wyndhurst-restaurant-at-cranwell-lenox-2", "name": "Wyndhurst Restaurant At Cranwell", "image_url": "https://s3-media3.fl.yelpcdn.com/bphoto/7WxPFjXNfs5lkNKvGBV2uA/o.jpg", "is_closed": false, "url": "https://www.yelp.com/biz/wyndhurst-restaurant-at-cranwell-lenox-2?adjust_creative=h5HwbyQ0TYvQjBo6Ys5Bgw&utm_campaign=yelp_api_v3&utm_medium=api_v3_business_search&utm_source=h5HwbyQ0TYvQjBo6Ys5Bgw", "review_count": 12, "categories": [{"alias": "coffee", "title": "Coffee & Tea"}, {"alias": "breakfast_brunch", "title": "Breakfast & Brunch"}, {"alias": "buffets", "title": "Buffets"}], "rating": 3.5, "coordinates": {"latitude": 42.33985, "longitude": -73.265758}, "transactions": ["delivery"], "price": "$$$", "location": {"address1": "55 Lee Rd", "address2": "", "address3": "", "city": "Lenox", "zip_code": "01240", "country": "US", "state": "MA", "display_address": ["55 Lee Rd", "Lenox, MA 01240"]}, "phone": "+14136371364", "display_phone": "(413) 637-1364", "distance": 18527.372085579966}, {"id": "UpGxqkYYWLe3aXvHAaA6iw", "alias": "sloanes-restaurant-and-bar-lenox-2", "name": "Sloane's Restaurant & Bar", "image_url": "https://s3-media4.fl.yelpcdn.com/bphoto/pbN3999sshy1WyjCSu4A2w/o.jpg", "is_closed": false, "url": "https://www.yelp.com/biz/sloanes-restaurant-and-bar-lenox-2?adjust_creative=h5HwbyQ0TYvQjBo6Ys5Bgw&utm_campaign=yelp_api_v3&utm_medium=api_v3_business_search&utm_source=h5HwbyQ0TYvQjBo6Ys5Bgw", "review_count": 21, "categories": [{"alias": "salad", "title": "Salad"}, {"alias": "tradamerican", "title": "American (Traditional)"}, {"alias": "sandwiches", "title": "Sandwiches"}], "rating": 2.5, "coordinates": {"latitude": 42.34162, "longitude": -73.26428}, "transactions": [], "price": "$$", "location": {"address1": "55 Lee Rd", "address2": "", "address3": "", "city": "Lenox", "zip_code": "01240", "country": "US", "state": "MA", "display_address": ["55 Lee Rd", "Lenox, MA 01240"]}, "phone": "+14136371364", "display_phone": "(413) 637-1364", "distance": 18208.792296519005}, {"id": "Y1LHCbMdBzHUx6B329tNaQ", "alias": "on-a-roll-cafe-lenox-2", "name": "On A Roll Cafe", "image_url": "https://s3-media4.fl.yelpcdn.com/bphoto/R1T8Rd17eqVqxVcingGhXg/o.jpg", "is_closed": false, "url": "https://www.yelp.com/biz/on-a-roll-cafe-lenox-2?adjust_creative=h5HwbyQ0TYvQjBo6Ys5Bgw&utm_campaign=yelp_api_v3&utm_medium=api_v3_business_search&utm_source=h5HwbyQ0TYvQjBo6Ys5Bgw", "review_count": 53, "categories": [{"alias": "cafes", "title": "Cafes"}, {"alias": "breakfast_brunch", "title": "Breakfast & Brunch"}], "rating": 4.0, "coordinates": {"latitude": 42.377329, "longitude": -73.278509}, "transactions": ["delivery"], "price": "$", "location": {"address1": "55 Pittsfield Rd", "address2": "", "address3": "", "city": "Lenox", "zip_code": "01240", "country": "US", "state": "MA", "display_address": ["55 Pittsfield Rd", "Lenox, MA 01240"]}, "phone": "+14136379544", "display_phone": "(413) 637-9544", "distance": 17594.230090126264}, {"id": "CpZElk-i1bCuyEU_jTOazg", "alias": "piece-o-pizza-pittsfield", "name": "Piece O'pizza", "image_url": "", "is_closed": false, "url": "https://www.yelp.com/biz/piece-o-pizza-pittsfield?adjust_creative=h5HwbyQ0TYvQjBo6Ys5Bgw&utm_campaign=yelp_api_v3&utm_medium=api_v3_business_search&utm_source=h5HwbyQ0TYvQjBo6Ys5Bgw", "review_count": 1, "categories": [{"alias": "pizza", "title": "Pizza"}], "rating": 5.0, "coordinates": {"latitude": 42.4760894775391, "longitude": -73.2444534301758}, "transactions": [], "location": {"address1": "1206 North St", "address2": "", "address3": "", "city": "Pittsfield", "zip_code": "01201", "country": "US", "state": "MA", "display_address": ["1206 North St", "Pittsfield, MA 01201"]}, "phone": "+14134996567", "display_phone": "(413) 499-6567", "distance": 14631.747205768435}, {"id": "KXZDBNqwIsntbGrAiVDVuQ", "alias": "pizza-house-pittsfield", "name": "Pizza House", "image_url": "https://s3-media3.fl.yelpcdn.com/bphoto/bjKPkzRWO93QKXT7Pcf12w/o.jpg", "is_closed": false, "url": "https://www.yelp.com/biz/pizza-house-pittsfield?adjust_creative=h5HwbyQ0TYvQjBo6Ys5Bgw&utm_campaign=yelp_api_v3&utm_medium=api_v3_business_search&utm_source=h5HwbyQ0TYvQjBo6Ys5Bgw", "review_count": 13, "categories": [{"alias": "pizza", "title": "Pizza"}], "rating": 4.0, "coordinates": {"latitude": 42.4565597, "longitude": -73.2365501}, "transactions": ["delivery"], "price": "$$", "location": {"address1": "692 Tyler St", "address2": "", "address3": "", "city": "Pittsfield", "zip_code": "01201", "country": "US", "state": "MA", "display_address": ["692 Tyler St", "Pittsfield, MA 01201"]}, "phone": "+14134991842", "display_phone": "(413) 499-1842", "distance": 13402.297982938537}, {"id": "YbAhWTAlPjBbxFb8Lp84fg", "alias": "daddyos-diner-pittsfield", "name": "Daddyo's Diner", "image_url": "https://s3-media4.fl.yelpcdn.com/bphoto/xU3zkFM1AR3dxOo3kMoIpQ/o.jpg", "is_closed": false, "url": "https://www.yelp.com/biz/daddyos-diner-pittsfield?adjust_creative=h5HwbyQ0TYvQjBo6Ys5Bgw&utm_campaign=yelp_api_v3&utm_medium=api_v3_business_search&utm_source=h5HwbyQ0TYvQjBo6Ys5Bgw", "review_count": 21, "categories": [{"alias": "diners", "title": "Diners"}], "rating": 3.5, "coordinates": {"latitude": 42.447735, "longitude": -73.244076}, "transactions": [], "price": "$", "location": {"address1": "505 East St", "address2": null, "address3": null, "city": "Pittsfield", "zip_code": "01201", "country": "US", "state": "MA", "display_address": ["505 East St", "Pittsfield, MA 01201"]}, "phone": "+14134991180", "display_phone": "(413) 499-1180", "distance": 13836.710330731948}, {"id": "PXjxZjO1oGol0bsaDNmV-Q", "alias": "sen-sushi-pittsfield", "name": "Sen Sushi", "image_url": "https://s3-media3.fl.yelpcdn.com/bphoto/O8cbrAl2zzXQqee_3SGYqw/o.jpg", "is_closed": false, "url": "https://www.yelp.com/biz/sen-sushi-pittsfield?adjust_creative=h5HwbyQ0TYvQjBo6Ys5Bgw&utm_campaign=yelp_api_v3&utm_medium=api_v3_business_search&utm_source=h5HwbyQ0TYvQjBo6Ys5Bgw", "review_count": 8, "categories": [{"alias": "sushi", "title": "Sushi Bars"}, {"alias": "japanese", "title": "Japanese"}], "rating": 4.0, "coordinates": {"latitude": 42.4490299853721, "longitude": -73.2536453621473}, "transactions": ["delivery"], "location": {"address1": "48B N St", "address2": "", "address3": null, "city": "Pittsfield", "zip_code": "01201", "country": "US", "state": "MA", "display_address": ["48B N St", "Pittsfield, MA 01201"]}, "phone": "+14132368111", "display_phone": "(413) 236-8111", "distance": 14638.603077399937}, {"id": "3HkWPWkC_kvP9Px_5B29nQ", "alias": "arizona-pizza-lenox", "name": "Arizona Pizza", "image_url": "https://s3-media1.fl.yelpcdn.com/bphoto/9XD2XuqDIzrOtLI7HTVVQw/o.jpg", "is_closed": false, "url": "https://www.yelp.com/biz/arizona-pizza-lenox?adjust_creative=h5HwbyQ0TYvQjBo6Ys5Bgw&utm_campaign=yelp_api_v3&utm_medium=api_v3_business_search&utm_source=h5HwbyQ0TYvQjBo6Ys5Bgw", "review_count": 75, "categories": [{"alias": "pizza", "title": "Pizza"}], "rating": 2.5, "coordinates": {"latitude": 42.39851, "longitude": -73.2684699}, "transactions": ["delivery", "pickup"], "price": "$$", "location": {"address1": "395 Pittsfield Rd", "address2": "", "address3": "", "city": "Lenox", "zip_code": "01240", "country": "US", "state": "MA", "display_address": ["395 Pittsfield Rd", "Lenox, MA 01240"]}, "phone": "+14134429746", "display_phone": "(413) 442-9746", "distance": 16131.553229697247}, {"id": "2rez1KJoNcibotK8dE_4nw", "alias": "thats-a-wrap-pittsfield", "name": "That's A Wrap!", "image_url": "https://s3-media3.fl.yelpcdn.com/bphoto/Cp5STveYdxejvoibdbXhmg/o.jpg", "is_closed": false, "url": "https://www.yelp.com/biz/thats-a-wrap-pittsfield?adjust_creative=h5HwbyQ0TYvQjBo6Ys5Bgw&utm_campaign=yelp_api_v3&utm_medium=api_v3_business_search&utm_source=h5HwbyQ0TYvQjBo6Ys5Bgw", "review_count": 1, "categories": [{"alias": "salad", "title": "Salad"}, {"alias": "sandwiches", "title": "Sandwiches"}], "rating": 5.0, "coordinates": {"latitude": 42.4571592360735, "longitude": -73.2398226857185}, "transactions": ["delivery"], "location": {"address1": "496 Tyler St", "address2": null, "address3": null, "city": "Pittsfield", "zip_code": "01201", "country": "US", "state": "MA", "display_address": ["496 Tyler St", "Pittsfield, MA 01201"]}, "phone": "+14134993414", "display_phone": "(413) 499-3414", "distance": 13707.904973063009}, {"id": "ICzaAwlkrhgVYqV_btmzdA", "alias": "hot-harrys-fresh-burritos-pittsfield", "name": "Hot Harry's Fresh Burritos", "image_url": "https://s3-media3.fl.yelpcdn.com/bphoto/5uSvDlT-xZhiwdWLTOiWew/o.jpg", "is_closed": false, "url": "https://www.yelp.com/biz/hot-harrys-fresh-burritos-pittsfield?adjust_creative=h5HwbyQ0TYvQjBo6Ys5Bgw&utm_campaign=yelp_api_v3&utm_medium=api_v3_business_search&utm_source=h5HwbyQ0TYvQjBo6Ys5Bgw", "review_count": 18, "categories": [{"alias": "mexican", "title": "Mexican"}], "rating": 3.0, "coordinates": {"latitude": 42.456347, "longitude": -73.236124}, "transactions": ["delivery"], "price": "$", "location": {"address1": "724 Tyler St", "address2": null, "address3": null, "city": "Pittsfield", "zip_code": "01201", "country": "US", "state": "MA", "display_address": ["724 Tyler St", "Pittsfield, MA 01201"]}, "phone": "+14134482220", "display_phone": "(413) 448-2220", "distance": 13362.606145048678}, {"id": "sVoxGa8_98EdhBZObbZEBA", "alias": "zens-doghouse-lanesboro", "name": "Zen's Doghouse", "image_url": "", "is_closed": false, "url": "https://www.yelp.com/biz/zens-doghouse-lanesboro?adjust_creative=h5HwbyQ0TYvQjBo6Ys5Bgw&utm_campaign=yelp_api_v3&utm_medium=api_v3_business_search&utm_source=h5HwbyQ0TYvQjBo6Ys5Bgw", "review_count": 1, "categories": [{"alias": "newamerican", "title": "American (New)"}], "rating": 3.0, "coordinates": {"latitude": 42.492415, "longitude": -73.202326}, "transactions": [], "location": {"address1": "650 Cheshire Rd", "address2": null, "address3": null, "city": "Lanesboro", "zip_code": "01237", "country": "US", "state": "MA", "display_address": ["650 Cheshire Rd", "Lanesboro, MA 01237"]}, "phone": "+14134993331", "display_phone": "(413) 499-3331", "distance": 12345.78747866992}, {"id": "A7JGLOn_YVRXkbaPpthlzQ", "alias": "east-side-cafe-pittsfield", "name": "East Side Cafe", "image_url": "https://s3-media2.fl.yelpcdn.com/bphoto/YNa8xMKyNtthl8beIWGhfA/o.jpg", "is_closed": false, "url": "https://www.yelp.com/biz/east-side-cafe-pittsfield?adjust_creative=h5HwbyQ0TYvQjBo6Ys5Bgw&utm_campaign=yelp_api_v3&utm_medium=api_v3_business_search&utm_source=h5HwbyQ0TYvQjBo6Ys5Bgw", "review_count": 27, "categories": [{"alias": "italian", "title": "Italian"}, {"alias": "pizza", "title": "Pizza"}], "rating": 3.5, "coordinates": {"latitude": 42.4518555795743, "longitude": -73.2267382570664}, "transactions": ["delivery"], "price": "$", "location": {"address1": "378 Newell St", "address2": "", "address3": "", "city": "Pittsfield", "zip_code": "01201", "country": "US", "state": "MA", "display_address": ["378 Newell St", "Pittsfield, MA 01201"]}, "phone": "+14134479405", "display_phone": "(413) 447-9405", "distance": 12509.158294802512}, {"id": "_UOV6TpTX9oGunNqFNBT0g", "alias": "kellys-diner-pittsfield", "name": "Kelly's Diner", "image_url": "https://s3-media4.fl.yelpcdn.com/bphoto/dPhDpYeK2lP-PD8Qn1iPRA/o.jpg", "is_closed": false, "url": "https://www.yelp.com/biz/kellys-diner-pittsfield?adjust_creative=h5HwbyQ0TYvQjBo6Ys5Bgw&utm_campaign=yelp_api_v3&utm_medium=api_v3_business_search&utm_source=h5HwbyQ0TYvQjBo6Ys5Bgw", "review_count": 30, "categories": [{"alias": "breakfast_brunch", "title": "Breakfast & Brunch"}], "rating": 3.5, "coordinates": {"latitude": 42.467871, "longitude": -73.202713}, "transactions": ["delivery"], "price": "$", "location": {"address1": "860 Dalton Ave", "address2": "", "address3": "", "city": "Pittsfield", "zip_code": "01201", "country": "US", "state": "MA", "display_address": ["860 Dalton Ave", "Pittsfield, MA 01201"]}, "phone": "+14134421875", "display_phone": "(413) 442-1875", "distance": 11103.847621260626}, {"id": "JE7ddPRkUKhgWO0Jmy7xNg", "alias": "china-wok-pittsfield", "name": "China Wok", "image_url": "https://s3-media1.fl.yelpcdn.com/bphoto/jWYAgXQeOzMzTTvhnHWKXg/o.jpg", "is_closed": false, "url": "https://www.yelp.com/biz/china-wok-pittsfield?adjust_creative=h5HwbyQ0TYvQjBo6Ys5Bgw&utm_campaign=yelp_api_v3&utm_medium=api_v3_business_search&utm_source=h5HwbyQ0TYvQjBo6Ys5Bgw", "review_count": 15, "categories": [{"alias": "chinese", "title": "Chinese"}], "rating": 3.5, "coordinates": {"latitude": 42.4633937, "longitude": -73.2146138}, "transactions": ["delivery"], "price": "$", "location": {"address1": "457 Dalton Ave", "address2": "Ste 6", "address3": "", "city": "Pittsfield", "zip_code": "01201", "country": "US", "state": "MA", "display_address": ["457 Dalton Ave", "Ste 6", "Pittsfield, MA 01201"]}, "phone": "+14134488810", "display_phone": "(413) 448-8810", "distance": 11928.160585168253}, {"id": "DtvBqKyG3RGwuR2kKlQDIg", "alias": "liberty-pizza-pittsfield", "name": "Liberty Pizza", "image_url": "https://s3-media4.fl.yelpcdn.com/bphoto/WkGRUbLAUhTKPbP8ap_MxQ/o.jpg", "is_closed": false, "url": "https://www.yelp.com/biz/liberty-pizza-pittsfield?adjust_creative=h5HwbyQ0TYvQjBo6Ys5Bgw&utm_campaign=yelp_api_v3&utm_medium=api_v3_business_search&utm_source=h5HwbyQ0TYvQjBo6Ys5Bgw", "review_count": 34, "categories": [{"alias": "pizza", "title": "Pizza"}], "rating": 4.0, "coordinates": {"latitude": 42.4526978, "longitude": -73.2525711}, "transactions": ["delivery", "pickup"], "price": "$", "location": {"address1": "308 North St", "address2": null, "address3": null, "city": "Pittsfield", "zip_code": "01201", "country": "US", "state": "MA", "display_address": ["308 North St", "Pittsfield, MA 01201"]}, "phone": "+14134997779", "display_phone": "(413) 499-7779", "distance": 14591.938950057449}, {"id": "n09m3HVIMCSFVQnCSC3tdQ", "alias": "thats-a-wrap-cafe-pittsfield", "name": "That's A Wrap! Cafe", "image_url": "https://s3-media1.fl.yelpcdn.com/bphoto/bjJy4IrRmKBdLiGzVtz4gQ/o.jpg", "is_closed": false, "url": "https://www.yelp.com/biz/thats-a-wrap-cafe-pittsfield?adjust_creative=h5HwbyQ0TYvQjBo6Ys5Bgw&utm_campaign=yelp_api_v3&utm_medium=api_v3_business_search&utm_source=h5HwbyQ0TYvQjBo6Ys5Bgw", "review_count": 12, "categories": [{"alias": "juicebars", "title": "Juice Bars & Smoothies"}, {"alias": "wraps", "title": "Wraps"}, {"alias": "sandwiches", "title": "Sandwiches"}, {"alias": "cafes", "title": "Cafes"}], "rating": 4.0, "coordinates": {"latitude": 42.4496797332126, "longitude": -73.2509500428983}, "transactions": ["delivery"], "price": "$$", "location": {"address1": "132 Fenn St", "address2": "", "address3": null, "city": "Pittsfield", "zip_code": "01201", "country": "US", "state": "MA", "display_address": ["132 Fenn St", "Pittsfield, MA 01201"]}, "phone": "+14134993414", "display_phone": "(413) 499-3414", "distance": 14429.680231306147}, {"id": "pmy-RkBV3NjQYW2pQl9mQQ", "alias": "grand-buffet-star-chinese-restaurant-pittsfield", "name": "Grand Buffet Star Chinese Restaurant", "image_url": "https://s3-media2.fl.yelpcdn.com/bphoto/vZpisPXNq97CDzq8d_vqbA/o.jpg", "is_closed": false, "url": "https://www.yelp.com/biz/grand-buffet-star-chinese-restaurant-pittsfield?adjust_creative=h5HwbyQ0TYvQjBo6Ys5Bgw&utm_campaign=yelp_api_v3&utm_medium=api_v3_business_search&utm_source=h5HwbyQ0TYvQjBo6Ys5Bgw", "review_count": 11, "categories": [{"alias": "chinese", "title": "Chinese"}], "rating": 2.0, "coordinates": {"latitude": 42.470423, "longitude": -73.204747}, "transactions": [], "price": "$", "location": {"address1": "61 Cheshire Rd", "address2": "", "address3": "", "city": "Pittsfield", "zip_code": "01201", "country": "US", "state": "MA", "display_address": ["61 Cheshire Rd", "Pittsfield, MA 01201"]}, "phone": "+14134427000", "display_phone": "(413) 442-7000", "distance": 11365.288179640354}, {"id": "naDTyJ1B4g-RjH_UE9-dcA", "alias": "williams-street-market-and-deli-pittsfield", "name": "Williams Street Market & Deli", "image_url": "", "is_closed": false, "url": "https://www.yelp.com/biz/williams-street-market-and-deli-pittsfield?adjust_creative=h5HwbyQ0TYvQjBo6Ys5Bgw&utm_campaign=yelp_api_v3&utm_medium=api_v3_business_search&utm_source=h5HwbyQ0TYvQjBo6Ys5Bgw", "review_count": 2, "categories": [{"alias": "delis", "title": "Delis"}], "rating": 2.5, "coordinates": {"latitude": 42.43171, "longitude": -73.2137}, "transactions": [], "location": {"address1": "740 Williams St", "address2": "", "address3": "", "city": "Pittsfield", "zip_code": "01201", "country": "US", "state": "MA", "display_address": ["740 Williams St", "Pittsfield, MA 01201"]}, "phone": "+14134478002", "display_phone": "(413) 447-8002", "distance": 11231.137584130474}, {"id": "W8wy2-f1tkjZQPFe_xT4vQ", "alias": "subway-pittsfield-13", "name": "Subway", "image_url": "https://s3-media3.fl.yelpcdn.com/bphoto/TKupqtDxQ-vh8HoIQgur5A/o.jpg", "is_closed": false, "url": "https://www.yelp.com/biz/subway-pittsfield-13?adjust_creative=h5HwbyQ0TYvQjBo6Ys5Bgw&utm_campaign=yelp_api_v3&utm_medium=api_v3_business_search&utm_source=h5HwbyQ0TYvQjBo6Ys5Bgw", "review_count": 1, "categories": [{"alias": "sandwiches", "title": "Sandwiches"}], "rating": 4.0, "coordinates": {"latitude": 42.4649194, "longitude": -73.1985031}, "transactions": [], "price": "$", "location": {"address1": "555 Hubbard Ave", "address2": "Ste 12", "address3": null, "city": "Pittsfield", "zip_code": "01201", "country": "US", "state": "MA", "display_address": ["555 Hubbard Ave", "Ste 12", "Pittsfield, MA 01201"]}, "phone": "+14134422539", "display_phone": "(413) 442-2539", "distance": 10663.383480072916}, {"id": "xtHhYUKdx7NYTTa14VeIRA", "alias": "home-plate-pittsfield", "name": "Home Plate", "image_url": "", "is_closed": false, "url": "https://www.yelp.com/biz/home-plate-pittsfield?adjust_creative=h5HwbyQ0TYvQjBo6Ys5Bgw&utm_campaign=yelp_api_v3&utm_medium=api_v3_business_search&utm_source=h5HwbyQ0TYvQjBo6Ys5Bgw", "review_count": 1, "categories": [{"alias": "restaurants", "title": "Restaurants"}], "rating": 3.0, "coordinates": {"latitude": 42.450077, "longitude": -73.239082}, "transactions": [], "price": "$", "location": {"address1": "751 East St", "address2": "", "address3": "", "city": "Pittsfield", "zip_code": "01201", "country": "US", "state": "MA", "display_address": ["751 East St", "Pittsfield, MA 01201"]}, "phone": "+14134479521", "display_phone": "(413) 447-9521", "distance": 13460.166292234528}, {"id": "-vv3RaiBn7yvefraT7zKKA", "alias": "hot-harrys-fresh-burritos-pittsfield-2", "name": "Hot Harry's Fresh Burritos", "image_url": "https://s3-media1.fl.yelpcdn.com/bphoto/uWrr9feCzlDNa2Wihi1M1w/o.jpg", "is_closed": false, "url": "https://www.yelp.com/biz/hot-harrys-fresh-burritos-pittsfield-2?adjust_creative=h5HwbyQ0TYvQjBo6Ys5Bgw&utm_campaign=yelp_api_v3&utm_medium=api_v3_business_search&utm_source=h5HwbyQ0TYvQjBo6Ys5Bgw", "review_count": 31, "categories": [{"alias": "mexican", "title": "Mexican"}], "rating": 3.0, "coordinates": {"latitude": 42.4491425, "longitude": -73.2539431}, "transactions": ["delivery", "pickup"], "price": "$", "location": {"address1": "37 North St", "address2": null, "address3": null, "city": "Pittsfield", "zip_code": "01201", "country": "US", "state": "MA", "display_address": ["37 North St", "Pittsfield, MA 01201"]}, "phone": "+14134486155", "display_phone": "(413) 448-6155", "distance": 14664.507642356395}, {"id": "PtjQ9BHdSh-InDjpYEoLAw", "alias": "pizza-hut-pittsfield-7", "name": "Pizza Hut", "image_url": "https://s3-media2.fl.yelpcdn.com/bphoto/0fWoaDnHsxJ4fqSSKwa4-w/o.jpg", "is_closed": false, "url": "https://www.yelp.com/biz/pizza-hut-pittsfield-7?adjust_creative=h5HwbyQ0TYvQjBo6Ys5Bgw&utm_campaign=yelp_api_v3&utm_medium=api_v3_business_search&utm_source=h5HwbyQ0TYvQjBo6Ys5Bgw", "review_count": 5, "categories": [{"alias": "italian", "title": "Italian"}, {"alias": "pizza", "title": "Pizza"}], "rating": 2.5, "coordinates": {"latitude": 42.465908213687, "longitude": -73.2030403283647}, "transactions": ["delivery", "pickup"], "price": "$", "location": {"address1": "660 Merrill Rd", "address2": null, "address3": null, "city": "Pittsfield", "zip_code": "01201", "country": "US", "state": "MA", "display_address": ["660 Merrill Rd", "Pittsfield, MA 01201"]}, "phone": "+14134999891", "display_phone": "(413) 499-9891", "distance": 11050.451415522153}, {"id": "xQ_jSCeekj2nmebWiUWVBQ", "alias": "subway-pittsfield-18", "name": "Subway", "image_url": "https://s3-media2.fl.yelpcdn.com/bphoto/Ns0oKq_wodrGXc3l_uQ-lQ/o.jpg", "is_closed": false, "url": "https://www.yelp.com/biz/subway-pittsfield-18?adjust_creative=h5HwbyQ0TYvQjBo6Ys5Bgw&utm_campaign=yelp_api_v3&utm_medium=api_v3_business_search&utm_source=h5HwbyQ0TYvQjBo6Ys5Bgw", "review_count": 1, "categories": [{"alias": "sandwiches", "title": "Sandwiches"}], "rating": 4.0, "coordinates": {"latitude": 42.464833, "longitude": -73.214439}, "transactions": [], "price": "$", "location": {"address1": "457 Dalton Ave", "address2": "", "address3": "", "city": "Pittsfield", "zip_code": "01201", "country": "US", "state": "MA", "display_address": ["457 Dalton Ave", "Pittsfield, MA 01201"]}, "phone": "+14134990067", "display_phone": "(413) 499-0067", "distance": 11892.415269976542}, {"id": "61zJkuouSdfgDPGUXnD4xA", "alias": "harrys-supermarket-pittsfield", "name": "Harry's Supermarket", "image_url": "", "is_closed": false, "url": "https://www.yelp.com/biz/harrys-supermarket-pittsfield?adjust_creative=h5HwbyQ0TYvQjBo6Ys5Bgw&utm_campaign=yelp_api_v3&utm_medium=api_v3_business_search&utm_source=h5HwbyQ0TYvQjBo6Ys5Bgw", "review_count": 1, "categories": [{"alias": "delis", "title": "Delis"}], "rating": 4.0, "coordinates": {"latitude": 42.4669830847747, "longitude": -73.2516915403962}, "transactions": ["delivery"], "location": {"address1": "290 Wahconah St", "address2": "", "address3": "", "city": "Pittsfield", "zip_code": "01201", "country": "US", "state": "MA", "display_address": ["290 Wahconah St", "Pittsfield, MA 01201"]}, "phone": "+14134429084", "display_phone": "(413) 442-9084", "distance": 14885.88310524251}, {"id": "z0qioLtn44qHtv-fm4rd0w", "alias": "panda-garden-pittsfield", "name": "Panda Garden", "image_url": "https://s3-media1.fl.yelpcdn.com/bphoto/EuxaT94SmiyxMw6bH6_sSA/o.jpg", "is_closed": false, "url": "https://www.yelp.com/biz/panda-garden-pittsfield?adjust_creative=h5HwbyQ0TYvQjBo6Ys5Bgw&utm_campaign=yelp_api_v3&utm_medium=api_v3_business_search&utm_source=h5HwbyQ0TYvQjBo6Ys5Bgw", "review_count": 15, "categories": [{"alias": "chinese", "title": "Chinese"}], "rating": 2.5, "coordinates": {"latitude": 42.4563598632812, "longitude": -73.2361297607422}, "transactions": ["delivery"], "price": "$", "location": {"address1": "724 Tyler St", "address2": "", "address3": "", "city": "Pittsfield", "zip_code": "01201", "country": "US", "state": "MA", "display_address": ["724 Tyler St", "Pittsfield, MA 01201"]}, "phone": "+14134428881", "display_phone": "(413) 442-8881", "distance": 13363.473360294764}, {"id": "lpeKmfeaYaNmdoPGWFBGIA", "alias": "d-angelo-lee", "name": "D'angelo", "image_url": "https://s3-media4.fl.yelpcdn.com/bphoto/cb5yh3PsNyDNz3AKGm-qPQ/o.jpg", "is_closed": false, "url": "https://www.yelp.com/biz/d-angelo-lee?adjust_creative=h5HwbyQ0TYvQjBo6Ys5Bgw&utm_campaign=yelp_api_v3&utm_medium=api_v3_business_search&utm_source=h5HwbyQ0TYvQjBo6Ys5Bgw", "review_count": 4, "categories": [{"alias": "delis", "title": "Delis"}], "rating": 2.0, "coordinates": {"latitude": 42.297125533502, "longitude": -73.275692678397}, "transactions": [], "price": "$$", "location": {"address1": "370 Stockbridge Rd", "address2": "", "address3": "", "city": "Lee", "zip_code": "01238", "country": "US", "state": "MA", "display_address": ["370 Stockbridge Rd", "Lee, MA 01238"]}, "phone": "+14132431380", "display_phone": "(413) 243-1380", "distance": 22097.57775512182}, {"id": "8nhaIMcLJMrfsiic0hSoOg", "alias": "roses-restaurant-lee", "name": "Roses Restaurant", "image_url": "https://s3-media1.fl.yelpcdn.com/bphoto/SoMhXPFohMvzs8eTUHG14w/o.jpg", "is_closed": false, "url": "https://www.yelp.com/biz/roses-restaurant-lee?adjust_creative=h5HwbyQ0TYvQjBo6Ys5Bgw&utm_campaign=yelp_api_v3&utm_medium=api_v3_business_search&utm_source=h5HwbyQ0TYvQjBo6Ys5Bgw", "review_count": 83, "categories": [{"alias": "breakfast_brunch", "title": "Breakfast & Brunch"}], "rating": 3.5, "coordinates": {"latitude": 42.300715, "longitude": -73.243111}, "transactions": ["delivery"], "price": "$", "location": {"address1": "160 Housatonic St", "address2": "", "address3": "", "city": "Lee", "zip_code": "01238", "country": "US", "state": "MA", "display_address": ["160 Housatonic St", "Lee, MA 01238"]}, "phone": "+14132433333", "display_phone": "(413) 243-3333", "distance": 19907.46204703553}, {"id": "npvK3ybU9n5GPZzCwJtN5Q", "alias": "costanzos-package-variety-and-deli-pittsfield", "name": "Costanzo's Package Variety & Deli", "image_url": "", "is_closed": false, "url": "https://www.yelp.com/biz/costanzos-package-variety-and-deli-pittsfield?adjust_creative=h5HwbyQ0TYvQjBo6Ys5Bgw&utm_campaign=yelp_api_v3&utm_medium=api_v3_business_search&utm_source=h5HwbyQ0TYvQjBo6Ys5Bgw", "review_count": 1, "categories": [{"alias": "beer_and_wine", "title": "Beer, Wine & Spirits"}, {"alias": "catering", "title": "Caterers"}, {"alias": "delis", "title": "Delis"}], "rating": 4.0, "coordinates": {"latitude": 42.4566612243652, "longitude": -73.2628479003906}, "transactions": ["delivery"], "price": "$", "location": {"address1": "180 Onota St", "address2": "", "address3": "", "city": "Pittsfield", "zip_code": "01201", "country": "US", "state": "MA", "display_address": ["180 Onota St", "Pittsfield, MA 01201"]}, "phone": "+14134477661", "display_phone": "(413) 447-7661", "distance": 15523.955062607482}, {"id": "_yuFi7fMtXH-3DK_XgAa7Q", "alias": "elm-st-java-pittsfield", "name": "Elm St Java", "image_url": "https://s3-media2.fl.yelpcdn.com/bphoto/ULd2Lo8LZRQ_3dlVR28OMQ/o.jpg", "is_closed": false, "url": "https://www.yelp.com/biz/elm-st-java-pittsfield?adjust_creative=h5HwbyQ0TYvQjBo6Ys5Bgw&utm_campaign=yelp_api_v3&utm_medium=api_v3_business_search&utm_source=h5HwbyQ0TYvQjBo6Ys5Bgw", "review_count": 4, "categories": [{"alias": "coffee", "title": "Coffee & Tea"}, {"alias": "breakfast_brunch", "title": "Breakfast & Brunch"}, {"alias": "sandwiches", "title": "Sandwiches"}], "rating": 4.5, "coordinates": {"latitude": 42.443323, "longitude": -73.2355684}, "transactions": [], "price": "$", "location": {"address1": "216 Elm St", "address2": "", "address3": "", "city": "Pittsfield", "zip_code": "01201", "country": "US", "state": "MA", "display_address": ["216 Elm St", "Pittsfield, MA 01201"]}, "phone": "+14134995282", "display_phone": "(413) 499-5282", "distance": 13087.0838967849}, {"id": "REAEo2X_Do9fvZTMTPYUEA", "alias": "sweet-and-savoury-on-main-lee", "name": "Sweet and Savoury On Main", "image_url": "", "is_closed": false, "url": "https://www.yelp.com/biz/sweet-and-savoury-on-main-lee?adjust_creative=h5HwbyQ0TYvQjBo6Ys5Bgw&utm_campaign=yelp_api_v3&utm_medium=api_v3_business_search&utm_source=h5HwbyQ0TYvQjBo6Ys5Bgw", "review_count": 1, "categories": [{"alias": "bakeries", "title": "Bakeries"}, {"alias": "cafes", "title": "Cafes"}], "rating": 3.0, "coordinates": {"latitude": 42.305557, "longitude": -73.249139}, "transactions": [], "location": {"address1": "56 Main St", "address2": "", "address3": null, "city": "Lee", "zip_code": "01238", "country": "US", "state": "MA", "display_address": ["56 Main St", "Lee, MA 01238"]}, "phone": "+14132437777", "display_phone": "(413) 243-7777", "distance": 19865.185893701728}, {"id": "7_vJvMcb3ioDXh4kRE4lOQ", "alias": "angelinas-submarine-shop-pittsfield", "name": "Angelina's Submarine Shop", "image_url": "https://s3-media3.fl.yelpcdn.com/bphoto/6HgEWRIjK9XNHTEnYL8T0g/o.jpg", "is_closed": false, "url": "https://www.yelp.com/biz/angelinas-submarine-shop-pittsfield?adjust_creative=h5HwbyQ0TYvQjBo6Ys5Bgw&utm_campaign=yelp_api_v3&utm_medium=api_v3_business_search&utm_source=h5HwbyQ0TYvQjBo6Ys5Bgw", "review_count": 3, "categories": [{"alias": "sandwiches", "title": "Sandwiches"}], "rating": 3.5, "coordinates": {"latitude": 42.4442558288574, "longitude": -73.2594528198242}, "transactions": ["delivery"], "price": "$", "location": {"address1": "97 W Housatonic St", "address2": "", "address3": "", "city": "Pittsfield", "zip_code": "01201", "country": "US", "state": "MA", "display_address": ["97 W Housatonic St", "Pittsfield, MA 01201"]}, "phone": "+14134437928", "display_phone": "(413) 443-7928", "distance": 15056.19036091117}, {"id": "u3vTda2vtkOdRqya20iSyg", "alias": "red-apple-lee", "name": "Red Apple", "image_url": "https://s3-media4.fl.yelpcdn.com/bphoto/SzCdSb27YWsrutpUqmmzFg/o.jpg", "is_closed": false, "url": "https://www.yelp.com/biz/red-apple-lee?adjust_creative=h5HwbyQ0TYvQjBo6Ys5Bgw&utm_campaign=yelp_api_v3&utm_medium=api_v3_business_search&utm_source=h5HwbyQ0TYvQjBo6Ys5Bgw", "review_count": 15, "categories": [{"alias": "chinese", "title": "Chinese"}], "rating": 3.5, "coordinates": {"latitude": 42.3042413144758, "longitude": -73.246378730496}, "transactions": ["delivery"], "price": "$", "location": {"address1": "23 Park Plz", "address2": "Ste A", "address3": "", "city": "Lee", "zip_code": "01238", "country": "US", "state": "MA", "display_address": ["23 Park Plz", "Ste A", "Lee, MA 01238"]}, "phone": "+14132434027", "display_phone": "(413) 243-4027", "distance": 19930.375159058207}, {"id": "gzZEEMPceGKkba3HRuy8KQ", "alias": "subway-lenox-2", "name": "Subway", "image_url": "https://s3-media4.fl.yelpcdn.com/bphoto/tqwx6-Q70kAUrlmz4i4bfA/o.jpg", "is_closed": false, "url": "https://www.yelp.com/biz/subway-lenox-2?adjust_creative=h5HwbyQ0TYvQjBo6Ys5Bgw&utm_campaign=yelp_api_v3&utm_medium=api_v3_business_search&utm_source=h5HwbyQ0TYvQjBo6Ys5Bgw", "review_count": 1, "categories": [{"alias": "sandwiches", "title": "Sandwiches"}], "rating": 5.0, "coordinates": {"latitude": 42.401901, "longitude": -73.266031}, "transactions": [], "price": "$", "location": {"address1": "450 Pittsfield Rd", "address2": "", "address3": "", "city": "Lenox", "zip_code": "01240", "country": "US", "state": "MA", "display_address": ["450 Pittsfield Rd", "Lenox, MA 01240"]}, "phone": "+14134425311", "display_phone": "(413) 442-5311", "distance": 15856.996321724215}, {"id": "egLCj5yl7BlrQjj9X8EwMw", "alias": "tahiti-take-out-restaurant-and-lounge-pittsfield", "name": "Tahiti Take Out Restaurant & Lounge", "image_url": "https://s3-media2.fl.yelpcdn.com/bphoto/VXcWnkJQJIEQpJhalO2rhg/o.jpg", "is_closed": false, "url": "https://www.yelp.com/biz/tahiti-take-out-restaurant-and-lounge-pittsfield?adjust_creative=h5HwbyQ0TYvQjBo6Ys5Bgw&utm_campaign=yelp_api_v3&utm_medium=api_v3_business_search&utm_source=h5HwbyQ0TYvQjBo6Ys5Bgw", "review_count": 21, "categories": [{"alias": "chinese", "title": "Chinese"}, {"alias": "bars", "title": "Bars"}], "rating": 2.0, "coordinates": {"latitude": 42.46156, "longitude": -73.25136}, "transactions": ["delivery"], "price": "$$", "location": {"address1": "101 Wahconah St", "address2": "", "address3": "", "city": "Pittsfield", "zip_code": "01201", "country": "US", "state": "MA", "display_address": ["101 Wahconah St", "Pittsfield, MA 01201"]}, "phone": "+14134994711", "display_phone": "(413) 499-4711", "distance": 14699.203430449064}, {"id": "dPrW7czCTb9yQkZsiyhKcg", "alias": "papa-ginos-pizzeria-pittsfield", "name": "Papa Gino's Pizzeria", "image_url": "https://s3-media1.fl.yelpcdn.com/bphoto/NKN58oe59RYs8nXmvCD_Qg/o.jpg", "is_closed": false, "url": "https://www.yelp.com/biz/papa-ginos-pizzeria-pittsfield?adjust_creative=h5HwbyQ0TYvQjBo6Ys5Bgw&utm_campaign=yelp_api_v3&utm_medium=api_v3_business_search&utm_source=h5HwbyQ0TYvQjBo6Ys5Bgw", "review_count": 21, "categories": [{"alias": "pizza", "title": "Pizza"}], "rating": 2.5, "coordinates": {"latitude": 42.4659526682081, "longitude": -73.2064502022769}, "transactions": ["delivery"], "price": "$$", "location": {"address1": "685 Merrill Rd", "address2": null, "address3": null, "city": "Pittsfield", "zip_code": "01201", "country": "US", "state": "MA", "display_address": ["685 Merrill Rd", "Pittsfield, MA 01201"]}, "phone": "+14134455307", "display_phone": "(413) 445-5307", "distance": 11314.532759732007}, {"id": "oP6MxD_tKqBF_hCgk9dOmg", "alias": "east-lee-package-store-lee", "name": "East Lee Package Store", "image_url": "https://s3-media4.fl.yelpcdn.com/bphoto/ZFn3i5E5fflh0nviMpXBgw/o.jpg", "is_closed": false, "url": "https://www.yelp.com/biz/east-lee-package-store-lee?adjust_creative=h5HwbyQ0TYvQjBo6Ys5Bgw&utm_campaign=yelp_api_v3&utm_medium=api_v3_business_search&utm_source=h5HwbyQ0TYvQjBo6Ys5Bgw", "review_count": 11, "categories": [{"alias": "beer_and_wine", "title": "Beer, Wine & Spirits"}, {"alias": "delis", "title": "Delis"}], "rating": 3.5, "coordinates": {"latitude": 42.2972074, "longitude": -73.2314694}, "transactions": [], "price": "$", "location": {"address1": "185 Water St", "address2": "", "address3": "", "city": "Lee", "zip_code": "01238", "country": "US", "state": "MA", "display_address": ["185 Water St", "Lee, MA 01238"]}, "phone": "+14132439768", "display_phone": "(413) 243-9768", "distance": 19550.759532794284}, {"id": "4_6PwHV-yJnMqlnvXVOyxw", "alias": "pizza-works-pittsfield", "name": "Pizza Works", "image_url": "https://s3-media4.fl.yelpcdn.com/bphoto/VWeb8dJGSwemSHFfkxXbTg/o.jpg", "is_closed": false, "url": "https://www.yelp.com/biz/pizza-works-pittsfield?adjust_creative=h5HwbyQ0TYvQjBo6Ys5Bgw&utm_campaign=yelp_api_v3&utm_medium=api_v3_business_search&utm_source=h5HwbyQ0TYvQjBo6Ys5Bgw", "review_count": 13, "categories": [{"alias": "pizza", "title": "Pizza"}], "rating": 3.5, "coordinates": {"latitude": 42.4563250690699, "longitude": -73.2341511547565}, "transactions": ["delivery"], "price": "$$", "location": {"address1": "804 Tyler St", "address2": "", "address3": "", "city": "Pittsfield", "zip_code": "01201", "country": "US", "state": "MA", "display_address": ["804 Tyler St", "Pittsfield, MA 01201"]}, "phone": "+14134434444", "display_phone": "(413) 443-4444", "distance": 13229.59700518489}, {"id": "BPyXFtPX_6PirL4p4HfIGA", "alias": "five-guys-pittsfield", "name": "Five Guys", "image_url": "https://s3-media1.fl.yelpcdn.com/bphoto/XerdEcgL30G8_SN5W5W1uA/o.jpg", "is_closed": false, "url": "https://www.yelp.com/biz/five-guys-pittsfield?adjust_creative=h5HwbyQ0TYvQjBo6Ys5Bgw&utm_campaign=yelp_api_v3&utm_medium=api_v3_business_search&utm_source=h5HwbyQ0TYvQjBo6Ys5Bgw", "review_count": 12, "categories": [{"alias": "burgers", "title": "Burgers"}, {"alias": "hotdogs", "title": "Fast Food"}], "rating": 4.0, "coordinates": {"latitude": 42.46647, "longitude": -73.2041799}, "transactions": [], "price": "$", "location": {"address1": "660 Merrill Rd", "address2": "", "address3": "", "city": "Pittsfield", "zip_code": "01201", "country": "US", "state": "MA", "display_address": ["660 Merrill Rd", "Pittsfield, MA 01201"]}, "phone": "+14134995900", "display_phone": "(413) 499-5900", "distance": 11048.87654399736}, {"id": "y6UTWVCEElf-FSp6p6DxDw", "alias": "chef-express-lee", "name": "Chef Express", "image_url": "https://s3-media4.fl.yelpcdn.com/bphoto/Puthelxsj7iaXoyBw5EH8Q/o.jpg", "is_closed": false, "url": "https://www.yelp.com/biz/chef-express-lee?adjust_creative=h5HwbyQ0TYvQjBo6Ys5Bgw&utm_campaign=yelp_api_v3&utm_medium=api_v3_business_search&utm_source=h5HwbyQ0TYvQjBo6Ys5Bgw", "review_count": 10, "categories": [{"alias": "indpak", "title": "Indian"}], "rating": 3.0, "coordinates": {"latitude": 42.30535, "longitude": -73.24909}, "transactions": ["delivery"], "price": "$$", "location": {"address1": "62 Main St", "address2": null, "address3": "", "city": "Lee", "zip_code": "01238", "country": "US", "state": "MA", "display_address": ["62 Main St", "Lee, MA 01238"]}, "phone": "+14133944081", "display_phone": "(413) 394-4081", "distance": 19868.34807106256}, {"id": "5MUciMsGKM5fvGpkxadGuw", "alias": "dominos-pizza-pittsfield-2", "name": "Domino's Pizza", "image_url": "", "is_closed": false, "url": "https://www.yelp.com/biz/dominos-pizza-pittsfield-2?adjust_creative=h5HwbyQ0TYvQjBo6Ys5Bgw&utm_campaign=yelp_api_v3&utm_medium=api_v3_business_search&utm_source=h5HwbyQ0TYvQjBo6Ys5Bgw", "review_count": 4, "categories": [{"alias": "pizza", "title": "Pizza"}, {"alias": "chicken_wings", "title": "Chicken Wings"}, {"alias": "sandwiches", "title": "Sandwiches"}], "rating": 4.0, "coordinates": {"latitude": 42.47718, "longitude": -73.245323}, "transactions": [], "price": "$", "location": {"address1": "1229 North St", "address2": null, "address3": null, "city": "Pittsfield", "zip_code": "01201", "country": "US", "state": "MA", "display_address": ["1229 North St", "Pittsfield, MA 01201"]}, "phone": "+14134997979", "display_phone": "(413) 499-7979", "distance": 14728.47352213687}, {"id": "1abRo8so6LKnAwAouIzOtQ", "alias": "simply-grillicious-lee", "name": "Simply Grillicious", "image_url": "https://s3-media3.fl.yelpcdn.com/bphoto/iW-mbQ3JwkTXSnfpbVXXYQ/o.jpg", "is_closed": false, "url": "https://www.yelp.com/biz/simply-grillicious-lee?adjust_creative=h5HwbyQ0TYvQjBo6Ys5Bgw&utm_campaign=yelp_api_v3&utm_medium=api_v3_business_search&utm_source=h5HwbyQ0TYvQjBo6Ys5Bgw", "review_count": 3, "categories": [{"alias": "newamerican", "title": "American (New)"}], "rating": 2.5, "coordinates": {"latitude": 42.294388, "longitude": -73.234434}, "transactions": [], "price": "$", "location": {"address1": "50 Water St", "address2": "", "address3": "", "city": "Lee", "zip_code": "01238", "country": "US", "state": "MA", "display_address": ["50 Water St", "Lee, MA 01238"]}, "phone": "+14132431345", "display_phone": "(413) 243-1345", "distance": 19956.15241651797}, {"id": "XvvFFVTRyb9-8OZPUVRSqw", "alias": "ginos-pizza-and-grill-pittsfield", "name": "Ginos Pizza and Grill", "image_url": "https://s3-media3.fl.yelpcdn.com/bphoto/2zq5ieHpYjnGxFee6p7YVw/o.jpg", "is_closed": false, "url": "https://www.yelp.com/biz/ginos-pizza-and-grill-pittsfield?adjust_creative=h5HwbyQ0TYvQjBo6Ys5Bgw&utm_campaign=yelp_api_v3&utm_medium=api_v3_business_search&utm_source=h5HwbyQ0TYvQjBo6Ys5Bgw", "review_count": 7, "categories": [{"alias": "pizza", "title": "Pizza"}, {"alias": "hotdogs", "title": "Fast Food"}, {"alias": "italian", "title": "Italian"}], "rating": 2.5, "coordinates": {"latitude": 42.4760729, "longitude": -73.2444672}, "transactions": ["delivery"], "price": "$$", "location": {"address1": "1206 North St", "address2": "", "address3": "", "city": "Pittsfield", "zip_code": "01201", "country": "US", "state": "MA", "display_address": ["1206 North St", "Pittsfield, MA 01201"]}, "phone": "+14134424466", "display_phone": "(413) 442-4466", "distance": 14629.498368764382}, {"id": "Y5fUpTFQ-9MFrUa1s8jSRg", "alias": "panda-garden-lee", "name": "Panda Garden", "image_url": "https://s3-media3.fl.yelpcdn.com/bphoto/tIpsLe_VXudyUGKFuLpPhg/o.jpg", "is_closed": false, "url": "https://www.yelp.com/biz/panda-garden-lee?adjust_creative=h5HwbyQ0TYvQjBo6Ys5Bgw&utm_campaign=yelp_api_v3&utm_medium=api_v3_business_search&utm_source=h5HwbyQ0TYvQjBo6Ys5Bgw", "review_count": 12, "categories": [{"alias": "chinese", "title": "Chinese"}], "rating": 3.0, "coordinates": {"latitude": 42.3060799, "longitude": -73.2501526}, "transactions": ["delivery"], "price": "$", "location": {"address1": "95 Main St", "address2": null, "address3": null, "city": "Lee", "zip_code": "01238", "country": "US", "state": "MA", "display_address": ["95 Main St", "Lee, MA 01238"]}, "phone": "+14132439188", "display_phone": "(413) 243-9188", "distance": 19875.97373141024}, {"id": "llMqQ1MjpYDPPFII7aQU3g", "alias": "dotties-coffee-lounge-pittsfield", "name": "Dottie's Coffee Lounge", "image_url": "https://s3-media1.fl.yelpcdn.com/bphoto/Nlx2Ig4HbJ2cCPdThRir9A/o.jpg", "is_closed": false, "url": "https://www.yelp.com/biz/dotties-coffee-lounge-pittsfield?adjust_creative=h5HwbyQ0TYvQjBo6Ys5Bgw&utm_campaign=yelp_api_v3&utm_medium=api_v3_business_search&utm_source=h5HwbyQ0TYvQjBo6Ys5Bgw", "review_count": 121, "categories": [{"alias": "coffee", "title": "Coffee & Tea"}, {"alias": "breakfast_brunch", "title": "Breakfast & Brunch"}], "rating": 4.0, "coordinates": {"latitude": 42.4545999, "longitude": -73.2519895}, "transactions": ["delivery"], "price": "$$", "location": {"address1": "444 North St", "address2": "", "address3": "", "city": "Pittsfield", "zip_code": "01201", "country": "US", "state": "MA", "display_address": ["444 North St", "Pittsfield, MA 01201"]}, "phone": "+14134431792", "display_phone": "(413) 443-1792", "distance": 14583.418610281115}, {"id": "xoajVHJmQPp4kc5qgGc1BA", "alias": "joes-diner-lee", "name": "Joe's Diner", "image_url": "https://s3-media3.fl.yelpcdn.com/bphoto/o7RM3UUFkrYh2oTkctdouQ/o.jpg", "is_closed": false, "url": "https://www.yelp.com/biz/joes-diner-lee?adjust_creative=h5HwbyQ0TYvQjBo6Ys5Bgw&utm_campaign=yelp_api_v3&utm_medium=api_v3_business_search&utm_source=h5HwbyQ0TYvQjBo6Ys5Bgw", "review_count": 83, "categories": [{"alias": "tradamerican", "title": "American (Traditional)"}, {"alias": "diners", "title": "Diners"}, {"alias": "breakfast_brunch", "title": "Breakfast & Brunch"}], "rating": 3.5, "coordinates": {"latitude": 42.310245, "longitude": -73.252144}, "transactions": ["delivery"], "price": "$", "location": {"address1": "85 Central St", "address2": null, "address3": "", "city": "Lee", "zip_code": "01238", "country": "US", "state": "MA", "display_address": ["85 Central St", "Lee, MA 01238"]}, "phone": "+14132439756", "display_phone": "(413) 243-9756", "distance": 19685.18817053752}, {"id": "_bbCLnoJCG-QqGd1ShgItA", "alias": "amazing-pavilion-chinese-restaurant-pittsfield", "name": "Amazing Pavilion Chinese Restaurant", "image_url": "https://s3-media1.fl.yelpcdn.com/bphoto/BR_kdPrQ2PB4wyzcW3DJtQ/o.jpg", "is_closed": false, "url": "https://www.yelp.com/biz/amazing-pavilion-chinese-restaurant-pittsfield?adjust_creative=h5HwbyQ0TYvQjBo6Ys5Bgw&utm_campaign=yelp_api_v3&utm_medium=api_v3_business_search&utm_source=h5HwbyQ0TYvQjBo6Ys5Bgw", "review_count": 15, "categories": [{"alias": "chinese", "title": "Chinese"}, {"alias": "sushi", "title": "Sushi Bars"}, {"alias": "asianfusion", "title": "Asian Fusion"}], "rating": 2.5, "coordinates": {"latitude": 42.44973755422, "longitude": -73.2531631959556}, "transactions": ["delivery"], "price": "$$", "location": {"address1": "26 Dunham Mall", "address2": "", "address3": "", "city": "Pittsfield", "zip_code": "01201", "country": "US", "state": "MA", "display_address": ["26 Dunham Mall", "Pittsfield, MA 01201"]}, "phone": "+14134482647", "display_phone": "(413) 448-2647", "distance": 14604.376190898434}, {"id": "YD7kCPJv-KqyzxhqFjUMBQ", "alias": "papa-johns-pizza-lenox", "name": "Papa John's Pizza", "image_url": "", "is_closed": false, "url": "https://www.yelp.com/biz/papa-johns-pizza-lenox?adjust_creative=h5HwbyQ0TYvQjBo6Ys5Bgw&utm_campaign=yelp_api_v3&utm_medium=api_v3_business_search&utm_source=h5HwbyQ0TYvQjBo6Ys5Bgw", "review_count": 7, "categories": [{"alias": "pizza", "title": "Pizza"}], "rating": 3.0, "coordinates": {"latitude": 42.40179, "longitude": -73.267439}, "transactions": [], "price": "$", "location": {"address1": "439 Pittsfield Rd", "address2": "", "address3": "", "city": "Lenox", "zip_code": "01240", "country": "US", "state": "MA", "display_address": ["439 Pittsfield Rd", "Lenox, MA 01240"]}, "phone": "+14134457272", "display_phone": "(413) 445-7272", "distance": 15972.683453047946}, {"id": "j3iGXa2h_E9-JDTYhcBMEg", "alias": "hold-the-anchovies-pittsfield", "name": "Hold the Anchovies", "image_url": "", "is_closed": false, "url": "https://www.yelp.com/biz/hold-the-anchovies-pittsfield?adjust_creative=h5HwbyQ0TYvQjBo6Ys5Bgw&utm_campaign=yelp_api_v3&utm_medium=api_v3_business_search&utm_source=h5HwbyQ0TYvQjBo6Ys5Bgw", "review_count": 1, "categories": [{"alias": "pizza", "title": "Pizza"}], "rating": 1.0, "coordinates": {"latitude": 42.46429, "longitude": -73.21442}, "transactions": [], "price": "$$", "location": {"address1": "455 Dalton Ave", "address2": "", "address3": "", "city": "Pittsfield", "zip_code": "01201", "country": "US", "state": "MA", "display_address": ["455 Dalton Ave", "Pittsfield, MA 01201"]}, "phone": "+14134432400", "display_phone": "(413) 443-2400", "distance": 11872.528024505247}, {"id": "D8xwwhEQSzQu9wOpX-lytA", "alias": "south-street-pizza-house-pittsfield", "name": "South Street Pizza House", "image_url": "https://s3-media1.fl.yelpcdn.com/bphoto/7KZpvjWkZFNQ2RAzzfCQ7A/o.jpg", "is_closed": false, "url": "https://www.yelp.com/biz/south-street-pizza-house-pittsfield?adjust_creative=h5HwbyQ0TYvQjBo6Ys5Bgw&utm_campaign=yelp_api_v3&utm_medium=api_v3_business_search&utm_source=h5HwbyQ0TYvQjBo6Ys5Bgw", "review_count": 12, "categories": [{"alias": "pizza", "title": "Pizza"}], "rating": 3.0, "coordinates": {"latitude": 42.4453999, "longitude": -73.2548167}, "transactions": ["delivery"], "price": "$", "location": {"address1": "148 South St", "address2": "", "address3": "", "city": "Pittsfield", "zip_code": "01201", "country": "US", "state": "MA", "display_address": ["148 South St", "Pittsfield, MA 01201"]}, "phone": "+14134991690", "display_phone": "(413) 499-1690", "distance": 14684.806096570292}, {"id": "9KNacuxUSbU6_v10Jn8Npg", "alias": "friendlys-pittsfield", "name": "Friendly's", "image_url": "https://s3-media3.fl.yelpcdn.com/bphoto/DAdk5s3FnedyuVpFxs0jfw/o.jpg", "is_closed": false, "url": "https://www.yelp.com/biz/friendlys-pittsfield?adjust_creative=h5HwbyQ0TYvQjBo6Ys5Bgw&utm_campaign=yelp_api_v3&utm_medium=api_v3_business_search&utm_source=h5HwbyQ0TYvQjBo6Ys5Bgw", "review_count": 22, "categories": [{"alias": "icecream", "title": "Ice Cream & Frozen Yogurt"}, {"alias": "burgers", "title": "Burgers"}, {"alias": "tradamerican", "title": "American (Traditional)"}], "rating": 2.5, "coordinates": {"latitude": 42.4683225899935, "longitude": -73.2024212926626}, "transactions": ["delivery"], "price": "$$", "location": {"address1": "841 Dalton Ave", "address2": "", "address3": "", "city": "Pittsfield", "zip_code": "01201", "country": "US", "state": "MA", "display_address": ["841 Dalton Ave", "Pittsfield, MA 01201"]}, "phone": "+14134430282", "display_phone": "(413) 443-0282", "distance": 11202.004389804239}, {"id": "sw_fMcE7mDh9UgDAinEh4A", "alias": "papa-ginos-lee-3", "name": "Papa Gino's", "image_url": "https://s3-media2.fl.yelpcdn.com/bphoto/UtAfL7Ion7B70KTnpMkkjA/o.jpg", "is_closed": false, "url": "https://www.yelp.com/biz/papa-ginos-lee-3?adjust_creative=h5HwbyQ0TYvQjBo6Ys5Bgw&utm_campaign=yelp_api_v3&utm_medium=api_v3_business_search&utm_source=h5HwbyQ0TYvQjBo6Ys5Bgw", "review_count": 1, "categories": [{"alias": "pizza", "title": "Pizza"}], "rating": 2.0, "coordinates": {"latitude": 42.2956547, "longitude": -73.2708765}, "transactions": ["delivery"], "location": {"address1": "370 Stockbridge Rd", "address2": "", "address3": null, "city": "Lee", "zip_code": "01238", "country": "US", "state": "MA", "display_address": ["370 Stockbridge Rd", "Lee, MA 01238"]}, "phone": "+14132431380", "display_phone": "(413) 243-1380", "distance": 22063.40106645542}, {"id": "xa_98hTmK47xF4Mx72HNJA", "alias": "empire-pizza-restaurant-pittsfield", "name": "Empire Pizza Restaurant", "image_url": "https://s3-media2.fl.yelpcdn.com/bphoto/8Hlva0OuLY_7QnVhI0StUQ/o.jpg", "is_closed": false, "url": "https://www.yelp.com/biz/empire-pizza-restaurant-pittsfield?adjust_creative=h5HwbyQ0TYvQjBo6Ys5Bgw&utm_campaign=yelp_api_v3&utm_medium=api_v3_business_search&utm_source=h5HwbyQ0TYvQjBo6Ys5Bgw", "review_count": 16, "categories": [{"alias": "pizza", "title": "Pizza"}, {"alias": "salad", "title": "Salad"}, {"alias": "sandwiches", "title": "Sandwiches"}], "rating": 2.5, "coordinates": {"latitude": 42.45471, "longitude": -73.2527099}, "transactions": ["delivery"], "price": "$", "location": {"address1": "413 North St", "address2": null, "address3": null, "city": "Pittsfield", "zip_code": "01201", "country": "US", "state": "MA", "display_address": ["413 North St", "Pittsfield, MA 01201"]}, "phone": "+14134430043", "display_phone": "(413) 443-0043", "distance": 14645.696272784495}, {"id": "j0gbnpRxeNXdAUkM7v07tA", "alias": "angelinas-submarine-shops-pittsfield-3", "name": "Angelina's Submarine Shops", "image_url": "https://s3-media2.fl.yelpcdn.com/bphoto/boTt2q-zakPxgJ96TBvKUA/o.jpg", "is_closed": false, "url": "https://www.yelp.com/biz/angelinas-submarine-shops-pittsfield-3?adjust_creative=h5HwbyQ0TYvQjBo6Ys5Bgw&utm_campaign=yelp_api_v3&utm_medium=api_v3_business_search&utm_source=h5HwbyQ0TYvQjBo6Ys5Bgw", "review_count": 8, "categories": [{"alias": "sandwiches", "title": "Sandwiches"}], "rating": 3.0, "coordinates": {"latitude": 42.4446907, "longitude": -73.2400894}, "transactions": ["delivery"], "price": "$", "location": {"address1": "133 Elm St", "address2": null, "address3": null, "city": "Pittsfield", "zip_code": "01201", "country": "US", "state": "MA", "display_address": ["133 Elm St", "Pittsfield, MA 01201"]}, "phone": "+14134998892", "display_phone": "(413) 499-8892", "distance": 13473.695939161507}, {"id": "j9UeZCXnFfeMlwqFnIXfCw", "alias": "wendys-pittsfield-2", "name": "Wendy's", "image_url": "https://s3-media1.fl.yelpcdn.com/bphoto/PXtaHMk789N-we_ZBFnlhQ/o.jpg", "is_closed": false, "url": "https://www.yelp.com/biz/wendys-pittsfield-2?adjust_creative=h5HwbyQ0TYvQjBo6Ys5Bgw&utm_campaign=yelp_api_v3&utm_medium=api_v3_business_search&utm_source=h5HwbyQ0TYvQjBo6Ys5Bgw", "review_count": 17, "categories": [{"alias": "hotdogs", "title": "Fast Food"}, {"alias": "burgers", "title": "Burgers"}], "rating": 2.5, "coordinates": {"latitude": 42.468646, "longitude": -73.195668}, "transactions": ["delivery"], "price": "$", "location": {"address1": "556 Hubbard Avenue", "address2": "", "address3": "", "city": "Pittsfield", "zip_code": "01201", "country": "US", "state": "MA", "display_address": ["556 Hubbard Avenue", "Pittsfield, MA 01201"]}, "phone": "+14134422053", "display_phone": "(413) 442-2053", "distance": 10602.832061575376}, {"id": "KWeBXXzXh9OFbPqCm4_-nA", "alias": "panera-bread-pittsfield", "name": "Panera Bread", "image_url": "https://s3-media3.fl.yelpcdn.com/bphoto/uamCSTPMYSB1mNZV221n9g/o.jpg", "is_closed": false, "url": "https://www.yelp.com/biz/panera-bread-pittsfield?adjust_creative=h5HwbyQ0TYvQjBo6Ys5Bgw&utm_campaign=yelp_api_v3&utm_medium=api_v3_business_search&utm_source=h5HwbyQ0TYvQjBo6Ys5Bgw", "review_count": 18, "categories": [{"alias": "sandwiches", "title": "Sandwiches"}, {"alias": "salad", "title": "Salad"}, {"alias": "soup", "title": "Soup"}], "rating": 2.5, "coordinates": {"latitude": 42.465182, "longitude": -73.206932}, "transactions": [], "price": "$$", "location": {"address1": "635 Merrill Rd", "address2": null, "address3": null, "city": "Pittsfield", "zip_code": "01201", "country": "US", "state": "MA", "display_address": ["635 Merrill Rd", "Pittsfield, MA 01201"]}, "phone": "+14134433200", "display_phone": "(413) 443-3200", "distance": 11322.68754258035}, {"id": "LsJESTdNxIHgnlsYiep9YA", "alias": "parkside-restaurant-pittsfield", "name": "Parkside Restaurant", "image_url": "", "is_closed": false, "url": "https://www.yelp.com/biz/parkside-restaurant-pittsfield?adjust_creative=h5HwbyQ0TYvQjBo6Ys5Bgw&utm_campaign=yelp_api_v3&utm_medium=api_v3_business_search&utm_source=h5HwbyQ0TYvQjBo6Ys5Bgw", "review_count": 1, "categories": [{"alias": "restaurants", "title": "Restaurants"}], "rating": 1.0, "coordinates": {"latitude": 42.4428520202637, "longitude": -73.2650604248047}, "transactions": [], "location": {"address1": "220 W Housatonic St", "address2": "", "address3": "", "city": "Pittsfield", "zip_code": "01201", "country": "US", "state": "MA", "display_address": ["220 W Housatonic St", "Pittsfield, MA 01201"]}, "phone": "+14134479536", "display_phone": "(413) 447-9536", "distance": 15492.638366471863}, {"id": "eJuEEKGzbvtlLHXSblxR7Q", "alias": "dominos-pizza-pittsfield", "name": "Domino's Pizza", "image_url": "https://s3-media2.fl.yelpcdn.com/bphoto/LPePHVq_IXpXsw-ApM5XVw/o.jpg", "is_closed": false, "url": "https://www.yelp.com/biz/dominos-pizza-pittsfield?adjust_creative=h5HwbyQ0TYvQjBo6Ys5Bgw&utm_campaign=yelp_api_v3&utm_medium=api_v3_business_search&utm_source=h5HwbyQ0TYvQjBo6Ys5Bgw", "review_count": 7, "categories": [{"alias": "pizza", "title": "Pizza"}, {"alias": "chicken_wings", "title": "Chicken Wings"}, {"alias": "sandwiches", "title": "Sandwiches"}], "rating": 3.5, "coordinates": {"latitude": 42.44263, "longitude": -73.23051}, "transactions": [], "price": "$", "location": {"address1": "321 1/2 Elm St", "address2": "", "address3": "", "city": "Pittsfield", "zip_code": "01201", "country": "US", "state": "MA", "display_address": ["321 1/2 Elm St", "Pittsfield, MA 01201"]}, "phone": "+14134993994", "display_phone": "(413) 499-3994", "distance": 12665.019622622387}, {"id": "2-qHSKRWlFMEBRiRbRSrzg", "alias": "villa-pizza-lee", "name": "Villa Pizza", "image_url": "https://s3-media4.fl.yelpcdn.com/bphoto/_OxZVubHLEvolZjZD3P9yg/o.jpg", "is_closed": false, "url": "https://www.yelp.com/biz/villa-pizza-lee?adjust_creative=h5HwbyQ0TYvQjBo6Ys5Bgw&utm_campaign=yelp_api_v3&utm_medium=api_v3_business_search&utm_source=h5HwbyQ0TYvQjBo6Ys5Bgw", "review_count": 1, "categories": [{"alias": "pizza", "title": "Pizza"}], "rating": 2.0, "coordinates": {"latitude": 42.294695, "longitude": -73.23371}, "transactions": [], "location": {"address1": "50 Water St", "address2": "", "address3": "", "city": "Lee", "zip_code": "01238", "country": "US", "state": "MA", "display_address": ["50 Water St", "Lee, MA 01238"]}, "phone": "+14133949940", "display_phone": "(413) 394-9940", "distance": 19891.586236601983}, {"id": "4NosW9Y5YnRNcqbRxR_ySw", "alias": "fresh-city-lee", "name": "Fresh City", "image_url": "https://s3-media2.fl.yelpcdn.com/bphoto/yAdVL_Tv2vTtdKd2oe3EUQ/o.jpg", "is_closed": false, "url": "https://www.yelp.com/biz/fresh-city-lee?adjust_creative=h5HwbyQ0TYvQjBo6Ys5Bgw&utm_campaign=yelp_api_v3&utm_medium=api_v3_business_search&utm_source=h5HwbyQ0TYvQjBo6Ys5Bgw", "review_count": 15, "categories": [{"alias": "food_court", "title": "Food Court"}], "rating": 2.0, "coordinates": {"latitude": 42.3054990935517, "longitude": -73.2489395141602}, "transactions": [], "price": "$", "location": {"address1": "370 Stockbridge Rd", "address2": "", "address3": "", "city": "Lee", "zip_code": "01238", "country": "US", "state": "MA", "display_address": ["370 Stockbridge Rd", "Lee, MA 01238"]}, "phone": "+14132433268", "display_phone": "(413) 243-3268", "distance": 19861.130796513185}, {"id": "dEt-yktUtzEXyyspQfm_fQ", "alias": "orient-taste-lee", "name": "Orient Taste", "image_url": "https://s3-media2.fl.yelpcdn.com/bphoto/ieopyNkFT4bVtLzNmz3CZw/o.jpg", "is_closed": false, "url": "https://www.yelp.com/biz/orient-taste-lee?adjust_creative=h5HwbyQ0TYvQjBo6Ys5Bgw&utm_campaign=yelp_api_v3&utm_medium=api_v3_business_search&utm_source=h5HwbyQ0TYvQjBo6Ys5Bgw", "review_count": 2, "categories": [{"alias": "chinese", "title": "Chinese"}], "rating": 1.0, "coordinates": {"latitude": 42.294122, "longitude": -73.233635}, "transactions": [], "price": "$$", "location": {"address1": "50 Water St", "address2": "", "address3": "", "city": "Lee", "zip_code": "01238", "country": "US", "state": "MA", "display_address": ["50 Water St", "Lee, MA 01238"]}, "phone": "+14132436028", "display_phone": "(413) 243-6028", "distance": 19936.238829310918}, {"id": "G2TCWZQrMbz70Er_JimNJA", "alias": "subway-pittsfield-16", "name": "Subway", "image_url": "https://s3-media1.fl.yelpcdn.com/bphoto/Oha4-dP6Od1x5pfF5Fj7vA/o.jpg", "is_closed": false, "url": "https://www.yelp.com/biz/subway-pittsfield-16?adjust_creative=h5HwbyQ0TYvQjBo6Ys5Bgw&utm_campaign=yelp_api_v3&utm_medium=api_v3_business_search&utm_source=h5HwbyQ0TYvQjBo6Ys5Bgw", "review_count": 4, "categories": [{"alias": "sandwiches", "title": "Sandwiches"}], "rating": 3.0, "coordinates": {"latitude": 42.4439050543705, "longitude": -73.2547261}, "transactions": [], "price": "$", "location": {"address1": "179 South St", "address2": "", "address3": "", "city": "Pittsfield", "zip_code": "01201", "country": "US", "state": "MA", "display_address": ["179 South St", "Pittsfield, MA 01201"]}, "phone": "+14134990048", "display_phone": "(413) 499-0048", "distance": 14660.402972263015}, {"id": "3TyINqqzEADspKjjStQOsQ", "alias": "mcdonalds-pittsfield", "name": "McDonald's", "image_url": "https://s3-media3.fl.yelpcdn.com/bphoto/JeCD1DpJ1rrasg9aYG7Eew/o.jpg", "is_closed": false, "url": "https://www.yelp.com/biz/mcdonalds-pittsfield?adjust_creative=h5HwbyQ0TYvQjBo6Ys5Bgw&utm_campaign=yelp_api_v3&utm_medium=api_v3_business_search&utm_source=h5HwbyQ0TYvQjBo6Ys5Bgw", "review_count": 5, "categories": [{"alias": "coffee", "title": "Coffee & Tea"}, {"alias": "burgers", "title": "Burgers"}, {"alias": "hotdogs", "title": "Fast Food"}], "rating": 3.0, "coordinates": {"latitude": 42.468519, "longitude": -73.2040031329598}, "transactions": [], "price": "$", "location": {"address1": "61 Cheshire Rd", "address2": "", "address3": "", "city": "Pittsfield", "zip_code": "01201", "country": "US", "state": "MA", "display_address": ["61 Cheshire Rd", "Pittsfield, MA 01201"]}, "phone": "+14134424602", "display_phone": "(413) 442-4602", "distance": 11228.805469525205}, {"id": "JdgwEC4QOezifl1_1dtCXA", "alias": "taco-bell-pittsfield-2", "name": "Taco Bell", "image_url": "https://s3-media1.fl.yelpcdn.com/bphoto/SDdSHQO3GYmXloHlSlEiKQ/o.jpg", "is_closed": false, "url": "https://www.yelp.com/biz/taco-bell-pittsfield-2?adjust_creative=h5HwbyQ0TYvQjBo6Ys5Bgw&utm_campaign=yelp_api_v3&utm_medium=api_v3_business_search&utm_source=h5HwbyQ0TYvQjBo6Ys5Bgw", "review_count": 15, "categories": [{"alias": "hotdogs", "title": "Fast Food"}, {"alias": "tacos", "title": "Tacos"}], "rating": 2.5, "coordinates": {"latitude": 42.4690315746512, "longitude": -73.1969030708575}, "transactions": ["delivery"], "price": "$", "location": {"address1": "555 Hubbard Ave", "address2": "", "address3": "", "city": "Pittsfield", "zip_code": "01201", "country": "US", "state": "MA", "display_address": ["555 Hubbard Ave", "Pittsfield, MA 01201"]}, "phone": "+14134421007", "display_phone": "(413) 442-1007", "distance": 10712.451186679975}, {"id": "RSZ2RNa8ckSPTlLmpff1hw", "alias": "burger-king-pittsfield-2", "name": "Burger King", "image_url": "https://s3-media1.fl.yelpcdn.com/bphoto/YJuSy1BcNBWa1iw33Gc5QQ/o.jpg", "is_closed": false, "url": "https://www.yelp.com/biz/burger-king-pittsfield-2?adjust_creative=h5HwbyQ0TYvQjBo6Ys5Bgw&utm_campaign=yelp_api_v3&utm_medium=api_v3_business_search&utm_source=h5HwbyQ0TYvQjBo6Ys5Bgw", "review_count": 4, "categories": [{"alias": "burgers", "title": "Burgers"}, {"alias": "hotdogs", "title": "Fast Food"}], "rating": 2.5, "coordinates": {"latitude": 42.44886, "longitude": -73.25139}, "transactions": [], "price": "$", "location": {"address1": "29 First Street", "address2": "", "address3": "", "city": "Pittsfield", "zip_code": "01201", "country": "US", "state": "MA", "display_address": ["29 First Street", "Pittsfield, MA 01201"]}, "phone": "", "display_phone": "", "distance": 14439.422948836369}, {"id": "TIYWAT8N9h-K2loTE-HH4A", "alias": "subway-lee-5", "name": "Subway", "image_url": "https://s3-media3.fl.yelpcdn.com/bphoto/XLEgFt-LDGyaXTFgPgYVBg/o.jpg", "is_closed": false, "url": "https://www.yelp.com/biz/subway-lee-5?adjust_creative=h5HwbyQ0TYvQjBo6Ys5Bgw&utm_campaign=yelp_api_v3&utm_medium=api_v3_business_search&utm_source=h5HwbyQ0TYvQjBo6Ys5Bgw", "review_count": 3, "categories": [{"alias": "sandwiches", "title": "Sandwiches"}], "rating": 3.0, "coordinates": {"latitude": 42.3092762, "longitude": -73.2511555276127}, "transactions": [], "price": "$", "location": {"address1": "236 Main St", "address2": null, "address3": null, "city": "Lee", "zip_code": "01238", "country": "US", "state": "MA", "display_address": ["236 Main St", "Lee, MA 01238"]}, "phone": "+14132434142", "display_phone": "(413) 243-4142", "distance": 19699.83775707768}, {"id": "JzFcNSTefetIDqcxnMRq8A", "alias": "angelinas-submarine-shops-pittsfield", "name": "Angelina's Submarine Shops", "image_url": "", "is_closed": false, "url": "https://www.yelp.com/biz/angelinas-submarine-shops-pittsfield?adjust_creative=h5HwbyQ0TYvQjBo6Ys5Bgw&utm_campaign=yelp_api_v3&utm_medium=api_v3_business_search&utm_source=h5HwbyQ0TYvQjBo6Ys5Bgw", "review_count": 7, "categories": [{"alias": "sandwiches", "title": "Sandwiches"}, {"alias": "salad", "title": "Salad"}, {"alias": "burgers", "title": "Burgers"}], "rating": 3.0, "coordinates": {"latitude": 42.457275390625, "longitude": -73.2288513183594}, "transactions": ["delivery", "pickup"], "price": "$", "location": {"address1": "100 Dalton Ave", "address2": "", "address3": "", "city": "Pittsfield", "zip_code": "01201", "country": "US", "state": "MA", "display_address": ["100 Dalton Ave", "Pittsfield, MA 01201"]}, "phone": "+14134439875", "display_phone": "(413) 443-9875", "distance": 12810.281361984753}, {"id": "zf-nxO_RnpkuZwVPU0JknQ", "alias": "court-square-breakfast-and-deli-pittsfield", "name": "Court Square Breakfast & Deli", "image_url": "https://s3-media2.fl.yelpcdn.com/bphoto/ZPpPVGSxyEDjfJJ9edXxTg/o.jpg", "is_closed": false, "url": "https://www.yelp.com/biz/court-square-breakfast-and-deli-pittsfield?adjust_creative=h5HwbyQ0TYvQjBo6Ys5Bgw&utm_campaign=yelp_api_v3&utm_medium=api_v3_business_search&utm_source=h5HwbyQ0TYvQjBo6Ys5Bgw", "review_count": 1, "categories": [{"alias": "breakfast_brunch", "title": "Breakfast & Brunch"}], "rating": 3.0, "coordinates": {"latitude": 42.4482234567404, "longitude": -73.2521011680365}, "transactions": [], "price": "$", "location": {"address1": "95 East St", "address2": "", "address3": "", "city": "Pittsfield", "zip_code": "01201", "country": "US", "state": "MA", "display_address": ["95 East St", "Pittsfield, MA 01201"]}, "phone": "+14134429896", "display_phone": "(413) 442-9896", "distance": 14492.50232454483}, {"id": "1T67DQkg_Guyvlkqhqu7Mw", "alias": "mcdonalds-lee", "name": "McDonald's", "image_url": "https://s3-media3.fl.yelpcdn.com/bphoto/wQLfIJNysnYKaJsoDropJg/o.jpg", "is_closed": false, "url": "https://www.yelp.com/biz/mcdonalds-lee?adjust_creative=h5HwbyQ0TYvQjBo6Ys5Bgw&utm_campaign=yelp_api_v3&utm_medium=api_v3_business_search&utm_source=h5HwbyQ0TYvQjBo6Ys5Bgw", "review_count": 7, "categories": [{"alias": "burgers", "title": "Burgers"}, {"alias": "hotdogs", "title": "Fast Food"}, {"alias": "coffee", "title": "Coffee & Tea"}], "rating": 2.5, "coordinates": {"latitude": 42.2969521, "longitude": -73.274561}, "transactions": [], "price": "$", "location": {"address1": "370 W Stockbridge Rd", "address2": "", "address3": "", "city": "Lee", "zip_code": "01238", "country": "US", "state": "MA", "display_address": ["370 W Stockbridge Rd", "Lee, MA 01238"]}, "phone": "+14132434666", "display_phone": "(413) 243-4666", "distance": 22042.01159582839}, {"id": "F5RjLFPDJzWnN3fbL0-gDg", "alias": "mcdonalds-pittsfield-2", "name": "McDonald's", "image_url": "https://s3-media1.fl.yelpcdn.com/bphoto/GSTZvTKKW65XCBu70oor-w/o.jpg", "is_closed": false, "url": "https://www.yelp.com/biz/mcdonalds-pittsfield-2?adjust_creative=h5HwbyQ0TYvQjBo6Ys5Bgw&utm_campaign=yelp_api_v3&utm_medium=api_v3_business_search&utm_source=h5HwbyQ0TYvQjBo6Ys5Bgw", "review_count": 9, "categories": [{"alias": "burgers", "title": "Burgers"}, {"alias": "hotdogs", "title": "Fast Food"}, {"alias": "coffee", "title": "Coffee & Tea"}], "rating": 2.0, "coordinates": {"latitude": 42.442670060133, "longitude": -73.2749373774732}, "transactions": [], "price": "$", "location": {"address1": "445 W Housatonic St", "address2": "", "address3": "", "city": "Pittsfield", "zip_code": "01201", "country": "US", "state": "MA", "display_address": ["445 W Housatonic St", "Pittsfield, MA 01201"]}, "phone": "+14134424629", "display_phone": "(413) 442-4629", "distance": 16300.530289550974}, {"id": "-IWUXpBpMv1tPQKwXzA6mQ", "alias": "burger-king-lenox", "name": "Burger King", "image_url": "https://s3-media4.fl.yelpcdn.com/bphoto/H48TdBqy4qWwh-lZPk4tng/o.jpg", "is_closed": false, "url": "https://www.yelp.com/biz/burger-king-lenox?adjust_creative=h5HwbyQ0TYvQjBo6Ys5Bgw&utm_campaign=yelp_api_v3&utm_medium=api_v3_business_search&utm_source=h5HwbyQ0TYvQjBo6Ys5Bgw", "review_count": 6, "categories": [{"alias": "burgers", "title": "Burgers"}, {"alias": "hotdogs", "title": "Fast Food"}], "rating": 2.0, "coordinates": {"latitude": 42.403848, "longitude": -73.265098}, "transactions": [], "price": "$", "location": {"address1": "500 Pittsfield Rd", "address2": "", "address3": "", "city": "Lenox", "zip_code": "01240", "country": "US", "state": "MA", "display_address": ["500 Pittsfield Rd", "Lenox, MA 01240"]}, "phone": "", "display_phone": "", "distance": 15738.811214884161}, {"id": "xeVfQxBzL4VmaH3gVLwwgA", "alias": "subway-pittsfield-15", "name": "Subway", "image_url": "https://s3-media3.fl.yelpcdn.com/bphoto/RlP8wlwgOMB0sWaAUZymsw/o.jpg", "is_closed": false, "url": "https://www.yelp.com/biz/subway-pittsfield-15?adjust_creative=h5HwbyQ0TYvQjBo6Ys5Bgw&utm_campaign=yelp_api_v3&utm_medium=api_v3_business_search&utm_source=h5HwbyQ0TYvQjBo6Ys5Bgw", "review_count": 2, "categories": [{"alias": "sandwiches", "title": "Sandwiches"}], "rating": 1.5, "coordinates": {"latitude": 42.4761589512098, "longitude": -73.2646737913772}, "transactions": [], "price": "$", "location": {"address1": "370 Pecks Rd", "address2": null, "address3": null, "city": "Pittsfield", "zip_code": "01201", "country": "US", "state": "MA", "display_address": ["370 Pecks Rd", "Pittsfield, MA 01201"]}, "phone": "+14134488001", "display_phone": "(413) 448-8001", "distance": 16199.93952419443}, {"id": "1KvLXb2nhGIUXwFUmfYolw", "alias": "subway-lee-6", "name": "Subway", "image_url": "https://s3-media2.fl.yelpcdn.com/bphoto/S_313jZ8G7Mzgzlegnia4Q/o.jpg", "is_closed": false, "url": "https://www.yelp.com/biz/subway-lee-6?adjust_creative=h5HwbyQ0TYvQjBo6Ys5Bgw&utm_campaign=yelp_api_v3&utm_medium=api_v3_business_search&utm_source=h5HwbyQ0TYvQjBo6Ys5Bgw", "review_count": 3, "categories": [{"alias": "sandwiches", "title": "Sandwiches"}], "rating": 1.5, "coordinates": {"latitude": 42.294582, "longitude": -73.233724}, "transactions": [], "price": "$", "location": {"address1": "50 Water St", "address2": "Unit H380D", "address3": "", "city": "Lee", "zip_code": "01238", "country": "US", "state": "MA", "display_address": ["50 Water St", "Unit H380D", "Lee, MA 01238"]}, "phone": "+14132438292", "display_phone": "(413) 243-8292", "distance": 19891.864077248312}, {"id": "OKFMX6hUhzA2MfnyrSRnFg", "alias": "mcdonalds-lee-6", "name": "McDonald's", "image_url": "https://s3-media1.fl.yelpcdn.com/bphoto/CAKblQXDMWh4Zy881GXPFg/o.jpg", "is_closed": false, "url": "https://www.yelp.com/biz/mcdonalds-lee-6?adjust_creative=h5HwbyQ0TYvQjBo6Ys5Bgw&utm_campaign=yelp_api_v3&utm_medium=api_v3_business_search&utm_source=h5HwbyQ0TYvQjBo6Ys5Bgw", "review_count": 5, "categories": [{"alias": "burgers", "title": "Burgers"}, {"alias": "hotdogs", "title": "Fast Food"}, {"alias": "coffee", "title": "Coffee & Tea"}], "rating": 2.0, "coordinates": {"latitude": 42.298505, "longitude": -73.27465333}, "transactions": [], "price": "$", "location": {"address1": "240 West Rd", "address2": "", "address3": "", "city": "Lee", "zip_code": "01238", "country": "US", "state": "MA", "display_address": ["240 West Rd", "Lee, MA 01238"]}, "phone": "+14132436695", "display_phone": "(413) 243-6695", "distance": 21929.06153992783}, {"id": "y-WH9WEyQNpsAWCoffxn1A", "alias": "mcdonalds-lee-4", "name": "McDonald's", "image_url": "https://s3-media2.fl.yelpcdn.com/bphoto/wjob_R0ECBWIvqTEItS3pw/o.jpg", "is_closed": false, "url": "https://www.yelp.com/biz/mcdonalds-lee-4?adjust_creative=h5HwbyQ0TYvQjBo6Ys5Bgw&utm_campaign=yelp_api_v3&utm_medium=api_v3_business_search&utm_source=h5HwbyQ0TYvQjBo6Ys5Bgw", "review_count": 9, "categories": [{"alias": "burgers", "title": "Burgers"}, {"alias": "hotdogs", "title": "Fast Food"}, {"alias": "coffee", "title": "Coffee & Tea"}], "rating": 2.0, "coordinates": {"latitude": 42.2991668943395, "longitude": -73.240801692009}, "transactions": [], "price": "$", "location": {"address1": "245 Housatonic St", "address2": "", "address3": "", "city": "Lee", "zip_code": "01238", "country": "US", "state": "MA", "display_address": ["245 Housatonic St", "Lee, MA 01238"]}, "phone": "+14132432253", "display_phone": "(413) 243-2253", "distance": 19904.391078106753}, {"id": "qqA8YX58xnmEXLyanHfdUg", "alias": "stufd-food-truck-brooklyn", "name": "Stuf'd Food Truck", "image_url": "https://s3-media2.fl.yelpcdn.com/bphoto/_Wn0i-tLIOFinw8BPAqxPA/o.jpg", "is_closed": false, "url": "https://www.yelp.com/biz/stufd-food-truck-brooklyn?adjust_creative=h5HwbyQ0TYvQjBo6Ys5Bgw&utm_campaign=yelp_api_v3&utm_medium=api_v3_business_search&utm_source=h5HwbyQ0TYvQjBo6Ys5Bgw", "review_count": 4, "categories": [{"alias": "sandwiches", "title": "Sandwiches"}, {"alias": "foodtrucks", "title": "Food Trucks"}], "rating": 4.0, "coordinates": {"latitude": 40.7124539, "longitude": -73.9287374}, "transactions": [], "location": {"address1": "178 Varick Ave", "address2": "", "address3": null, "city": "Brooklyn", "zip_code": "11237", "country": "US", "state": "NY", "display_address": ["178 Varick Ave", "Brooklyn, NY 11237"]}, "phone": "+18457091808", "display_phone": "(845) 709-1808", "distance": 203806.27169416987}]