[{"id": "jRkRfmnAWeioG1YSB0-V6A", "alias": "the-alvah-stone-montague", "name": "The Alvah Stone", "image_url": "https://s3-media2.fl.yelpcdn.com/bphoto/WZarGmnHvPAsgoIF5mKRqw/o.jpg", "is_closed": false, "url": "https://www.yelp.com/biz/the-alvah-stone-montague?adjust_creative=asslzE1UV0XuKI953B1vtw&utm_campaign=yelp_api_v3&utm_medium=api_v3_business_search&utm_source=asslzE1UV0XuKI953B1vtw", "review_count": 195, "categories": [{"alias": "bars", "title": "Bars"}, {"alias": "tradamerican", "title": "American (Traditional)"}, {"alias": "newamerican", "title": "American (New)"}], "rating": 4.0, "coordinates": {"latitude": 42.537929, "longitude": -72.5372039}, "transactions": ["delivery", "restaurant_reservation"], "price": "$$", "location": {"address1": "440 Greenfield Rd", "address2": null, "address3": "", "city": "Montague", "zip_code": "01351", "country": "US", "state": "MA", "display_address": ["440 Greenfield Rd", "Montague, MA 01351"]}, "phone": "+14133675345", "display_phone": "(413) 367-5345", "distance": 12681.71753345426}, {"id": "lUxVsuNo5syFd_cxEplvaA", "alias": "herricks-tavern-orange", "name": "Herrick's Tavern", "image_url": "https://s3-media1.fl.yelpcdn.com/bphoto/mAHqpOXGI32xph2DHpHtHg/o.jpg", "is_closed": false, "url": "https://www.yelp.com/biz/herricks-tavern-orange?adjust_creative=asslzE1UV0XuKI953B1vtw&utm_campaign=yelp_api_v3&utm_medium=api_v3_business_search&utm_source=asslzE1UV0XuKI953B1vtw", "review_count": 49, "categories": [{"alias": "tradamerican", "title": "American (Traditional)"}, {"alias": "sportsbars", "title": "Sports Bars"}], "rating": 4.0, "coordinates": {"latitude": 42.5542299, "longitude": -72.28915}, "transactions": [], "price": "$$", "location": {"address1": "207 Daniel Shays Hwy", "address2": null, "address3": null, "city": "Orange", "zip_code": "01364", "country": "US", "state": "MA", "display_address": ["207 Daniel Shays Hwy", "Orange, MA 01364"]}, "phone": "+19785443902", "display_phone": "(978) 544-3902", "distance": 14913.003200881716}, {"id": "ZrnKQkZYNw_otzzh6EIiHQ", "alias": "blue-heron-restaurant-sunderland", "name": "Blue Heron Restaurant", "image_url": "https://s3-media3.fl.yelpcdn.com/bphoto/IdK76wlrON2OqFado0LeKQ/o.jpg", "is_closed": false, "url": "https://www.yelp.com/biz/blue-heron-restaurant-sunderland?adjust_creative=asslzE1UV0XuKI953B1vtw&utm_campaign=yelp_api_v3&utm_medium=api_v3_business_search&utm_source=asslzE1UV0XuKI953B1vtw", "review_count": 116, "categories": [{"alias": "newamerican", "title": "American (New)"}], "rating": 4.0, "coordinates": {"latitude": 42.46719, "longitude": -72.57818}, "transactions": ["delivery"], "price": "$$$", "location": {"address1": "112 N Main St", "address2": "", "address3": "", "city": "Sunderland", "zip_code": "01375", "country": "US", "state": "MA", "display_address": ["112 N Main St", "Sunderland, MA 01375"]}, "phone": "+14136652102", "display_phone": "(413) 665-2102", "distance": 12859.31174835164}, {"id": "vuakpKxCBDz6kezGY2Os8Q", "alias": "hope-and-olive-greenfield", "name": "Hope & Olive", "image_url": "https://s3-media1.fl.yelpcdn.com/bphoto/JXgp6DSGLyNQUmPdvjgbDA/o.jpg", "is_closed": false, "url": "https://www.yelp.com/biz/hope-and-olive-greenfield?adjust_creative=asslzE1UV0XuKI953B1vtw&utm_campaign=yelp_api_v3&utm_medium=api_v3_business_search&utm_source=asslzE1UV0XuKI953B1vtw", "review_count": 261, "categories": [{"alias": "tradamerican", "title": "American (Traditional)"}, {"alias": "bars", "title": "Bars"}], "rating": 4.0, "coordinates": {"latitude": 42.5862655639648, "longitude": -72.5992050170898}, "transactions": ["delivery"], "price": "$$", "location": {"address1": "44 Hope St", "address2": "", "address3": "", "city": "Greenfield", "zip_code": "01301", "country": "US", "state": "MA", "display_address": ["44 Hope St", "Greenfield, MA 01301"]}, "phone": "+14137743150", "display_phone": "(413) 774-3150", "distance": 20060.011573517546}, {"id": "gjEJbmb3zxK79b1gCZkEUw", "alias": "north-hot-pot-amherst", "name": "North Hot Pot", "image_url": "https://s3-media2.fl.yelpcdn.com/bphoto/Xm6uqML_YYRG1sn2cy-YYw/o.jpg", "is_closed": false, "url": "https://www.yelp.com/biz/north-hot-pot-amherst?adjust_creative=asslzE1UV0XuKI953B1vtw&utm_campaign=yelp_api_v3&utm_medium=api_v3_business_search&utm_source=asslzE1UV0XuKI953B1vtw", "review_count": 31, "categories": [{"alias": "chinese", "title": "Chinese"}, {"alias": "hotpot", "title": "Hot Pot"}], "rating": 4.5, "coordinates": {"latitude": 42.37233, "longitude": -72.49943}, "transactions": ["delivery"], "location": {"address1": "20 Belchertown Rd", "address2": null, "address3": "", "city": "Amherst", "zip_code": "01002", "country": "US", "state": "MA", "display_address": ["20 Belchertown Rd", "Amherst, MA 01002"]}, "phone": "+14138350351", "display_phone": "(413) 835-0351", "distance": 11771.296573991453}, {"id": "Ie-qeBdtdOavjzdQPH1IGw", "alias": "osteria-vespa-amherst", "name": "Osteria Vespa", "image_url": "https://s3-media2.fl.yelpcdn.com/bphoto/oKJx3-9rIr-8_CJ10HkaSQ/o.jpg", "is_closed": false, "url": "https://www.yelp.com/biz/osteria-vespa-amherst?adjust_creative=asslzE1UV0XuKI953B1vtw&utm_campaign=yelp_api_v3&utm_medium=api_v3_business_search&utm_source=asslzE1UV0XuKI953B1vtw", "review_count": 90, "categories": [{"alias": "italian", "title": "Italian"}, {"alias": "mediterranean", "title": "Mediterranean"}], "rating": 4.0, "coordinates": {"latitude": 42.375387, "longitude": -72.52048}, "transactions": ["delivery", "restaurant_reservation"], "price": "$$$", "location": {"address1": "28 Amity St", "address2": "", "address3": "", "city": "Amherst", "zip_code": "01002", "country": "US", "state": "MA", "display_address": ["28 Amity St", "Amherst, MA 01002"]}, "phone": "+14132303194", "display_phone": "(413) 230-3194", "distance": 12581.319234602459}, {"id": "o9QX_uCqOVdwk3Gvy34Bng", "alias": "great-falls-harvest-turners-falls", "name": "Great Falls Harvest", "image_url": "https://s3-media4.fl.yelpcdn.com/bphoto/OkD_KkZ6Kve21zBRzA_kKg/o.jpg", "is_closed": false, "url": "https://www.yelp.com/biz/great-falls-harvest-turners-falls?adjust_creative=asslzE1UV0XuKI953B1vtw&utm_campaign=yelp_api_v3&utm_medium=api_v3_business_search&utm_source=asslzE1UV0XuKI953B1vtw", "review_count": 46, "categories": [{"alias": "diners", "title": "Diners"}, {"alias": "salad", "title": "Salad"}], "rating": 4.5, "coordinates": {"latitude": 42.6080433, "longitude": -72.5566357}, "transactions": [], "price": "$$", "location": {"address1": "50 3rd St", "address2": "", "address3": "", "city": "Turners Falls", "zip_code": "01376", "country": "US", "state": "MA", "display_address": ["50 3rd St", "Turners Falls, MA 01376"]}, "phone": "+14138630023", "display_phone": "(413) 863-0023", "distance": 19644.827597632626}, {"id": "I3UE0kzvpVOnfIGUYMzZyg", "alias": "the-lady-killigrew-cafe-montague", "name": "The Lady Killigrew Cafe", "image_url": "https://s3-media3.fl.yelpcdn.com/bphoto/3u0HBieTFTsTE-QN8Ng14w/o.jpg", "is_closed": false, "url": "https://www.yelp.com/biz/the-lady-killigrew-cafe-montague?adjust_creative=asslzE1UV0XuKI953B1vtw&utm_campaign=yelp_api_v3&utm_medium=api_v3_business_search&utm_source=asslzE1UV0XuKI953B1vtw", "review_count": 117, "categories": [{"alias": "coffee", "title": "Coffee & Tea"}, {"alias": "sandwiches", "title": "Sandwiches"}, {"alias": "desserts", "title": "Desserts"}], "rating": 4.5, "coordinates": {"latitude": 42.5377464294434, "longitude": -72.5371627807617}, "transactions": ["delivery"], "price": "$$", "location": {"address1": "440 Greenfield Rd", "address2": "", "address3": "", "city": "Montague", "zip_code": "01351", "country": "US", "state": "MA", "display_address": ["440 Greenfield Rd", "Montague, MA 01351"]}, "phone": "+14133679666", "display_phone": "(413) 367-9666", "distance": 12681.46882745355}, {"id": "T-Ouo3opXRiUEyGoBT0aoA", "alias": "the-harp-irish-pub-amherst-2", "name": "The Harp Irish Pub", "image_url": "https://s3-media4.fl.yelpcdn.com/bphoto/C6s2T_vWP916-VZoHhMzjQ/o.jpg", "is_closed": false, "url": "https://www.yelp.com/biz/the-harp-irish-pub-amherst-2?adjust_creative=asslzE1UV0XuKI953B1vtw&utm_campaign=yelp_api_v3&utm_medium=api_v3_business_search&utm_source=asslzE1UV0XuKI953B1vtw", "review_count": 32, "categories": [{"alias": "irish_pubs", "title": "Irish Pub"}, {"alias": "seafood", "title": "Seafood"}], "rating": 4.0, "coordinates": {"latitude": 42.4156, "longitude": -72.5328399}, "transactions": ["delivery"], "price": "$$", "location": {"address1": "163 Sunderland Rd", "address2": "", "address3": "", "city": "Amherst", "zip_code": "01002", "country": "US", "state": "MA", "display_address": ["163 Sunderland Rd", "Amherst, MA 01002"]}, "phone": "+14138350050", "display_phone": "(413) 835-0050", "distance": 10456.579445768346}, {"id": "RjcmsCplUC_ZFvaJb2nfMA", "alias": "gianni-figs-ristorante-deerfield", "name": "Gianni Fig's Ristorante", "image_url": "https://s3-media1.fl.yelpcdn.com/bphoto/SWZ-jpqvOAfR3OM4KI_rLg/o.jpg", "is_closed": false, "url": "https://www.yelp.com/biz/gianni-figs-ristorante-deerfield?adjust_creative=asslzE1UV0XuKI953B1vtw&utm_campaign=yelp_api_v3&utm_medium=api_v3_business_search&utm_source=asslzE1UV0XuKI953B1vtw", "review_count": 30, "categories": [{"alias": "italian", "title": "Italian"}], "rating": 4.0, "coordinates": {"latitude": 42.4775047039286, "longitude": -72.609119691213}, "transactions": ["delivery"], "location": {"address1": "6 Elm St", "address2": "", "address3": null, "city": "Deerfield", "zip_code": "01373", "country": "US", "state": "MA", "display_address": ["6 Elm St", "Deerfield, MA 01373"]}, "phone": "+14133505940", "display_phone": "(413) 350-5940", "distance": 15455.46716490794}, {"id": "uzplqOLK7sx5gV3DYURn1Q", "alias": "goten-of-japan-sunderland", "name": "Goten of Japan", "image_url": "https://s3-media1.fl.yelpcdn.com/bphoto/cGjbWaxmcdOjijjzYz5Rsw/o.jpg", "is_closed": false, "url": "https://www.yelp.com/biz/goten-of-japan-sunderland?adjust_creative=asslzE1UV0XuKI953B1vtw&utm_campaign=yelp_api_v3&utm_medium=api_v3_business_search&utm_source=asslzE1UV0XuKI953B1vtw", "review_count": 105, "categories": [{"alias": "sushi", "title": "Sushi Bars"}, {"alias": "teppanyaki", "title": "Teppanyaki"}], "rating": 4.0, "coordinates": {"latitude": 42.45876, "longitude": -72.5722}, "transactions": ["delivery"], "price": "$$", "location": {"address1": "104 Old Amherst Rd", "address2": "", "address3": "", "city": "Sunderland", "zip_code": "01375", "country": "US", "state": "MA", "display_address": ["104 Old Amherst Rd", "Sunderland, MA 01375"]}, "phone": "+14136653628", "display_phone": "(413) 665-3628", "distance": 12352.142684250655}, {"id": "tHR3HsAmGfDOcjWe2n6Ftw", "alias": "shanghai-gourmet-amherst", "name": "Shanghai Gourmet", "image_url": "https://s3-media3.fl.yelpcdn.com/bphoto/iY1_iOMI0o_evS5fB__uOg/o.jpg", "is_closed": false, "url": "https://www.yelp.com/biz/shanghai-gourmet-amherst?adjust_creative=asslzE1UV0XuKI953B1vtw&utm_campaign=yelp_api_v3&utm_medium=api_v3_business_search&utm_source=asslzE1UV0XuKI953B1vtw", "review_count": 21, "categories": [{"alias": "shanghainese", "title": "Shanghainese"}], "rating": 4.5, "coordinates": {"latitude": 42.37729067, "longitude": -72.52038267}, "transactions": [], "price": "$$", "location": {"address1": "104 N Pleasant St", "address2": null, "address3": "", "city": "Amherst", "zip_code": "01002", "country": "US", "state": "MA", "display_address": ["104 N Pleasant St", "Amherst, MA 01002"]}, "phone": "+14138350913", "display_phone": "(413) 835-0913", "distance": 12413.727731930072}, {"id": "1xHC1WbRBSv_DRRh8dP5IA", "alias": "honeycrisp-chicken-amherst", "name": "Honeycrisp Chicken", "image_url": "https://s3-media2.fl.yelpcdn.com/bphoto/XLGMTWn3UhX0aia6AjXtmw/o.jpg", "is_closed": false, "url": "https://www.yelp.com/biz/honeycrisp-chicken-amherst?adjust_creative=asslzE1UV0XuKI953B1vtw&utm_campaign=yelp_api_v3&utm_medium=api_v3_business_search&utm_source=asslzE1UV0XuKI953B1vtw", "review_count": 39, "categories": [{"alias": "chicken_wings", "title": "Chicken Wings"}, {"alias": "korean", "title": "Korean"}, {"alias": "taiwanese", "title": "Taiwanese"}], "rating": 4.5, "coordinates": {"latitude": 42.3759103, "longitude": -72.5184821}, "transactions": ["delivery"], "location": {"address1": "1 Boltwood Walk", "address2": null, "address3": "", "city": "Amherst", "zip_code": "01002", "country": "US", "state": "MA", "display_address": ["1 Boltwood Walk", "Amherst, MA 01002"]}, "phone": "+14132004490", "display_phone": "(413) 200-4490", "distance": 12422.942838729945}, {"id": "QG0drESFSFC-fICafjJbeA", "alias": "williams-sugar-house-deerfield", "name": "Williams Sugar House", "image_url": "https://s3-media1.fl.yelpcdn.com/bphoto/j_AOHIXm4lellRljT1Dmfg/o.jpg", "is_closed": false, "url": "https://www.yelp.com/biz/williams-sugar-house-deerfield?adjust_creative=asslzE1UV0XuKI953B1vtw&utm_campaign=yelp_api_v3&utm_medium=api_v3_business_search&utm_source=asslzE1UV0XuKI953B1vtw", "review_count": 7, "categories": [{"alias": "newamerican", "title": "American (New)"}], "rating": 4.0, "coordinates": {"latitude": 42.5378105789423, "longitude": -72.6030052453279}, "transactions": [], "price": "$$", "location": {"address1": "491 Greenfield Rd", "address2": "", "address3": "", "city": "Deerfield", "zip_code": "01342", "country": "US", "state": "MA", "display_address": ["491 Greenfield Rd", "Deerfield, MA 01342"]}, "phone": "+14137735186", "display_phone": "(413) 773-5186", "distance": 17136.945889936764}, {"id": "Pi1vuMna90sAsd9KUnI-kQ", "alias": "riffs-north-turners-falls", "name": "Riff's North", "image_url": "https://s3-media3.fl.yelpcdn.com/bphoto/-P1r6baoRAmWRz18K-pwvA/o.jpg", "is_closed": false, "url": "https://www.yelp.com/biz/riffs-north-turners-falls?adjust_creative=asslzE1UV0XuKI953B1vtw&utm_campaign=yelp_api_v3&utm_medium=api_v3_business_search&utm_source=asslzE1UV0XuKI953B1vtw", "review_count": 71, "categories": [{"alias": "burgers", "title": "Burgers"}, {"alias": "tradamerican", "title": "American (Traditional)"}, {"alias": "sandwiches", "title": "Sandwiches"}], "rating": 4.5, "coordinates": {"latitude": 42.6060869184616, "longitude": -72.5584889575839}, "transactions": ["delivery"], "price": "$$", "location": {"address1": "166 Ave A", "address2": "", "address3": "", "city": "Turners Falls", "zip_code": "01376", "country": "US", "state": "MA", "display_address": ["166 Ave A", "Turners Falls, MA 01376"]}, "phone": "+14138633700", "display_phone": "(413) 863-3700", "distance": 19551.922178786102}, {"id": "SvMeNEEWcJw0w6lmjgxdew", "alias": "titos-taqueria-greenfield", "name": "Tito's Taqueria", "image_url": "https://s3-media3.fl.yelpcdn.com/bphoto/wZBeQpxZsgDEmwK5EswnXQ/o.jpg", "is_closed": false, "url": "https://www.yelp.com/biz/titos-taqueria-greenfield?adjust_creative=asslzE1UV0XuKI953B1vtw&utm_campaign=yelp_api_v3&utm_medium=api_v3_business_search&utm_source=asslzE1UV0XuKI953B1vtw", "review_count": 3, "categories": [{"alias": "foodstands", "title": "Food Stands"}, {"alias": "mexican", "title": "Mexican"}], "rating": 4.5, "coordinates": {"latitude": 42.5927892, "longitude": -72.5978838}, "transactions": ["delivery", "pickup"], "location": {"address1": "145 Federal St", "address2": null, "address3": "", "city": "Greenfield", "zip_code": "01301", "country": "US", "state": "MA", "display_address": ["145 Federal St", "Greenfield, MA 01301"]}, "phone": "", "display_phone": "", "distance": 20488.649963262673}, {"id": "0ggseJ7x1t-I-I8GA6knjw", "alias": "bistro-63-amherst-3", "name": "Bistro 63", "image_url": "https://s3-media4.fl.yelpcdn.com/bphoto/2DDhras34EfIQjko9vTX_w/o.jpg", "is_closed": false, "url": "https://www.yelp.com/biz/bistro-63-amherst-3?adjust_creative=asslzE1UV0XuKI953B1vtw&utm_campaign=yelp_api_v3&utm_medium=api_v3_business_search&utm_source=asslzE1UV0XuKI953B1vtw", "review_count": 156, "categories": [{"alias": "newamerican", "title": "American (New)"}, {"alias": "venues", "title": "Venues & Event Spaces"}], "rating": 4.0, "coordinates": {"latitude": 42.37668, "longitude": -72.51952}, "transactions": ["delivery"], "price": "$$", "location": {"address1": "63 N Pleasant St", "address2": null, "address3": "Monkey Bar & Grill", "city": "Amherst", "zip_code": "01002", "country": "US", "state": "MA", "display_address": ["63 N Pleasant St", "Monkey Bar & Grill", "Amherst, MA 01002"]}, "phone": "+14132591600", "display_phone": "(413) 259-1600", "distance": 12417.407755642524}, {"id": "zwC34RoPsOM_j3-V05DYfQ", "alias": "alinas-ristorante-hadley", "name": "Alina's Ristorante", "image_url": "https://s3-media2.fl.yelpcdn.com/bphoto/B1AD-W6YogcNltt3PT6rAg/o.jpg", "is_closed": false, "url": "https://www.yelp.com/biz/alinas-ristorante-hadley?adjust_creative=asslzE1UV0XuKI953B1vtw&utm_campaign=yelp_api_v3&utm_medium=api_v3_business_search&utm_source=asslzE1UV0XuKI953B1vtw", "review_count": 116, "categories": [{"alias": "italian", "title": "Italian"}, {"alias": "mediterranean", "title": "Mediterranean"}], "rating": 4.0, "coordinates": {"latitude": 42.34172, "longitude": -72.59766}, "transactions": ["delivery"], "price": "$$", "location": {"address1": "96 Russell St", "address2": "", "address3": "", "city": "Hadley", "zip_code": "01035", "country": "US", "state": "MA", "display_address": ["96 Russell St", "Hadley, MA 01035"]}, "phone": "+14135848000", "display_phone": "(413) 584-8000", "distance": 19668.346835072432}, {"id": "2jbnnI5522q_T0pl-MuJXA", "alias": "bueno-y-sano-south-deerfield", "name": "Bueno Y Sano", "image_url": "https://s3-media1.fl.yelpcdn.com/bphoto/LGK_mCBWcVAPyyIenMDuBw/o.jpg", "is_closed": false, "url": "https://www.yelp.com/biz/bueno-y-sano-south-deerfield?adjust_creative=asslzE1UV0XuKI953B1vtw&utm_campaign=yelp_api_v3&utm_medium=api_v3_business_search&utm_source=asslzE1UV0XuKI953B1vtw", "review_count": 2, "categories": [{"alias": "mexican", "title": "Mexican"}], "rating": 5.0, "coordinates": {"latitude": 42.477567, "longitude": -72.608631}, "transactions": [], "location": {"address1": "3 Elm Streeet", "address2": null, "address3": "", "city": "South Deerfield", "zip_code": "01373", "country": "US", "state": "MA", "display_address": ["3 Elm Streeet", "South Deerfield, MA 01373"]}, "phone": "+14136654241", "display_phone": "(413) 665-4241", "distance": 15416.410220856369}, {"id": "LXXAXCEiU4nCM8wScorQHQ", "alias": "pasta-e-basta-amherst", "name": "Pasta E Basta", "image_url": "https://s3-media2.fl.yelpcdn.com/bphoto/6lUE1U50Tech7n-hRRzBrQ/o.jpg", "is_closed": false, "url": "https://www.yelp.com/biz/pasta-e-basta-amherst?adjust_creative=asslzE1UV0XuKI953B1vtw&utm_campaign=yelp_api_v3&utm_medium=api_v3_business_search&utm_source=asslzE1UV0XuKI953B1vtw", "review_count": 140, "categories": [{"alias": "italian", "title": "Italian"}], "rating": 4.0, "coordinates": {"latitude": 42.3758399, "longitude": -72.51926}, "transactions": ["delivery"], "price": "$$", "location": {"address1": "26 Main St", "address2": null, "address3": "", "city": "Amherst", "zip_code": "01002", "country": "US", "state": "MA", "display_address": ["26 Main St", "Amherst, MA 01002"]}, "phone": "+14132563550", "display_phone": "(413) 256-3550", "distance": 12466.623178555234}, {"id": "ESGUgUn3t-v1O4K5crrl6w", "alias": "black-cow-burger-bar-turners-falls", "name": "Black Cow Burger Bar", "image_url": "https://s3-media3.fl.yelpcdn.com/bphoto/NrX9m8XL7VxDQ4UvZvAccw/o.jpg", "is_closed": false, "url": "https://www.yelp.com/biz/black-cow-burger-bar-turners-falls?adjust_creative=asslzE1UV0XuKI953B1vtw&utm_campaign=yelp_api_v3&utm_medium=api_v3_business_search&utm_source=asslzE1UV0XuKI953B1vtw", "review_count": 97, "categories": [{"alias": "newamerican", "title": "American (New)"}, {"alias": "burgers", "title": "Burgers"}, {"alias": "hotdog", "title": "Hot Dogs"}], "rating": 4.0, "coordinates": {"latitude": 42.60748, "longitude": -72.55704}, "transactions": ["delivery", "pickup"], "price": "$$", "location": {"address1": "125 Ave A", "address2": "", "address3": "", "city": "Turners Falls", "zip_code": "01376", "country": "US", "state": "MA", "display_address": ["125 Ave A", "Turners Falls, MA 01376"]}, "phone": "+14138635183", "display_phone": "(413) 863-5183", "distance": 19625.81330709519}, {"id": "ExPrawZiMKFCtz9HV-Hw3Q", "alias": "the-peoples-pint-greenfield", "name": "The People's Pint", "image_url": "https://s3-media4.fl.yelpcdn.com/bphoto/tXW4H4plAEoPzXDNviVIGg/o.jpg", "is_closed": false, "url": "https://www.yelp.com/biz/the-peoples-pint-greenfield?adjust_creative=asslzE1UV0XuKI953B1vtw&utm_campaign=yelp_api_v3&utm_medium=api_v3_business_search&utm_source=asslzE1UV0XuKI953B1vtw", "review_count": 290, "categories": [{"alias": "tradamerican", "title": "American (Traditional)"}, {"alias": "breweries", "title": "Breweries"}], "rating": 4.0, "coordinates": {"latitude": 42.58858, "longitude": -72.60011}, "transactions": ["delivery"], "price": "$$", "location": {"address1": "24 Federal St", "address2": "", "address3": "", "city": "Greenfield", "zip_code": "01301", "country": "US", "state": "MA", "display_address": ["24 Federal St", "Greenfield, MA 01301"]}, "phone": "+14137730333", "display_phone": "(413) 773-0333", "distance": 20298.176518559023}, {"id": "hRoE_3CUPnxn_1oDjjd9Lg", "alias": "jakes-at-the-mill-amherst", "name": "Jake's at The Mill", "image_url": "https://s3-media3.fl.yelpcdn.com/bphoto/E5tjKXlpbvZU282oIi1N5A/o.jpg", "is_closed": false, "url": "https://www.yelp.com/biz/jakes-at-the-mill-amherst?adjust_creative=asslzE1UV0XuKI953B1vtw&utm_campaign=yelp_api_v3&utm_medium=api_v3_business_search&utm_source=asslzE1UV0XuKI953B1vtw", "review_count": 54, "categories": [{"alias": "breakfast_brunch", "title": "Breakfast & Brunch"}, {"alias": "tradamerican", "title": "American (Traditional)"}], "rating": 4.5, "coordinates": {"latitude": 42.41545, "longitude": -72.53074}, "transactions": ["delivery"], "price": "$$", "location": {"address1": "68 Cowls Rd", "address2": null, "address3": "", "city": "Amherst", "zip_code": "01002", "country": "US", "state": "MA", "display_address": ["68 Cowls Rd", "Amherst, MA 01002"]}, "phone": "+14132303717", "display_phone": "(413) 230-3717", "distance": 10298.457079270158}, {"id": "bfNy4CK-UWtNIIfzVXeZ-A", "alias": "wolfies-restaurant-south-deerfield", "name": "Wolfie's Restaurant", "image_url": "https://s3-media2.fl.yelpcdn.com/bphoto/6mdshhOQiXEPBs8xUe9O7A/o.jpg", "is_closed": false, "url": "https://www.yelp.com/biz/wolfies-restaurant-south-deerfield?adjust_creative=asslzE1UV0XuKI953B1vtw&utm_campaign=yelp_api_v3&utm_medium=api_v3_business_search&utm_source=asslzE1UV0XuKI953B1vtw", "review_count": 92, "categories": [{"alias": "tradamerican", "title": "American (Traditional)"}, {"alias": "bars", "title": "Bars"}, {"alias": "chicken_wings", "title": "Chicken Wings"}], "rating": 3.5, "coordinates": {"latitude": 42.4768333435059, "longitude": -72.6083679199219}, "transactions": ["delivery"], "price": "$$", "location": {"address1": "52 S Main St", "address2": "", "address3": "", "city": "South Deerfield", "zip_code": "01373", "country": "US", "state": "MA", "display_address": ["52 S Main St", "South Deerfield, MA 01373"]}, "phone": "+14136657068", "display_phone": "(413) 665-7068", "distance": 15388.638195815773}, {"id": "gjyFpVijSZC6PUqnu8N7BQ", "alias": "bubs-bbq-sunderland", "name": "Bub's BBQ", "image_url": "https://s3-media3.fl.yelpcdn.com/bphoto/3htYzah5sVUhJqBemtBS7Q/o.jpg", "is_closed": false, "url": "https://www.yelp.com/biz/bubs-bbq-sunderland?adjust_creative=asslzE1UV0XuKI953B1vtw&utm_campaign=yelp_api_v3&utm_medium=api_v3_business_search&utm_source=asslzE1UV0XuKI953B1vtw", "review_count": 175, "categories": [{"alias": "bbq", "title": "Barbeque"}], "rating": 3.5, "coordinates": {"latitude": 42.4303359985352, "longitude": -72.5412445068359}, "transactions": ["delivery", "pickup"], "price": "$$", "location": {"address1": "676 Amherst Rd", "address2": "", "address3": "", "city": "Sunderland", "zip_code": "01375", "country": "US", "state": "MA", "display_address": ["676 Amherst Rd", "Sunderland, MA 01375"]}, "phone": "+14135489630", "display_phone": "(413) 548-9630", "distance": 10471.56088466192}, {"id": "1Gdcycg8N2j9oJbH1D6lBg", "alias": "lilis-restaurant-amherst", "name": "Lili's Restaurant", "image_url": "https://s3-media3.fl.yelpcdn.com/bphoto/ZmX1Ueig1zzUppwR700qMg/o.jpg", "is_closed": false, "url": "https://www.yelp.com/biz/lilis-restaurant-amherst?adjust_creative=asslzE1UV0XuKI953B1vtw&utm_campaign=yelp_api_v3&utm_medium=api_v3_business_search&utm_source=asslzE1UV0XuKI953B1vtw", "review_count": 131, "categories": [{"alias": "chinese", "title": "Chinese"}, {"alias": "noodles", "title": "Noodles"}], "rating": 5.0, "coordinates": {"latitude": 42.3785346, "longitude": -72.519757}, "transactions": ["delivery"], "price": "$", "location": {"address1": "197 North Pleasant St", "address2": "", "address3": null, "city": "Amherst", "zip_code": "01002", "country": "US", "state": "MA", "display_address": ["197 North Pleasant St", "Amherst, MA 01002"]}, "phone": "+14132535888", "display_phone": "(413) 253-5888", "distance": 12258.333225367018}, {"id": "OQvVnrwhOvA69-X7jIAnPg", "alias": "manna-house-greenfield", "name": "Manna House", "image_url": "https://s3-media2.fl.yelpcdn.com/bphoto/micyK8VUFzhW9_BmqmVSSA/o.jpg", "is_closed": false, "url": "https://www.yelp.com/biz/manna-house-greenfield?adjust_creative=asslzE1UV0XuKI953B1vtw&utm_campaign=yelp_api_v3&utm_medium=api_v3_business_search&utm_source=asslzE1UV0XuKI953B1vtw", "review_count": 45, "categories": [{"alias": "korean", "title": "Korean"}], "rating": 4.0, "coordinates": {"latitude": 42.5870285, "longitude": -72.6003113}, "transactions": ["delivery"], "price": "$$", "location": {"address1": "27 Bank Row", "address2": null, "address3": null, "city": "Greenfield", "zip_code": "01301", "country": "US", "state": "MA", "display_address": ["27 Bank Row", "Greenfield, MA 01301"]}, "phone": "+14137745955", "display_phone": "(413) 774-5955", "distance": 20188.355067327793}, {"id": "SV4vcr74r6LG-LbTAKh1MA", "alias": "whistle-stop-cafe-millers-falls-2", "name": "Whistle Stop Cafe", "image_url": "https://s3-media3.fl.yelpcdn.com/bphoto/1SC0WPCzKgFjDuCI44q57Q/o.jpg", "is_closed": false, "url": "https://www.yelp.com/biz/whistle-stop-cafe-millers-falls-2?adjust_creative=asslzE1UV0XuKI953B1vtw&utm_campaign=yelp_api_v3&utm_medium=api_v3_business_search&utm_source=asslzE1UV0XuKI953B1vtw", "review_count": 7, "categories": [{"alias": "cafes", "title": "Cafes"}], "rating": 4.0, "coordinates": {"latitude": 42.5781478, "longitude": -72.4940642}, "transactions": ["delivery", "pickup"], "location": {"address1": "29 E Main St", "address2": "", "address3": null, "city": "Millers Falls", "zip_code": "01349", "country": "US", "state": "MA", "display_address": ["29 E Main St", "Millers Falls, MA 01349"]}, "phone": "+14138348174", "display_phone": "(413) 834-8174", "distance": 14221.693637887958}, {"id": "0_n0QgP_AookwqzVfZIFgQ", "alias": "mission-cantina-amherst-2", "name": "Mission Cantina", "image_url": "https://s3-media4.fl.yelpcdn.com/bphoto/LZMh8ZoJ1M6C05M3kS8tcg/o.jpg", "is_closed": false, "url": "https://www.yelp.com/biz/mission-cantina-amherst-2?adjust_creative=asslzE1UV0XuKI953B1vtw&utm_campaign=yelp_api_v3&utm_medium=api_v3_business_search&utm_source=asslzE1UV0XuKI953B1vtw", "review_count": 317, "categories": [{"alias": "mexican", "title": "Mexican"}], "rating": 4.0, "coordinates": {"latitude": 42.3397429940276, "longitude": -72.5209043590139}, "transactions": ["delivery", "pickup"], "price": "$$", "location": {"address1": "485 W St", "address2": "", "address3": "", "city": "Amherst", "zip_code": "01002", "country": "US", "state": "MA", "display_address": ["485 W St", "Amherst, MA 01002"]}, "phone": "+14132303580", "display_phone": "(413) 230-3580", "distance": 15833.06611238447}, {"id": "t3ZQ2eUTL4c683gbP4fmjA", "alias": "wheelhouse-amherst", "name": "Wheelhouse", "image_url": "https://s3-media1.fl.yelpcdn.com/bphoto/QGKcxLFQqVq8AM1ORQcQQQ/o.jpg", "is_closed": false, "url": "https://www.yelp.com/biz/wheelhouse-amherst?adjust_creative=asslzE1UV0XuKI953B1vtw&utm_campaign=yelp_api_v3&utm_medium=api_v3_business_search&utm_source=asslzE1UV0XuKI953B1vtw", "review_count": 13, "categories": [{"alias": "foodtrucks", "title": "Food Trucks"}, {"alias": "catering", "title": "Caterers"}, {"alias": "newamerican", "title": "American (New)"}], "rating": 4.5, "coordinates": {"latitude": 42.3756729, "longitude": -72.5123716}, "transactions": [], "price": "$$", "location": {"address1": "383 Main St", "address2": "", "address3": "", "city": "Amherst", "zip_code": "01002", "country": "US", "state": "MA", "display_address": ["383 Main St", "Amherst, MA 01002"]}, "phone": "+15084462935", "display_phone": "(508) 446-2935", "distance": 12130.894925401972}, {"id": "C7ThqIKJfCAMEvReN7_MYg", "alias": "main-street-grill-athol", "name": "Main Street Grill", "image_url": "https://s3-media4.fl.yelpcdn.com/bphoto/qwvmLJSTR3M4l7j2Bg9Z6g/o.jpg", "is_closed": false, "url": "https://www.yelp.com/biz/main-street-grill-athol?adjust_creative=asslzE1UV0XuKI953B1vtw&utm_campaign=yelp_api_v3&utm_medium=api_v3_business_search&utm_source=asslzE1UV0XuKI953B1vtw", "review_count": 5, "categories": [{"alias": "tradamerican", "title": "American (Traditional)"}], "rating": 4.0, "coordinates": {"latitude": 42.5938164, "longitude": -72.2300407}, "transactions": [], "location": {"address1": "491 Main St", "address2": "", "address3": "", "city": "Athol", "zip_code": "01331", "country": "US", "state": "MA", "display_address": ["491 Main St", "Athol, MA 01331"]}, "phone": "+19788304374", "display_phone": "(978) 830-4374", "distance": 21499.030895695294}, {"id": "o766sCbxUEbiBxr14X4ryw", "alias": "formosa-chinese-restaurant-amherst-11", "name": "Formosa Chinese Restaurant", "image_url": "https://s3-media1.fl.yelpcdn.com/bphoto/iZxlIEZywP257_ADRfTKrQ/o.jpg", "is_closed": false, "url": "https://www.yelp.com/biz/formosa-chinese-restaurant-amherst-11?adjust_creative=asslzE1UV0XuKI953B1vtw&utm_campaign=yelp_api_v3&utm_medium=api_v3_business_search&utm_source=asslzE1UV0XuKI953B1vtw", "review_count": 50, "categories": [{"alias": "taiwanese", "title": "Taiwanese"}, {"alias": "chinese", "title": "Chinese"}], "rating": 4.0, "coordinates": {"latitude": 42.3758907917114, "longitude": -72.5185187374798}, "transactions": ["delivery"], "price": "$$", "location": {"address1": "62 Main St", "address2": "", "address3": null, "city": "Amherst", "zip_code": "01002", "country": "US", "state": "MA", "display_address": ["62 Main St", "Amherst, MA 01002"]}, "phone": "+14132537835", "display_phone": "(413) 253-7835", "distance": 12427.62922948891}, {"id": "f7RXJjnUe_mTm-B0wEOshw", "alias": "petes-seafood-restaurant-greenfield", "name": "Pete's Seafood Restaurant", "image_url": "https://s3-media4.fl.yelpcdn.com/bphoto/jxzmJc-NN4wG9QarQEQvHg/o.jpg", "is_closed": false, "url": "https://www.yelp.com/biz/petes-seafood-restaurant-greenfield?adjust_creative=asslzE1UV0XuKI953B1vtw&utm_campaign=yelp_api_v3&utm_medium=api_v3_business_search&utm_source=asslzE1UV0XuKI953B1vtw", "review_count": 35, "categories": [{"alias": "seafood", "title": "Seafood"}], "rating": 4.5, "coordinates": {"latitude": 42.5895936, "longitude": -72.600997}, "transactions": ["delivery"], "price": "$$", "location": {"address1": "54 School St", "address2": "", "address3": "", "city": "Greenfield", "zip_code": "01301", "country": "US", "state": "MA", "display_address": ["54 School St", "Greenfield, MA 01301"]}, "phone": "+14137722153", "display_phone": "(413) 772-2153", "distance": 20420.690736945646}, {"id": "Oa-E-xgz9ZBZxPwBGmfLcA", "alias": "momo-tibetan-restaurant-amherst-4", "name": "Momo Tibetan Restaurant", "image_url": "https://s3-media2.fl.yelpcdn.com/bphoto/amBbrKZvctCPOGYA3tMhCQ/o.jpg", "is_closed": false, "url": "https://www.yelp.com/biz/momo-tibetan-restaurant-amherst-4?adjust_creative=asslzE1UV0XuKI953B1vtw&utm_campaign=yelp_api_v3&utm_medium=api_v3_business_search&utm_source=asslzE1UV0XuKI953B1vtw", "review_count": 53, "categories": [{"alias": "himalayan", "title": "Himalayan/Nepalese"}], "rating": 4.5, "coordinates": {"latitude": 42.3759300394761, "longitude": -72.5195162614796}, "transactions": ["delivery"], "price": "$$", "location": {"address1": "23 North Pleasant St", "address2": null, "address3": "", "city": "Amherst", "zip_code": "01002", "country": "US", "state": "MA", "display_address": ["23 North Pleasant St", "Amherst, MA 01002"]}, "phone": "+14138350382", "display_phone": "(413) 835-0382", "distance": 12476.713340179283}, {"id": "2MVvyKZRr98i4egs3LMHHw", "alias": "white-cloud-diner-orange", "name": "White Cloud Diner", "image_url": "https://s3-media3.fl.yelpcdn.com/bphoto/VLhBY2lGr9Xf6KzBoWteoA/o.jpg", "is_closed": false, "url": "https://www.yelp.com/biz/white-cloud-diner-orange?adjust_creative=asslzE1UV0XuKI953B1vtw&utm_campaign=yelp_api_v3&utm_medium=api_v3_business_search&utm_source=asslzE1UV0XuKI953B1vtw", "review_count": 13, "categories": [{"alias": "diners", "title": "Diners"}], "rating": 4.0, "coordinates": {"latitude": 42.5746688842773, "longitude": -72.2816772460938}, "transactions": [], "price": "$", "location": {"address1": "627 E River St", "address2": null, "address3": "", "city": "Orange", "zip_code": "01364", "country": "US", "state": "MA", "display_address": ["627 E River St", "Orange, MA 01364"]}, "phone": "+19785446821", "display_phone": "(978) 544-6821", "distance": 17006.35629893254}, {"id": "S9w52Y8f_nfv8QXuHmXBCg", "alias": "johnnys-tavern-amherst", "name": "Johnny's Tavern", "image_url": "https://s3-media4.fl.yelpcdn.com/bphoto/CGGNA4tbYJkDkSsBqJTq-w/o.jpg", "is_closed": false, "url": "https://www.yelp.com/biz/johnnys-tavern-amherst?adjust_creative=asslzE1UV0XuKI953B1vtw&utm_campaign=yelp_api_v3&utm_medium=api_v3_business_search&utm_source=asslzE1UV0XuKI953B1vtw", "review_count": 296, "categories": [{"alias": "newamerican", "title": "American (New)"}, {"alias": "burgers", "title": "Burgers"}, {"alias": "beer_and_wine", "title": "Beer, Wine & Spirits"}], "rating": 4.0, "coordinates": {"latitude": 42.376276, "longitude": -72.518136}, "transactions": ["delivery", "pickup"], "price": "$$", "location": {"address1": "30 Boltwood Walk", "address2": "", "address3": "", "city": "Amherst", "zip_code": "01002", "country": "US", "state": "MA", "display_address": ["30 Boltwood Walk", "Amherst, MA 01002"]}, "phone": "+14132303818", "display_phone": "(413) 230-3818", "distance": 12369.583256530166}, {"id": "yiV75hVHG23qJ3ESA1MzRg", "alias": "202-grill-nos-age-orange", "name": "202 Grill Nos/Age", "image_url": "https://s3-media3.fl.yelpcdn.com/bphoto/opbKFoo58C8lRuy_kJ53VQ/o.jpg", "is_closed": false, "url": "https://www.yelp.com/biz/202-grill-nos-age-orange?adjust_creative=asslzE1UV0XuKI953B1vtw&utm_campaign=yelp_api_v3&utm_medium=api_v3_business_search&utm_source=asslzE1UV0XuKI953B1vtw", "review_count": 8, "categories": [{"alias": "tradamerican", "title": "American (Traditional)"}], "rating": 3.5, "coordinates": {"latitude": 42.55423, "longitude": -72.28915}, "transactions": [], "price": "$$$", "location": {"address1": "207 Daniel Shay Hwy", "address2": "Route 202", "address3": "", "city": "Orange", "zip_code": "01364", "country": "US", "state": "MA", "display_address": ["207 Daniel Shay Hwy", "Route 202", "Orange, MA 01364"]}, "phone": "+19785443902", "display_phone": "(978) 544-3902", "distance": 14913.003200881716}, {"id": "rM26yhJCf8spmob1iCkpTA", "alias": "french-king-restaurant-and-motel-erving", "name": "French King Restaurant and Motel", "image_url": "https://s3-media3.fl.yelpcdn.com/bphoto/0JOjCjjQ6AgsODrtn77g0A/o.jpg", "is_closed": false, "url": "https://www.yelp.com/biz/french-king-restaurant-and-motel-erving?adjust_creative=asslzE1UV0XuKI953B1vtw&utm_campaign=yelp_api_v3&utm_medium=api_v3_business_search&utm_source=asslzE1UV0XuKI953B1vtw", "review_count": 25, "categories": [{"alias": "tradamerican", "title": "American (Traditional)"}, {"alias": "italian", "title": "Italian"}, {"alias": "lounges", "title": "Lounges"}], "rating": 3.5, "coordinates": {"latitude": 42.596912, "longitude": -72.493921}, "transactions": [], "price": "$$", "location": {"address1": "129 French King Hwy", "address2": "", "address3": "", "city": "Erving", "zip_code": "01344", "country": "US", "state": "MA", "display_address": ["129 French King Hwy", "Erving, MA 01344"]}, "phone": "+14134233328", "display_phone": "(413) 423-3328", "distance": 16129.59258421996}, {"id": "gntEo3k4A_B1BkdGnJI3Pw", "alias": "namaste-indian-nepalese-restaurant-greenfield", "name": "Namaste Indian/Nepalese Restaurant", "image_url": "https://s3-media4.fl.yelpcdn.com/bphoto/s1NNDn1n3dA345Qf_IDT9A/o.jpg", "is_closed": false, "url": "https://www.yelp.com/biz/namaste-indian-nepalese-restaurant-greenfield?adjust_creative=asslzE1UV0XuKI953B1vtw&utm_campaign=yelp_api_v3&utm_medium=api_v3_business_search&utm_source=asslzE1UV0XuKI953B1vtw", "review_count": 36, "categories": [{"alias": "indpak", "title": "Indian"}, {"alias": "himalayan", "title": "Himalayan/Nepalese"}], "rating": 4.0, "coordinates": {"latitude": 42.58832, "longitude": -72.60112}, "transactions": ["delivery", "pickup"], "price": "$$", "location": {"address1": "286 Main St", "address2": null, "address3": "", "city": "Greenfield", "zip_code": "01301", "country": "US", "state": "MA", "display_address": ["286 Main St", "Greenfield, MA 01301"]}, "phone": "+14133258232", "display_phone": "(413) 325-8232", "distance": 20327.439663683796}, {"id": "pSPnC1hcf-CO-uMQJF0NQQ", "alias": "bba-deli-market-south-deerfield", "name": "BBA Deli Market", "image_url": "https://s3-media3.fl.yelpcdn.com/bphoto/G0HZIKIZczmS5vnYNRPpdw/o.jpg", "is_closed": false, "url": "https://www.yelp.com/biz/bba-deli-market-south-deerfield?adjust_creative=asslzE1UV0XuKI953B1vtw&utm_campaign=yelp_api_v3&utm_medium=api_v3_business_search&utm_source=asslzE1UV0XuKI953B1vtw", "review_count": 21, "categories": [{"alias": "delis", "title": "Delis"}, {"alias": "polish", "title": "Polish"}, {"alias": "gourmet", "title": "Specialty Food"}], "rating": 4.5, "coordinates": {"latitude": 42.472156, "longitude": -72.608634}, "transactions": ["delivery"], "price": "$", "location": {"address1": "39 Thayer St", "address2": "", "address3": "", "city": "South Deerfield", "zip_code": "01373", "country": "US", "state": "MA", "display_address": ["39 Thayer St", "South Deerfield, MA 01373"]}, "phone": "+14136659171", "display_phone": "(413) 665-9171", "distance": 15400.243642752102}, {"id": "QBdFoCiVYe2ZTwmTH8nIdQ", "alias": "damn-yankees-bbq-south-deerfield", "name": "Damn Yankees BBQ", "image_url": "https://s3-media1.fl.yelpcdn.com/bphoto/E-hdAq7izmIS7zdo860Org/o.jpg", "is_closed": false, "url": "https://www.yelp.com/biz/damn-yankees-bbq-south-deerfield?adjust_creative=asslzE1UV0XuKI953B1vtw&utm_campaign=yelp_api_v3&utm_medium=api_v3_business_search&utm_source=asslzE1UV0XuKI953B1vtw", "review_count": 25, "categories": [{"alias": "bbq", "title": "Barbeque"}], "rating": 3.5, "coordinates": {"latitude": 42.477924, "longitude": -72.61121}, "transactions": [], "price": "$$", "location": {"address1": "20 Elm St", "address2": "", "address3": "", "city": "South Deerfield", "zip_code": "01373", "country": "US", "state": "MA", "display_address": ["20 Elm St", "South Deerfield, MA 01373"]}, "phone": "+14132729347", "display_phone": "(413) 272-9347", "distance": 15631.034732939566}, {"id": "efnGUoB4SVkhsF9a2wjebg", "alias": "the-wagon-wheel-restaurant-gill", "name": "The Wagon Wheel Restaurant", "image_url": "https://s3-media1.fl.yelpcdn.com/bphoto/_ifEFpgX3i8RfdhHYMX1uQ/o.jpg", "is_closed": false, "url": "https://www.yelp.com/biz/the-wagon-wheel-restaurant-gill?adjust_creative=asslzE1UV0XuKI953B1vtw&utm_campaign=yelp_api_v3&utm_medium=api_v3_business_search&utm_source=asslzE1UV0XuKI953B1vtw", "review_count": 136, "categories": [{"alias": "burgers", "title": "Burgers"}, {"alias": "tradamerican", "title": "American (Traditional)"}], "rating": 4.0, "coordinates": {"latitude": 42.61201, "longitude": -72.54543}, "transactions": ["delivery"], "price": "$", "location": {"address1": "39 French King Hwy", "address2": "", "address3": "", "city": "Gill", "zip_code": "01354", "country": "US", "state": "MA", "display_address": ["39 French King Hwy", "Gill, MA 01354"]}, "phone": "+14138638210", "display_phone": "(413) 863-8210", "distance": 19519.786746461636}, {"id": "Vax50JhWTgAdpRJyAWimoQ", "alias": "kkuljaem-korean-kitchen-hadley-2", "name": "KKulJaem Korean Kitchen", "image_url": "https://s3-media4.fl.yelpcdn.com/bphoto/2cqMVNV88TvOVW9PqbaCWw/o.jpg", "is_closed": false, "url": "https://www.yelp.com/biz/kkuljaem-korean-kitchen-hadley-2?adjust_creative=asslzE1UV0XuKI953B1vtw&utm_campaign=yelp_api_v3&utm_medium=api_v3_business_search&utm_source=asslzE1UV0XuKI953B1vtw", "review_count": 21, "categories": [{"alias": "korean", "title": "Korean"}], "rating": 4.0, "coordinates": {"latitude": 42.35599, "longitude": -72.54771}, "transactions": ["delivery", "pickup"], "location": {"address1": "367 Russell St", "address2": null, "address3": "", "city": "Hadley", "zip_code": "01035", "country": "US", "state": "MA", "display_address": ["367 Russell St", "Hadley, MA 01035"]}, "phone": "+14133870585", "display_phone": "(413) 387-0585", "distance": 15667.651032344504}, {"id": "FumYAtwmfAo1d0X3GouTHQ", "alias": "judies-amherst", "name": "Judie's", "image_url": "https://s3-media3.fl.yelpcdn.com/bphoto/GezgUMNSfF0Wuv7pHvp2jA/o.jpg", "is_closed": false, "url": "https://www.yelp.com/biz/judies-amherst?adjust_creative=asslzE1UV0XuKI953B1vtw&utm_campaign=yelp_api_v3&utm_medium=api_v3_business_search&utm_source=asslzE1UV0XuKI953B1vtw", "review_count": 338, "categories": [{"alias": "tradamerican", "title": "American (Traditional)"}, {"alias": "newamerican", "title": "American (New)"}], "rating": 3.5, "coordinates": {"latitude": 42.376468, "longitude": -72.5195815}, "transactions": ["delivery"], "price": "$$", "location": {"address1": "51 N Pleasant St", "address2": "", "address3": "", "city": "Amherst", "zip_code": "01002", "country": "US", "state": "MA", "display_address": ["51 N Pleasant St", "Amherst, MA 01002"]}, "phone": "+14132533491", "display_phone": "(413) 253-3491", "distance": 12434.361552674656}, {"id": "aqxqBtpWLmyEwWvgfLTxZA", "alias": "magpie-greenfield", "name": "Magpie", "image_url": "https://s3-media1.fl.yelpcdn.com/bphoto/L2HxqLlx7n0XbbsWFddCaQ/o.jpg", "is_closed": false, "url": "https://www.yelp.com/biz/magpie-greenfield?adjust_creative=asslzE1UV0XuKI953B1vtw&utm_campaign=yelp_api_v3&utm_medium=api_v3_business_search&utm_source=asslzE1UV0XuKI953B1vtw", "review_count": 99, "categories": [{"alias": "pizza", "title": "Pizza"}], "rating": 4.0, "coordinates": {"latitude": 42.5869828462601, "longitude": -72.6005423069}, "transactions": ["delivery"], "price": "$$", "location": {"address1": "21 Bank Row", "address2": "", "address3": "", "city": "Greenfield", "zip_code": "01301", "country": "US", "state": "MA", "display_address": ["21 Bank Row", "Greenfield, MA 01301"]}, "phone": "+14134753570", "display_phone": "(413) 475-3570", "distance": 20196.908802977832}, {"id": "6EIJiG73rc9zCZSXOrksbw", "alias": "kaiju-amherst", "name": "Kaiju", "image_url": "https://s3-media3.fl.yelpcdn.com/bphoto/sAN5t3u-cNywqMwkwfMLIA/o.jpg", "is_closed": false, "url": "https://www.yelp.com/biz/kaiju-amherst?adjust_creative=asslzE1UV0XuKI953B1vtw&utm_campaign=yelp_api_v3&utm_medium=api_v3_business_search&utm_source=asslzE1UV0XuKI953B1vtw", "review_count": 72, "categories": [{"alias": "ramen", "title": "Ramen"}, {"alias": "bbq", "title": "Barbeque"}, {"alias": "cocktailbars", "title": "Cocktail Bars"}], "rating": 3.5, "coordinates": {"latitude": 42.376387, "longitude": -72.518217}, "transactions": ["delivery", "pickup"], "price": "$$", "location": {"address1": "30 Boltwood Walk", "address2": "Basement", "address3": null, "city": "Amherst", "zip_code": "01002", "country": "US", "state": "MA", "display_address": ["30 Boltwood Walk", "Basement", "Amherst, MA 01002"]}, "phone": "+14134610405", "display_phone": "(413) 461-0405", "distance": 12369.337339150254}, {"id": "kZyn3Hoss5qRyBauGreexA", "alias": "110-grill-hadley", "name": "110 Grill", "image_url": "https://s3-media1.fl.yelpcdn.com/bphoto/tsE935EgK7P17-XCRBQzUg/o.jpg", "is_closed": false, "url": "https://www.yelp.com/biz/110-grill-hadley?adjust_creative=asslzE1UV0XuKI953B1vtw&utm_campaign=yelp_api_v3&utm_medium=api_v3_business_search&utm_source=asslzE1UV0XuKI953B1vtw", "review_count": 31, "categories": [{"alias": "tradamerican", "title": "American (Traditional)"}, {"alias": "gluten_free", "title": "Gluten-Free"}, {"alias": "cocktailbars", "title": "Cocktail Bars"}], "rating": 3.0, "coordinates": {"latitude": 42.3568108489038, "longitude": -72.5517587515841}, "transactions": [], "location": {"address1": "355 Russell St", "address2": null, "address3": "", "city": "Hadley", "zip_code": "01035", "country": "US", "state": "MA", "display_address": ["355 Russell St", "Hadley, MA 01035"]}, "phone": "+14135840110", "display_phone": "(413) 584-0110", "distance": 15821.208702625267}, {"id": "EqDWkMchtI0Oaj03pd3T9Q", "alias": "leverett-village-coop-leverett", "name": "Leverett Village Coop", "image_url": "https://s3-media3.fl.yelpcdn.com/bphoto/4dd7y7ajwGHO_OoMEO5ZIg/o.jpg", "is_closed": false, "url": "https://www.yelp.com/biz/leverett-village-coop-leverett?adjust_creative=asslzE1UV0XuKI953B1vtw&utm_campaign=yelp_api_v3&utm_medium=api_v3_business_search&utm_source=asslzE1UV0XuKI953B1vtw", "review_count": 5, "categories": [{"alias": "bakeries", "title": "Bakeries"}, {"alias": "cafes", "title": "Cafes"}, {"alias": "breakfast_brunch", "title": "Breakfast & Brunch"}], "rating": 4.0, "coordinates": {"latitude": 42.494564, "longitude": -72.469718}, "transactions": [], "price": "$$", "location": {"address1": "180 Rattlesnake Gutter Rd", "address2": "", "address3": "", "city": "Leverett", "zip_code": "01054", "country": "US", "state": "MA", "display_address": ["180 Rattlesnake Gutter Rd", "Leverett, MA 01054"]}, "phone": "+14133679794", "display_phone": "(413) 367-9794", "distance": 5345.091101213698}, {"id": "1yFNsud2RmCzfogPNDTbNw", "alias": "gohyang-korean-restaurant-hadley-3", "name": "Gohyang Korean Restaurant", "image_url": "https://s3-media3.fl.yelpcdn.com/bphoto/Fw_-7t4W0a6ISwnHRKEgbQ/o.jpg", "is_closed": false, "url": "https://www.yelp.com/biz/gohyang-korean-restaurant-hadley-3?adjust_creative=asslzE1UV0XuKI953B1vtw&utm_campaign=yelp_api_v3&utm_medium=api_v3_business_search&utm_source=asslzE1UV0XuKI953B1vtw", "review_count": 53, "categories": [{"alias": "korean", "title": "Korean"}], "rating": 4.0, "coordinates": {"latitude": 42.3418961, "longitude": -72.5941849}, "transactions": ["delivery"], "price": "$$", "location": {"address1": "113 Russell St", "address2": null, "address3": "", "city": "Hadley", "zip_code": "01035", "country": "US", "state": "MA", "display_address": ["113 Russell St", "Hadley, MA 01035"]}, "phone": "+14135868848", "display_phone": "(413) 586-8848", "distance": 19447.348951627973}, {"id": "z8ibbohpxOO6gaJHb0krUA", "alias": "bridgeside-grille-sunderland-3", "name": "BridgeSide Grille", "image_url": "https://s3-media1.fl.yelpcdn.com/bphoto/KqszBqT0JeFVOheneOgKVQ/o.jpg", "is_closed": false, "url": "https://www.yelp.com/biz/bridgeside-grille-sunderland-3?adjust_creative=asslzE1UV0XuKI953B1vtw&utm_campaign=yelp_api_v3&utm_medium=api_v3_business_search&utm_source=asslzE1UV0XuKI953B1vtw", "review_count": 52, "categories": [{"alias": "tradamerican", "title": "American (Traditional)"}], "rating": 3.0, "coordinates": {"latitude": 42.465655, "longitude": -72.57859}, "transactions": ["delivery", "pickup"], "price": "$$", "location": {"address1": "9 Amherst Rd", "address2": "", "address3": "", "city": "Sunderland", "zip_code": "01375", "country": "US", "state": "MA", "display_address": ["9 Amherst Rd", "Sunderland, MA 01375"]}, "phone": "+14133978101", "display_phone": "(413) 397-8101", "distance": 12855.73745121089}, {"id": "PlMKmByQbmWCvyOPYK-CkQ", "alias": "the-halal-cart-amherst", "name": "The Halal Cart", "image_url": "https://s3-media4.fl.yelpcdn.com/bphoto/csLyLBr79QF-PBeDrINX1A/o.jpg", "is_closed": false, "url": "https://www.yelp.com/biz/the-halal-cart-amherst?adjust_creative=asslzE1UV0XuKI953B1vtw&utm_campaign=yelp_api_v3&utm_medium=api_v3_business_search&utm_source=asslzE1UV0XuKI953B1vtw", "review_count": 21, "categories": [{"alias": "halal", "title": "Halal"}, {"alias": "streetvendors", "title": "Street Vendors"}, {"alias": "mediterranean", "title": "Mediterranean"}], "rating": 4.5, "coordinates": {"latitude": 42.378148, "longitude": -72.519928}, "transactions": [], "price": "$", "location": {"address1": "115 N Pleasant St", "address2": "", "address3": "", "city": "Amherst", "zip_code": "01002", "country": "US", "state": "MA", "display_address": ["115 N Pleasant St", "Amherst, MA 01002"]}, "phone": "+16463315115", "display_phone": "(646) 331-5115", "distance": 12310.70818780281}, {"id": "AnpPJkpAweO5Y5jQ8IHasQ", "alias": "websters-fish-hook-northampton-2", "name": "Webster's Fish Hook", "image_url": "https://s3-media2.fl.yelpcdn.com/bphoto/cZPGet3z6NBIHPnSreJhrQ/o.jpg", "is_closed": false, "url": "https://www.yelp.com/biz/websters-fish-hook-northampton-2?adjust_creative=asslzE1UV0XuKI953B1vtw&utm_campaign=yelp_api_v3&utm_medium=api_v3_business_search&utm_source=asslzE1UV0XuKI953B1vtw", "review_count": 69, "categories": [{"alias": "seafood", "title": "Seafood"}], "rating": 4.0, "coordinates": {"latitude": 42.334283, "longitude": -72.621815}, "transactions": ["delivery"], "price": "$$", "location": {"address1": "391 Damon Rd", "address2": "", "address3": "", "city": "Northampton", "zip_code": "01060", "country": "US", "state": "MA", "display_address": ["391 Damon Rd", "Northampton, MA 01060"]}, "phone": "+14135863190", "display_phone": "(413) 586-3190", "distance": 21702.13092384286}, {"id": "k8vXS4BM-dzeV3xRu2w15Q", "alias": "champneys-restaurant-and-tavern-deerfield", "name": "Champney's Restaurant & Tavern", "image_url": "https://s3-media3.fl.yelpcdn.com/bphoto/5PJAiYN018fAejDnsPipVw/o.jpg", "is_closed": false, "url": "https://www.yelp.com/biz/champneys-restaurant-and-tavern-deerfield?adjust_creative=asslzE1UV0XuKI953B1vtw&utm_campaign=yelp_api_v3&utm_medium=api_v3_business_search&utm_source=asslzE1UV0XuKI953B1vtw", "review_count": 58, "categories": [{"alias": "beer_and_wine", "title": "Beer, Wine & Spirits"}, {"alias": "tradamerican", "title": "American (Traditional)"}, {"alias": "breakfast_brunch", "title": "Breakfast & Brunch"}], "rating": 3.5, "coordinates": {"latitude": 42.547022, "longitude": -72.604508}, "transactions": ["delivery"], "price": "$$", "location": {"address1": "81 Old Main St", "address2": "", "address3": "", "city": "Deerfield", "zip_code": "01342", "country": "US", "state": "MA", "display_address": ["81 Old Main St", "Deerfield, MA 01342"]}, "phone": "+14137723087", "display_phone": "(413) 772-3087", "distance": 17711.273268040524}, {"id": "vXmQXGQN-DnhBPFwa9rAZg", "alias": "the-taste-thai-restaurant-amherst", "name": "The Taste Thai Restaurant", "image_url": "https://s3-media3.fl.yelpcdn.com/bphoto/YT-wiZqYgEj5L6l7mJX7EQ/o.jpg", "is_closed": false, "url": "https://www.yelp.com/biz/the-taste-thai-restaurant-amherst?adjust_creative=asslzE1UV0XuKI953B1vtw&utm_campaign=yelp_api_v3&utm_medium=api_v3_business_search&utm_source=asslzE1UV0XuKI953B1vtw", "review_count": 82, "categories": [{"alias": "thai", "title": "Thai"}], "rating": 4.0, "coordinates": {"latitude": 42.376332, "longitude": -72.519874}, "transactions": ["delivery"], "price": "$$", "location": {"address1": "25 N Pleasant St", "address2": "", "address3": "", "city": "Amherst", "zip_code": "01002", "country": "US", "state": "MA", "display_address": ["25 N Pleasant St", "Amherst, MA 01002"]}, "phone": "+14132565421", "display_phone": "(413) 256-5421", "distance": 12461.413536363601}, {"id": "SAvy9WokbPywn-Q6bO9xaw", "alias": "thai-blue-ginger-greenfield", "name": "Thai Blue Ginger", "image_url": "https://s3-media2.fl.yelpcdn.com/bphoto/8OSPpAICVUhAW-ZcYhCo_w/o.jpg", "is_closed": false, "url": "https://www.yelp.com/biz/thai-blue-ginger-greenfield?adjust_creative=asslzE1UV0XuKI953B1vtw&utm_campaign=yelp_api_v3&utm_medium=api_v3_business_search&utm_source=asslzE1UV0XuKI953B1vtw", "review_count": 69, "categories": [{"alias": "thai", "title": "Thai"}], "rating": 4.0, "coordinates": {"latitude": 42.5881226929282, "longitude": -72.6008848324572}, "transactions": ["pickup", "delivery"], "price": "$$", "location": {"address1": "298 Main St", "address2": "", "address3": "", "city": "Greenfield", "zip_code": "01301", "country": "US", "state": "MA", "display_address": ["298 Main St", "Greenfield, MA 01301"]}, "phone": "+14137720921", "display_phone": "(413) 772-0921", "distance": 20300.806988507757}, {"id": "YTfiTaawGtWf9CX5a64UNQ", "alias": "ciesluks-market-south-deerfield", "name": "Ciesluk's Market", "image_url": "https://s3-media4.fl.yelpcdn.com/bphoto/kMtgDkcjeQBIp-1SVychMw/o.jpg", "is_closed": false, "url": "https://www.yelp.com/biz/ciesluks-market-south-deerfield?adjust_creative=asslzE1UV0XuKI953B1vtw&utm_campaign=yelp_api_v3&utm_medium=api_v3_business_search&utm_source=asslzE1UV0XuKI953B1vtw", "review_count": 5, "categories": [{"alias": "grocery", "title": "Grocery"}, {"alias": "bakeries", "title": "Bakeries"}, {"alias": "delis", "title": "Delis"}], "rating": 4.5, "coordinates": {"latitude": 42.47767, "longitude": -72.60843}, "transactions": [], "location": {"address1": "55C N Main St", "address2": null, "address3": "", "city": "South Deerfield", "zip_code": "01373", "country": "US", "state": "MA", "display_address": ["55C N Main St", "South Deerfield, MA 01373"]}, "phone": "+14133973574", "display_phone": "(413) 397-3574", "distance": 15386.764629222667}, {"id": "TdZplOy0Nm7kMNpnEgo_kA", "alias": "dimos-restaurant-sunderland", "name": "Dimo's Restaurant", "image_url": "", "is_closed": false, "url": "https://www.yelp.com/biz/dimos-restaurant-sunderland?adjust_creative=asslzE1UV0XuKI953B1vtw&utm_campaign=yelp_api_v3&utm_medium=api_v3_business_search&utm_source=asslzE1UV0XuKI953B1vtw", "review_count": 11, "categories": [{"alias": "tradamerican", "title": "American (Traditional)"}], "rating": 3.0, "coordinates": {"latitude": 42.467481, "longitude": -72.578504}, "transactions": [], "price": "$$", "location": {"address1": "118 N Main St", "address2": "", "address3": "", "city": "Sunderland", "zip_code": "01375", "country": "US", "state": "MA", "display_address": ["118 N Main St", "Sunderland, MA 01375"]}, "phone": "+14136654444", "display_phone": "(413) 665-4444", "distance": 12862.779850287383}, {"id": "snV8jGHnoVWBNJyRUBJYug", "alias": "crazy-noodles-amherst", "name": "Crazy Noodles", "image_url": "https://s3-media2.fl.yelpcdn.com/bphoto/xEAIOZaKDme3BdwU223A2w/o.jpg", "is_closed": false, "url": "https://www.yelp.com/biz/crazy-noodles-amherst?adjust_creative=asslzE1UV0XuKI953B1vtw&utm_campaign=yelp_api_v3&utm_medium=api_v3_business_search&utm_source=asslzE1UV0XuKI953B1vtw", "review_count": 101, "categories": [{"alias": "soup", "title": "Soup"}, {"alias": "noodles", "title": "Noodles"}, {"alias": "chinese", "title": "Chinese"}], "rating": 4.0, "coordinates": {"latitude": 42.37596, "longitude": -72.51913}, "transactions": ["delivery"], "price": "$", "location": {"address1": "36 Main St", "address2": "", "address3": "", "city": "Amherst", "zip_code": "01002", "country": "US", "state": "MA", "display_address": ["36 Main St", "Amherst, MA 01002"]}, "phone": "+14132533287", "display_phone": "(413) 253-3287", "distance": 12452.058073500075}, {"id": "l0NWu0BZldXF3jHhk9SDgQ", "alias": "el-greco-cafe-greenfield", "name": "El Greco Cafe", "image_url": "https://s3-media2.fl.yelpcdn.com/bphoto/FPblzw5Gsz41dTeeA7r32A/o.jpg", "is_closed": false, "url": "https://www.yelp.com/biz/el-greco-cafe-greenfield?adjust_creative=asslzE1UV0XuKI953B1vtw&utm_campaign=yelp_api_v3&utm_medium=api_v3_business_search&utm_source=asslzE1UV0XuKI953B1vtw", "review_count": 50, "categories": [{"alias": "greek", "title": "Greek"}, {"alias": "mediterranean", "title": "Mediterranean"}], "rating": 4.0, "coordinates": {"latitude": 42.587867, "longitude": -72.602179}, "transactions": ["delivery"], "price": "$", "location": {"address1": "233 Main St", "address2": "", "address3": "", "city": "Greenfield", "zip_code": "01301", "country": "US", "state": "MA", "display_address": ["233 Main St", "Greenfield, MA 01301"]}, "phone": "+14137742844", "display_phone": "(413) 774-2844", "distance": 20358.028343372018}, {"id": "BV7lzWCXot_NQaQ5YS9z7Q", "alias": "30-boltwood-amherst-2", "name": "30 Boltwood", "image_url": "https://s3-media1.fl.yelpcdn.com/bphoto/CeAd9sSs2k6QHFBtCyx0GQ/o.jpg", "is_closed": false, "url": "https://www.yelp.com/biz/30-boltwood-amherst-2?adjust_creative=asslzE1UV0XuKI953B1vtw&utm_campaign=yelp_api_v3&utm_medium=api_v3_business_search&utm_source=asslzE1UV0XuKI953B1vtw", "review_count": 67, "categories": [{"alias": "newamerican", "title": "American (New)"}, {"alias": "bars", "title": "Bars"}, {"alias": "breakfast_brunch", "title": "Breakfast & Brunch"}], "rating": 3.5, "coordinates": {"latitude": 42.37452, "longitude": -72.51826}, "transactions": ["delivery"], "price": "$$$", "location": {"address1": "30 Boltwood Ave", "address2": "", "address3": "", "city": "Amherst", "zip_code": "01002", "country": "US", "state": "MA", "display_address": ["30 Boltwood Ave", "Amherst, MA 01002"]}, "phone": "+14138352011", "display_phone": "(413) 835-2011", "distance": 12531.91704148228}, {"id": "W4sLmaC91ain7-EIW6rJhg", "alias": "99-restaurants-greenfield", "name": "99 Restaurants", "image_url": "https://s3-media1.fl.yelpcdn.com/bphoto/O1tqImdbBB0XmapA_c5vUQ/o.jpg", "is_closed": false, "url": "https://www.yelp.com/biz/99-restaurants-greenfield?adjust_creative=asslzE1UV0XuKI953B1vtw&utm_campaign=yelp_api_v3&utm_medium=api_v3_business_search&utm_source=asslzE1UV0XuKI953B1vtw", "review_count": 38, "categories": [{"alias": "pubs", "title": "Pubs"}, {"alias": "tradamerican", "title": "American (Traditional)"}], "rating": 4.0, "coordinates": {"latitude": 42.586313, "longitude": -72.623546}, "transactions": [], "price": "$$", "location": {"address1": "17 Colrain Rd", "address2": null, "address3": null, "city": "Greenfield", "zip_code": "01301", "country": "US", "state": "MA", "display_address": ["17 Colrain Rd", "Greenfield, MA 01301"]}, "phone": "+14137759997", "display_phone": "(413) 775-9997", "distance": 21551.250511002138}, {"id": "52Valo93JOiqpVPScUWEBg", "alias": "the-upper-bend-turners-falls-2", "name": "The Upper Bend", "image_url": "https://s3-media1.fl.yelpcdn.com/bphoto/7nJl1Sy_PZ5n5aK8w1eWcw/o.jpg", "is_closed": false, "url": "https://www.yelp.com/biz/the-upper-bend-turners-falls-2?adjust_creative=asslzE1UV0XuKI953B1vtw&utm_campaign=yelp_api_v3&utm_medium=api_v3_business_search&utm_source=asslzE1UV0XuKI953B1vtw", "review_count": 7, "categories": [{"alias": "breakfast_brunch", "title": "Breakfast & Brunch"}, {"alias": "coffee", "title": "Coffee & Tea"}, {"alias": "sandwiches", "title": "Sandwiches"}], "rating": 4.5, "coordinates": {"latitude": 42.6079845, "longitude": -72.55725217}, "transactions": [], "location": {"address1": "112 Avenue A", "address2": null, "address3": "", "city": "Turners Falls", "zip_code": "01376", "country": "US", "state": "MA", "display_address": ["112 Avenue A", "Turners Falls, MA 01376"]}, "phone": "+14138635270", "display_phone": "(413) 863-5270", "distance": 19672.09436893528}, {"id": "9hfW5LampTq-tf-_Xc8nyQ", "alias": "texas-roadhouse-hadley", "name": "Texas Roadhouse", "image_url": "https://s3-media2.fl.yelpcdn.com/bphoto/6TC9EqKhCtLCEKibTRW3Zg/o.jpg", "is_closed": false, "url": "https://www.yelp.com/biz/texas-roadhouse-hadley?adjust_creative=asslzE1UV0XuKI953B1vtw&utm_campaign=yelp_api_v3&utm_medium=api_v3_business_search&utm_source=asslzE1UV0XuKI953B1vtw", "review_count": 63, "categories": [{"alias": "tradamerican", "title": "American (Traditional)"}, {"alias": "steak", "title": "Steakhouses"}, {"alias": "bbq", "title": "Barbeque"}], "rating": 3.5, "coordinates": {"latitude": 42.352027, "longitude": -72.563707}, "transactions": [], "price": "$$", "location": {"address1": "280 Russell St", "address2": null, "address3": null, "city": "Hadley", "zip_code": "01035", "country": "US", "state": "MA", "display_address": ["280 Russell St", "Hadley, MA 01035"]}, "phone": "+14135840100", "display_phone": "(413) 584-0100", "distance": 16879.60707724252}, {"id": "1K-cj8tD7mHMuDxvkeI-xw", "alias": "omi-omy-amherst", "name": "Omi Omy", "image_url": "https://s3-media2.fl.yelpcdn.com/bphoto/hpTgx-fE3TBg4ow70fPRuQ/o.jpg", "is_closed": false, "url": "https://www.yelp.com/biz/omi-omy-amherst?adjust_creative=asslzE1UV0XuKI953B1vtw&utm_campaign=yelp_api_v3&utm_medium=api_v3_business_search&utm_source=asslzE1UV0XuKI953B1vtw", "review_count": 44, "categories": [{"alias": "vietnamese", "title": "Vietnamese"}, {"alias": "sandwiches", "title": "Sandwiches"}, {"alias": "soup", "title": "Soup"}], "rating": 4.5, "coordinates": {"latitude": 42.36781, "longitude": -72.53494}, "transactions": ["pickup", "delivery"], "price": "$", "location": {"address1": "181 University Dr", "address2": "Ste D", "address3": "", "city": "Amherst", "zip_code": "01002", "country": "US", "state": "MA", "display_address": ["181 University Dr", "Ste D", "Amherst, MA 01002"]}, "phone": "+14132303766", "display_phone": "(413) 230-3766", "distance": 13978.062319110177}, {"id": "WSV-t7fuDkvZonTC-MHbPw", "alias": "lit-restaurant-and-lounge-amherst", "name": "Lit Restaurant & Lounge", "image_url": "https://s3-media1.fl.yelpcdn.com/bphoto/Bs3jjvEUd2acuZb4fk0cdA/o.jpg", "is_closed": false, "url": "https://www.yelp.com/biz/lit-restaurant-and-lounge-amherst?adjust_creative=asslzE1UV0XuKI953B1vtw&utm_campaign=yelp_api_v3&utm_medium=api_v3_business_search&utm_source=asslzE1UV0XuKI953B1vtw", "review_count": 11, "categories": [{"alias": "danceclubs", "title": "Dance Clubs"}, {"alias": "lounges", "title": "Lounges"}, {"alias": "newamerican", "title": "American (New)"}], "rating": 3.5, "coordinates": {"latitude": 42.3763305335657, "longitude": -72.5191700687967}, "transactions": [], "price": "$$", "location": {"address1": "41 Boltwood Walk", "address2": "", "address3": "", "city": "Amherst", "zip_code": "01002", "country": "US", "state": "MA", "display_address": ["41 Boltwood Walk", "Amherst, MA 01002"]}, "phone": "+14133206322", "display_phone": "(413) 320-6322", "distance": 12418.877935878576}, {"id": "KIzGy3Vh5zYbB0AD3aV_6w", "alias": "village-grill-and-pizzeria-athol", "name": "Village Grill & Pizzeria", "image_url": "https://s3-media3.fl.yelpcdn.com/bphoto/mcattaeuVmzdUjgB3xs8_g/o.jpg", "is_closed": false, "url": "https://www.yelp.com/biz/village-grill-and-pizzeria-athol?adjust_creative=asslzE1UV0XuKI953B1vtw&utm_campaign=yelp_api_v3&utm_medium=api_v3_business_search&utm_source=asslzE1UV0XuKI953B1vtw", "review_count": 5, "categories": [{"alias": "pizza", "title": "Pizza"}, {"alias": "tradamerican", "title": "American (Traditional)"}, {"alias": "chicken_wings", "title": "Chicken Wings"}], "rating": 4.5, "coordinates": {"latitude": 42.5919225, "longitude": -72.2411213}, "transactions": [], "price": "$", "location": {"address1": "131 S Main St", "address2": "", "address3": "", "city": "Athol", "zip_code": "01331", "country": "US", "state": "MA", "display_address": ["131 S Main St", "Athol, MA 01331"]}, "phone": "+19785750058", "display_phone": "(978) 575-0058", "distance": 20696.849136229594}, {"id": "cU2qJ6cyv3U0Gj0xyFCVJw", "alias": "historic-catering-erving", "name": "Historic Catering", "image_url": "https://s3-media1.fl.yelpcdn.com/bphoto/BAolcB6t409QxK-E7OWmNg/o.jpg", "is_closed": false, "url": "https://www.yelp.com/biz/historic-catering-erving?adjust_creative=asslzE1UV0XuKI953B1vtw&utm_campaign=yelp_api_v3&utm_medium=api_v3_business_search&utm_source=asslzE1UV0XuKI953B1vtw", "review_count": 1, "categories": [{"alias": "catering", "title": "Caterers"}, {"alias": "salad", "title": "Salad"}, {"alias": "wraps", "title": "Wraps"}], "rating": 5.0, "coordinates": {"latitude": 42.6010286, "longitude": -72.4389351}, "transactions": [], "location": {"address1": "", "address2": "", "address3": null, "city": "Erving", "zip_code": "01344", "country": "US", "state": "MA", "display_address": ["Erving, MA 01344"]}, "phone": "+14134221130", "display_phone": "(413) 422-1130", "distance": 15531.135830536736}, {"id": "8x750RlduCSBUMZoZ8sJ8Q", "alias": "wild-roots-sunderland", "name": "Wild Roots", "image_url": "https://s3-media1.fl.yelpcdn.com/bphoto/9SsPB5uUmMUjJBzkOcp6yA/o.jpg", "is_closed": false, "url": "https://www.yelp.com/biz/wild-roots-sunderland?adjust_creative=asslzE1UV0XuKI953B1vtw&utm_campaign=yelp_api_v3&utm_medium=api_v3_business_search&utm_source=asslzE1UV0XuKI953B1vtw", "review_count": 26, "categories": [{"alias": "juicebars", "title": "Juice Bars & Smoothies"}, {"alias": "breakfast_brunch", "title": "Breakfast & Brunch"}, {"alias": "sandwiches", "title": "Sandwiches"}], "rating": 4.5, "coordinates": {"latitude": 42.46628, "longitude": -72.58093}, "transactions": ["pickup", "delivery"], "price": "$$", "location": {"address1": "11 Bridge St", "address2": null, "address3": "", "city": "Sunderland", "zip_code": "01375", "country": "US", "state": "MA", "display_address": ["11 Bridge St", "Sunderland, MA 01375"]}, "phone": "+14133505911", "display_phone": "(413) 350-5911", "distance": 13052.193628620122}, {"id": "bOvwjTfloZG0w4gqldRbxw", "alias": "the-rendezvous-turners-falls", "name": "The Rendezvous", "image_url": "https://s3-media1.fl.yelpcdn.com/bphoto/XHPigS2CPvkGi04kfh1tbQ/o.jpg", "is_closed": false, "url": "https://www.yelp.com/biz/the-rendezvous-turners-falls?adjust_creative=asslzE1UV0XuKI953B1vtw&utm_campaign=yelp_api_v3&utm_medium=api_v3_business_search&utm_source=asslzE1UV0XuKI953B1vtw", "review_count": 98, "categories": [{"alias": "newamerican", "title": "American (New)"}, {"alias": "musicvenues", "title": "Music Venues"}, {"alias": "burgers", "title": "Burgers"}], "rating": 4.0, "coordinates": {"latitude": 42.60748, "longitude": -72.55612}, "transactions": ["pickup", "delivery"], "price": "$$", "location": {"address1": "78 3rd St", "address2": "", "address3": "", "city": "Turners Falls", "zip_code": "01376", "country": "US", "state": "MA", "display_address": ["78 3rd St", "Turners Falls, MA 01376"]}, "phone": "+14138632866", "display_phone": "(413) 863-2866", "distance": 19571.190619824538}, {"id": "0msAbcZIxbd0SNScpNaDkg", "alias": "ginger-garden-amherst", "name": "Ginger Garden", "image_url": "https://s3-media2.fl.yelpcdn.com/bphoto/js4UWunD8xiJmWjFWuerWw/o.jpg", "is_closed": false, "url": "https://www.yelp.com/biz/ginger-garden-amherst?adjust_creative=asslzE1UV0XuKI953B1vtw&utm_campaign=yelp_api_v3&utm_medium=api_v3_business_search&utm_source=asslzE1UV0XuKI953B1vtw", "review_count": 170, "categories": [{"alias": "chinese", "title": "Chinese"}, {"alias": "asianfusion", "title": "Asian Fusion"}, {"alias": "japanese", "title": "Japanese"}], "rating": 3.5, "coordinates": {"latitude": 42.3669775033261, "longitude": -72.5339299812913}, "transactions": ["delivery"], "price": "$$", "location": {"address1": "351 Northampton Rd", "address2": "", "address3": "", "city": "Amherst", "zip_code": "01002", "country": "US", "state": "MA", "display_address": ["351 Northampton Rd", "Amherst, MA 01002"]}, "phone": "+14132566666", "display_phone": "(413) 256-6666", "distance": 14002.67922743447}, {"id": "54NNpmmHGyas53lS-hqzJQ", "alias": "earthfoods-cafe-amherst", "name": "Earthfoods Cafe", "image_url": "https://s3-media4.fl.yelpcdn.com/bphoto/gJkxRb6i5qzisvdib_vIMA/o.jpg", "is_closed": false, "url": "https://www.yelp.com/biz/earthfoods-cafe-amherst?adjust_creative=asslzE1UV0XuKI953B1vtw&utm_campaign=yelp_api_v3&utm_medium=api_v3_business_search&utm_source=asslzE1UV0XuKI953B1vtw", "review_count": 5, "categories": [{"alias": "vegetarian", "title": "Vegetarian"}], "rating": 4.5, "coordinates": {"latitude": 42.388348, "longitude": -72.528917}, "transactions": [], "price": "$", "location": {"address1": "130 Hicks Way", "address2": "", "address3": "", "city": "Amherst", "zip_code": "01002", "country": "US", "state": "MA", "display_address": ["130 Hicks Way", "Amherst, MA 01002"]}, "phone": "+14135451554", "display_phone": "(413) 545-1554", "distance": 12004.987684815156}, {"id": "sRO-U8Kxd1tXJlENTqv89A", "alias": "miss-saigon-amherst", "name": "Miss Saigon", "image_url": "https://s3-media2.fl.yelpcdn.com/bphoto/ewJ4OfKjEDPImLUeFgcpaA/o.jpg", "is_closed": false, "url": "https://www.yelp.com/biz/miss-saigon-amherst?adjust_creative=asslzE1UV0XuKI953B1vtw&utm_campaign=yelp_api_v3&utm_medium=api_v3_business_search&utm_source=asslzE1UV0XuKI953B1vtw", "review_count": 183, "categories": [{"alias": "vietnamese", "title": "Vietnamese"}, {"alias": "salad", "title": "Salad"}, {"alias": "soup", "title": "Soup"}], "rating": 3.5, "coordinates": {"latitude": 42.377159, "longitude": -72.5204679}, "transactions": ["delivery"], "price": "$$", "location": {"address1": "96 N Pleasant St", "address2": "", "address3": null, "city": "Amherst", "zip_code": "01002", "country": "US", "state": "MA", "display_address": ["96 N Pleasant St", "Amherst, MA 01002"]}, "phone": "+14132539988", "display_phone": "(413) 253-9988", "distance": 12422.996036965209}, {"id": "LcfGULHH5iJ5VkT9q04iMg", "alias": "oriental-flavor-amherst", "name": "Oriental Flavor", "image_url": "https://s3-media1.fl.yelpcdn.com/bphoto/o4t1koat-p2gVbLwl0VuSQ/o.jpg", "is_closed": false, "url": "https://www.yelp.com/biz/oriental-flavor-amherst?adjust_creative=asslzE1UV0XuKI953B1vtw&utm_campaign=yelp_api_v3&utm_medium=api_v3_business_search&utm_source=asslzE1UV0XuKI953B1vtw", "review_count": 204, "categories": [{"alias": "szechuan", "title": "Szechuan"}, {"alias": "dimsum", "title": "Dim Sum"}, {"alias": "cantonese", "title": "Cantonese"}], "rating": 4.0, "coordinates": {"latitude": 42.37527, "longitude": -72.52}, "transactions": ["pickup", "delivery"], "price": "$$", "location": {"address1": "25 S Pleasant St", "address2": null, "address3": "", "city": "Amherst", "zip_code": "01002", "country": "US", "state": "MA", "display_address": ["25 S Pleasant St", "Amherst, MA 01002"]}, "phone": "+14132537673", "display_phone": "(413) 253-7673", "distance": 12563.116580736565}, {"id": "gCaIfAJ93W6fvmKuasF6Xw", "alias": "house-of-teriyaki-amherst", "name": "House of Teriyaki", "image_url": "https://s3-media2.fl.yelpcdn.com/bphoto/R6hmbdgtPeUaM87IpWdmeg/o.jpg", "is_closed": false, "url": "https://www.yelp.com/biz/house-of-teriyaki-amherst?adjust_creative=asslzE1UV0XuKI953B1vtw&utm_campaign=yelp_api_v3&utm_medium=api_v3_business_search&utm_source=asslzE1UV0XuKI953B1vtw", "review_count": 90, "categories": [{"alias": "japanese", "title": "Japanese"}, {"alias": "korean", "title": "Korean"}, {"alias": "sushi", "title": "Sushi Bars"}], "rating": 4.0, "coordinates": {"latitude": 42.40953, "longitude": -72.53044}, "transactions": ["delivery"], "price": "$$", "location": {"address1": "1177 N Pleasant St", "address2": "", "address3": "", "city": "Amherst", "zip_code": "01002", "country": "US", "state": "MA", "display_address": ["1177 N Pleasant St", "Amherst, MA 01002"]}, "phone": "+14135493666", "display_phone": "(413) 549-3666", "distance": 10650.55667562945}, {"id": "sZQnBWW8IPZUA1IVRLWjPg", "alias": "taylors-tavern-greenfield", "name": "Taylor's Tavern", "image_url": "https://s3-media1.fl.yelpcdn.com/bphoto/m7ro5xz5NB5--a5tW-7QtA/o.jpg", "is_closed": false, "url": "https://www.yelp.com/biz/taylors-tavern-greenfield?adjust_creative=asslzE1UV0XuKI953B1vtw&utm_campaign=yelp_api_v3&utm_medium=api_v3_business_search&utm_source=asslzE1UV0XuKI953B1vtw", "review_count": 51, "categories": [{"alias": "tradamerican", "title": "American (Traditional)"}, {"alias": "burgers", "title": "Burgers"}, {"alias": "sandwiches", "title": "Sandwiches"}], "rating": 3.5, "coordinates": {"latitude": 42.588072, "longitude": -72.6022799}, "transactions": ["delivery"], "price": "$$", "location": {"address1": "238 Main St", "address2": "", "address3": "", "city": "Greenfield", "zip_code": "01301", "country": "US", "state": "MA", "display_address": ["238 Main St", "Greenfield, MA 01301"]}, "phone": "+14137738313", "display_phone": "(413) 773-8313", "distance": 20379.69588544466}, {"id": "AosVp_67irlM1MzpgURciw", "alias": "el-comalito-amherst", "name": "El Comalito", "image_url": "https://s3-media4.fl.yelpcdn.com/bphoto/AUZgmbAEqMb52HMmPUOO5w/o.jpg", "is_closed": false, "url": "https://www.yelp.com/biz/el-comalito-amherst?adjust_creative=asslzE1UV0XuKI953B1vtw&utm_campaign=yelp_api_v3&utm_medium=api_v3_business_search&utm_source=asslzE1UV0XuKI953B1vtw", "review_count": 132, "categories": [{"alias": "mexican", "title": "Mexican"}, {"alias": "salvadoran", "title": "Salvadoran"}, {"alias": "bars", "title": "Bars"}], "rating": 4.0, "coordinates": {"latitude": 42.3405129991382, "longitude": -72.5193391647356}, "transactions": ["delivery"], "price": "$$", "location": {"address1": "460 W St", "address2": "", "address3": "", "city": "Amherst", "zip_code": "01002", "country": "US", "state": "MA", "display_address": ["460 W St", "Amherst, MA 01002"]}, "phone": "+14132599999", "display_phone": "(413) 259-9999", "distance": 15693.710420741227}, {"id": "Qcr_HFpf7IX7hzG2rUkjWA", "alias": "pita-pockets-amherst-amherst", "name": "Pita Pockets - Amherst", "image_url": "https://s3-media2.fl.yelpcdn.com/bphoto/4Y5WGziMRU_O1KmqahR_IQ/o.jpg", "is_closed": false, "url": "https://www.yelp.com/biz/pita-pockets-amherst-amherst?adjust_creative=asslzE1UV0XuKI953B1vtw&utm_campaign=yelp_api_v3&utm_medium=api_v3_business_search&utm_source=asslzE1UV0XuKI953B1vtw", "review_count": 200, "categories": [{"alias": "falafel", "title": "Falafel"}, {"alias": "vegetarian", "title": "Vegetarian"}, {"alias": "mideastern", "title": "Middle Eastern"}], "rating": 5.0, "coordinates": {"latitude": 42.37722, "longitude": -72.51936}, "transactions": ["delivery"], "price": "$", "location": {"address1": "103 N Pleasant St", "address2": null, "address3": "", "city": "Amherst", "zip_code": "01002", "country": "US", "state": "MA", "display_address": ["103 N Pleasant St", "Amherst, MA 01002"]}, "phone": "", "display_phone": "", "distance": 12369.870394714288}, {"id": "leTHc9wctzklRk6rGw7VBw", "alias": "the-university-club-and-restaurant-amherst", "name": "The University Club & Restaurant", "image_url": "https://s3-media3.fl.yelpcdn.com/bphoto/Z2aAUuOi-k7EsO4_wi92nA/o.jpg", "is_closed": false, "url": "https://www.yelp.com/biz/the-university-club-and-restaurant-amherst?adjust_creative=asslzE1UV0XuKI953B1vtw&utm_campaign=yelp_api_v3&utm_medium=api_v3_business_search&utm_source=asslzE1UV0XuKI953B1vtw", "review_count": 8, "categories": [{"alias": "tradamerican", "title": "American (Traditional)"}, {"alias": "newamerican", "title": "American (New)"}, {"alias": "lounges", "title": "Lounges"}], "rating": 3.5, "coordinates": {"latitude": 42.3891652753559, "longitude": -72.5234329620205}, "transactions": ["delivery"], "price": "$$$", "location": {"address1": "243 Stockbridge Rd", "address2": "", "address3": "", "city": "Amherst", "zip_code": "01003", "country": "US", "state": "MA", "display_address": ["243 Stockbridge Rd", "Amherst, MA 01003"]}, "phone": "+14135452551", "display_phone": "(413) 545-2551", "distance": 11579.731270744061}, {"id": "ujdYCeulx68Mfdf4pvbxYg", "alias": "grill-n-chill-hatfield", "name": "Grill N Chill", "image_url": "https://s3-media1.fl.yelpcdn.com/bphoto/6_ORnjaKTNiU_12QB0U-5w/o.jpg", "is_closed": false, "url": "https://www.yelp.com/biz/grill-n-chill-hatfield?adjust_creative=asslzE1UV0XuKI953B1vtw&utm_campaign=yelp_api_v3&utm_medium=api_v3_business_search&utm_source=asslzE1UV0XuKI953B1vtw", "review_count": 14, "categories": [{"alias": "newamerican", "title": "American (New)"}, {"alias": "pizza", "title": "Pizza"}], "rating": 3.5, "coordinates": {"latitude": 42.359764, "longitude": -72.625832}, "transactions": ["delivery"], "price": "$$", "location": {"address1": "127 Elm St", "address2": "", "address3": "", "city": "Hatfield", "zip_code": "01038", "country": "US", "state": "MA", "display_address": ["127 Elm St", "Hatfield, MA 01038"]}, "phone": "+14132475044", "display_phone": "(413) 247-5044", "distance": 20233.982543704038}, {"id": "zKiHmDHXaZVVYVe4Qm1nTg", "alias": "hillside-pizza-south-deerfield", "name": "Hillside Pizza", "image_url": "https://s3-media3.fl.yelpcdn.com/bphoto/qkuJnc_RVLnY4uz3HXBbcg/o.jpg", "is_closed": false, "url": "https://www.yelp.com/biz/hillside-pizza-south-deerfield?adjust_creative=asslzE1UV0XuKI953B1vtw&utm_campaign=yelp_api_v3&utm_medium=api_v3_business_search&utm_source=asslzE1UV0XuKI953B1vtw", "review_count": 23, "categories": [{"alias": "pizza", "title": "Pizza"}], "rating": 4.5, "coordinates": {"latitude": 42.50779, "longitude": -72.606161}, "transactions": ["delivery"], "price": "$$", "location": {"address1": "265 Greenfield Rd", "address2": "", "address3": "", "city": "South Deerfield", "zip_code": "01373", "country": "US", "state": "MA", "display_address": ["265 Greenfield Rd", "South Deerfield, MA 01373"]}, "phone": "+14136655533", "display_phone": "(413) 665-5533", "distance": 15949.215238649453}, {"id": "actYV0sh0IL-2FmM0iA8mw", "alias": "pulse-cafe-hadley-2", "name": "Pulse Cafe", "image_url": "https://s3-media2.fl.yelpcdn.com/bphoto/VJeYG0WOKBCYxajMs9XGqA/o.jpg", "is_closed": false, "url": "https://www.yelp.com/biz/pulse-cafe-hadley-2?adjust_creative=asslzE1UV0XuKI953B1vtw&utm_campaign=yelp_api_v3&utm_medium=api_v3_business_search&utm_source=asslzE1UV0XuKI953B1vtw", "review_count": 121, "categories": [{"alias": "vegan", "title": "Vegan"}, {"alias": "juicebars", "title": "Juice Bars & Smoothies"}, {"alias": "pizza", "title": "Pizza"}], "rating": 4.5, "coordinates": {"latitude": 42.3514255777614, "longitude": -72.5670206797623}, "transactions": ["delivery"], "price": "$$", "location": {"address1": null, "address2": "270 Russell St", "address3": "", "city": "Hadley", "zip_code": "01035", "country": "US", "state": "MA", "display_address": ["270 Russell St", "Hadley, MA 01035"]}, "phone": "+14133870555", "display_phone": "(413) 387-0555", "distance": 17116.41450268329}, {"id": "mdb20FDiW_bL3Hf0C1Jqvw", "alias": "iya-sushi-and-noodle-kitchen-amherst", "name": "IYA Sushi and Noodle Kitchen", "image_url": "https://s3-media4.fl.yelpcdn.com/bphoto/zkKWpDNZbJVLv5YiIVUAVg/o.jpg", "is_closed": false, "url": "https://www.yelp.com/biz/iya-sushi-and-noodle-kitchen-amherst?adjust_creative=asslzE1UV0XuKI953B1vtw&utm_campaign=yelp_api_v3&utm_medium=api_v3_business_search&utm_source=asslzE1UV0XuKI953B1vtw", "review_count": 25, "categories": [{"alias": "sushi", "title": "Sushi Bars"}, {"alias": "ramen", "title": "Ramen"}], "rating": 3.0, "coordinates": {"latitude": 42.37919, "longitude": -72.5195815}, "transactions": ["pickup", "delivery"], "location": {"address1": "1 E Pleasant St", "address2": "", "address3": null, "city": "Amherst", "zip_code": "01002", "country": "US", "state": "MA", "display_address": ["1 E Pleasant St", "Amherst, MA 01002"]}, "phone": "+14133278000", "display_phone": "(413) 327-8000", "distance": 12204.518034898812}, {"id": "B9mlcSelTLSmYp3UQlMCxw", "alias": "holiday-pizza-south-deerfield", "name": "Holiday Pizza", "image_url": "https://s3-media2.fl.yelpcdn.com/bphoto/5UGIRfPb-Pw3YWCxfalkfw/o.jpg", "is_closed": false, "url": "https://www.yelp.com/biz/holiday-pizza-south-deerfield?adjust_creative=asslzE1UV0XuKI953B1vtw&utm_campaign=yelp_api_v3&utm_medium=api_v3_business_search&utm_source=asslzE1UV0XuKI953B1vtw", "review_count": 33, "categories": [{"alias": "pizza", "title": "Pizza"}, {"alias": "mediterranean", "title": "Mediterranean"}, {"alias": "italian", "title": "Italian"}], "rating": 4.5, "coordinates": {"latitude": 42.4771728515625, "longitude": -72.609130859375}, "transactions": ["delivery"], "price": "$", "location": {"address1": "3 Elm St", "address2": "Ste A", "address3": "", "city": "South Deerfield", "zip_code": "01373", "country": "US", "state": "MA", "display_address": ["3 Elm St", "Ste A", "South Deerfield, MA 01373"]}, "phone": "+14136658195", "display_phone": "(413) 665-8195", "distance": 15452.394965274345}, {"id": "Py-pq_QzEvEKFIce_x6k6w", "alias": "wildwood-barbeque-hadley", "name": "Wildwood Barbeque", "image_url": "https://s3-media2.fl.yelpcdn.com/bphoto/Z3EhA7EHNfv1GVWXI2TXRA/o.jpg", "is_closed": false, "url": "https://www.yelp.com/biz/wildwood-barbeque-hadley?adjust_creative=asslzE1UV0XuKI953B1vtw&utm_campaign=yelp_api_v3&utm_medium=api_v3_business_search&utm_source=asslzE1UV0XuKI953B1vtw", "review_count": 170, "categories": [{"alias": "bbq", "title": "Barbeque"}, {"alias": "beerbar", "title": "Beer Bar"}, {"alias": "tradamerican", "title": "American (Traditional)"}], "rating": 3.5, "coordinates": {"latitude": 42.34659, "longitude": -72.57226}, "transactions": ["delivery"], "price": "$$", "location": {"address1": "235 Russell St", "address2": null, "address3": "", "city": "Hadley", "zip_code": "01035", "country": "US", "state": "MA", "display_address": ["235 Russell St", "Hadley, MA 01035"]}, "phone": "+14135844227", "display_phone": "(413) 584-4227", "distance": 17810.76143207305}, {"id": "FrJpcCrHNe0zdZCkw9IEyw", "alias": "hubies-tavern-montague", "name": "Hubie's Tavern", "image_url": "https://s3-media4.fl.yelpcdn.com/bphoto/3gWQzRgsBTzOX445tOvReA/o.jpg", "is_closed": false, "url": "https://www.yelp.com/biz/hubies-tavern-montague?adjust_creative=asslzE1UV0XuKI953B1vtw&utm_campaign=yelp_api_v3&utm_medium=api_v3_business_search&utm_source=asslzE1UV0XuKI953B1vtw", "review_count": 14, "categories": [{"alias": "diners", "title": "Diners"}, {"alias": "bars", "title": "Bars"}], "rating": 3.5, "coordinates": {"latitude": 42.6085548, "longitude": -72.5566254}, "transactions": [], "price": "$", "location": {"address1": "66 Ave A", "address2": "", "address3": "", "city": "Montague", "zip_code": "01376", "country": "US", "state": "MA", "display_address": ["66 Ave A", "Montague, MA 01376"]}, "phone": "+14138638938", "display_phone": "(413) 863-8938", "distance": 19697.270596875627}, {"id": "kMygiwbWBt1mq_6iHHmu4A", "alias": "bonnie-bs-greenfield", "name": "Bonnie B's", "image_url": "https://s3-media3.fl.yelpcdn.com/bphoto/oX_Z6yc17Tq26UVSo4o4Ig/o.jpg", "is_closed": false, "url": "https://www.yelp.com/biz/bonnie-bs-greenfield?adjust_creative=asslzE1UV0XuKI953B1vtw&utm_campaign=yelp_api_v3&utm_medium=api_v3_business_search&utm_source=asslzE1UV0XuKI953B1vtw", "review_count": 19, "categories": [{"alias": "breakfast_brunch", "title": "Breakfast & Brunch"}, {"alias": "tradamerican", "title": "American (Traditional)"}], "rating": 4.5, "coordinates": {"latitude": 42.588116, "longitude": -72.602802}, "transactions": ["pickup", "delivery"], "location": {"address1": "204 Main St", "address2": "", "address3": null, "city": "Greenfield", "zip_code": "01301", "country": "US", "state": "MA", "display_address": ["204 Main St", "Greenfield, MA 01301"]}, "phone": "+14134753758", "display_phone": "(413) 475-3758", "distance": 20414.12044220711}, {"id": "fYOPoMtoJ4m0yGbxAMjNfw", "alias": "sunset-grill-and-pizza-amherst-2", "name": "Sunset Grill and Pizza", "image_url": "https://s3-media2.fl.yelpcdn.com/bphoto/dyKhKfKpARCn-1Mkxp6tog/o.jpg", "is_closed": false, "url": "https://www.yelp.com/biz/sunset-grill-and-pizza-amherst-2?adjust_creative=asslzE1UV0XuKI953B1vtw&utm_campaign=yelp_api_v3&utm_medium=api_v3_business_search&utm_source=asslzE1UV0XuKI953B1vtw", "review_count": 20, "categories": [{"alias": "pizza", "title": "Pizza"}, {"alias": "tradamerican", "title": "American (Traditional)"}], "rating": 3.5, "coordinates": {"latitude": 42.38105, "longitude": -72.52728}, "transactions": ["delivery"], "price": "$", "location": {"address1": "150 Fearing St", "address2": null, "address3": "", "city": "Amherst", "zip_code": "01002", "country": "US", "state": "MA", "display_address": ["150 Fearing St", "Amherst, MA 01002"]}, "phone": "+14138350568", "display_phone": "(413) 835-0568", "distance": 12492.243329371324}, {"id": "rfsbS44y-fo40Zis_9d7qg", "alias": "bite-me-please-amherst-center", "name": "Bite Me Please", "image_url": "https://s3-media4.fl.yelpcdn.com/bphoto/jpu3A2Uar32eGiQ0stg_4Q/o.jpg", "is_closed": false, "url": "https://www.yelp.com/biz/bite-me-please-amherst-center?adjust_creative=asslzE1UV0XuKI953B1vtw&utm_campaign=yelp_api_v3&utm_medium=api_v3_business_search&utm_source=asslzE1UV0XuKI953B1vtw", "review_count": 1, "categories": [{"alias": "foodstands", "title": "Food Stands"}], "rating": 4.0, "coordinates": {"latitude": 42.3752212524414, "longitude": -72.5198364257812}, "transactions": [], "location": {"address1": "", "address2": "", "address3": "", "city": "Amherst Center", "zip_code": "", "country": "US", "state": "MA", "display_address": ["Amherst Center, MA"]}, "phone": "+14132190591", "display_phone": "(413) 219-0591", "distance": 12510.954633433757}, {"id": "shdRdjPzsHQn5SXhsT9bVw", "alias": "toms-hot-dog-whately", "name": "Tom's Hot Dog", "image_url": "https://s3-media1.fl.yelpcdn.com/bphoto/8sAD2sXoHiFeNzO598_MaQ/o.jpg", "is_closed": false, "url": "https://www.yelp.com/biz/toms-hot-dog-whately?adjust_creative=asslzE1UV0XuKI953B1vtw&utm_campaign=yelp_api_v3&utm_medium=api_v3_business_search&utm_source=asslzE1UV0XuKI953B1vtw", "review_count": 34, "categories": [{"alias": "hotdog", "title": "Hot Dogs"}, {"alias": "burgers", "title": "Burgers"}, {"alias": "soup", "title": "Soup"}], "rating": 4.0, "coordinates": {"latitude": 42.4235720399516, "longitude": -72.6222722370316}, "transactions": ["delivery"], "price": "$", "location": {"address1": "61 State Rd Rte 5 And 10", "address2": "", "address3": "", "city": "Whately", "zip_code": "01093", "country": "US", "state": "MA", "display_address": ["61 State Rd Rte 5 And 10", "Whately, MA 01093"]}, "phone": "+14136652931", "display_phone": "(413) 665-2931", "distance": 16987.76302406759}, {"id": "EWCyLEMETdIUFOmwMSRxTQ", "alias": "mesa-verde-greenfield", "name": "Mesa Verde", "image_url": "https://s3-media4.fl.yelpcdn.com/bphoto/ok7I_ZBW8l4NdmeyyBtLBw/o.jpg", "is_closed": false, "url": "https://www.yelp.com/biz/mesa-verde-greenfield?adjust_creative=asslzE1UV0XuKI953B1vtw&utm_campaign=yelp_api_v3&utm_medium=api_v3_business_search&utm_source=asslzE1UV0XuKI953B1vtw", "review_count": 141, "categories": [{"alias": "mexican", "title": "Mexican"}], "rating": 4.0, "coordinates": {"latitude": 42.587334, "longitude": -72.602582}, "transactions": ["delivery"], "price": "$", "location": {"address1": "10 Fiske Ave", "address2": "", "address3": "", "city": "Greenfield", "zip_code": "01301", "country": "US", "state": "MA", "display_address": ["10 Fiske Ave", "Greenfield, MA 01301"]}, "phone": "+14137722531", "display_phone": "(413) 772-2531", "distance": 20343.965501006805}, {"id": "2xvvqUWeYDsMgixuZCpyLQ", "alias": "hangar-pub-and-grill-amherst-2", "name": "Hangar Pub & Grill", "image_url": "https://s3-media4.fl.yelpcdn.com/bphoto/KIfRNP6aRjAtfcTkSFepyg/o.jpg", "is_closed": false, "url": "https://www.yelp.com/biz/hangar-pub-and-grill-amherst-2?adjust_creative=asslzE1UV0XuKI953B1vtw&utm_campaign=yelp_api_v3&utm_medium=api_v3_business_search&utm_source=asslzE1UV0XuKI953B1vtw", "review_count": 130, "categories": [{"alias": "pubs", "title": "Pubs"}, {"alias": "arcades", "title": "Arcades"}, {"alias": "tradamerican", "title": "American (Traditional)"}], "rating": 3.5, "coordinates": {"latitude": 42.3733375, "longitude": -72.5326808}, "transactions": ["pickup", "delivery"], "price": "$$", "location": {"address1": "10 University Dr", "address2": "", "address3": "", "city": "Amherst", "zip_code": "01002", "country": "US", "state": "MA", "display_address": ["10 University Dr", "Amherst, MA 01002"]}, "phone": "+14135499461", "display_phone": "(413) 549-9461", "distance": 13407.583904256942}, {"id": "d1PfS_bozULtBY4PjF3D-w", "alias": "antonios-amherst", "name": "Antonio's", "image_url": "https://s3-media1.fl.yelpcdn.com/bphoto/P-Xc3GMql09E_4KfL3t_XA/o.jpg", "is_closed": false, "url": "https://www.yelp.com/biz/antonios-amherst?adjust_creative=asslzE1UV0XuKI953B1vtw&utm_campaign=yelp_api_v3&utm_medium=api_v3_business_search&utm_source=asslzE1UV0XuKI953B1vtw", "review_count": 471, "categories": [{"alias": "pizza", "title": "Pizza"}], "rating": 4.5, "coordinates": {"latitude": 42.37619, "longitude": -72.51961}, "transactions": ["delivery"], "price": "$", "location": {"address1": "31 N Pleasant St", "address2": "", "address3": "", "city": "Amherst", "zip_code": "01002", "country": "US", "state": "MA", "display_address": ["31 N Pleasant St", "Amherst, MA 01002"]}, "phone": "+14132530808", "display_phone": "(413) 253-0808", "distance": 12458.605979549362}, {"id": "8UGk7xXWl2S1sukzncygOA", "alias": "friendly-town-pizza-athol", "name": "Friendly Town Pizza", "image_url": "https://s3-media2.fl.yelpcdn.com/bphoto/p3xHl6JjujdkBj7l85xrnw/o.jpg", "is_closed": false, "url": "https://www.yelp.com/biz/friendly-town-pizza-athol?adjust_creative=asslzE1UV0XuKI953B1vtw&utm_campaign=yelp_api_v3&utm_medium=api_v3_business_search&utm_source=asslzE1UV0XuKI953B1vtw", "review_count": 30, "categories": [{"alias": "pizza", "title": "Pizza"}], "rating": 4.5, "coordinates": {"latitude": 42.581438, "longitude": -72.261868}, "transactions": [], "price": "$$", "location": {"address1": "1604 S Main St", "address2": null, "address3": null, "city": "Athol", "zip_code": "01331", "country": "US", "state": "MA", "display_address": ["1604 S Main St", "Athol, MA 01331"]}, "phone": "+19782493651", "display_phone": "(978) 249-3651", "distance": 18669.99181431646}, {"id": "gLypgJyGFwhiq_yQnFAuSw", "alias": "prondecki-s-pizza-erving", "name": "Prondecki\u2019s Pizza", "image_url": "https://s3-media1.fl.yelpcdn.com/bphoto/5Ll_Ubt1KtRGQ9lh_84hpA/o.jpg", "is_closed": false, "url": "https://www.yelp.com/biz/prondecki-s-pizza-erving?adjust_creative=asslzE1UV0XuKI953B1vtw&utm_campaign=yelp_api_v3&utm_medium=api_v3_business_search&utm_source=asslzE1UV0XuKI953B1vtw", "review_count": 2, "categories": [{"alias": "pizza", "title": "Pizza"}, {"alias": "sandwiches", "title": "Sandwiches"}], "rating": 3.0, "coordinates": {"latitude": 42.582573438486, "longitude": -72.4938782869538}, "transactions": [], "location": {"address1": "1 W High St", "address2": "", "address3": "", "city": "Erving", "zip_code": "01344", "country": "US", "state": "MA", "display_address": ["1 W High St", "Erving, MA 01344"]}, "phone": "+14134233907", "display_phone": "(413) 423-3907", "distance": 14656.338354691417}, {"id": "Bg_8P9_cODuGHbbHA3U8VQ", "alias": "sugarloaf-frostie-sunderland", "name": "Sugarloaf Frostie", "image_url": "https://s3-media2.fl.yelpcdn.com/bphoto/rqdpJK2QJOhKcxkGlbAiZQ/o.jpg", "is_closed": false, "url": "https://www.yelp.com/biz/sugarloaf-frostie-sunderland?adjust_creative=asslzE1UV0XuKI953B1vtw&utm_campaign=yelp_api_v3&utm_medium=api_v3_business_search&utm_source=asslzE1UV0XuKI953B1vtw", "review_count": 23, "categories": [{"alias": "foodstands", "title": "Food Stands"}], "rating": 3.5, "coordinates": {"latitude": 42.464494, "longitude": -72.574273}, "transactions": [], "price": "$", "location": {"address1": "116 Amherst Rd", "address2": "", "address3": "", "city": "Sunderland", "zip_code": "01375", "country": "US", "state": "MA", "display_address": ["116 Amherst Rd", "Sunderland, MA 01375"]}, "phone": "+14136657585", "display_phone": "(413) 665-7585", "distance": 12504.424868369319}, {"id": "5d6BCUCZuaU2SYeek-uoNA", "alias": "mi-tierra-hadley-2", "name": "Mi Tierra", "image_url": "https://s3-media3.fl.yelpcdn.com/bphoto/0cTrPL_qIKB7hQQQX83toA/o.jpg", "is_closed": false, "url": "https://www.yelp.com/biz/mi-tierra-hadley-2?adjust_creative=asslzE1UV0XuKI953B1vtw&utm_campaign=yelp_api_v3&utm_medium=api_v3_business_search&utm_source=asslzE1UV0XuKI953B1vtw", "review_count": 123, "categories": [{"alias": "mexican", "title": "Mexican"}], "rating": 3.5, "coordinates": {"latitude": 42.3405706, "longitude": -72.6053010552254}, "transactions": ["delivery"], "price": "$$", "location": {"address1": "48 Russell St", "address2": null, "address3": null, "city": "Hadley", "zip_code": "01035", "country": "US", "state": "MA", "display_address": ["48 Russell St", "Hadley, MA 01035"]}, "phone": "+14135879820", "display_phone": "(413) 587-9820", "distance": 20221.64559110965}, {"id": "e5bI0nEjKHM6xYRc1hb3vA", "alias": "high-horse-amherst", "name": "High Horse", "image_url": "https://s3-media1.fl.yelpcdn.com/bphoto/4Lx-eMX-7hjyrSwfSGvKWQ/o.jpg", "is_closed": false, "url": "https://www.yelp.com/biz/high-horse-amherst?adjust_creative=asslzE1UV0XuKI953B1vtw&utm_campaign=yelp_api_v3&utm_medium=api_v3_business_search&utm_source=asslzE1UV0XuKI953B1vtw", "review_count": 274, "categories": [{"alias": "pubs", "title": "Pubs"}, {"alias": "newamerican", "title": "American (New)"}], "rating": 3.0, "coordinates": {"latitude": 42.376197040205, "longitude": -72.5201359183853}, "transactions": ["delivery"], "price": "$$", "location": {"address1": "24 N Pleasant St", "address2": "", "address3": "", "city": "Amherst", "zip_code": "01002", "country": "US", "state": "MA", "display_address": ["24 N Pleasant St", "Amherst, MA 01002"]}, "phone": "+14132303034", "display_phone": "(413) 230-3034", "distance": 12486.761385888838}, {"id": "_-DpIGE758Vq2hSJTF-P2w", "alias": "johnnys-roadside-diner-hadley", "name": "Johnny's Roadside Diner", "image_url": "https://s3-media2.fl.yelpcdn.com/bphoto/XlgfWs2nB0vm2QV5VJ7lyw/o.jpg", "is_closed": false, "url": "https://www.yelp.com/biz/johnnys-roadside-diner-hadley?adjust_creative=asslzE1UV0XuKI953B1vtw&utm_campaign=yelp_api_v3&utm_medium=api_v3_business_search&utm_source=asslzE1UV0XuKI953B1vtw", "review_count": 128, "categories": [{"alias": "tradamerican", "title": "American (Traditional)"}, {"alias": "diners", "title": "Diners"}, {"alias": "breakfast_brunch", "title": "Breakfast & Brunch"}], "rating": 3.5, "coordinates": {"latitude": 42.3655072874757, "longitude": -72.5364167243242}, "transactions": ["pickup", "delivery"], "price": "$$", "location": {"address1": "458 Russell St", "address2": "", "address3": "Campus Plaza Shopping Ctr", "city": "Hadley", "zip_code": "01035", "country": "US", "state": "MA", "display_address": ["458 Russell St", "Campus Plaza Shopping Ctr", "Hadley, MA 01035"]}, "phone": "+14132568000", "display_phone": "(413) 256-8000", "distance": 14260.194004480083}, {"id": "YZvXTxzycSpl0thbZbA62Q", "alias": "frontier-pizza-place-sunderland", "name": "Frontier Pizza Place", "image_url": "https://s3-media2.fl.yelpcdn.com/bphoto/bRpCBgRHsJrY_hojQ5VK7A/o.jpg", "is_closed": false, "url": "https://www.yelp.com/biz/frontier-pizza-place-sunderland?adjust_creative=asslzE1UV0XuKI953B1vtw&utm_campaign=yelp_api_v3&utm_medium=api_v3_business_search&utm_source=asslzE1UV0XuKI953B1vtw", "review_count": 30, "categories": [{"alias": "pizza", "title": "Pizza"}], "rating": 3.0, "coordinates": {"latitude": 42.450953, "longitude": -72.562729}, "transactions": ["delivery"], "price": "$$", "location": {"address1": "283 Amherst Rd", "address2": "Rte 116", "address3": "", "city": "Sunderland", "zip_code": "01375", "country": "US", "state": "MA", "display_address": ["283 Amherst Rd", "Rte 116", "Sunderland, MA 01375"]}, "phone": "+14136657066", "display_phone": "(413) 665-7066", "distance": 11619.624368771048}, {"id": "ZYW34OE1yuNuSaPgXbK98g", "alias": "hangar-greenfield-greenfield", "name": "Hangar - Greenfield", "image_url": "https://s3-media3.fl.yelpcdn.com/bphoto/LshdcwdmAZYSse8fbuOqqw/o.jpg", "is_closed": false, "url": "https://www.yelp.com/biz/hangar-greenfield-greenfield?adjust_creative=asslzE1UV0XuKI953B1vtw&utm_campaign=yelp_api_v3&utm_medium=api_v3_business_search&utm_source=asslzE1UV0XuKI953B1vtw", "review_count": 28, "categories": [{"alias": "chicken_wings", "title": "Chicken Wings"}, {"alias": "pubs", "title": "Pubs"}], "rating": 3.5, "coordinates": {"latitude": 42.5889892578125, "longitude": -72.5999526977539}, "transactions": ["pickup", "delivery"], "price": "$$", "location": {"address1": "30 Federal St", "address2": "", "address3": null, "city": "Greenfield", "zip_code": "01301", "country": "US", "state": "MA", "display_address": ["30 Federal St", "Greenfield, MA 01301"]}, "phone": "+14137739464", "display_phone": "(413) 773-9464", "distance": 20313.51935749843}, {"id": "bUOQz09aRLhDVV5Lg35o6w", "alias": "paradise-of-india-restaurant-amherst", "name": "Paradise Of India Restaurant", "image_url": "https://s3-media4.fl.yelpcdn.com/bphoto/bzRIUko7RhNRfr8ANGpMSg/o.jpg", "is_closed": false, "url": "https://www.yelp.com/biz/paradise-of-india-restaurant-amherst?adjust_creative=asslzE1UV0XuKI953B1vtw&utm_campaign=yelp_api_v3&utm_medium=api_v3_business_search&utm_source=asslzE1UV0XuKI953B1vtw", "review_count": 44, "categories": [{"alias": "indpak", "title": "Indian"}], "rating": 3.0, "coordinates": {"latitude": 42.375682107816, "longitude": -72.518003456808}, "transactions": ["delivery"], "price": "$$", "location": {"address1": "87 Main St", "address2": "", "address3": "", "city": "Amherst", "zip_code": "01002", "country": "US", "state": "MA", "display_address": ["87 Main St", "Amherst, MA 01002"]}, "phone": "+14132561067", "display_phone": "(413) 256-1067", "distance": 12418.588129453407}, {"id": "epqJjZou4WhvNHm3YI0yaw", "alias": "doves-nest-restaurant-sunderland", "name": "Dove's Nest Restaurant", "image_url": "https://s3-media2.fl.yelpcdn.com/bphoto/lZaim-3fpRBkNFOC81btZQ/o.jpg", "is_closed": false, "url": "https://www.yelp.com/biz/doves-nest-restaurant-sunderland?adjust_creative=asslzE1UV0XuKI953B1vtw&utm_campaign=yelp_api_v3&utm_medium=api_v3_business_search&utm_source=asslzE1UV0XuKI953B1vtw", "review_count": 24, "categories": [{"alias": "diners", "title": "Diners"}, {"alias": "breakfast_brunch", "title": "Breakfast & Brunch"}], "rating": 4.0, "coordinates": {"latitude": 42.4512326907386, "longitude": -72.5632996993883}, "transactions": [], "price": "$", "location": {"address1": "285 Amherst Rd", "address2": "", "address3": "", "city": "Sunderland", "zip_code": "01375", "country": "US", "state": "MA", "display_address": ["285 Amherst Rd", "Sunderland, MA 01375"]}, "phone": "+14136657969", "display_phone": "(413) 665-7969", "distance": 11662.950303021114}, {"id": "e8ZEjMpyR0yUdEdBdlYiJQ", "alias": "new-golden-china-restaurant-south-deerfield", "name": "New Golden China Restaurant", "image_url": "https://s3-media3.fl.yelpcdn.com/bphoto/8wVKYBzZqtc0BHauql8UvA/o.jpg", "is_closed": false, "url": "https://www.yelp.com/biz/new-golden-china-restaurant-south-deerfield?adjust_creative=asslzE1UV0XuKI953B1vtw&utm_campaign=yelp_api_v3&utm_medium=api_v3_business_search&utm_source=asslzE1UV0XuKI953B1vtw", "review_count": 17, "categories": [{"alias": "chinese", "title": "Chinese"}], "rating": 3.5, "coordinates": {"latitude": 42.4765968322754, "longitude": -72.6094131469727}, "transactions": ["delivery"], "price": "$$", "location": {"address1": "45 S Main St", "address2": "", "address3": "", "city": "South Deerfield", "zip_code": "01373", "country": "US", "state": "MA", "display_address": ["45 S Main St", "South Deerfield, MA 01373"]}, "phone": "+14136653365", "display_phone": "(413) 665-3365", "distance": 15468.673314717524}, {"id": "IiX7lGoQQE3T4wg_1cx8Og", "alias": "fresh-side-amherst", "name": "Fresh Side", "image_url": "https://s3-media1.fl.yelpcdn.com/bphoto/JnFSiF5wYb9Y4yIojqiNiQ/o.jpg", "is_closed": false, "url": "https://www.yelp.com/biz/fresh-side-amherst?adjust_creative=asslzE1UV0XuKI953B1vtw&utm_campaign=yelp_api_v3&utm_medium=api_v3_business_search&utm_source=asslzE1UV0XuKI953B1vtw", "review_count": 179, "categories": [{"alias": "coffee", "title": "Coffee & Tea"}, {"alias": "panasian", "title": "Pan Asian"}], "rating": 3.5, "coordinates": {"latitude": 42.3752749, "longitude": -72.5200186}, "transactions": ["delivery"], "price": "$$", "location": {"address1": "39 S Pleasant St", "address2": "", "address3": "", "city": "Amherst", "zip_code": "01002", "country": "US", "state": "MA", "display_address": ["39 S Pleasant St", "Amherst, MA 01002"]}, "phone": "+14132560296", "display_phone": "(413) 256-0296", "distance": 12566.801494784324}, {"id": "i_N21-BF8Lj3ejHEldeWqA", "alias": "bueno-y-sano-amherst", "name": "Bueno Y Sano", "image_url": "https://s3-media1.fl.yelpcdn.com/bphoto/duOb3oSfyUVi4k-NmZqQdQ/o.jpg", "is_closed": false, "url": "https://www.yelp.com/biz/bueno-y-sano-amherst?adjust_creative=asslzE1UV0XuKI953B1vtw&utm_campaign=yelp_api_v3&utm_medium=api_v3_business_search&utm_source=asslzE1UV0XuKI953B1vtw", "review_count": 204, "categories": [{"alias": "mexican", "title": "Mexican"}], "rating": 4.0, "coordinates": {"latitude": 42.3759103, "longitude": -72.5184821}, "transactions": ["pickup", "delivery"], "price": "$", "location": {"address1": "1 Boltwood Walk", "address2": null, "address3": "", "city": "Amherst", "zip_code": "01002", "country": "US", "state": "MA", "display_address": ["1 Boltwood Walk", "Amherst, MA 01002"]}, "phone": "+14132534000", "display_phone": "(413) 253-4000", "distance": 12422.942838729945}, {"id": "RkqQC9cvFa12pCWn2leGig", "alias": "fishtales-bar-and-grill-hatfield-4", "name": "Fishtales Bar & Grill", "image_url": "https://s3-media4.fl.yelpcdn.com/bphoto/vcdupOaCugnkyzCp8XqV6Q/o.jpg", "is_closed": false, "url": "https://www.yelp.com/biz/fishtales-bar-and-grill-hatfield-4?adjust_creative=asslzE1UV0XuKI953B1vtw&utm_campaign=yelp_api_v3&utm_medium=api_v3_business_search&utm_source=asslzE1UV0XuKI953B1vtw", "review_count": 45, "categories": [{"alias": "bars", "title": "Bars"}, {"alias": "seafood", "title": "Seafood"}, {"alias": "sandwiches", "title": "Sandwiches"}], "rating": 3.0, "coordinates": {"latitude": 42.3731853, "longitude": -72.5982296}, "transactions": ["delivery"], "price": "$$", "location": {"address1": "5 School St", "address2": "", "address3": "", "city": "Hatfield", "zip_code": "01038", "country": "US", "state": "MA", "display_address": ["5 School St", "Hatfield, MA 01038"]}, "phone": "+14133494100", "display_phone": "(413) 349-4100", "distance": 17519.54536041696}, {"id": "5lZ6vYXgDWjYC2DfUfiLuw", "alias": "the-blue-wall-amherst", "name": "The Blue Wall", "image_url": "https://s3-media3.fl.yelpcdn.com/bphoto/vrnn4FII9CRUFx1XzhshtA/o.jpg", "is_closed": false, "url": "https://www.yelp.com/biz/the-blue-wall-amherst?adjust_creative=asslzE1UV0XuKI953B1vtw&utm_campaign=yelp_api_v3&utm_medium=api_v3_business_search&utm_source=asslzE1UV0XuKI953B1vtw", "review_count": 19, "categories": [{"alias": "food_court", "title": "Food Court"}], "rating": 2.5, "coordinates": {"latitude": 42.391782, "longitude": -72.527004}, "transactions": [], "price": "$$", "location": {"address1": "1 Campus Center Way", "address2": "", "address3": "University of Massachusetts Campus Center", "city": "Amherst", "zip_code": "01003", "country": "US", "state": "MA", "display_address": ["1 Campus Center Way", "University of Massachusetts Campus Center", "Amherst, MA 01003"]}, "phone": "", "display_phone": "", "distance": 11630.966637909449}, {"id": "421ECUnYmdE2Ct1Wm4O4gQ", "alias": "tea-house-orange", "name": "Tea House", "image_url": "https://s3-media1.fl.yelpcdn.com/bphoto/KvF3hIcpyxXCyvSXlCV0aQ/o.jpg", "is_closed": false, "url": "https://www.yelp.com/biz/tea-house-orange?adjust_creative=asslzE1UV0XuKI953B1vtw&utm_campaign=yelp_api_v3&utm_medium=api_v3_business_search&utm_source=asslzE1UV0XuKI953B1vtw", "review_count": 24, "categories": [{"alias": "chinese", "title": "Chinese"}], "rating": 3.0, "coordinates": {"latitude": 42.58773, "longitude": -72.2954}, "transactions": [], "price": "$$", "location": {"address1": "326 E Main St", "address2": "", "address3": "", "city": "Orange", "zip_code": "01364", "country": "US", "state": "MA", "display_address": ["326 E Main St", "Orange, MA 01364"]}, "phone": "+19785443802", "display_phone": "(978) 544-3802", "distance": 17416.550554136575}, {"id": "OOfG7vHmJhU1ii-XvDu1oA", "alias": "nicks-breakfast-and-lunch-athol", "name": "Nicks Breakfast and Lunch", "image_url": "https://s3-media3.fl.yelpcdn.com/bphoto/DkQ81_0J-azZTYh2pL_hfg/o.jpg", "is_closed": false, "url": "https://www.yelp.com/biz/nicks-breakfast-and-lunch-athol?adjust_creative=asslzE1UV0XuKI953B1vtw&utm_campaign=yelp_api_v3&utm_medium=api_v3_business_search&utm_source=asslzE1UV0XuKI953B1vtw", "review_count": 16, "categories": [{"alias": "breakfast_brunch", "title": "Breakfast & Brunch"}], "rating": 3.5, "coordinates": {"latitude": 42.5937958, "longitude": -72.228775}, "transactions": [], "price": "$$", "location": {"address1": "567 Main St", "address2": "", "address3": "", "city": "Athol", "zip_code": "01331", "country": "US", "state": "MA", "display_address": ["567 Main St", "Athol, MA 01331"]}, "phone": "+19782498400", "display_phone": "(978) 249-8400", "distance": 21586.633346653016}, {"id": "DMv1r_XMkNj7G0n0X0bodA", "alias": "main-street-bar-and-grille-greenfield", "name": "Main Street Bar and Grille", "image_url": "https://s3-media1.fl.yelpcdn.com/bphoto/_y80dYCee_tMYms2n3dWWg/o.jpg", "is_closed": false, "url": "https://www.yelp.com/biz/main-street-bar-and-grille-greenfield?adjust_creative=asslzE1UV0XuKI953B1vtw&utm_campaign=yelp_api_v3&utm_medium=api_v3_business_search&utm_source=asslzE1UV0XuKI953B1vtw", "review_count": 7, "categories": [{"alias": "tradamerican", "title": "American (Traditional)"}, {"alias": "bars", "title": "Bars"}, {"alias": "burgers", "title": "Burgers"}], "rating": 3.5, "coordinates": {"latitude": 42.58773, "longitude": -72.60579}, "transactions": ["delivery"], "price": "$$", "location": {"address1": "94 Main St", "address2": "", "address3": "", "city": "Greenfield", "zip_code": "01301", "country": "US", "state": "MA", "display_address": ["94 Main St", "Greenfield, MA 01301"]}, "phone": "+14137746388", "display_phone": "(413) 774-6388", "distance": 20564.58640555273}, {"id": "6a3mUieRgCSGXCJ4lmzvFA", "alias": "ce-ces-chinese-restaurant-turners-falls", "name": "Ce Ce's Chinese Restaurant", "image_url": "https://s3-media2.fl.yelpcdn.com/bphoto/iKuaw65YUP_av-lB2p37kA/o.jpg", "is_closed": false, "url": "https://www.yelp.com/biz/ce-ces-chinese-restaurant-turners-falls?adjust_creative=asslzE1UV0XuKI953B1vtw&utm_campaign=yelp_api_v3&utm_medium=api_v3_business_search&utm_source=asslzE1UV0XuKI953B1vtw", "review_count": 10, "categories": [{"alias": "chinese", "title": "Chinese"}], "rating": 4.0, "coordinates": {"latitude": 42.6078868144459, "longitude": -72.55670151079}, "transactions": ["delivery"], "price": "$$", "location": {"address1": "53 Avenue A", "address2": "", "address3": "", "city": "Turners Falls", "zip_code": "01376", "country": "US", "state": "MA", "display_address": ["53 Avenue A", "Turners Falls, MA 01376"]}, "phone": "+14138638988", "display_phone": "(413) 863-8988", "distance": 19633.479621045368}, {"id": "v8dqq-bW7cTLvo_jECUraA", "alias": "cheers-cut-amherst-amherst", "name": "Cheers Cut Amherst", "image_url": "https://s3-media2.fl.yelpcdn.com/bphoto/HZ5g3ozwe4wrvOuRVz2Nmw/o.jpg", "is_closed": false, "url": "https://www.yelp.com/biz/cheers-cut-amherst-amherst?adjust_creative=asslzE1UV0XuKI953B1vtw&utm_campaign=yelp_api_v3&utm_medium=api_v3_business_search&utm_source=asslzE1UV0XuKI953B1vtw", "review_count": 3, "categories": [{"alias": "chickenshop", "title": "Chicken Shop"}], "rating": 2.5, "coordinates": {"latitude": 42.376064, "longitude": -72.519357}, "transactions": ["pickup", "delivery"], "location": {"address1": "31 Boltwood Walk", "address2": null, "address3": "", "city": "Amherst", "zip_code": "01002", "country": "US", "state": "MA", "display_address": ["31 Boltwood Walk", "Amherst, MA 01002"]}, "phone": "+14132303127", "display_phone": "(413) 230-3127", "distance": 12456.989236718046}, {"id": "b-LHyJufYxVTDZZYgsC5zg", "alias": "applebees-grill-bar-greenfield-2", "name": "Applebee's Grill + Bar", "image_url": "https://s3-media3.fl.yelpcdn.com/bphoto/uspV9fyAGPPDasqqxw9JuQ/o.jpg", "is_closed": false, "url": "https://www.yelp.com/biz/applebees-grill-bar-greenfield-2?adjust_creative=asslzE1UV0XuKI953B1vtw&utm_campaign=yelp_api_v3&utm_medium=api_v3_business_search&utm_source=asslzE1UV0XuKI953B1vtw", "review_count": 31, "categories": [{"alias": "tradamerican", "title": "American (Traditional)"}, {"alias": "sportsbars", "title": "Sports Bars"}, {"alias": "burgers", "title": "Burgers"}], "rating": 3.5, "coordinates": {"latitude": 42.585115, "longitude": -72.618677}, "transactions": [], "price": "$$", "location": {"address1": "141 Mohawk Trl", "address2": "", "address3": "", "city": "Greenfield", "zip_code": "01301", "country": "US", "state": "MA", "display_address": ["141 Mohawk Trl", "Greenfield, MA 01301"]}, "phone": "+14137720079", "display_phone": "(413) 772-0079", "distance": 21160.44345056399}, {"id": "vhMAnf6-he-QpsXVqMe_WQ", "alias": "hot-table-hadley", "name": "Hot Table", "image_url": "https://s3-media4.fl.yelpcdn.com/bphoto/FbW5EUrHsd9_oLPvQok-YQ/o.jpg", "is_closed": false, "url": "https://www.yelp.com/biz/hot-table-hadley?adjust_creative=asslzE1UV0XuKI953B1vtw&utm_campaign=yelp_api_v3&utm_medium=api_v3_business_search&utm_source=asslzE1UV0XuKI953B1vtw", "review_count": 41, "categories": [{"alias": "sandwiches", "title": "Sandwiches"}, {"alias": "salad", "title": "Salad"}, {"alias": "coffee", "title": "Coffee & Tea"}], "rating": 4.0, "coordinates": {"latitude": 42.35744, "longitude": -72.55198}, "transactions": ["delivery"], "price": "$", "location": {"address1": "344 Russell St", "address2": "", "address3": "", "city": "Hadley", "zip_code": "01035", "country": "US", "state": "MA", "display_address": ["344 Russell St", "Hadley, MA 01035"]}, "phone": "+14133870331", "display_phone": "(413) 387-0331", "distance": 15803.76582083558}, {"id": "3Wr0o6qZfbUoP7mkl0zPoQ", "alias": "la-veracruzana-mexican-restaurant-amherst", "name": "La Veracruzana Mexican Restaurant", "image_url": "https://s3-media4.fl.yelpcdn.com/bphoto/6ThJ2mUPLvY3CqmQHLTk2Q/o.jpg", "is_closed": false, "url": "https://www.yelp.com/biz/la-veracruzana-mexican-restaurant-amherst?adjust_creative=asslzE1UV0XuKI953B1vtw&utm_campaign=yelp_api_v3&utm_medium=api_v3_business_search&utm_source=asslzE1UV0XuKI953B1vtw", "review_count": 105, "categories": [{"alias": "mexican", "title": "Mexican"}], "rating": 3.0, "coordinates": {"latitude": 42.374797453538, "longitude": -72.520020664947}, "transactions": ["delivery"], "price": "$$", "location": {"address1": "63 S Pleasant St", "address2": "", "address3": "", "city": "Amherst", "zip_code": "01002", "country": "US", "state": "MA", "display_address": ["63 S Pleasant St", "Amherst, MA 01002"]}, "phone": "+14132536900", "display_phone": "(413) 253-6900", "distance": 12599.968807428595}, {"id": "h33tLUMqn4OoS_WWpryfOQ", "alias": "whately-diner-whately-2", "name": "Whately Diner", "image_url": "https://s3-media4.fl.yelpcdn.com/bphoto/DBvU4Xihx_181DNp9oyR8w/o.jpg", "is_closed": false, "url": "https://www.yelp.com/biz/whately-diner-whately-2?adjust_creative=asslzE1UV0XuKI953B1vtw&utm_campaign=yelp_api_v3&utm_medium=api_v3_business_search&utm_source=asslzE1UV0XuKI953B1vtw", "review_count": 102, "categories": [{"alias": "diners", "title": "Diners"}, {"alias": "tradamerican", "title": "American (Traditional)"}], "rating": 3.0, "coordinates": {"latitude": 42.4640578, "longitude": -72.618024}, "transactions": ["delivery"], "price": "$$", "location": {"address1": "372 State Rd", "address2": "", "address3": "", "city": "Whately", "zip_code": "01093", "country": "US", "state": "MA", "display_address": ["372 State Rd", "Whately, MA 01093"]}, "phone": "+14136653696", "display_phone": "(413) 665-3696", "distance": 16091.837707626095}, {"id": "CeNue9aAo1r58011k9-SEw", "alias": "hadley-scoop-hadley", "name": "Hadley Scoop", "image_url": "https://s3-media4.fl.yelpcdn.com/bphoto/qp9s9khJRoY75ekT0sYmqQ/o.jpg", "is_closed": false, "url": "https://www.yelp.com/biz/hadley-scoop-hadley?adjust_creative=asslzE1UV0XuKI953B1vtw&utm_campaign=yelp_api_v3&utm_medium=api_v3_business_search&utm_source=asslzE1UV0XuKI953B1vtw", "review_count": 8, "categories": [{"alias": "icecream", "title": "Ice Cream & Frozen Yogurt"}, {"alias": "hotdog", "title": "Hot Dogs"}], "rating": 5.0, "coordinates": {"latitude": 42.3467072918696, "longitude": -72.5731841102242}, "transactions": [], "price": "$", "location": {"address1": "229 Russell St", "address2": "", "address3": null, "city": "Hadley", "zip_code": "01035", "country": "US", "state": "MA", "display_address": ["229 Russell St", "Hadley, MA 01035"]}, "phone": "+14133870097", "display_phone": "(413) 387-0097", "distance": 17845.66229846871}, {"id": "R_Dbzv_Qldr8iQSurwMgNQ", "alias": "friendlys-hadley", "name": "Friendly's", "image_url": "https://s3-media1.fl.yelpcdn.com/bphoto/qcBD0f0dXi-o-3DxaVbfhA/o.jpg", "is_closed": false, "url": "https://www.yelp.com/biz/friendlys-hadley?adjust_creative=asslzE1UV0XuKI953B1vtw&utm_campaign=yelp_api_v3&utm_medium=api_v3_business_search&utm_source=asslzE1UV0XuKI953B1vtw", "review_count": 12, "categories": [{"alias": "icecream", "title": "Ice Cream & Frozen Yogurt"}, {"alias": "burgers", "title": "Burgers"}, {"alias": "tradamerican", "title": "American (Traditional)"}], "rating": 4.0, "coordinates": {"latitude": 42.3637771606445, "longitude": -72.5378112792969}, "transactions": [], "price": "$$", "location": {"address1": "455 Russell St", "address2": "", "address3": "", "city": "Hadley", "zip_code": "01035", "country": "US", "state": "MA", "display_address": ["455 Russell St", "Hadley, MA 01035"]}, "phone": "+14132537640", "display_phone": "(413) 253-7640", "distance": 14463.421883473256}, {"id": "_9fx7H2bsf_COclbn5xbrg", "alias": "worcester-dining-commons-amherst", "name": "Worcester Dining Commons", "image_url": "https://s3-media1.fl.yelpcdn.com/bphoto/ty1MQG9UGyR0vn8sLx5Fqw/o.jpg", "is_closed": false, "url": "https://www.yelp.com/biz/worcester-dining-commons-amherst?adjust_creative=asslzE1UV0XuKI953B1vtw&utm_campaign=yelp_api_v3&utm_medium=api_v3_business_search&utm_source=asslzE1UV0XuKI953B1vtw", "review_count": 3, "categories": [{"alias": "soup", "title": "Soup"}, {"alias": "pizza", "title": "Pizza"}], "rating": 4.0, "coordinates": {"latitude": 42.3936650395243, "longitude": -72.5240462528631}, "transactions": [], "price": "$", "location": {"address1": "669 N Pleasant St", "address2": "", "address3": "", "city": "Amherst", "zip_code": "01003", "country": "US", "state": "MA", "display_address": ["669 N Pleasant St", "Amherst, MA 01003"]}, "phone": "+14135452472", "display_phone": "(413) 545-2472", "distance": 11310.37540829157}, {"id": "GozHnnsLBsvS2fbgyIugXw", "alias": "muffins-general-market-whately", "name": "Muffin's General Market", "image_url": "https://s3-media2.fl.yelpcdn.com/bphoto/I5w5JBJ5aHfLKOP1SWjgaQ/o.jpg", "is_closed": false, "url": "https://www.yelp.com/biz/muffins-general-market-whately?adjust_creative=asslzE1UV0XuKI953B1vtw&utm_campaign=yelp_api_v3&utm_medium=api_v3_business_search&utm_source=asslzE1UV0XuKI953B1vtw", "review_count": 7, "categories": [{"alias": "breakfast_brunch", "title": "Breakfast & Brunch"}, {"alias": "beer_and_wine", "title": "Beer, Wine & Spirits"}, {"alias": "delis", "title": "Delis"}], "rating": 4.0, "coordinates": {"latitude": 42.41856, "longitude": -72.62037}, "transactions": ["pickup", "delivery"], "price": "$", "location": {"address1": "28 State Rd", "address2": "", "address3": null, "city": "Whately", "zip_code": "01373", "country": "US", "state": "MA", "display_address": ["28 State Rd", "Whately, MA 01373"]}, "phone": "+14133973372", "display_phone": "(413) 397-3372", "distance": 17012.496739553473}, {"id": "3p3pMwBPluQSEscxeqFa5g", "alias": "bittersweet-bakery-and-cafe-deerfield", "name": "Bittersweet Bakery & Cafe", "image_url": "https://s3-media2.fl.yelpcdn.com/bphoto/_2c3G5F_Kt0IvHqtfncUSg/o.jpg", "is_closed": false, "url": "https://www.yelp.com/biz/bittersweet-bakery-and-cafe-deerfield?adjust_creative=asslzE1UV0XuKI953B1vtw&utm_campaign=yelp_api_v3&utm_medium=api_v3_business_search&utm_source=asslzE1UV0XuKI953B1vtw", "review_count": 17, "categories": [{"alias": "cafes", "title": "Cafes"}, {"alias": "bakeries", "title": "Bakeries"}, {"alias": "coffee", "title": "Coffee & Tea"}], "rating": 4.0, "coordinates": {"latitude": 42.53364, "longitude": -72.60323}, "transactions": [], "location": {"address1": "470 Greenfield Rd", "address2": "", "address3": null, "city": "Deerfield", "zip_code": "01342", "country": "US", "state": "MA", "display_address": ["470 Greenfield Rd", "Deerfield, MA 01342"]}, "phone": "+14132235496", "display_phone": "(413) 223-5496", "distance": 16878.166854427625}, {"id": "MQ9PTbD-EFRUxhg0R5kjUw", "alias": "cushman-market-and-cafe-amherst", "name": "Cushman Market and Cafe", "image_url": "https://s3-media1.fl.yelpcdn.com/bphoto/DO5X8alL6hHAyTMwtOLyvg/o.jpg", "is_closed": false, "url": "https://www.yelp.com/biz/cushman-market-and-cafe-amherst?adjust_creative=asslzE1UV0XuKI953B1vtw&utm_campaign=yelp_api_v3&utm_medium=api_v3_business_search&utm_source=asslzE1UV0XuKI953B1vtw", "review_count": 82, "categories": [{"alias": "breakfast_brunch", "title": "Breakfast & Brunch"}, {"alias": "grocery", "title": "Grocery"}, {"alias": "coffee", "title": "Coffee & Tea"}], "rating": 4.0, "coordinates": {"latitude": 42.4126167297363, "longitude": -72.5079345703125}, "transactions": ["pickup", "delivery"], "price": "$", "location": {"address1": "491 Pine St", "address2": "", "address3": "", "city": "Amherst", "zip_code": "01002", "country": "US", "state": "MA", "display_address": ["491 Pine St", "Amherst, MA 01002"]}, "phone": "+14135490100", "display_phone": "(413) 549-0100", "distance": 8936.64067959816}, {"id": "7ccuuvYz9PAUMZ-2VVBZZw", "alias": "pizza-factory-orange", "name": "Pizza Factory", "image_url": "https://s3-media3.fl.yelpcdn.com/bphoto/bb8FyfINlCRnHsfbwKu_jA/o.jpg", "is_closed": false, "url": "https://www.yelp.com/biz/pizza-factory-orange?adjust_creative=asslzE1UV0XuKI953B1vtw&utm_campaign=yelp_api_v3&utm_medium=api_v3_business_search&utm_source=asslzE1UV0XuKI953B1vtw", "review_count": 5, "categories": [{"alias": "pizza", "title": "Pizza"}], "rating": 3.0, "coordinates": {"latitude": 42.59063, "longitude": -72.31046}, "transactions": [], "price": "$", "location": {"address1": "11 W Main St", "address2": "", "address3": "", "city": "Orange", "zip_code": "01364", "country": "US", "state": "MA", "display_address": ["11 W Main St", "Orange, MA 01364"]}, "phone": "+19785445818", "display_phone": "(978) 544-5818", "distance": 16982.57417184477}, {"id": "bzP1utyRGu6ywPric5UmGg", "alias": "arigato-sushi-amherst", "name": "Arigato Sushi", "image_url": "https://s3-media2.fl.yelpcdn.com/bphoto/ilaUY0nSTDWV0uGxKWxSKQ/o.jpg", "is_closed": false, "url": "https://www.yelp.com/biz/arigato-sushi-amherst?adjust_creative=asslzE1UV0XuKI953B1vtw&utm_campaign=yelp_api_v3&utm_medium=api_v3_business_search&utm_source=asslzE1UV0XuKI953B1vtw", "review_count": 75, "categories": [{"alias": "sushi", "title": "Sushi Bars"}, {"alias": "japanese", "title": "Japanese"}, {"alias": "korean", "title": "Korean"}], "rating": 3.5, "coordinates": {"latitude": 42.3759798393699, "longitude": -72.5196934563388}, "transactions": ["delivery"], "price": "$$", "location": {"address1": "11 N Pleasant St", "address2": null, "address3": "", "city": "Amherst", "zip_code": "01002", "country": "US", "state": "MA", "display_address": ["11 N Pleasant St", "Amherst, MA 01002"]}, "phone": "+14132531070", "display_phone": "(413) 253-1070", "distance": 12481.820364268717}, {"id": "UEYeGewAHsCLA-OAFxKJ5A", "alias": "amherst-house-of-pizza-north-amherst", "name": "Amherst House of Pizza", "image_url": "https://s3-media2.fl.yelpcdn.com/bphoto/fOr-ygossK2adzltS9jayA/o.jpg", "is_closed": false, "url": "https://www.yelp.com/biz/amherst-house-of-pizza-north-amherst?adjust_creative=asslzE1UV0XuKI953B1vtw&utm_campaign=yelp_api_v3&utm_medium=api_v3_business_search&utm_source=asslzE1UV0XuKI953B1vtw", "review_count": 53, "categories": [{"alias": "pizza", "title": "Pizza"}], "rating": 3.5, "coordinates": {"latitude": 42.410941, "longitude": -72.53031}, "transactions": ["delivery"], "price": "$", "location": {"address1": "17B Montague Rd", "address2": "", "address3": "", "city": "North Amherst", "zip_code": "01002", "country": "US", "state": "MA", "display_address": ["17B Montague Rd", "North Amherst, MA 01002"]}, "phone": "+14134613510", "display_phone": "(413) 461-3510", "distance": 10550.84110023653}, {"id": "dEp2L6B4tFTHtK4NxWd83w", "alias": "turners-falls-pizza-house-turners-falls", "name": "Turners Falls Pizza House", "image_url": "https://s3-media2.fl.yelpcdn.com/bphoto/_xhngASvQO04GYK_oUGkMw/o.jpg", "is_closed": false, "url": "https://www.yelp.com/biz/turners-falls-pizza-house-turners-falls?adjust_creative=asslzE1UV0XuKI953B1vtw&utm_campaign=yelp_api_v3&utm_medium=api_v3_business_search&utm_source=asslzE1UV0XuKI953B1vtw", "review_count": 31, "categories": [{"alias": "pizza", "title": "Pizza"}, {"alias": "salad", "title": "Salad"}], "rating": 4.0, "coordinates": {"latitude": 42.60762, "longitude": -72.5569}, "transactions": ["delivery"], "price": "$", "location": {"address1": "119 Avenue A", "address2": "", "address3": "", "city": "Turners Falls", "zip_code": "01376", "country": "US", "state": "MA", "display_address": ["119 Avenue A", "Turners Falls, MA 01376"]}, "phone": "+14138638000", "display_phone": "(413) 863-8000", "distance": 19636.997746607816}, {"id": "lNVB5KVLp9rGBOchtlPewQ", "alias": "village-pizza-shop-greenfield", "name": "Village Pizza Shop", "image_url": "https://s3-media4.fl.yelpcdn.com/bphoto/Y-OXKHBaMYwMyxx7hz5VLg/o.jpg", "is_closed": false, "url": "https://www.yelp.com/biz/village-pizza-shop-greenfield?adjust_creative=asslzE1UV0XuKI953B1vtw&utm_campaign=yelp_api_v3&utm_medium=api_v3_business_search&utm_source=asslzE1UV0XuKI953B1vtw", "review_count": 55, "categories": [{"alias": "pizza", "title": "Pizza"}], "rating": 4.0, "coordinates": {"latitude": 42.586783, "longitude": -72.600916}, "transactions": ["delivery"], "price": "$$", "location": {"address1": "42 Bank Row St", "address2": "", "address3": "", "city": "Greenfield", "zip_code": "01301", "country": "US", "state": "MA", "display_address": ["42 Bank Row St", "Greenfield, MA 01301"]}, "phone": "+14137726209", "display_phone": "(413) 772-6209", "distance": 20200.089308318842}, {"id": "33NPj7t3cxn_dPJiJN5-UQ", "alias": "roots-caf\u00e9-amherst", "name": "Roots Caf\u00e9", "image_url": "https://s3-media2.fl.yelpcdn.com/bphoto/qaM-JfiuX82_TrH_CJZbug/o.jpg", "is_closed": false, "url": "https://www.yelp.com/biz/roots-caf%C3%A9-amherst?adjust_creative=asslzE1UV0XuKI953B1vtw&utm_campaign=yelp_api_v3&utm_medium=api_v3_business_search&utm_source=asslzE1UV0XuKI953B1vtw", "review_count": 1, "categories": [{"alias": "cafes", "title": "Cafes"}, {"alias": "coffee", "title": "Coffee & Tea"}], "rating": 4.0, "coordinates": {"latitude": 42.3882024948657, "longitude": -72.5305322930217}, "transactions": [], "location": {"address1": "157 Commonwealth Ave", "address2": "", "address3": null, "city": "Amherst", "zip_code": "01002", "country": "US", "state": "MA", "display_address": ["157 Commonwealth Ave", "Amherst, MA 01002"]}, "phone": "+14135458402", "display_phone": "(413) 545-8402", "distance": 12113.306810205275}, {"id": "Rlt9O-ZnZJwbbz5lNnOe7A", "alias": "greeno-sub-shop-amherst", "name": "Greeno Sub Shop", "image_url": "https://s3-media1.fl.yelpcdn.com/bphoto/YuGAq9LxHLjiE7lQ9rm3KQ/o.jpg", "is_closed": false, "url": "https://www.yelp.com/biz/greeno-sub-shop-amherst?adjust_creative=asslzE1UV0XuKI953B1vtw&utm_campaign=yelp_api_v3&utm_medium=api_v3_business_search&utm_source=asslzE1UV0XuKI953B1vtw", "review_count": 3, "categories": [{"alias": "sandwiches", "title": "Sandwiches"}], "rating": 3.5, "coordinates": {"latitude": 42.3904151916504, "longitude": -72.5283737182617}, "transactions": [], "price": "$", "location": {"address1": "120 Greenough Hall Basement", "address2": "", "address3": "", "city": "Amherst", "zip_code": "01003", "country": "US", "state": "MA", "display_address": ["120 Greenough Hall Basement", "Amherst, MA 01003"]}, "phone": "+14135452380", "display_phone": "(413) 545-2380", "distance": 11300.98247375097}, {"id": "qhFqS8F57n7vmKKfrFZu-w", "alias": "friendly-town-pizza-orange", "name": "Friendly Town Pizza", "image_url": "", "is_closed": false, "url": "https://www.yelp.com/biz/friendly-town-pizza-orange?adjust_creative=asslzE1UV0XuKI953B1vtw&utm_campaign=yelp_api_v3&utm_medium=api_v3_business_search&utm_source=asslzE1UV0XuKI953B1vtw", "review_count": 1, "categories": [{"alias": "pizza", "title": "Pizza"}], "rating": 4.0, "coordinates": {"latitude": 42.5891990661621, "longitude": -72.3095703125}, "transactions": [], "location": {"address1": "", "address2": "", "address3": "", "city": "Orange", "zip_code": "", "country": "US", "state": "MA", "display_address": ["Orange, MA"]}, "phone": "+19782493651", "display_phone": "(978) 249-3651", "distance": 16443.52739354618}, {"id": "NZHMfENo3z9WKmlntJzoQA", "alias": "primo-restaurant-and-pizzeria-south-deerfield", "name": "Primo Restaurant and Pizzeria", "image_url": "https://s3-media2.fl.yelpcdn.com/bphoto/6IziWJ7o2qxR7as40bhJ2Q/o.jpg", "is_closed": false, "url": "https://www.yelp.com/biz/primo-restaurant-and-pizzeria-south-deerfield?adjust_creative=asslzE1UV0XuKI953B1vtw&utm_campaign=yelp_api_v3&utm_medium=api_v3_business_search&utm_source=asslzE1UV0XuKI953B1vtw", "review_count": 32, "categories": [{"alias": "pizza", "title": "Pizza"}, {"alias": "italian", "title": "Italian"}, {"alias": "burgers", "title": "Burgers"}], "rating": 2.5, "coordinates": {"latitude": 42.47667, "longitude": -72.60749}, "transactions": ["delivery"], "price": "$", "location": {"address1": "4 Sugarloaf St", "address2": "", "address3": "", "city": "South Deerfield", "zip_code": "01373", "country": "US", "state": "MA", "display_address": ["4 Sugarloaf St", "South Deerfield, MA 01373"]}, "phone": "+14136653300", "display_phone": "(413) 665-3300", "distance": 15357.70701784301}, {"id": "dDA3YpteWaTXQ63z6REGeg", "alias": "the-wok-deerfield", "name": "The Wok", "image_url": "https://s3-media1.fl.yelpcdn.com/bphoto/vbZOmgKk-TYSndB9Oa5tQw/o.jpg", "is_closed": false, "url": "https://www.yelp.com/biz/the-wok-deerfield?adjust_creative=asslzE1UV0XuKI953B1vtw&utm_campaign=yelp_api_v3&utm_medium=api_v3_business_search&utm_source=asslzE1UV0XuKI953B1vtw", "review_count": 22, "categories": [{"alias": "chinese", "title": "Chinese"}, {"alias": "seafood", "title": "Seafood"}, {"alias": "soup", "title": "Soup"}], "rating": 3.0, "coordinates": {"latitude": 42.56664, "longitude": -72.593}, "transactions": ["delivery"], "price": "$$", "location": {"address1": "723 Greenfield Rd", "address2": "", "address3": "", "city": "Deerfield", "zip_code": "01342", "country": "US", "state": "MA", "display_address": ["723 Greenfield Rd", "Deerfield, MA 01342"]}, "phone": "+14137743606", "display_phone": "(413) 774-3606", "distance": 18218.690191450805}, {"id": "2ykfTFuQMBNreBEvDEkBGg", "alias": "robertos-pizzeria-greenfield", "name": "Roberto's Pizzeria", "image_url": "https://s3-media4.fl.yelpcdn.com/bphoto/RC3SdRAazT2BstJZNw67yw/o.jpg", "is_closed": false, "url": "https://www.yelp.com/biz/robertos-pizzeria-greenfield?adjust_creative=asslzE1UV0XuKI953B1vtw&utm_campaign=yelp_api_v3&utm_medium=api_v3_business_search&utm_source=asslzE1UV0XuKI953B1vtw", "review_count": 14, "categories": [{"alias": "pizza", "title": "Pizza"}], "rating": 4.5, "coordinates": {"latitude": 42.59002, "longitude": -72.59941}, "transactions": ["delivery"], "price": "$", "location": {"address1": "80 Federal St", "address2": "", "address3": "", "city": "Greenfield", "zip_code": "01301", "country": "US", "state": "MA", "display_address": ["80 Federal St", "Greenfield, MA 01301"]}, "phone": "+14137750155", "display_phone": "(413) 775-0155", "distance": 20351.734651626863}, {"id": "q9yRUhtTnlxTJPhTMrMWCg", "alias": "applebees-grill-bar-hadley", "name": "Applebee's Grill + Bar", "image_url": "https://s3-media3.fl.yelpcdn.com/bphoto/AqPUNdyXjiPAUUcK_VM7EQ/o.jpg", "is_closed": false, "url": "https://www.yelp.com/biz/applebees-grill-bar-hadley?adjust_creative=asslzE1UV0XuKI953B1vtw&utm_campaign=yelp_api_v3&utm_medium=api_v3_business_search&utm_source=asslzE1UV0XuKI953B1vtw", "review_count": 27, "categories": [{"alias": "burgers", "title": "Burgers"}, {"alias": "sportsbars", "title": "Sports Bars"}, {"alias": "tradamerican", "title": "American (Traditional)"}], "rating": 3.0, "coordinates": {"latitude": 42.361753, "longitude": -72.54188}, "transactions": ["delivery"], "price": "$$", "location": {"address1": "100 Westgate Center Dr", "address2": "", "address3": "", "city": "Hadley", "zip_code": "01035", "country": "US", "state": "MA", "display_address": ["100 Westgate Center Dr", "Hadley, MA 01035"]}, "phone": "+14132535799", "display_phone": "(413) 253-5799", "distance": 14870.103264413467}, {"id": "qXh_8dyoLpniX1pv5jquOA", "alias": "chilis-hadley-2", "name": "Chili's", "image_url": "https://s3-media2.fl.yelpcdn.com/bphoto/ZgpcqyND1_O4weS7Np15Tg/o.jpg", "is_closed": false, "url": "https://www.yelp.com/biz/chilis-hadley-2?adjust_creative=asslzE1UV0XuKI953B1vtw&utm_campaign=yelp_api_v3&utm_medium=api_v3_business_search&utm_source=asslzE1UV0XuKI953B1vtw", "review_count": 48, "categories": [{"alias": "tradamerican", "title": "American (Traditional)"}, {"alias": "bars", "title": "Bars"}, {"alias": "tex-mex", "title": "Tex-Mex"}], "rating": 2.0, "coordinates": {"latitude": 42.3637066, "longitude": -72.5395134}, "transactions": [], "price": "$$", "location": {"address1": "426 Russell St", "address2": "", "address3": "", "city": "Hadley", "zip_code": "01035", "country": "US", "state": "MA", "display_address": ["426 Russell St", "Hadley, MA 01035"]}, "phone": "+14132534008", "display_phone": "(413) 253-4008", "distance": 14552.534268243646}, {"id": "F60ZshsheJZSuxb3fpeFtw", "alias": "china-gourmet-greenfield-2", "name": "China Gourmet", "image_url": "https://s3-media2.fl.yelpcdn.com/bphoto/dX3zEIx-W2C6hWmklUr6hA/o.jpg", "is_closed": false, "url": "https://www.yelp.com/biz/china-gourmet-greenfield-2?adjust_creative=asslzE1UV0XuKI953B1vtw&utm_campaign=yelp_api_v3&utm_medium=api_v3_business_search&utm_source=asslzE1UV0XuKI953B1vtw", "review_count": 68, "categories": [{"alias": "chinese", "title": "Chinese"}, {"alias": "japanese", "title": "Japanese"}], "rating": 3.0, "coordinates": {"latitude": 42.5846366882324, "longitude": -72.6142959594727}, "transactions": ["delivery"], "price": "$$", "location": {"address1": "78 Mohawk Trl", "address2": null, "address3": "", "city": "Greenfield", "zip_code": "01301", "country": "US", "state": "MA", "display_address": ["78 Mohawk Trl", "Greenfield, MA 01301"]}, "phone": "+14137742299", "display_phone": "(413) 774-2299", "distance": 20857.092550018187}, {"id": "gCdtxabLxonlb7CtJK-Z-w", "alias": "d-angelo-greenfield-2", "name": "D'Angelo", "image_url": "https://s3-media2.fl.yelpcdn.com/bphoto/HHatphW_HpX1SDsDCrngDw/o.jpg", "is_closed": false, "url": "https://www.yelp.com/biz/d-angelo-greenfield-2?adjust_creative=asslzE1UV0XuKI953B1vtw&utm_campaign=yelp_api_v3&utm_medium=api_v3_business_search&utm_source=asslzE1UV0XuKI953B1vtw", "review_count": 10, "categories": [{"alias": "sandwiches", "title": "Sandwiches"}], "rating": 4.0, "coordinates": {"latitude": 42.5848445086586, "longitude": -72.6141382441874}, "transactions": [], "price": "$$", "location": {"address1": "68 Mohawk Trl", "address2": "", "address3": "", "city": "Greenfield", "zip_code": "01301", "country": "US", "state": "MA", "display_address": ["68 Mohawk Trl", "Greenfield, MA 01301"]}, "phone": "+14137742106", "display_phone": "(413) 774-2106", "distance": 20858.64163166769}, {"id": "nKmZUo1GL5gXHI42Y_41kA", "alias": "green-fields-amherst", "name": "Green Fields", "image_url": "https://s3-media2.fl.yelpcdn.com/bphoto/vqdVIfR8a6LDcEkA_hEPVg/o.jpg", "is_closed": false, "url": "https://www.yelp.com/biz/green-fields-amherst?adjust_creative=asslzE1UV0XuKI953B1vtw&utm_campaign=yelp_api_v3&utm_medium=api_v3_business_search&utm_source=asslzE1UV0XuKI953B1vtw", "review_count": 1, "categories": [{"alias": "salad", "title": "Salad"}], "rating": 3.0, "coordinates": {"latitude": 42.3917175889903, "longitude": -72.5265750995056}, "transactions": [], "location": {"address1": "1 Campus Center Way", "address2": "Ste B", "address3": "", "city": "Amherst", "zip_code": "01003", "country": "US", "state": "MA", "display_address": ["1 Campus Center Way", "Ste B", "Amherst, MA 01003"]}, "phone": "", "display_phone": "", "distance": 11609.69233224829}, {"id": "WQkrz00jNyQsaJadxL0h7Q", "alias": "kellys-restaurant-amherst", "name": "Kelly's Restaurant", "image_url": "https://s3-media4.fl.yelpcdn.com/bphoto/hwuMSRbWALIzfeUkyoHXWA/o.jpg", "is_closed": false, "url": "https://www.yelp.com/biz/kellys-restaurant-amherst?adjust_creative=asslzE1UV0XuKI953B1vtw&utm_campaign=yelp_api_v3&utm_medium=api_v3_business_search&utm_source=asslzE1UV0XuKI953B1vtw", "review_count": 19, "categories": [{"alias": "newamerican", "title": "American (New)"}, {"alias": "breakfast_brunch", "title": "Breakfast & Brunch"}], "rating": 3.5, "coordinates": {"latitude": 42.373229, "longitude": -72.503424}, "transactions": ["delivery"], "price": "$", "location": {"address1": "314 College St", "address2": "", "address3": "", "city": "Amherst", "zip_code": "01002", "country": "US", "state": "MA", "display_address": ["314 College St", "Amherst, MA 01002"]}, "phone": "+14132539521", "display_phone": "(413) 253-9521", "distance": 11919.45650165884}, {"id": "o1Xpz68xeOYNEvl132r79g", "alias": "domino-s-athol", "name": "Domino\u2019s", "image_url": "", "is_closed": false, "url": "https://www.yelp.com/biz/domino-s-athol?adjust_creative=asslzE1UV0XuKI953B1vtw&utm_campaign=yelp_api_v3&utm_medium=api_v3_business_search&utm_source=asslzE1UV0XuKI953B1vtw", "review_count": 1, "categories": [{"alias": "pizza", "title": "Pizza"}], "rating": 2.0, "coordinates": {"latitude": 42.593632, "longitude": -72.23293}, "transactions": [], "location": {"address1": "321 Main St", "address2": "", "address3": null, "city": "Athol", "zip_code": "01331", "country": "US", "state": "MA", "display_address": ["321 Main St", "Athol, MA 01331"]}, "phone": "+19783307676", "display_phone": "(978) 330-7676", "distance": 21312.44555019146}, {"id": "qoFGGxfhFDd3sy99KJhfZw", "alias": "the-stables-restaurant-hadley", "name": "The Stables Restaurant", "image_url": "https://s3-media1.fl.yelpcdn.com/bphoto/BeWfAHSzfA2C7BN8N0mriQ/o.jpg", "is_closed": false, "url": "https://www.yelp.com/biz/the-stables-restaurant-hadley?adjust_creative=asslzE1UV0XuKI953B1vtw&utm_campaign=yelp_api_v3&utm_medium=api_v3_business_search&utm_source=asslzE1UV0XuKI953B1vtw", "review_count": 104, "categories": [{"alias": "breakfast_brunch", "title": "Breakfast & Brunch"}, {"alias": "newamerican", "title": "American (New)"}], "rating": 4.0, "coordinates": {"latitude": 42.355545, "longitude": -72.556625}, "transactions": ["delivery"], "price": "$$", "location": {"address1": "326 Russell St", "address2": "", "address3": "", "city": "Hadley", "zip_code": "01035", "country": "US", "state": "MA", "display_address": ["326 Russell St", "Hadley, MA 01035"]}, "phone": "+14135844700", "display_phone": "(413) 584-4700", "distance": 16195.77944998599}, {"id": "39C414-SwTpyes-9lbqkLg", "alias": "hillside-pizza-hadley", "name": "Hillside Pizza", "image_url": "https://s3-media3.fl.yelpcdn.com/bphoto/cSJCU4SgQmygp4YNf7mvCg/o.jpg", "is_closed": false, "url": "https://www.yelp.com/biz/hillside-pizza-hadley?adjust_creative=asslzE1UV0XuKI953B1vtw&utm_campaign=yelp_api_v3&utm_medium=api_v3_business_search&utm_source=asslzE1UV0XuKI953B1vtw", "review_count": 53, "categories": [{"alias": "pizza", "title": "Pizza"}, {"alias": "sandwiches", "title": "Sandwiches"}, {"alias": "wraps", "title": "Wraps"}], "rating": 4.5, "coordinates": {"latitude": 42.3424679785967, "longitude": -72.5839910656214}, "transactions": ["delivery"], "price": "$$", "location": {"address1": "173 Russell St", "address2": "", "address3": "", "city": "Hadley", "zip_code": "01035", "country": "US", "state": "MA", "display_address": ["173 Russell St", "Hadley, MA 01035"]}, "phone": "+14135850003", "display_phone": "(413) 585-0003", "distance": 18802.95815392374}, {"id": "P3gCKTfiKvq8JhCiqI-XVg", "alias": "tea-garden-restaurant-athol", "name": "Tea Garden Restaurant", "image_url": "https://s3-media3.fl.yelpcdn.com/bphoto/YikdjBs7rlNRUh78y0HYEQ/o.jpg", "is_closed": false, "url": "https://www.yelp.com/biz/tea-garden-restaurant-athol?adjust_creative=asslzE1UV0XuKI953B1vtw&utm_campaign=yelp_api_v3&utm_medium=api_v3_business_search&utm_source=asslzE1UV0XuKI953B1vtw", "review_count": 12, "categories": [{"alias": "chinese", "title": "Chinese"}], "rating": 2.5, "coordinates": {"latitude": 42.5936470031738, "longitude": -72.2273483276367}, "transactions": [], "price": "$$", "location": {"address1": "631 Main St", "address2": null, "address3": null, "city": "Athol", "zip_code": "01331", "country": "US", "state": "MA", "display_address": ["631 Main St", "Athol, MA 01331"]}, "phone": "+19782498388", "display_phone": "(978) 249-8388", "distance": 21629.703943303128}, {"id": "VRA3aRN2BEb6O9rVEQ3gOg", "alias": "le-petit-cafe-greenfield", "name": "Le Petit Cafe", "image_url": "https://s3-media2.fl.yelpcdn.com/bphoto/MpWCzx2bkUihqHBPnIog_w/o.jpg", "is_closed": false, "url": "https://www.yelp.com/biz/le-petit-cafe-greenfield?adjust_creative=asslzE1UV0XuKI953B1vtw&utm_campaign=yelp_api_v3&utm_medium=api_v3_business_search&utm_source=asslzE1UV0XuKI953B1vtw", "review_count": 4, "categories": [{"alias": "cafes", "title": "Cafes"}, {"alias": "breakfast_brunch", "title": "Breakfast & Brunch"}], "rating": 4.0, "coordinates": {"latitude": 42.5876774, "longitude": -72.5981727}, "transactions": [], "price": "$", "location": {"address1": "426 Main St", "address2": null, "address3": null, "city": "Greenfield", "zip_code": "01301", "country": "US", "state": "MA", "display_address": ["426 Main St", "Greenfield, MA 01301"]}, "phone": "+14137687190", "display_phone": "(413) 768-7190", "distance": 20116.62192433616}, {"id": "QzmmXJvK8cw7-BICO_gigQ", "alias": "shady-glen-turners-falls", "name": "Shady Glen", "image_url": "https://s3-media1.fl.yelpcdn.com/bphoto/WDilrIiLQWIs6l8y7XQbdA/o.jpg", "is_closed": false, "url": "https://www.yelp.com/biz/shady-glen-turners-falls?adjust_creative=asslzE1UV0XuKI953B1vtw&utm_campaign=yelp_api_v3&utm_medium=api_v3_business_search&utm_source=asslzE1UV0XuKI953B1vtw", "review_count": 35, "categories": [{"alias": "diners", "title": "Diners"}, {"alias": "breakfast_brunch", "title": "Breakfast & Brunch"}, {"alias": "tradamerican", "title": "American (Traditional)"}], "rating": 4.0, "coordinates": {"latitude": 42.6091117858887, "longitude": -72.5553665161133}, "transactions": ["delivery"], "price": "$", "location": {"address1": "7 Ave A", "address2": "", "address3": "", "city": "Turners Falls", "zip_code": "01376", "country": "US", "state": "MA", "display_address": ["7 Ave A", "Turners Falls, MA 01376"]}, "phone": "+14138639636", "display_phone": "(413) 863-9636", "distance": 19687.531199141555}, {"id": "6Our5yg2Ihzg4qrwbOuwEQ", "alias": "hattapons-thai-kitchen-greenfield", "name": "Hattapon's Thai Kitchen", "image_url": "https://s3-media1.fl.yelpcdn.com/bphoto/OpC4EP9sMq0DlHgDHmrxyA/o.jpg", "is_closed": false, "url": "https://www.yelp.com/biz/hattapons-thai-kitchen-greenfield?adjust_creative=asslzE1UV0XuKI953B1vtw&utm_campaign=yelp_api_v3&utm_medium=api_v3_business_search&utm_source=asslzE1UV0XuKI953B1vtw", "review_count": 34, "categories": [{"alias": "thai", "title": "Thai"}], "rating": 3.5, "coordinates": {"latitude": 42.587759, "longitude": -72.601574}, "transactions": ["delivery"], "price": "$", "location": {"address1": "265 Main St", "address2": "", "address3": "", "city": "Greenfield", "zip_code": "01301", "country": "US", "state": "MA", "display_address": ["265 Main St", "Greenfield, MA 01301"]}, "phone": "+14137745304", "display_phone": "(413) 774-5304", "distance": 20317.694416127513}, {"id": "ZiDnZGOCsr9xBGEL9ihzjg", "alias": "panda-east-amherst-2", "name": "Panda East", "image_url": "https://s3-media4.fl.yelpcdn.com/bphoto/TFJTGvU83_lxSSMSbAYjVQ/o.jpg", "is_closed": false, "url": "https://www.yelp.com/biz/panda-east-amherst-2?adjust_creative=asslzE1UV0XuKI953B1vtw&utm_campaign=yelp_api_v3&utm_medium=api_v3_business_search&utm_source=asslzE1UV0XuKI953B1vtw", "review_count": 96, "categories": [{"alias": "chinese", "title": "Chinese"}, {"alias": "japanese", "title": "Japanese"}], "rating": 3.0, "coordinates": {"latitude": 42.37722, "longitude": -72.51936}, "transactions": ["delivery"], "price": "$$", "location": {"address1": "103 N Pleasant St", "address2": "", "address3": "", "city": "Amherst", "zip_code": "01002", "country": "US", "state": "MA", "display_address": ["103 N Pleasant St", "Amherst, MA 01002"]}, "phone": "+14132568923", "display_phone": "(413) 256-8923", "distance": 12369.870394714288}, {"id": "RiVxyVtL8fxMb2kYP0zutA", "alias": "moms-country-kitchen-orange", "name": "Moms Country Kitchen", "image_url": "https://s3-media2.fl.yelpcdn.com/bphoto/3_oYhJcGjKqGj3iuDH_r1Q/o.jpg", "is_closed": false, "url": "https://www.yelp.com/biz/moms-country-kitchen-orange?adjust_creative=asslzE1UV0XuKI953B1vtw&utm_campaign=yelp_api_v3&utm_medium=api_v3_business_search&utm_source=asslzE1UV0XuKI953B1vtw", "review_count": 2, "categories": [{"alias": "breakfast_brunch", "title": "Breakfast & Brunch"}], "rating": 1.0, "coordinates": {"latitude": 42.58912, "longitude": -72.29988}, "transactions": [], "location": {"address1": "217 E Main St", "address2": "", "address3": null, "city": "Orange", "zip_code": "01364", "country": "US", "state": "MA", "display_address": ["217 E Main St", "Orange, MA 01364"]}, "phone": "+19789393233", "display_phone": "(978) 939-3233", "distance": 17298.098939358202}, {"id": "MUs396IkY6SHf4pI0l9gnA", "alias": "tool-town-pizza-athol", "name": "Tool Town Pizza", "image_url": "https://s3-media3.fl.yelpcdn.com/bphoto/UGHTbZneNVMJgB1e2ziCow/o.jpg", "is_closed": false, "url": "https://www.yelp.com/biz/tool-town-pizza-athol?adjust_creative=asslzE1UV0XuKI953B1vtw&utm_campaign=yelp_api_v3&utm_medium=api_v3_business_search&utm_source=asslzE1UV0XuKI953B1vtw", "review_count": 11, "categories": [{"alias": "pizza", "title": "Pizza"}, {"alias": "italian", "title": "Italian"}], "rating": 3.5, "coordinates": {"latitude": 42.595664, "longitude": -72.232418}, "transactions": [], "price": "$", "location": {"address1": "246 Exchange St", "address2": "", "address3": "", "city": "Athol", "zip_code": "01331", "country": "US", "state": "MA", "display_address": ["246 Exchange St", "Athol, MA 01331"]}, "phone": "+19782493366", "display_phone": "(978) 249-3366", "distance": 21498.4372392628}, {"id": "-QyJ17Tl5StCDa-J4tWCQw", "alias": "valentine-dining-hall-amherst", "name": "Valentine Dining Hall", "image_url": "https://s3-media2.fl.yelpcdn.com/bphoto/MElCxmjV49nCBS6tStIZBw/o.jpg", "is_closed": false, "url": "https://www.yelp.com/biz/valentine-dining-hall-amherst?adjust_creative=asslzE1UV0XuKI953B1vtw&utm_campaign=yelp_api_v3&utm_medium=api_v3_business_search&utm_source=asslzE1UV0XuKI953B1vtw", "review_count": 3, "categories": [{"alias": "tradamerican", "title": "American (Traditional)"}, {"alias": "diners", "title": "Diners"}, {"alias": "breakfast_brunch", "title": "Breakfast & Brunch"}], "rating": 2.5, "coordinates": {"latitude": 42.3731250339904, "longitude": -72.51625}, "transactions": [], "location": {"address1": "59 College St", "address2": "", "address3": null, "city": "Amherst", "zip_code": "01002", "country": "US", "state": "MA", "display_address": ["59 College St", "Amherst, MA 01002"]}, "phone": "+14135422220", "display_phone": "(413) 542-2220", "distance": 12540.20446438137}, {"id": "VlzeNUSkepYtIgYCkrqRbg", "alias": "the-lone-wolf-amherst", "name": "The Lone Wolf", "image_url": "https://s3-media3.fl.yelpcdn.com/bphoto/16Ov-_O1_0h4BzipsZG9GQ/o.jpg", "is_closed": false, "url": "https://www.yelp.com/biz/the-lone-wolf-amherst?adjust_creative=asslzE1UV0XuKI953B1vtw&utm_campaign=yelp_api_v3&utm_medium=api_v3_business_search&utm_source=asslzE1UV0XuKI953B1vtw", "review_count": 246, "categories": [{"alias": "breakfast_brunch", "title": "Breakfast & Brunch"}, {"alias": "tradamerican", "title": "American (Traditional)"}], "rating": 4.0, "coordinates": {"latitude": 42.3755499, "longitude": -72.5184699}, "transactions": ["delivery"], "price": "$$", "location": {"address1": "63 Main St", "address2": null, "address3": "", "city": "Amherst", "zip_code": "01002", "country": "US", "state": "MA", "display_address": ["63 Main St", "Amherst, MA 01002"]}, "phone": "+14132564643", "display_phone": "(413) 256-4643", "distance": 12450.162778525193}, {"id": "Im68PoWLtYHB7AcxGfoM_A", "alias": "athenas-pizza-amherst", "name": "Athena's Pizza", "image_url": "https://s3-media1.fl.yelpcdn.com/bphoto/Jp1WPOmRPFycwGfsgFEYqA/o.jpg", "is_closed": false, "url": "https://www.yelp.com/biz/athenas-pizza-amherst?adjust_creative=asslzE1UV0XuKI953B1vtw&utm_campaign=yelp_api_v3&utm_medium=api_v3_business_search&utm_source=asslzE1UV0XuKI953B1vtw", "review_count": 28, "categories": [{"alias": "greek", "title": "Greek"}, {"alias": "pizza", "title": "Pizza"}, {"alias": "chicken_wings", "title": "Chicken Wings"}], "rating": 4.0, "coordinates": {"latitude": 42.371578, "longitude": -72.533959}, "transactions": ["delivery", "pickup"], "price": "$", "location": {"address1": "65 University Dr", "address2": "Ste 1", "address3": "", "city": "Amherst", "zip_code": "01002", "country": "US", "state": "MA", "display_address": ["65 University Dr", "Ste 1", "Amherst, MA 01002"]}, "phone": "+14135499900", "display_phone": "(413) 549-9900", "distance": 13625.513121998109}, {"id": "7rD52PKYYUpAQDSruT8UJA", "alias": "primo-pizzeria-too-amherst", "name": "Primo Pizzeria Too", "image_url": "https://s3-media3.fl.yelpcdn.com/bphoto/n7w5NR3glh-ADtjH0UQdKg/o.jpg", "is_closed": false, "url": "https://www.yelp.com/biz/primo-pizzeria-too-amherst?adjust_creative=asslzE1UV0XuKI953B1vtw&utm_campaign=yelp_api_v3&utm_medium=api_v3_business_search&utm_source=asslzE1UV0XuKI953B1vtw", "review_count": 27, "categories": [{"alias": "pizza", "title": "Pizza"}, {"alias": "italian", "title": "Italian"}, {"alias": "burgers", "title": "Burgers"}], "rating": 3.5, "coordinates": {"latitude": 42.3811003969016, "longitude": -72.5186309760506}, "transactions": ["delivery"], "price": "$", "location": {"address1": "255 Triangle St", "address2": "", "address3": "", "city": "Amherst", "zip_code": "01002", "country": "US", "state": "MA", "display_address": ["255 Triangle St", "Amherst, MA 01002"]}, "phone": "+14136580100", "display_phone": "(413) 658-0100", "distance": 11970.501436507233}, {"id": "oh2hgHxtHrGCkzGHqK4quA", "alias": "goodies-restaurant-greenfield", "name": "Goodies Restaurant", "image_url": "https://s3-media3.fl.yelpcdn.com/bphoto/-bwBadmNTAtzswYG2Hh3Ig/o.jpg", "is_closed": false, "url": "https://www.yelp.com/biz/goodies-restaurant-greenfield?adjust_creative=asslzE1UV0XuKI953B1vtw&utm_campaign=yelp_api_v3&utm_medium=api_v3_business_search&utm_source=asslzE1UV0XuKI953B1vtw", "review_count": 31, "categories": [{"alias": "pizza", "title": "Pizza"}, {"alias": "italian", "title": "Italian"}], "rating": 3.0, "coordinates": {"latitude": 42.5986328125, "longitude": -72.596435546875}, "transactions": ["delivery"], "price": "$$", "location": {"address1": "256 Federal St", "address2": "", "address3": "", "city": "Greenfield", "zip_code": "01301", "country": "US", "state": "MA", "display_address": ["256 Federal St", "Greenfield, MA 01301"]}, "phone": "+14137722586", "display_phone": "(413) 772-2586", "distance": 20875.935725829262}, {"id": "NypGgpHGkW_VrZwYlcf7ag", "alias": "subway-sunderland-9", "name": "Subway", "image_url": "https://s3-media1.fl.yelpcdn.com/bphoto/nWFOwe3ieLFVGShR7NazoA/o.jpg", "is_closed": false, "url": "https://www.yelp.com/biz/subway-sunderland-9?adjust_creative=asslzE1UV0XuKI953B1vtw&utm_campaign=yelp_api_v3&utm_medium=api_v3_business_search&utm_source=asslzE1UV0XuKI953B1vtw", "review_count": 1, "categories": [{"alias": "sandwiches", "title": "Sandwiches"}], "rating": 4.0, "coordinates": {"latitude": 42.4507409061699, "longitude": -72.5608282907318}, "transactions": [], "price": "$", "location": {"address1": "5C Clark Mountain Rd", "address2": null, "address3": "", "city": "Sunderland", "zip_code": "01375", "country": "US", "state": "MA", "display_address": ["5C Clark Mountain Rd", "Sunderland, MA 01375"]}, "phone": "+14136650900", "display_phone": "(413) 665-0900", "distance": 11467.117820137293}, {"id": "yeqwDdLvP_9693lzRpAPug", "alias": "zedas-athol", "name": "Zedas", "image_url": "https://s3-media2.fl.yelpcdn.com/bphoto/Vn1AWiq6c0ATtDW7Za8U8w/o.jpg", "is_closed": false, "url": "https://www.yelp.com/biz/zedas-athol?adjust_creative=asslzE1UV0XuKI953B1vtw&utm_campaign=yelp_api_v3&utm_medium=api_v3_business_search&utm_source=asslzE1UV0XuKI953B1vtw", "review_count": 11, "categories": [{"alias": "pizza", "title": "Pizza"}], "rating": 3.0, "coordinates": {"latitude": 42.5920096, "longitude": -72.2316385}, "transactions": [], "price": "$$", "location": {"address1": "11 Tunnel St", "address2": "", "address3": "", "city": "Athol", "zip_code": "01331", "country": "US", "state": "MA", "display_address": ["11 Tunnel St", "Athol, MA 01331"]}, "phone": "+19782499876", "display_phone": "(978) 249-9876", "distance": 21248.39773212319}, {"id": "uvI_sThbGPccd-NHZRBnQg", "alias": "bei-jing-house-greenfield", "name": "Bei Jing House", "image_url": "https://s3-media2.fl.yelpcdn.com/bphoto/8ORL1RDkXxxEgLrcS0ps9Q/o.jpg", "is_closed": false, "url": "https://www.yelp.com/biz/bei-jing-house-greenfield?adjust_creative=asslzE1UV0XuKI953B1vtw&utm_campaign=yelp_api_v3&utm_medium=api_v3_business_search&utm_source=asslzE1UV0XuKI953B1vtw", "review_count": 18, "categories": [{"alias": "chinese", "title": "Chinese"}], "rating": 3.0, "coordinates": {"latitude": 42.58685, "longitude": -72.60736}, "transactions": ["delivery"], "price": "$", "location": {"address1": "45 Main St", "address2": "", "address3": "", "city": "Greenfield", "zip_code": "01301", "country": "US", "state": "MA", "display_address": ["45 Main St", "Greenfield, MA 01301"]}, "phone": "+14137737885", "display_phone": "(413) 773-7885", "distance": 20595.686684514054}, {"id": "rx9X9thYgNImhZWe4o010w", "alias": "arizona-pizza-company-hadley-2", "name": "Arizona Pizza Company", "image_url": "https://s3-media2.fl.yelpcdn.com/bphoto/lDKg4sw00oxgrP1rZqsLIA/o.jpg", "is_closed": false, "url": "https://www.yelp.com/biz/arizona-pizza-company-hadley-2?adjust_creative=asslzE1UV0XuKI953B1vtw&utm_campaign=yelp_api_v3&utm_medium=api_v3_business_search&utm_source=asslzE1UV0XuKI953B1vtw", "review_count": 55, "categories": [{"alias": "pizza", "title": "Pizza"}], "rating": 3.0, "coordinates": {"latitude": 42.356886, "longitude": -72.548282}, "transactions": ["pickup", "delivery"], "price": "$$", "location": {"address1": "367 Russell St", "address2": "", "address3": "", "city": "Hadley", "zip_code": "01035", "country": "US", "state": "MA", "display_address": ["367 Russell St", "Hadley, MA 01035"]}, "phone": "+14135820400", "display_phone": "(413) 582-0400", "distance": 15623.992292334866}, {"id": "c2gucBE9DwnLOr9_Xk754A", "alias": "brads-place-greenfield", "name": "Brad's Place", "image_url": "https://s3-media2.fl.yelpcdn.com/bphoto/UniO9JMw-de02Xqojnx28g/o.jpg", "is_closed": false, "url": "https://www.yelp.com/biz/brads-place-greenfield?adjust_creative=asslzE1UV0XuKI953B1vtw&utm_campaign=yelp_api_v3&utm_medium=api_v3_business_search&utm_source=asslzE1UV0XuKI953B1vtw", "review_count": 27, "categories": [{"alias": "newamerican", "title": "American (New)"}, {"alias": "breakfast_brunch", "title": "Breakfast & Brunch"}], "rating": 3.5, "coordinates": {"latitude": 42.5876259014004, "longitude": -72.5999116420645}, "transactions": ["delivery", "pickup"], "price": "$", "location": {"address1": "353 Main St", "address2": "", "address3": "", "city": "Greenfield", "zip_code": "01301", "country": "US", "state": "MA", "display_address": ["353 Main St", "Greenfield, MA 01301"]}, "phone": "+14137738460", "display_phone": "(413) 773-8460", "distance": 20205.039997176926}, {"id": "achCxO4Vwx7my8lcllTASA", "alias": "pinz-hadley-hadley", "name": "Pinz - Hadley", "image_url": "https://s3-media3.fl.yelpcdn.com/bphoto/7PUlY3uJTpLPyUVvYWIAKg/o.jpg", "is_closed": false, "url": "https://www.yelp.com/biz/pinz-hadley-hadley?adjust_creative=asslzE1UV0XuKI953B1vtw&utm_campaign=yelp_api_v3&utm_medium=api_v3_business_search&utm_source=asslzE1UV0XuKI953B1vtw", "review_count": 46, "categories": [{"alias": "bowling", "title": "Bowling"}, {"alias": "newamerican", "title": "American (New)"}, {"alias": "arcades", "title": "Arcades"}], "rating": 3.5, "coordinates": {"latitude": 42.356208, "longitude": -72.547214}, "transactions": [], "location": {"address1": "367 Russell St", "address2": "Hampshire Mall", "address3": "", "city": "Hadley", "zip_code": "01035", "country": "US", "state": "MA", "display_address": ["367 Russell St", "Hampshire Mall", "Hadley, MA 01035"]}, "phone": "+14133870550", "display_phone": "(413) 387-0550", "distance": 15622.570443959485}, {"id": "cI-D75PC7akLsPQSrvYX2w", "alias": "deerfield-lunch-box-deerfield", "name": "Deerfield Lunch Box", "image_url": "https://s3-media4.fl.yelpcdn.com/bphoto/46kxxAh53yd4ygbpPSY7jQ/o.jpg", "is_closed": false, "url": "https://www.yelp.com/biz/deerfield-lunch-box-deerfield?adjust_creative=asslzE1UV0XuKI953B1vtw&utm_campaign=yelp_api_v3&utm_medium=api_v3_business_search&utm_source=asslzE1UV0XuKI953B1vtw", "review_count": 1, "categories": [{"alias": "hotdog", "title": "Hot Dogs"}, {"alias": "foodstands", "title": "Food Stands"}, {"alias": "burgers", "title": "Burgers"}], "rating": 2.0, "coordinates": {"latitude": 42.547239, "longitude": -72.605898}, "transactions": [], "location": {"address1": "79 Old Main St", "address2": "", "address3": "Historic Deerfield", "city": "Deerfield", "zip_code": "01342", "country": "US", "state": "MA", "display_address": ["79 Old Main St", "Historic Deerfield", "Deerfield, MA 01342"]}, "phone": "+14137757171", "display_phone": "(413) 775-7171", "distance": 17820.508014092113}, {"id": "JNqJUAR9is7ejRYW2c01FA", "alias": "sofias-pizza-greenfield", "name": "Sofia's Pizza", "image_url": "https://s3-media1.fl.yelpcdn.com/bphoto/ZP6DJjR_fmH9uZMJVOJvhQ/o.jpg", "is_closed": false, "url": "https://www.yelp.com/biz/sofias-pizza-greenfield?adjust_creative=asslzE1UV0XuKI953B1vtw&utm_campaign=yelp_api_v3&utm_medium=api_v3_business_search&utm_source=asslzE1UV0XuKI953B1vtw", "review_count": 31, "categories": [{"alias": "pizza", "title": "Pizza"}], "rating": 3.5, "coordinates": {"latitude": 42.5969467, "longitude": -72.5971298}, "transactions": ["delivery"], "price": "$$", "location": {"address1": "228 Federal St", "address2": "", "address3": "", "city": "Greenfield", "zip_code": "01301", "country": "US", "state": "MA", "display_address": ["228 Federal St", "Greenfield, MA 01301"]}, "phone": "+14137749900", "display_phone": "(413) 774-9900", "distance": 20810.52850736908}, {"id": "Xw5Gz7kiqxN34K8vjslNAQ", "alias": "new-fortune-chinese-restaurant-greenfield", "name": "New Fortune Chinese Restaurant", "image_url": "https://s3-media2.fl.yelpcdn.com/bphoto/ftAnKqMowdiOo9CXaIgZAg/o.jpg", "is_closed": false, "url": "https://www.yelp.com/biz/new-fortune-chinese-restaurant-greenfield?adjust_creative=asslzE1UV0XuKI953B1vtw&utm_campaign=yelp_api_v3&utm_medium=api_v3_business_search&utm_source=asslzE1UV0XuKI953B1vtw", "review_count": 37, "categories": [{"alias": "chinese", "title": "Chinese"}, {"alias": "sushi", "title": "Sushi Bars"}, {"alias": "japanese", "title": "Japanese"}], "rating": 3.5, "coordinates": {"latitude": 42.587352, "longitude": -72.626241}, "transactions": ["delivery"], "price": "$$", "location": {"address1": "249 Mohawk Trl", "address2": "", "address3": "", "city": "Greenfield", "zip_code": "01301", "country": "US", "state": "MA", "display_address": ["249 Mohawk Trl", "Greenfield, MA 01301"]}, "phone": "+14137720838", "display_phone": "(413) 772-0838", "distance": 21794.722571293743}, {"id": "hwCthMrt77pywJA7Q6T_9Q", "alias": "panera-bread-hadley", "name": "Panera Bread", "image_url": "https://s3-media1.fl.yelpcdn.com/bphoto/4lTXpzejR73ulmxBCz5bbQ/o.jpg", "is_closed": false, "url": "https://www.yelp.com/biz/panera-bread-hadley?adjust_creative=asslzE1UV0XuKI953B1vtw&utm_campaign=yelp_api_v3&utm_medium=api_v3_business_search&utm_source=asslzE1UV0XuKI953B1vtw", "review_count": 29, "categories": [{"alias": "sandwiches", "title": "Sandwiches"}, {"alias": "salad", "title": "Salad"}, {"alias": "soup", "title": "Soup"}], "rating": 3.0, "coordinates": {"latitude": 42.353491, "longitude": -72.553435}, "transactions": [], "price": "$$", "location": {"address1": "351 Russell St", "address2": "Ste \u00a0351B", "address3": "", "city": "Hadley", "zip_code": "01035", "country": "US", "state": "MA", "display_address": ["351 Russell St", "Ste \u00a0351B", "Hadley, MA 01035"]}, "phone": "+14133876336", "display_phone": "(413) 387-6336", "distance": 16187.52689966375}, {"id": "QxuZGiHF3jnatCUmI41FmA", "alias": "the-black-sheep-deli-amherst-2", "name": "The Black Sheep Deli", "image_url": "https://s3-media2.fl.yelpcdn.com/bphoto/DCb__h0cGUGK2wA-6T_ZEQ/o.jpg", "is_closed": false, "url": "https://www.yelp.com/biz/the-black-sheep-deli-amherst-2?adjust_creative=asslzE1UV0XuKI953B1vtw&utm_campaign=yelp_api_v3&utm_medium=api_v3_business_search&utm_source=asslzE1UV0XuKI953B1vtw", "review_count": 152, "categories": [{"alias": "bakeries", "title": "Bakeries"}, {"alias": "delis", "title": "Delis"}], "rating": 3.5, "coordinates": {"latitude": 42.3754577636719, "longitude": -72.5180435180664}, "transactions": ["delivery"], "price": "$", "location": {"address1": "79 Main St", "address2": "", "address3": "", "city": "Amherst", "zip_code": "01002", "country": "US", "state": "MA", "display_address": ["79 Main St", "Amherst, MA 01002"]}, "phone": "+14132533442", "display_phone": "(413) 253-3442", "distance": 12429.930624665041}, {"id": "OOTU0zYwg5QVhTB_1MFjBQ", "alias": "dennys-pantry-greenfield", "name": "Denny's Pantry", "image_url": "https://s3-media3.fl.yelpcdn.com/bphoto/aJ4KdrwNtjBdKr75LY9dng/o.jpg", "is_closed": false, "url": "https://www.yelp.com/biz/dennys-pantry-greenfield?adjust_creative=asslzE1UV0XuKI953B1vtw&utm_campaign=yelp_api_v3&utm_medium=api_v3_business_search&utm_source=asslzE1UV0XuKI953B1vtw", "review_count": 36, "categories": [{"alias": "tradamerican", "title": "American (Traditional)"}, {"alias": "breakfast_brunch", "title": "Breakfast & Brunch"}], "rating": 3.5, "coordinates": {"latitude": 42.60826, "longitude": -72.58705}, "transactions": [], "price": "$", "location": {"address1": "469 Bernardston Rd", "address2": "", "address3": "", "city": "Greenfield", "zip_code": "01301", "country": "US", "state": "MA", "display_address": ["469 Bernardston Rd", "Greenfield, MA 01301"]}, "phone": "+14137733345", "display_phone": "(413) 773-3345", "distance": 21175.253424494105}, {"id": "KbFb1n-RZd5HOn2q1qOD1A", "alias": "brunos-pizza-amherst", "name": "Bruno's Pizza", "image_url": "https://s3-media3.fl.yelpcdn.com/bphoto/hXRlZF08A_ATYFsuWGx9-A/o.jpg", "is_closed": false, "url": "https://www.yelp.com/biz/brunos-pizza-amherst?adjust_creative=asslzE1UV0XuKI953B1vtw&utm_campaign=yelp_api_v3&utm_medium=api_v3_business_search&utm_source=asslzE1UV0XuKI953B1vtw", "review_count": 51, "categories": [{"alias": "pizza", "title": "Pizza"}], "rating": 3.5, "coordinates": {"latitude": 42.3757726413449, "longitude": -72.5127280375822}, "transactions": ["delivery"], "price": "$", "location": {"address1": "363 Main St", "address2": "", "address3": "", "city": "Amherst", "zip_code": "01002", "country": "US", "state": "MA", "display_address": ["363 Main St", "Amherst, MA 01002"]}, "phone": "+14132560222", "display_phone": "(413) 256-0222", "distance": 12140.077800601975}, {"id": "VIUwZgCQnwpbB2w2Xbr5CA", "alias": "annes-dairy-drive-in-orange", "name": "Anne's Dairy Drive-In", "image_url": "https://s3-media2.fl.yelpcdn.com/bphoto/-Z0ToiFKnU69bQkKByRxHQ/o.jpg", "is_closed": false, "url": "https://www.yelp.com/biz/annes-dairy-drive-in-orange?adjust_creative=asslzE1UV0XuKI953B1vtw&utm_campaign=yelp_api_v3&utm_medium=api_v3_business_search&utm_source=asslzE1UV0XuKI953B1vtw", "review_count": 31, "categories": [{"alias": "seafood", "title": "Seafood"}, {"alias": "icecream", "title": "Ice Cream & Frozen Yogurt"}], "rating": 4.0, "coordinates": {"latitude": 42.587263, "longitude": -72.292644}, "transactions": [], "price": "$", "location": {"address1": "360 E Main St", "address2": "", "address3": "", "city": "Orange", "zip_code": "01364", "country": "US", "state": "MA", "display_address": ["360 E Main St", "Orange, MA 01364"]}, "phone": "+19785442093", "display_phone": "(978) 544-2093", "distance": 17514.961041126004}, {"id": "viFpmTD5zT19tizBXRrKFw", "alias": "antonios-pizza-shop-greenfield", "name": "Antonio's Pizza Shop", "image_url": "https://s3-media2.fl.yelpcdn.com/bphoto/VuMGXTShN9oxzIHMdXZ7kg/o.jpg", "is_closed": false, "url": "https://www.yelp.com/biz/antonios-pizza-shop-greenfield?adjust_creative=asslzE1UV0XuKI953B1vtw&utm_campaign=yelp_api_v3&utm_medium=api_v3_business_search&utm_source=asslzE1UV0XuKI953B1vtw", "review_count": 20, "categories": [{"alias": "pizza", "title": "Pizza"}, {"alias": "italian", "title": "Italian"}, {"alias": "sandwiches", "title": "Sandwiches"}], "rating": 3.5, "coordinates": {"latitude": 42.5876694, "longitude": -72.6027374}, "transactions": ["delivery"], "price": "$", "location": {"address1": "201 Main St", "address2": "", "address3": "", "city": "Greenfield", "zip_code": "01301", "country": "US", "state": "MA", "display_address": ["201 Main St", "Greenfield, MA 01301"]}, "phone": "+14137737517", "display_phone": "(413) 773-7517", "distance": 20379.594836179735}, {"id": "BTJ-cXSsKXrXtSrhPFqD8A", "alias": "eight-dragons-take-out-restaurant-athol", "name": "Eight Dragons Take-Out Restaurant", "image_url": "https://s3-media3.fl.yelpcdn.com/bphoto/zJLO1P1o6vR28A5g2tRc0w/o.jpg", "is_closed": false, "url": "https://www.yelp.com/biz/eight-dragons-take-out-restaurant-athol?adjust_creative=asslzE1UV0XuKI953B1vtw&utm_campaign=yelp_api_v3&utm_medium=api_v3_business_search&utm_source=asslzE1UV0XuKI953B1vtw", "review_count": 17, "categories": [{"alias": "chinese", "title": "Chinese"}, {"alias": "seafood", "title": "Seafood"}], "rating": 2.5, "coordinates": {"latitude": 42.593049, "longitude": -72.234464}, "transactions": [], "price": "$$", "location": {"address1": "32 Freedom St", "address2": "", "address3": "", "city": "Athol", "zip_code": "01331", "country": "US", "state": "MA", "display_address": ["32 Freedom St", "Athol, MA 01331"]}, "phone": "+19782492777", "display_phone": "(978) 249-2777", "distance": 21174.98520662024}, {"id": "0tX2BR7qE-IP5Ne6vLwy3A", "alias": "esselon-cafe-and-coffee-roasting-hadley", "name": "Esselon Cafe and Coffee Roasting", "image_url": "https://s3-media3.fl.yelpcdn.com/bphoto/fFdRzFMqDf-c9xZudZHWpQ/o.jpg", "is_closed": false, "url": "https://www.yelp.com/biz/esselon-cafe-and-coffee-roasting-hadley?adjust_creative=asslzE1UV0XuKI953B1vtw&utm_campaign=yelp_api_v3&utm_medium=api_v3_business_search&utm_source=asslzE1UV0XuKI953B1vtw", "review_count": 286, "categories": [{"alias": "breakfast_brunch", "title": "Breakfast & Brunch"}, {"alias": "bakeries", "title": "Bakeries"}, {"alias": "coffeeroasteries", "title": "Coffee Roasteries"}], "rating": 4.0, "coordinates": {"latitude": 42.3413112667955, "longitude": -72.5976977566659}, "transactions": ["delivery"], "price": "$$", "location": {"address1": "99 Russell St", "address2": "", "address3": "", "city": "Hadley", "zip_code": "01035", "country": "US", "state": "MA", "display_address": ["99 Russell St", "Hadley, MA 01035"]}, "phone": "+14135851515", "display_phone": "(413) 585-1515", "distance": 19704.837403675763}, {"id": "WY4tfGTemDlVoqEA7TnZLw", "alias": "subway-orange-65", "name": "Subway", "image_url": "https://s3-media1.fl.yelpcdn.com/bphoto/yHsfwTIjg-rqZZxw4IC2Ww/o.jpg", "is_closed": false, "url": "https://www.yelp.com/biz/subway-orange-65?adjust_creative=asslzE1UV0XuKI953B1vtw&utm_campaign=yelp_api_v3&utm_medium=api_v3_business_search&utm_source=asslzE1UV0XuKI953B1vtw", "review_count": 3, "categories": [{"alias": "sandwiches", "title": "Sandwiches"}], "rating": 3.0, "coordinates": {"latitude": 42.5906842536539, "longitude": -72.309052020203}, "transactions": [], "price": "$", "location": {"address1": "12 E Main St", "address2": null, "address3": null, "city": "Orange", "zip_code": "01364", "country": "US", "state": "MA", "display_address": ["12 E Main St", "Orange, MA 01364"]}, "phone": "+19785442498", "display_phone": "(978) 544-2498", "distance": 17043.478287280544}, {"id": "ZUl4lCYWPxaR7TO4Neaksg", "alias": "primo-pizzeria-hadley", "name": "Primo Pizzeria", "image_url": "https://s3-media1.fl.yelpcdn.com/bphoto/T5uPNL-qZlzAcTRw3odszg/o.jpg", "is_closed": false, "url": "https://www.yelp.com/biz/primo-pizzeria-hadley?adjust_creative=asslzE1UV0XuKI953B1vtw&utm_campaign=yelp_api_v3&utm_medium=api_v3_business_search&utm_source=asslzE1UV0XuKI953B1vtw", "review_count": 25, "categories": [{"alias": "pizza", "title": "Pizza"}], "rating": 3.5, "coordinates": {"latitude": 42.3414840698242, "longitude": -72.5956878662109}, "transactions": ["delivery"], "price": "$$", "location": {"address1": "103 Russell St", "address2": "", "address3": "", "city": "Hadley", "zip_code": "01035", "country": "US", "state": "MA", "display_address": ["103 Russell St", "Hadley, MA 01035"]}, "phone": "+14135850950", "display_phone": "(413) 585-0950", "distance": 19564.321397037682}, {"id": "5rkJ61I9GICBsEp2__7fXQ", "alias": "wings-over-greenfield-greenfield", "name": "Wings Over Greenfield", "image_url": "https://s3-media2.fl.yelpcdn.com/bphoto/Bmik4JsNWr2mPR6p0xu4aQ/o.jpg", "is_closed": false, "url": "https://www.yelp.com/biz/wings-over-greenfield-greenfield?adjust_creative=asslzE1UV0XuKI953B1vtw&utm_campaign=yelp_api_v3&utm_medium=api_v3_business_search&utm_source=asslzE1UV0XuKI953B1vtw", "review_count": 12, "categories": [{"alias": "chicken_wings", "title": "Chicken Wings"}, {"alias": "hotdogs", "title": "Fast Food"}, {"alias": "sandwiches", "title": "Sandwiches"}], "rating": 3.5, "coordinates": {"latitude": 42.5889892578125, "longitude": -72.5999526977539}, "transactions": [], "price": "$", "location": {"address1": "30 Federal St", "address2": "", "address3": null, "city": "Greenfield", "zip_code": "01301", "country": "US", "state": "MA", "display_address": ["30 Federal St", "Greenfield, MA 01301"]}, "phone": "+14137739464", "display_phone": "(413) 773-9464", "distance": 20313.51935749843}, {"id": "aZ0spgQ-Hfr3j8OLbtQ8kQ", "alias": "zhangs-kitchen-amherst", "name": "Zhang's Kitchen", "image_url": "https://s3-media2.fl.yelpcdn.com/bphoto/wsG_-KqgFhk91wyJLPNOvw/o.jpg", "is_closed": false, "url": "https://www.yelp.com/biz/zhangs-kitchen-amherst?adjust_creative=asslzE1UV0XuKI953B1vtw&utm_campaign=yelp_api_v3&utm_medium=api_v3_business_search&utm_source=asslzE1UV0XuKI953B1vtw", "review_count": 28, "categories": [{"alias": "chinese", "title": "Chinese"}], "rating": 2.5, "coordinates": {"latitude": 42.3407759993207, "longitude": -72.5196475170102}, "transactions": ["delivery", "pickup"], "price": "$", "location": {"address1": "460 West St", "address2": "", "address3": "", "city": "Amherst", "zip_code": "01002", "country": "US", "state": "MA", "display_address": ["460 West St", "Amherst, MA 01002"]}, "phone": "+14132530584", "display_phone": "(413) 253-0584", "distance": 15681.499747435344}, {"id": "_bXSHicL1fVAG-RhwxJYPQ", "alias": "subway-south-deerfield-3", "name": "Subway", "image_url": "https://s3-media3.fl.yelpcdn.com/bphoto/X8kbX68KBbQAXsBH5t-8rw/o.jpg", "is_closed": false, "url": "https://www.yelp.com/biz/subway-south-deerfield-3?adjust_creative=asslzE1UV0XuKI953B1vtw&utm_campaign=yelp_api_v3&utm_medium=api_v3_business_search&utm_source=asslzE1UV0XuKI953B1vtw", "review_count": 2, "categories": [{"alias": "sandwiches", "title": "Sandwiches"}], "rating": 3.0, "coordinates": {"latitude": 42.4708609610147, "longitude": -72.6158315565979}, "transactions": [], "price": "$", "location": {"address1": "1 Greenfield Rd", "address2": null, "address3": null, "city": "South Deerfield", "zip_code": "01373", "country": "US", "state": "MA", "display_address": ["1 Greenfield Rd", "South Deerfield, MA 01373"]}, "phone": "+14136659830", "display_phone": "(413) 665-9830", "distance": 15940.40236360101}, {"id": "d2zT-n0KPLHYvWIr6mRMVQ", "alias": "the-quarters-hadley", "name": "The Quarters", "image_url": "https://s3-media3.fl.yelpcdn.com/bphoto/c1LpRrIL3w5GIx4uQCkfPg/o.jpg", "is_closed": false, "url": "https://www.yelp.com/biz/the-quarters-hadley?adjust_creative=asslzE1UV0XuKI953B1vtw&utm_campaign=yelp_api_v3&utm_medium=api_v3_business_search&utm_source=asslzE1UV0XuKI953B1vtw", "review_count": 133, "categories": [{"alias": "bars", "title": "Bars"}, {"alias": "arcades", "title": "Arcades"}, {"alias": "hotdog", "title": "Hot Dogs"}], "rating": 4.0, "coordinates": {"latitude": 42.34408, "longitude": -72.59122}, "transactions": [], "price": "$", "location": {"address1": "8 Railroad St", "address2": null, "address3": "", "city": "Hadley", "zip_code": "01035", "country": "US", "state": "MA", "display_address": ["8 Railroad St", "Hadley, MA 01035"]}, "phone": "+14134294263", "display_phone": "(413) 429-4263", "distance": 19097.82171785438}, {"id": "08KuvUqdONvE2YE9OGKqWQ", "alias": "sibies-pizza-amherst", "name": "Sibie's Pizza", "image_url": "https://s3-media4.fl.yelpcdn.com/bphoto/FT0_Pmw4uTNcR1gItpb9mg/o.jpg", "is_closed": false, "url": "https://www.yelp.com/biz/sibies-pizza-amherst?adjust_creative=asslzE1UV0XuKI953B1vtw&utm_campaign=yelp_api_v3&utm_medium=api_v3_business_search&utm_source=asslzE1UV0XuKI953B1vtw", "review_count": 44, "categories": [{"alias": "pizza", "title": "Pizza"}, {"alias": "chicken_wings", "title": "Chicken Wings"}, {"alias": "vegan", "title": "Vegan"}], "rating": 4.0, "coordinates": {"latitude": 42.339745, "longitude": -72.520776}, "transactions": ["delivery", "pickup"], "price": "$", "location": {"address1": "481 West St", "address2": "", "address3": "", "city": "Amherst", "zip_code": "01002", "country": "US", "state": "MA", "display_address": ["481 West St", "Amherst, MA 01002"]}, "phone": "+14132566100", "display_phone": "(413) 256-6100", "distance": 15823.264405847582}, {"id": "R-vkZRm9n6wLsApICyGAaw", "alias": "athol-house-of-pizza-restaurant-and-bakery-athol", "name": "Athol House of Pizza Restaurant & Bakery", "image_url": "https://s3-media4.fl.yelpcdn.com/bphoto/3FRiTWJglhE7qOR6gZdMTw/o.jpg", "is_closed": false, "url": "https://www.yelp.com/biz/athol-house-of-pizza-restaurant-and-bakery-athol?adjust_creative=asslzE1UV0XuKI953B1vtw&utm_campaign=yelp_api_v3&utm_medium=api_v3_business_search&utm_source=asslzE1UV0XuKI953B1vtw", "review_count": 25, "categories": [{"alias": "bakeries", "title": "Bakeries"}, {"alias": "pizza", "title": "Pizza"}], "rating": 3.0, "coordinates": {"latitude": 42.594047, "longitude": -72.229459}, "transactions": [], "price": "$$", "location": {"address1": "522 Main St", "address2": null, "address3": "", "city": "Athol", "zip_code": "01331", "country": "US", "state": "MA", "display_address": ["522 Main St", "Athol, MA 01331"]}, "phone": "+19782493762", "display_phone": "(978) 249-3762", "distance": 21551.35971369411}, {"id": "HQstHLLH3MCV-VIvkEJ8Zw", "alias": "athens-pizza-greenfield", "name": "Athens Pizza", "image_url": "https://s3-media1.fl.yelpcdn.com/bphoto/Ui-xwzsHZrIndLoKz8KLHA/o.jpg", "is_closed": false, "url": "https://www.yelp.com/biz/athens-pizza-greenfield?adjust_creative=asslzE1UV0XuKI953B1vtw&utm_campaign=yelp_api_v3&utm_medium=api_v3_business_search&utm_source=asslzE1UV0XuKI953B1vtw", "review_count": 18, "categories": [{"alias": "pizza", "title": "Pizza"}], "rating": 2.5, "coordinates": {"latitude": 42.5869255065918, "longitude": -72.6082229614258}, "transactions": ["delivery"], "price": "$$", "location": {"address1": "25 Main St", "address2": "", "address3": "", "city": "Greenfield", "zip_code": "01301", "country": "US", "state": "MA", "display_address": ["25 Main St", "Greenfield, MA 01301"]}, "phone": "+14137743722", "display_phone": "(413) 774-3722", "distance": 20656.985386573266}, {"id": "0pFLeP_Xjxhf2dM-5Orw4w", "alias": "subway-sunderland-4", "name": "Subway", "image_url": "", "is_closed": false, "url": "https://www.yelp.com/biz/subway-sunderland-4?adjust_creative=asslzE1UV0XuKI953B1vtw&utm_campaign=yelp_api_v3&utm_medium=api_v3_business_search&utm_source=asslzE1UV0XuKI953B1vtw", "review_count": 2, "categories": [{"alias": "sandwiches", "title": "Sandwiches"}, {"alias": "hotdogs", "title": "Fast Food"}], "rating": 3.5, "coordinates": {"latitude": 42.464704, "longitude": -72.5758}, "transactions": [], "price": "$", "location": {"address1": "45 Amherst Rd", "address2": "", "address3": "", "city": "Sunderland", "zip_code": "01375", "country": "US", "state": "MA", "display_address": ["45 Amherst Rd", "Sunderland, MA 01375"]}, "phone": "+14136650900", "display_phone": "(413) 665-0900", "distance": 12628.093676620043}, {"id": "ZtM_ln7Tsn075y7RnDTsqQ", "alias": "sylvan-snack-bar-amherst", "name": "Sylvan Snack Bar", "image_url": "https://s3-media2.fl.yelpcdn.com/bphoto/y0DQzgfiJo8DUZDVWZk2Fw/o.jpg", "is_closed": false, "url": "https://www.yelp.com/biz/sylvan-snack-bar-amherst?adjust_creative=asslzE1UV0XuKI953B1vtw&utm_campaign=yelp_api_v3&utm_medium=api_v3_business_search&utm_source=asslzE1UV0XuKI953B1vtw", "review_count": 3, "categories": [{"alias": "desserts", "title": "Desserts"}, {"alias": "pizza", "title": "Pizza"}, {"alias": "sandwiches", "title": "Sandwiches"}], "rating": 3.0, "coordinates": {"latitude": 42.3973721265793, "longitude": -72.5196287781}, "transactions": [], "location": {"address1": "102 Eastman Ln", "address2": "", "address3": "McNamara Hall - UMass", "city": "Amherst", "zip_code": "01003", "country": "US", "state": "MA", "display_address": ["102 Eastman Ln", "McNamara Hall - UMass", "Amherst, MA 01003"]}, "phone": "+14135453020", "display_phone": "(413) 545-3020", "distance": 11195.902338192045}, {"id": "aSBjd6oZCu-HvXKxX2qNtA", "alias": "moes-southwest-grill-hadley", "name": "Moe's Southwest Grill", "image_url": "https://s3-media1.fl.yelpcdn.com/bphoto/pqlMptfaORCa90jWasP_bA/o.jpg", "is_closed": false, "url": "https://www.yelp.com/biz/moes-southwest-grill-hadley?adjust_creative=asslzE1UV0XuKI953B1vtw&utm_campaign=yelp_api_v3&utm_medium=api_v3_business_search&utm_source=asslzE1UV0XuKI953B1vtw", "review_count": 29, "categories": [{"alias": "mexican", "title": "Mexican"}, {"alias": "tex-mex", "title": "Tex-Mex"}], "rating": 2.5, "coordinates": {"latitude": 42.3593230862871, "longitude": -72.5475931540132}, "transactions": ["pickup", "delivery"], "price": "$", "location": {"address1": "379 Russell St", "address2": "", "address3": "", "city": "Hadley", "zip_code": "01035", "country": "US", "state": "MA", "display_address": ["379 Russell St", "Hadley, MA 01035"]}, "phone": "+14133870266", "display_phone": "(413) 387-0266", "distance": 15384.336826732568}, {"id": "9f8jUaPQOlu8Q-3W_t61fg", "alias": "subway-turners-falls-3", "name": "Subway", "image_url": "https://s3-media4.fl.yelpcdn.com/bphoto/BQKiqilNmE7skga-CDDUOg/o.jpg", "is_closed": false, "url": "https://www.yelp.com/biz/subway-turners-falls-3?adjust_creative=asslzE1UV0XuKI953B1vtw&utm_campaign=yelp_api_v3&utm_medium=api_v3_business_search&utm_source=asslzE1UV0XuKI953B1vtw", "review_count": 3, "categories": [{"alias": "sandwiches", "title": "Sandwiches"}], "rating": 3.5, "coordinates": {"latitude": 42.6085179, "longitude": -72.5561029998867}, "transactions": [], "price": "$", "location": {"address1": "57 Avenue A", "address2": "", "address3": "", "city": "Turners Falls", "zip_code": "01376", "country": "US", "state": "MA", "display_address": ["57 Avenue A", "Turners Falls, MA 01376"]}, "phone": "+14138632363", "display_phone": "(413) 863-2363", "distance": 19664.029890519367}, {"id": "CI0drVFkwHgp5QMbS_NIcw", "alias": "shelburne-falls-coffee-roasters-greenfield", "name": "Shelburne Falls Coffee Roasters", "image_url": "https://s3-media3.fl.yelpcdn.com/bphoto/CqKHLzvK1qUoxC-SsqPv4A/o.jpg", "is_closed": false, "url": "https://www.yelp.com/biz/shelburne-falls-coffee-roasters-greenfield?adjust_creative=asslzE1UV0XuKI953B1vtw&utm_campaign=yelp_api_v3&utm_medium=api_v3_business_search&utm_source=asslzE1UV0XuKI953B1vtw", "review_count": 51, "categories": [{"alias": "coffee", "title": "Coffee & Tea"}, {"alias": "bagels", "title": "Bagels"}, {"alias": "sandwiches", "title": "Sandwiches"}], "rating": 3.5, "coordinates": {"latitude": 42.59049, "longitude": -72.5992799}, "transactions": ["delivery"], "price": "$$", "location": {"address1": "100 Federal St", "address2": "", "address3": "", "city": "Greenfield", "zip_code": "01301", "country": "US", "state": "MA", "display_address": ["100 Federal St", "Greenfield, MA 01301"]}, "phone": "+14137738028", "display_phone": "(413) 773-8028", "distance": 20381.501166542836}, {"id": "NWZbIKlYUT9LwUD7v-5vfA", "alias": "the-works-bakery-caf\u00e9-amherst", "name": "The Works Bakery Caf\u00e9", "image_url": "https://s3-media2.fl.yelpcdn.com/bphoto/w6Zcisqdu7cOkPZSNmtzJg/o.jpg", "is_closed": false, "url": "https://www.yelp.com/biz/the-works-bakery-caf%C3%A9-amherst?adjust_creative=asslzE1UV0XuKI953B1vtw&utm_campaign=yelp_api_v3&utm_medium=api_v3_business_search&utm_source=asslzE1UV0XuKI953B1vtw", "review_count": 67, "categories": [{"alias": "bagels", "title": "Bagels"}, {"alias": "sandwiches", "title": "Sandwiches"}, {"alias": "breakfast_brunch", "title": "Breakfast & Brunch"}], "rating": 3.0, "coordinates": {"latitude": 42.376465, "longitude": -72.52031}, "transactions": ["delivery"], "price": "$$", "location": {"address1": "48 N Pleasant St", "address2": "", "address3": "", "city": "Amherst", "zip_code": "01002", "country": "US", "state": "MA", "display_address": ["48 N Pleasant St", "Amherst, MA 01002"]}, "phone": "+14138350561", "display_phone": "(413) 835-0561", "distance": 12473.272281284855}, {"id": "ohN09D6g0N0jd6Jc8uQntA", "alias": "subway-hadley-5", "name": "Subway", "image_url": "https://s3-media2.fl.yelpcdn.com/bphoto/ZO0vcbzgn-lwDtJDZAxVjQ/o.jpg", "is_closed": false, "url": "https://www.yelp.com/biz/subway-hadley-5?adjust_creative=asslzE1UV0XuKI953B1vtw&utm_campaign=yelp_api_v3&utm_medium=api_v3_business_search&utm_source=asslzE1UV0XuKI953B1vtw", "review_count": 2, "categories": [{"alias": "sandwiches", "title": "Sandwiches"}], "rating": 3.5, "coordinates": {"latitude": 42.3545338025272, "longitude": -72.5526640950219}, "transactions": ["delivery", "pickup"], "price": "$", "location": {"address1": "337 Russell St", "address2": null, "address3": null, "city": "Hadley", "zip_code": "01035", "country": "US", "state": "MA", "display_address": ["337 Russell St", "Hadley, MA 01035"]}, "phone": "+14135850670", "display_phone": "(413) 585-0670", "distance": 16058.897460274966}, {"id": "Eu9D2dTHMxUZifR8Nw_7sg", "alias": "dominos-pizza-hadley-2", "name": "Domino's Pizza", "image_url": "https://s3-media4.fl.yelpcdn.com/bphoto/WhZ0RjxN0fl-omymcOPiow/o.jpg", "is_closed": false, "url": "https://www.yelp.com/biz/dominos-pizza-hadley-2?adjust_creative=asslzE1UV0XuKI953B1vtw&utm_campaign=yelp_api_v3&utm_medium=api_v3_business_search&utm_source=asslzE1UV0XuKI953B1vtw", "review_count": 29, "categories": [{"alias": "pizza", "title": "Pizza"}, {"alias": "chicken_wings", "title": "Chicken Wings"}, {"alias": "sandwiches", "title": "Sandwiches"}], "rating": 1.5, "coordinates": {"latitude": 42.36456463353, "longitude": -72.5365933603404}, "transactions": [], "price": "$", "location": {"address1": "459 Russell St", "address2": "", "address3": "", "city": "Hadley", "zip_code": "01035", "country": "US", "state": "MA", "display_address": ["459 Russell St", "Hadley, MA 01035"]}, "phone": "+14132568911", "display_phone": "(413) 256-8911", "distance": 14348.721538693193}, {"id": "-cTZN8UAmWz98p492Y_OMw", "alias": "friendlys-greenfield-2", "name": "Friendly's", "image_url": "https://s3-media3.fl.yelpcdn.com/bphoto/R8N4TORIBSgbhC1_DRsLZg/o.jpg", "is_closed": false, "url": "https://www.yelp.com/biz/friendlys-greenfield-2?adjust_creative=asslzE1UV0XuKI953B1vtw&utm_campaign=yelp_api_v3&utm_medium=api_v3_business_search&utm_source=asslzE1UV0XuKI953B1vtw", "review_count": 54, "categories": [{"alias": "icecream", "title": "Ice Cream & Frozen Yogurt"}, {"alias": "tradamerican", "title": "American (Traditional)"}, {"alias": "burgers", "title": "Burgers"}], "rating": 2.0, "coordinates": {"latitude": 42.5852699, "longitude": -72.6235962}, "transactions": [], "price": "$$", "location": {"address1": "200 Mohawk Trl", "address2": null, "address3": null, "city": "Greenfield", "zip_code": "01301", "country": "US", "state": "MA", "display_address": ["200 Mohawk Trl", "Greenfield, MA 01301"]}, "phone": "+14137745435", "display_phone": "(413) 774-5435", "distance": 21484.80405510217}, {"id": "pdoNdba03NXOdhaDIFkKcg", "alias": "taco-bell-hadley-2", "name": "Taco Bell", "image_url": "https://s3-media3.fl.yelpcdn.com/bphoto/de8hGnyx0GvBnl1uDq9fkQ/o.jpg", "is_closed": false, "url": "https://www.yelp.com/biz/taco-bell-hadley-2?adjust_creative=asslzE1UV0XuKI953B1vtw&utm_campaign=yelp_api_v3&utm_medium=api_v3_business_search&utm_source=asslzE1UV0XuKI953B1vtw", "review_count": 21, "categories": [{"alias": "hotdogs", "title": "Fast Food"}, {"alias": "tacos", "title": "Tacos"}], "rating": 3.0, "coordinates": {"latitude": 42.358228, "longitude": -72.551169}, "transactions": ["delivery"], "price": "$", "location": {"address1": "348 Russell Street", "address2": "", "address3": "", "city": "Hadley", "zip_code": "01035", "country": "US", "state": "MA", "display_address": ["348 Russell Street", "Hadley, MA 01035"]}, "phone": "+14135842391", "display_phone": "(413) 584-2391", "distance": 15672.242382144519}, {"id": "sHu2khcNR7edvPY7eMI3hg", "alias": "chipotle-mexican-grill-hadley", "name": "Chipotle Mexican Grill", "image_url": "https://s3-media3.fl.yelpcdn.com/bphoto/R_v7GvkdY-S9TGY50l8Urw/o.jpg", "is_closed": false, "url": "https://www.yelp.com/biz/chipotle-mexican-grill-hadley?adjust_creative=asslzE1UV0XuKI953B1vtw&utm_campaign=yelp_api_v3&utm_medium=api_v3_business_search&utm_source=asslzE1UV0XuKI953B1vtw", "review_count": 48, "categories": [{"alias": "mexican", "title": "Mexican"}, {"alias": "hotdogs", "title": "Fast Food"}], "rating": 2.5, "coordinates": {"latitude": 42.3566126078367, "longitude": -72.5532884895802}, "transactions": [], "price": "$", "location": {"address1": "334 Russell St", "address2": "", "address3": "", "city": "Hadley", "zip_code": "01035", "country": "US", "state": "MA", "display_address": ["334 Russell St", "Hadley, MA 01035"]}, "phone": "+14135879888", "display_phone": "(413) 587-9888", "distance": 15926.461164942422}, {"id": "BEFXrXW9BIo96TA4yOlanA", "alias": "subway-greenfield-29", "name": "Subway", "image_url": "https://s3-media3.fl.yelpcdn.com/bphoto/KhBvbd8eR5pSD5juuoh8Gw/o.jpg", "is_closed": false, "url": "https://www.yelp.com/biz/subway-greenfield-29?adjust_creative=asslzE1UV0XuKI953B1vtw&utm_campaign=yelp_api_v3&utm_medium=api_v3_business_search&utm_source=asslzE1UV0XuKI953B1vtw", "review_count": 7, "categories": [{"alias": "sandwiches", "title": "Sandwiches"}], "rating": 3.5, "coordinates": {"latitude": 42.6023944623179, "longitude": -72.592163430718}, "transactions": [], "price": "$", "location": {"address1": "343 Federal St", "address2": "", "address3": "", "city": "Greenfield", "zip_code": "01301", "country": "US", "state": "MA", "display_address": ["343 Federal St", "Greenfield, MA 01301"]}, "phone": "+14137745999", "display_phone": "(413) 774-5999", "distance": 20944.638053125305}, {"id": "0p8H5orIBw7Ba-a4czpzhA", "alias": "mcdonalds-hadley", "name": "McDonald's", "image_url": "https://s3-media2.fl.yelpcdn.com/bphoto/cvUP4skZ7jwsuynnXX52Yg/o.jpg", "is_closed": false, "url": "https://www.yelp.com/biz/mcdonalds-hadley?adjust_creative=asslzE1UV0XuKI953B1vtw&utm_campaign=yelp_api_v3&utm_medium=api_v3_business_search&utm_source=asslzE1UV0XuKI953B1vtw", "review_count": 21, "categories": [{"alias": "hotdogs", "title": "Fast Food"}, {"alias": "burgers", "title": "Burgers"}, {"alias": "coffee", "title": "Coffee & Tea"}], "rating": 3.0, "coordinates": {"latitude": 42.358855090675, "longitude": -72.549741268158}, "transactions": [], "price": "$", "location": {"address1": "374 Russell St", "address2": "", "address3": "", "city": "Hadley", "zip_code": "01035", "country": "US", "state": "MA", "display_address": ["374 Russell St", "Hadley, MA 01035"]}, "phone": "+14135820176", "display_phone": "(413) 582-0176", "distance": 15541.565145416318}, {"id": "rT2OyIaXeJUgas7HRL-8NA", "alias": "subway-restaurants-hadley", "name": "Subway Restaurants", "image_url": "https://s3-media2.fl.yelpcdn.com/bphoto/XL-9dntDsQHr9nVLqm73eA/o.jpg", "is_closed": false, "url": "https://www.yelp.com/biz/subway-restaurants-hadley?adjust_creative=asslzE1UV0XuKI953B1vtw&utm_campaign=yelp_api_v3&utm_medium=api_v3_business_search&utm_source=asslzE1UV0XuKI953B1vtw", "review_count": 1, "categories": [{"alias": "sandwiches", "title": "Sandwiches"}], "rating": 3.0, "coordinates": {"latitude": 42.3559343, "longitude": -72.5475663}, "transactions": ["delivery", "pickup"], "price": "$", "location": {"address1": "367 Russell St", "address2": "Ste C-15", "address3": null, "city": "Hadley", "zip_code": "01035", "country": "US", "state": "MA", "display_address": ["367 Russell St", "Ste C-15", "Hadley, MA 01035"]}, "phone": "+14135843577", "display_phone": "(413) 584-3577", "distance": 15664.536287077062}, {"id": "mlDZf-GdNIaW5ToE3AR9CA", "alias": "subway-greenfield-20", "name": "Subway", "image_url": "https://s3-media2.fl.yelpcdn.com/bphoto/J25dG23zDO2UgNa3-tc9fw/o.jpg", "is_closed": false, "url": "https://www.yelp.com/biz/subway-greenfield-20?adjust_creative=asslzE1UV0XuKI953B1vtw&utm_campaign=yelp_api_v3&utm_medium=api_v3_business_search&utm_source=asslzE1UV0XuKI953B1vtw", "review_count": 3, "categories": [{"alias": "sandwiches", "title": "Sandwiches"}], "rating": 2.0, "coordinates": {"latitude": 42.5873648, "longitude": -72.626196}, "transactions": [], "price": "$", "location": {"address1": "251 Mohawk Trail", "address2": "", "address3": "Greenfield Plz S C", "city": "Greenfield", "zip_code": "01301", "country": "US", "state": "MA", "display_address": ["251 Mohawk Trail", "Greenfield Plz S C", "Greenfield, MA 01301"]}, "phone": "+14137743636", "display_phone": "(413) 774-3636", "distance": 21792.7986272316}, {"id": "U4ZdIbDtIlwXYbEzzDtiCQ", "alias": "mcdonalds-athol", "name": "McDonald's", "image_url": "https://s3-media1.fl.yelpcdn.com/bphoto/FSBdlAPNx4Un2ivWTJTteA/o.jpg", "is_closed": false, "url": "https://www.yelp.com/biz/mcdonalds-athol?adjust_creative=asslzE1UV0XuKI953B1vtw&utm_campaign=yelp_api_v3&utm_medium=api_v3_business_search&utm_source=asslzE1UV0XuKI953B1vtw", "review_count": 16, "categories": [{"alias": "burgers", "title": "Burgers"}, {"alias": "hotdogs", "title": "Fast Food"}, {"alias": "coffee", "title": "Coffee & Tea"}], "rating": 2.5, "coordinates": {"latitude": 42.5814984273631, "longitude": -72.2548806667328}, "transactions": [], "price": "$", "location": {"address1": "100 Brookside Rd", "address2": "", "address3": "", "city": "Athol", "zip_code": "01331", "country": "US", "state": "MA", "display_address": ["100 Brookside Rd", "Athol, MA 01331"]}, "phone": "+19782499866", "display_phone": "(978) 249-9866", "distance": 19081.217327723778}, {"id": "4Zzu0W5N2O6-ATv7vOMnog", "alias": "wendys-greenfield-2", "name": "Wendy's", "image_url": "https://s3-media1.fl.yelpcdn.com/bphoto/VjepJeSj81EQxIrHcl7H_A/o.jpg", "is_closed": false, "url": "https://www.yelp.com/biz/wendys-greenfield-2?adjust_creative=asslzE1UV0XuKI953B1vtw&utm_campaign=yelp_api_v3&utm_medium=api_v3_business_search&utm_source=asslzE1UV0XuKI953B1vtw", "review_count": 16, "categories": [{"alias": "hotdogs", "title": "Fast Food"}, {"alias": "burgers", "title": "Burgers"}], "rating": 2.0, "coordinates": {"latitude": 42.592495, "longitude": -72.598592}, "transactions": ["delivery"], "price": "$", "location": {"address1": "138 Federal Street", "address2": "", "address3": "", "city": "Greenfield", "zip_code": "01301", "country": "US", "state": "MA", "display_address": ["138 Federal Street", "Greenfield, MA 01301"]}, "phone": "+14137745201", "display_phone": "(413) 774-5201", "distance": 20508.10688652148}, {"id": "A0e-tQr8h6nZ7a9VzZMgCg", "alias": "brueggers-bagels-amherst-2", "name": "Bruegger's Bagels", "image_url": "https://s3-media4.fl.yelpcdn.com/bphoto/Wo7oMIDoFYao7kQbaJ4pqw/o.jpg", "is_closed": false, "url": "https://www.yelp.com/biz/brueggers-bagels-amherst-2?adjust_creative=asslzE1UV0XuKI953B1vtw&utm_campaign=yelp_api_v3&utm_medium=api_v3_business_search&utm_source=asslzE1UV0XuKI953B1vtw", "review_count": 32, "categories": [{"alias": "bagels", "title": "Bagels"}, {"alias": "breakfast_brunch", "title": "Breakfast & Brunch"}, {"alias": "sandwiches", "title": "Sandwiches"}], "rating": 2.5, "coordinates": {"latitude": 42.3782241, "longitude": -72.5201029}, "transactions": [], "price": "$", "location": {"address1": "170 N Pleasant St", "address2": "", "address3": "", "city": "Amherst", "zip_code": "01002", "country": "US", "state": "MA", "display_address": ["170 N Pleasant St", "Amherst, MA 01002"]}, "phone": "+14132535713", "display_phone": "(413) 253-5713", "distance": 12331.916921225535}, {"id": "EBOKlLXepUQImS8wV4068A", "alias": "subway-amherst-17", "name": "Subway", "image_url": "https://s3-media2.fl.yelpcdn.com/bphoto/8Lcf7urdszZgs5hG6MNr_w/o.jpg", "is_closed": false, "url": "https://www.yelp.com/biz/subway-amherst-17?adjust_creative=asslzE1UV0XuKI953B1vtw&utm_campaign=yelp_api_v3&utm_medium=api_v3_business_search&utm_source=asslzE1UV0XuKI953B1vtw", "review_count": 8, "categories": [{"alias": "sandwiches", "title": "Sandwiches"}], "rating": 2.5, "coordinates": {"latitude": 42.3758654810346, "longitude": -72.5196445020015}, "transactions": ["pickup", "delivery"], "price": "$", "location": {"address1": "4 Main St", "address2": "Store 1A", "address3": "", "city": "Amherst", "zip_code": "01002", "country": "US", "state": "MA", "display_address": ["4 Main St", "Store 1A", "Amherst, MA 01002"]}, "phone": "+14132561919", "display_phone": "(413) 256-1919", "distance": 12488.9804530454}, {"id": "nF8R1_vtuVntHLpUN3UoVg", "alias": "wendys-hadley", "name": "Wendy's", "image_url": "https://s3-media4.fl.yelpcdn.com/bphoto/R-xzUZQ03uv1D78-sVBY9A/o.jpg", "is_closed": false, "url": "https://www.yelp.com/biz/wendys-hadley?adjust_creative=asslzE1UV0XuKI953B1vtw&utm_campaign=yelp_api_v3&utm_medium=api_v3_business_search&utm_source=asslzE1UV0XuKI953B1vtw", "review_count": 18, "categories": [{"alias": "hotdogs", "title": "Fast Food"}, {"alias": "burgers", "title": "Burgers"}], "rating": 1.5, "coordinates": {"latitude": 42.359309, "longitude": -72.548843}, "transactions": ["delivery"], "price": "$", "location": {"address1": "376 Russell Street", "address2": "", "address3": "", "city": "Hadley", "zip_code": "01035", "country": "US", "state": "MA", "display_address": ["376 Russell Street", "Hadley, MA 01035"]}, "phone": "+14135173968", "display_phone": "(413) 517-3968", "distance": 15457.526943944033}, {"id": "VcKnHfkBxXSqPd_a1TJa2Q", "alias": "kfc-greenfield-4", "name": "KFC", "image_url": "https://s3-media4.fl.yelpcdn.com/bphoto/zRrjKWbYcRMZx7xjAgBC5g/o.jpg", "is_closed": false, "url": "https://www.yelp.com/biz/kfc-greenfield-4?adjust_creative=asslzE1UV0XuKI953B1vtw&utm_campaign=yelp_api_v3&utm_medium=api_v3_business_search&utm_source=asslzE1UV0XuKI953B1vtw", "review_count": 6, "categories": [{"alias": "hotdogs", "title": "Fast Food"}, {"alias": "chicken_wings", "title": "Chicken Wings"}, {"alias": "chickenshop", "title": "Chicken Shop"}], "rating": 1.5, "coordinates": {"latitude": 42.5857303098406, "longitude": -72.626232}, "transactions": ["delivery", "pickup"], "price": "$", "location": {"address1": "242 Mohawk Trl", "address2": null, "address3": null, "city": "Greenfield", "zip_code": "01301", "country": "US", "state": "MA", "display_address": ["242 Mohawk Trl", "Greenfield, MA 01301"]}, "phone": "+14137747869", "display_phone": "(413) 774-7869", "distance": 21679.36742202061}, {"id": "lAHlJinahtGJQkd25QJrRw", "alias": "dominos-pizza-greenfield-4", "name": "Domino's Pizza", "image_url": "https://s3-media3.fl.yelpcdn.com/bphoto/ZFcc_blzn6KVp9PDfMX_0Q/o.jpg", "is_closed": false, "url": "https://www.yelp.com/biz/dominos-pizza-greenfield-4?adjust_creative=asslzE1UV0XuKI953B1vtw&utm_campaign=yelp_api_v3&utm_medium=api_v3_business_search&utm_source=asslzE1UV0XuKI953B1vtw", "review_count": 10, "categories": [{"alias": "pizza", "title": "Pizza"}, {"alias": "chicken_wings", "title": "Chicken Wings"}, {"alias": "sandwiches", "title": "Sandwiches"}], "rating": 1.5, "coordinates": {"latitude": 42.603973, "longitude": -72.591673}, "transactions": [], "price": "$", "location": {"address1": "368 Federal St", "address2": "", "address3": "", "city": "Greenfield", "zip_code": "01301", "country": "US", "state": "MA", "display_address": ["368 Federal St", "Greenfield, MA 01301"]}, "phone": "+14137747291", "display_phone": "(413) 774-7291", "distance": 21049.164974541043}, {"id": "lGTaMLtrvNzg8kJqm93KTA", "alias": "mcdonalds-greenfield-5", "name": "McDonald's", "image_url": "https://s3-media4.fl.yelpcdn.com/bphoto/k0TRfvZBOqKHdWPr7vZsnA/o.jpg", "is_closed": false, "url": "https://www.yelp.com/biz/mcdonalds-greenfield-5?adjust_creative=asslzE1UV0XuKI953B1vtw&utm_campaign=yelp_api_v3&utm_medium=api_v3_business_search&utm_source=asslzE1UV0XuKI953B1vtw", "review_count": 9, "categories": [{"alias": "hotdogs", "title": "Fast Food"}, {"alias": "burgers", "title": "Burgers"}, {"alias": "coffee", "title": "Coffee & Tea"}], "rating": 2.0, "coordinates": {"latitude": 42.5998173687393, "longitude": -72.5944671034812}, "transactions": [], "price": "$", "location": {"address1": "285 Federal St", "address2": "", "address3": "", "city": "Greenfield", "zip_code": "01301", "country": "US", "state": "MA", "display_address": ["285 Federal St", "Greenfield, MA 01301"]}, "phone": "+14137743618", "display_phone": "(413) 774-3618", "distance": 20859.5168943619}, {"id": "7IOS0bILt7y2-6eiiXxJRg", "alias": "mcdonalds-greenfield", "name": "McDonald's", "image_url": "https://s3-media4.fl.yelpcdn.com/bphoto/RUa3FiH2Cx7jHuH740Rw8Q/o.jpg", "is_closed": false, "url": "https://www.yelp.com/biz/mcdonalds-greenfield?adjust_creative=asslzE1UV0XuKI953B1vtw&utm_campaign=yelp_api_v3&utm_medium=api_v3_business_search&utm_source=asslzE1UV0XuKI953B1vtw", "review_count": 19, "categories": [{"alias": "hotdogs", "title": "Fast Food"}, {"alias": "burgers", "title": "Burgers"}, {"alias": "coffee", "title": "Coffee & Tea"}], "rating": 2.5, "coordinates": {"latitude": 42.5854669, "longitude": -72.6247290475385}, "transactions": [], "price": "$", "location": {"address1": "208 Mohawk Trl", "address2": "", "address3": "", "city": "Greenfield", "zip_code": "01301", "country": "US", "state": "MA", "display_address": ["208 Mohawk Trl", "Greenfield, MA 01301"]}, "phone": "+14137745311", "display_phone": "(413) 774-5311", "distance": 21565.721089182232}, {"id": "qqA8YX58xnmEXLyanHfdUg", "alias": "stufd-food-truck-brooklyn", "name": "Stuf'd Food Truck", "image_url": "https://s3-media2.fl.yelpcdn.com/bphoto/_Wn0i-tLIOFinw8BPAqxPA/o.jpg", "is_closed": false, "url": "https://www.yelp.com/biz/stufd-food-truck-brooklyn?adjust_creative=asslzE1UV0XuKI953B1vtw&utm_campaign=yelp_api_v3&utm_medium=api_v3_business_search&utm_source=asslzE1UV0XuKI953B1vtw", "review_count": 4, "categories": [{"alias": "sandwiches", "title": "Sandwiches"}, {"alias": "foodtrucks", "title": "Food Trucks"}], "rating": 4.0, "coordinates": {"latitude": 40.7124539, "longitude": -73.9287374}, "transactions": [], "location": {"address1": "178 Varick Ave", "address2": "", "address3": null, "city": "Brooklyn", "zip_code": "11237", "country": "US", "state": "NY", "display_address": ["178 Varick Ave", "Brooklyn, NY 11237"]}, "phone": "+18457091808", "display_phone": "(845) 709-1808", "distance": 231395.20066460466}]