[{"id": "QyW8j3aut9ERG_lkIVd46g", "alias": "the-devens-grill-devens-2", "name": "The Devens Grill", "image_url": "https://s3-media2.fl.yelpcdn.com/bphoto/OgUpc7UGU-7gZykkviro4A/o.jpg", "is_closed": false, "url": "https://www.yelp.com/biz/the-devens-grill-devens-2?adjust_creative=h5HwbyQ0TYvQjBo6Ys5Bgw&utm_campaign=yelp_api_v3&utm_medium=api_v3_business_search&utm_source=h5HwbyQ0TYvQjBo6Ys5Bgw", "review_count": 164, "categories": [{"alias": "tradamerican", "title": "American (Traditional)"}, {"alias": "bars", "title": "Bars"}, {"alias": "salad", "title": "Salad"}], "rating": 3.5, "coordinates": {"latitude": 42.540703, "longitude": -71.612189}, "transactions": ["delivery", "pickup"], "price": "$$", "location": {"address1": "4 Ryans Way", "address2": "", "address3": "", "city": "Devens", "zip_code": "01434", "country": "US", "state": "MA", "display_address": ["4 Ryans Way", "Devens, MA 01434"]}, "phone": "+19788620060", "display_phone": "(978) 862-0060", "distance": 378.94245810945114}, {"id": "51ANijojLx_Fkjn6SHiFfQ", "alias": "the-natural-cafe-devens", "name": "The Natural Cafe", "image_url": "https://s3-media1.fl.yelpcdn.com/bphoto/KPBXv6nhpq5KlcPxowtREg/o.jpg", "is_closed": false, "url": "https://www.yelp.com/biz/the-natural-cafe-devens?adjust_creative=h5HwbyQ0TYvQjBo6Ys5Bgw&utm_campaign=yelp_api_v3&utm_medium=api_v3_business_search&utm_source=h5HwbyQ0TYvQjBo6Ys5Bgw", "review_count": 38, "categories": [{"alias": "newamerican", "title": "American (New)"}, {"alias": "vegan", "title": "Vegan"}, {"alias": "vegetarian", "title": "Vegetarian"}], "rating": 4.5, "coordinates": {"latitude": 42.5416746, "longitude": -71.6104325}, "transactions": ["delivery"], "price": "$$", "location": {"address1": "176 Jackson Rd", "address2": "", "address3": "", "city": "Devens", "zip_code": "01434", "country": "US", "state": "MA", "display_address": ["176 Jackson Rd", "Devens, MA 01434"]}, "phone": "+19786602680", "display_phone": "(978) 660-2680", "distance": 427.1576405131592}, {"id": "v0J-MR5FQbBcXEK5ivnHOg", "alias": "bar-25-ayer", "name": "Bar 25", "image_url": "https://s3-media2.fl.yelpcdn.com/bphoto/jZFOPugzQR7fzXKhK33jJQ/o.jpg", "is_closed": false, "url": "https://www.yelp.com/biz/bar-25-ayer?adjust_creative=h5HwbyQ0TYvQjBo6Ys5Bgw&utm_campaign=yelp_api_v3&utm_medium=api_v3_business_search&utm_source=h5HwbyQ0TYvQjBo6Ys5Bgw", "review_count": 26, "categories": [{"alias": "cocktailbars", "title": "Cocktail Bars"}, {"alias": "pizza", "title": "Pizza"}, {"alias": "sandwiches", "title": "Sandwiches"}], "rating": 4.5, "coordinates": {"latitude": 42.55971, "longitude": -71.58791}, "transactions": ["delivery", "pickup"], "price": "$$", "location": {"address1": "25 Main St Ayer", "address2": null, "address3": "", "city": "Ayer", "zip_code": "01432", "country": "US", "state": "MA", "display_address": ["25 Main St Ayer", "Ayer, MA 01432"]}, "phone": "+19783914680", "display_phone": "(978) 391-4680", "distance": 3000.1241005937563}, {"id": "HjZDcALHDKs38IaBtsVy_Q", "alias": "markohs-on-main-ayer-2", "name": "Markoh's On Main", "image_url": "https://s3-media1.fl.yelpcdn.com/bphoto/k-Eb43VH3vlvQI0W-yz5PQ/o.jpg", "is_closed": false, "url": "https://www.yelp.com/biz/markohs-on-main-ayer-2?adjust_creative=h5HwbyQ0TYvQjBo6Ys5Bgw&utm_campaign=yelp_api_v3&utm_medium=api_v3_business_search&utm_source=h5HwbyQ0TYvQjBo6Ys5Bgw", "review_count": 47, "categories": [{"alias": "newamerican", "title": "American (New)"}], "rating": 3.5, "coordinates": {"latitude": 42.5598238, "longitude": -71.5886893}, "transactions": ["restaurant_reservation", "delivery", "pickup"], "price": "$$", "location": {"address1": "43 Main St", "address2": "", "address3": "", "city": "Ayer", "zip_code": "01432", "country": "US", "state": "MA", "display_address": ["43 Main St", "Ayer, MA 01432"]}, "phone": "+19787965260", "display_phone": "(978) 796-5260", "distance": 2978.4205648531897}, {"id": "BemUwFQvmGcJEHexcPP06w", "alias": "lucias-tavola-ayer", "name": "Lucia's Tavola", "image_url": "https://s3-media3.fl.yelpcdn.com/bphoto/MX1SRlgcIa8ccSxRg4C5Aw/o.jpg", "is_closed": false, "url": "https://www.yelp.com/biz/lucias-tavola-ayer?adjust_creative=h5HwbyQ0TYvQjBo6Ys5Bgw&utm_campaign=yelp_api_v3&utm_medium=api_v3_business_search&utm_source=h5HwbyQ0TYvQjBo6Ys5Bgw", "review_count": 119, "categories": [{"alias": "italian", "title": "Italian"}], "rating": 4.0, "coordinates": {"latitude": 42.5596558302641, "longitude": -71.5883953124285}, "transactions": ["delivery", "pickup"], "price": "$$", "location": {"address1": "31 Main St", "address2": "", "address3": "", "city": "Ayer", "zip_code": "01432", "country": "US", "state": "MA", "display_address": ["31 Main St", "Ayer, MA 01432"]}, "phone": "+19783914837", "display_phone": "(978) 391-4837", "distance": 2988.2779273387277}, {"id": "vK-Qfq9ChNkerChPKd0wGw", "alias": "woo-jung-restaurant-ayer", "name": "Woo Jung Restaurant", "image_url": "https://s3-media3.fl.yelpcdn.com/bphoto/XVuQMW-LD7CsgGUqq792lA/o.jpg", "is_closed": false, "url": "https://www.yelp.com/biz/woo-jung-restaurant-ayer?adjust_creative=h5HwbyQ0TYvQjBo6Ys5Bgw&utm_campaign=yelp_api_v3&utm_medium=api_v3_business_search&utm_source=h5HwbyQ0TYvQjBo6Ys5Bgw", "review_count": 212, "categories": [{"alias": "korean", "title": "Korean"}], "rating": 4.5, "coordinates": {"latitude": 42.55669, "longitude": -71.6019}, "transactions": ["delivery"], "price": "$$", "location": {"address1": "174 W Main St", "address2": "", "address3": "", "city": "Ayer", "zip_code": "01432", "country": "US", "state": "MA", "display_address": ["174 W Main St", "Ayer, MA 01432"]}, "phone": "+19787725742", "display_phone": "(978) 772-5742", "distance": 2192.631688295542}, {"id": "eXCQZTNmrW1NL5R-RdURgw", "alias": "the-bull-run-restaurant-shirley", "name": "The Bull Run Restaurant", "image_url": "https://s3-media2.fl.yelpcdn.com/bphoto/nQD1uv5x2HpWCGxQ6KiWAQ/o.jpg", "is_closed": false, "url": "https://www.yelp.com/biz/the-bull-run-restaurant-shirley?adjust_creative=h5HwbyQ0TYvQjBo6Ys5Bgw&utm_campaign=yelp_api_v3&utm_medium=api_v3_business_search&utm_source=h5HwbyQ0TYvQjBo6Ys5Bgw", "review_count": 190, "categories": [{"alias": "tradamerican", "title": "American (Traditional)"}, {"alias": "musicvenues", "title": "Music Venues"}, {"alias": "pizza", "title": "Pizza"}], "rating": 4.0, "coordinates": {"latitude": 42.584566, "longitude": -71.646191}, "transactions": ["delivery", "pickup"], "price": "$$", "location": {"address1": "215 Great Rd", "address2": null, "address3": "", "city": "Shirley", "zip_code": "01464", "country": "US", "state": "MA", "display_address": ["215 Great Rd", "Shirley, MA 01464"]}, "phone": "+19784254311", "display_phone": "(978) 425-4311", "distance": 5981.676445505963}, {"id": "yklmU9WZS49RV-GnlKdoeQ", "alias": "siam-pepper-harvard", "name": "Siam Pepper", "image_url": "https://s3-media3.fl.yelpcdn.com/bphoto/5Tdu4tGqcvUcxxToSMUvKg/o.jpg", "is_closed": false, "url": "https://www.yelp.com/biz/siam-pepper-harvard?adjust_creative=h5HwbyQ0TYvQjBo6Ys5Bgw&utm_campaign=yelp_api_v3&utm_medium=api_v3_business_search&utm_source=h5HwbyQ0TYvQjBo6Ys5Bgw", "review_count": 93, "categories": [{"alias": "thai", "title": "Thai"}], "rating": 4.0, "coordinates": {"latitude": 42.5428756968778, "longitude": -71.5750345732847}, "transactions": ["delivery"], "price": "$$", "location": {"address1": "325 Ayer Rd", "address2": "", "address3": "", "city": "Harvard", "zip_code": "01451", "country": "US", "state": "MA", "display_address": ["325 Ayer Rd", "Harvard, MA 01451"]}, "phone": "+19783911251", "display_phone": "(978) 391-1251", "distance": 2883.4533826056404}, {"id": "fTy1G9jyLaclAlNSTN2AcA", "alias": "carlins-restaurant-ayer", "name": "Carlins Restaurant", "image_url": "https://s3-media2.fl.yelpcdn.com/bphoto/KFMEla9ueo6y0iaHEq3_Hw/o.jpg", "is_closed": false, "url": "https://www.yelp.com/biz/carlins-restaurant-ayer?adjust_creative=h5HwbyQ0TYvQjBo6Ys5Bgw&utm_campaign=yelp_api_v3&utm_medium=api_v3_business_search&utm_source=h5HwbyQ0TYvQjBo6Ys5Bgw", "review_count": 40, "categories": [{"alias": "newamerican", "title": "American (New)"}, {"alias": "seafood", "title": "Seafood"}, {"alias": "sandwiches", "title": "Sandwiches"}], "rating": 4.0, "coordinates": {"latitude": 42.559352, "longitude": -71.589046}, "transactions": [], "price": "$$", "location": {"address1": "7 Depot Sq", "address2": "", "address3": "", "city": "Ayer", "zip_code": "01432", "country": "US", "state": "MA", "display_address": ["7 Depot Sq", "Ayer, MA 01432"]}, "phone": "+19787722317", "display_phone": "(978) 772-2317", "distance": 2934.5679211271836}, {"id": "4ugszUqRn8RXvG1i_Wi9XA", "alias": "forge-and-vine-groton", "name": "Forge & Vine", "image_url": "https://s3-media4.fl.yelpcdn.com/bphoto/WkemGOeGrSyOS6uDc1SVCg/o.jpg", "is_closed": false, "url": "https://www.yelp.com/biz/forge-and-vine-groton?adjust_creative=h5HwbyQ0TYvQjBo6Ys5Bgw&utm_campaign=yelp_api_v3&utm_medium=api_v3_business_search&utm_source=h5HwbyQ0TYvQjBo6Ys5Bgw", "review_count": 102, "categories": [{"alias": "restaurants", "title": "Restaurants"}], "rating": 4.0, "coordinates": {"latitude": 42.6067366025506, "longitude": -71.5678865874319}, "transactions": ["delivery", "pickup"], "location": {"address1": "126 Main St", "address2": "", "address3": null, "city": "Groton", "zip_code": "01450", "country": "US", "state": "MA", "display_address": ["126 Main St", "Groton, MA 01450"]}, "phone": "+19784489200", "display_phone": "(978) 448-9200", "distance": 8381.732396434389}, {"id": "34dX3t-zr-rGRcbq_0mwWg", "alias": "gibbet-hill-grill-groton", "name": "Gibbet Hill Grill", "image_url": "https://s3-media1.fl.yelpcdn.com/bphoto/2fchZJZfGimDc_Nt3-uYJQ/o.jpg", "is_closed": false, "url": "https://www.yelp.com/biz/gibbet-hill-grill-groton?adjust_creative=h5HwbyQ0TYvQjBo6Ys5Bgw&utm_campaign=yelp_api_v3&utm_medium=api_v3_business_search&utm_source=h5HwbyQ0TYvQjBo6Ys5Bgw", "review_count": 501, "categories": [{"alias": "newamerican", "title": "American (New)"}], "rating": 4.0, "coordinates": {"latitude": 42.6055, "longitude": -71.5641333}, "transactions": ["delivery"], "price": "$$$", "location": {"address1": "61 Lowell Rd", "address2": null, "address3": "", "city": "Groton", "zip_code": "01450", "country": "US", "state": "MA", "display_address": ["61 Lowell Rd", "Groton, MA 01450"]}, "phone": "+19784482900", "display_phone": "(978) 448-2900", "distance": 8398.574053360102}, {"id": "LJyx9fdgZ1SbwjkBVgEybg", "alias": "red-tail-tavern-devens", "name": "Red Tail Tavern", "image_url": "https://s3-media3.fl.yelpcdn.com/bphoto/LqBZubEx8o_KT4HBvYQDxA/o.jpg", "is_closed": false, "url": "https://www.yelp.com/biz/red-tail-tavern-devens?adjust_creative=h5HwbyQ0TYvQjBo6Ys5Bgw&utm_campaign=yelp_api_v3&utm_medium=api_v3_business_search&utm_source=h5HwbyQ0TYvQjBo6Ys5Bgw", "review_count": 2, "categories": [{"alias": "tradamerican", "title": "American (Traditional)"}], "rating": 3.5, "coordinates": {"latitude": 42.5321175, "longitude": -71.5993047}, "transactions": ["delivery"], "price": "$$", "location": {"address1": "15 Bulge Rd", "address2": "", "address3": "", "city": "Devens", "zip_code": "01434", "country": "US", "state": "MA", "display_address": ["15 Bulge Rd", "Devens, MA 01434"]}, "phone": "+19787723273", "display_phone": "(978) 772-3273", "distance": 1058.413070994703}, {"id": "Nbhuf2Jz0yww2pKGQCjhZg", "alias": "the-brookside-grill-shirley", "name": "The Brookside Grill", "image_url": "https://s3-media4.fl.yelpcdn.com/bphoto/_-ug2Y_Av9Qb-E6osQMp8g/o.jpg", "is_closed": false, "url": "https://www.yelp.com/biz/the-brookside-grill-shirley?adjust_creative=h5HwbyQ0TYvQjBo6Ys5Bgw&utm_campaign=yelp_api_v3&utm_medium=api_v3_business_search&utm_source=h5HwbyQ0TYvQjBo6Ys5Bgw", "review_count": 11, "categories": [{"alias": "tradamerican", "title": "American (Traditional)"}, {"alias": "seafood", "title": "Seafood"}, {"alias": "breakfast_brunch", "title": "Breakfast & Brunch"}], "rating": 4.5, "coordinates": {"latitude": 42.54396, "longitude": -71.65578}, "transactions": ["delivery"], "location": {"address1": "7 Main St", "address2": "", "address3": null, "city": "Shirley", "zip_code": "01464", "country": "US", "state": "MA", "display_address": ["7 Main St", "Shirley, MA 01464"]}, "phone": "+19788131176", "display_phone": "(978) 813-1176", "distance": 3846.522916313395}, {"id": "fQn9zRW_aFCWWM-It4si7A", "alias": "osawa-japanese-bistro-ayer", "name": "Osawa Japanese Bistro", "image_url": "https://s3-media2.fl.yelpcdn.com/bphoto/HaWLuBHYR1xHUEJVfYmJdw/o.jpg", "is_closed": false, "url": "https://www.yelp.com/biz/osawa-japanese-bistro-ayer?adjust_creative=h5HwbyQ0TYvQjBo6Ys5Bgw&utm_campaign=yelp_api_v3&utm_medium=api_v3_business_search&utm_source=h5HwbyQ0TYvQjBo6Ys5Bgw", "review_count": 74, "categories": [{"alias": "sushi", "title": "Sushi Bars"}, {"alias": "japanese", "title": "Japanese"}], "rating": 4.0, "coordinates": {"latitude": 42.55961, "longitude": -71.5874}, "transactions": ["delivery"], "price": "$$", "location": {"address1": "9 Main St", "address2": "", "address3": null, "city": "Ayer", "zip_code": "01432", "country": "US", "state": "MA", "display_address": ["9 Main St", "Ayer, MA 01432"]}, "phone": "+19783914335", "display_phone": "(978) 391-4335", "distance": 3056.6692269577743}, {"id": "yyZyj3RAUGGFn7raD0rUgw", "alias": "pizza-bella-devens", "name": "Pizza Bella", "image_url": "https://s3-media3.fl.yelpcdn.com/bphoto/bJMZk5ftZXHdNREyf_m4CQ/o.jpg", "is_closed": false, "url": "https://www.yelp.com/biz/pizza-bella-devens?adjust_creative=h5HwbyQ0TYvQjBo6Ys5Bgw&utm_campaign=yelp_api_v3&utm_medium=api_v3_business_search&utm_source=h5HwbyQ0TYvQjBo6Ys5Bgw", "review_count": 28, "categories": [{"alias": "pizza", "title": "Pizza"}], "rating": 3.0, "coordinates": {"latitude": 42.540718, "longitude": -71.61153}, "transactions": ["delivery"], "price": "$", "location": {"address1": "8 Andrews Pkwy", "address2": null, "address3": "", "city": "Devens", "zip_code": "01434", "country": "US", "state": "MA", "display_address": ["8 Andrews Pkwy", "Devens, MA 01434"]}, "phone": "+19787720004", "display_phone": "(978) 772-0004", "distance": 352.7280578907991}, {"id": "SixjqwG0i-lfnMRqyzxf2Q", "alias": "ruby-donut-ayer", "name": "Ruby Donut", "image_url": "https://s3-media3.fl.yelpcdn.com/bphoto/HGi_MAvNkY9GM8gunxuqkA/o.jpg", "is_closed": false, "url": "https://www.yelp.com/biz/ruby-donut-ayer?adjust_creative=h5HwbyQ0TYvQjBo6Ys5Bgw&utm_campaign=yelp_api_v3&utm_medium=api_v3_business_search&utm_source=h5HwbyQ0TYvQjBo6Ys5Bgw", "review_count": 47, "categories": [{"alias": "donuts", "title": "Donuts"}, {"alias": "bagels", "title": "Bagels"}, {"alias": "sandwiches", "title": "Sandwiches"}], "rating": 5.0, "coordinates": {"latitude": 42.554444, "longitude": -71.604917}, "transactions": ["delivery"], "location": {"address1": "210 W Main St", "address2": "", "address3": null, "city": "Ayer", "zip_code": "01432", "country": "US", "state": "MA", "display_address": ["210 W Main St", "Ayer, MA 01432"]}, "phone": "+19784877986", "display_phone": "(978) 487-7986", "distance": 1879.569750220774}, {"id": "I5k2lCxyO5Msk0dW5WB16Q", "alias": "the-great-american-grill-devens", "name": "The Great American Grill", "image_url": "https://s3-media3.fl.yelpcdn.com/bphoto/hrN1iqnQezm8Kky4fRB2bg/o.jpg", "is_closed": false, "url": "https://www.yelp.com/biz/the-great-american-grill-devens?adjust_creative=h5HwbyQ0TYvQjBo6Ys5Bgw&utm_campaign=yelp_api_v3&utm_medium=api_v3_business_search&utm_source=h5HwbyQ0TYvQjBo6Ys5Bgw", "review_count": 9, "categories": [{"alias": "tradamerican", "title": "American (Traditional)"}], "rating": 2.0, "coordinates": {"latitude": 42.5397804086682, "longitude": -71.610993549704}, "transactions": ["delivery"], "price": "$$", "location": {"address1": "59 Andrews Pkwy", "address2": "", "address3": "", "city": "Devens", "zip_code": "01434", "country": "US", "state": "MA", "display_address": ["59 Andrews Pkwy", "Devens, MA 01434"]}, "phone": "+19786151509", "display_phone": "(978) 615-1509", "distance": 201.74983520369827}, {"id": "y4caiKopfWsUw50wCGcQvw", "alias": "filhos-cucina-groton-2", "name": "Filho's Cucina", "image_url": "https://s3-media3.fl.yelpcdn.com/bphoto/iCBKeml6Mv7ii18mrN6Pdg/o.jpg", "is_closed": false, "url": "https://www.yelp.com/biz/filhos-cucina-groton-2?adjust_creative=h5HwbyQ0TYvQjBo6Ys5Bgw&utm_campaign=yelp_api_v3&utm_medium=api_v3_business_search&utm_source=h5HwbyQ0TYvQjBo6Ys5Bgw", "review_count": 220, "categories": [{"alias": "italian", "title": "Italian"}], "rating": 4.0, "coordinates": {"latitude": 42.6105, "longitude": -71.57446}, "transactions": ["delivery", "pickup"], "price": "$$", "location": {"address1": "235 Main St", "address2": "", "address3": "", "city": "Groton", "zip_code": "01450", "country": "US", "state": "MA", "display_address": ["235 Main St", "Groton, MA 01450"]}, "phone": "+19784485664", "display_phone": "(978) 448-5664", "distance": 8574.178256554856}, {"id": "UbKqwX9PFjdFQPVYAHsORg", "alias": "groton-station-house-restaurant-groton", "name": "Groton Station House Restaurant", "image_url": "https://s3-media3.fl.yelpcdn.com/bphoto/R18ur0wiSPV7my2SlvXj7A/o.jpg", "is_closed": false, "url": "https://www.yelp.com/biz/groton-station-house-restaurant-groton?adjust_creative=h5HwbyQ0TYvQjBo6Ys5Bgw&utm_campaign=yelp_api_v3&utm_medium=api_v3_business_search&utm_source=h5HwbyQ0TYvQjBo6Ys5Bgw", "review_count": 58, "categories": [{"alias": "salad", "title": "Salad"}, {"alias": "soup", "title": "Soup"}, {"alias": "cocktailbars", "title": "Cocktail Bars"}], "rating": 4.0, "coordinates": {"latitude": 42.60745, "longitude": -71.57235}, "transactions": ["delivery"], "price": "$$$", "location": {"address1": "20 Station Ave", "address2": null, "address3": "", "city": "Groton", "zip_code": "01450", "country": "US", "state": "MA", "display_address": ["20 Station Ave", "Groton, MA 01450"]}, "phone": "+19784484000", "display_phone": "(978) 448-4000", "distance": 8314.342064271254}, {"id": "9RG40oVNHorKWzttfSfdGQ", "alias": "sorrentos-brick-oven-pizzeria-harvard", "name": "Sorrento's Brick Oven Pizzeria", "image_url": "https://s3-media4.fl.yelpcdn.com/bphoto/qErO8bXXh8dcgY6hIydTYg/o.jpg", "is_closed": false, "url": "https://www.yelp.com/biz/sorrentos-brick-oven-pizzeria-harvard?adjust_creative=h5HwbyQ0TYvQjBo6Ys5Bgw&utm_campaign=yelp_api_v3&utm_medium=api_v3_business_search&utm_source=h5HwbyQ0TYvQjBo6Ys5Bgw", "review_count": 83, "categories": [{"alias": "pizza", "title": "Pizza"}, {"alias": "italian", "title": "Italian"}], "rating": 3.5, "coordinates": {"latitude": 42.5382642269497, "longitude": -71.5762989340076}, "transactions": ["delivery"], "price": "$$", "location": {"address1": "285 Ayer Rd", "address2": "", "address3": "", "city": "Harvard", "zip_code": "01451", "country": "US", "state": "MA", "display_address": ["285 Ayer Rd", "Harvard, MA 01451"]}, "phone": "+19787720025", "display_phone": "(978) 772-0025", "distance": 2726.5363435722875}, {"id": "v8fjU6o2_IExHU7HZ--49A", "alias": "alltown-fresh-ayer", "name": "Alltown Fresh", "image_url": "https://s3-media2.fl.yelpcdn.com/bphoto/B3MyVIqVSFXxcBfHrDk7SQ/o.jpg", "is_closed": false, "url": "https://www.yelp.com/biz/alltown-fresh-ayer?adjust_creative=h5HwbyQ0TYvQjBo6Ys5Bgw&utm_campaign=yelp_api_v3&utm_medium=api_v3_business_search&utm_source=h5HwbyQ0TYvQjBo6Ys5Bgw", "review_count": 1, "categories": [{"alias": "coffee", "title": "Coffee & Tea"}, {"alias": "juicebars", "title": "Juice Bars & Smoothies"}, {"alias": "sandwiches", "title": "Sandwiches"}], "rating": 4.0, "coordinates": {"latitude": 42.5493, "longitude": -71.57109}, "transactions": ["delivery", "pickup"], "location": {"address1": "28 Harvard Rd", "address2": "", "address3": null, "city": "Ayer", "zip_code": "01432", "country": "US", "state": "MA", "display_address": ["28 Harvard Rd", "Ayer, MA 01432"]}, "phone": "+19787572050", "display_phone": "(978) 757-2050", "distance": 3399.2673232758925}, {"id": "DeUbynbRLwMS4PrKHt6OtQ", "alias": "groton-publick-house-groton", "name": "Groton Publick House", "image_url": "https://s3-media4.fl.yelpcdn.com/bphoto/HK25aGuAW60be0EvxqV2PQ/o.jpg", "is_closed": false, "url": "https://www.yelp.com/biz/groton-publick-house-groton?adjust_creative=h5HwbyQ0TYvQjBo6Ys5Bgw&utm_campaign=yelp_api_v3&utm_medium=api_v3_business_search&utm_source=h5HwbyQ0TYvQjBo6Ys5Bgw", "review_count": 40, "categories": [{"alias": "pubs", "title": "Pubs"}, {"alias": "newamerican", "title": "American (New)"}], "rating": 3.5, "coordinates": {"latitude": 42.6014087, "longitude": -71.5577606}, "transactions": [], "location": {"address1": "94 Lovers Ln", "address2": "", "address3": null, "city": "Groton", "zip_code": "01450", "country": "US", "state": "MA", "display_address": ["94 Lovers Ln", "Groton, MA 01450"]}, "phone": "+19788428058", "display_phone": "(978) 842-8058", "distance": 8249.142611590893}, {"id": "3K1XGpMDNYutNqsNEunR5w", "alias": "nashoba-club-pizza-restaurant-ayer", "name": "Nashoba Club Pizza Restaurant", "image_url": "https://s3-media2.fl.yelpcdn.com/bphoto/URHCNbKh2nClB4AALpRJBQ/o.jpg", "is_closed": false, "url": "https://www.yelp.com/biz/nashoba-club-pizza-restaurant-ayer?adjust_creative=h5HwbyQ0TYvQjBo6Ys5Bgw&utm_campaign=yelp_api_v3&utm_medium=api_v3_business_search&utm_source=h5HwbyQ0TYvQjBo6Ys5Bgw", "review_count": 58, "categories": [{"alias": "pizza", "title": "Pizza"}], "rating": 4.0, "coordinates": {"latitude": 42.5597, "longitude": -71.58481}, "transactions": ["delivery", "pickup"], "price": "$$", "location": {"address1": "14 Central Ave", "address2": "", "address3": "", "city": "Ayer", "zip_code": "01432", "country": "US", "state": "MA", "display_address": ["14 Central Ave", "Ayer, MA 01432"]}, "phone": "+19787722736", "display_phone": "(978) 772-2736", "distance": 3153.775374139968}, {"id": "3BiIgVnPbhnmftq2nsfr3w", "alias": "piccolinos-restaurant-shirley", "name": "Piccolino's Restaurant", "image_url": "https://s3-media1.fl.yelpcdn.com/bphoto/hSfwtGO0XJ88xr8mj5vXVw/o.jpg", "is_closed": false, "url": "https://www.yelp.com/biz/piccolinos-restaurant-shirley?adjust_creative=h5HwbyQ0TYvQjBo6Ys5Bgw&utm_campaign=yelp_api_v3&utm_medium=api_v3_business_search&utm_source=h5HwbyQ0TYvQjBo6Ys5Bgw", "review_count": 33, "categories": [{"alias": "italian", "title": "Italian"}], "rating": 3.0, "coordinates": {"latitude": 42.54401, "longitude": -71.65192}, "transactions": ["delivery"], "price": "$$", "location": {"address1": "4 Mill St", "address2": "", "address3": "", "city": "Shirley", "zip_code": "01464", "country": "US", "state": "MA", "display_address": ["4 Mill St", "Shirley, MA 01464"]}, "phone": "+19784259000", "display_phone": "(978) 425-9000", "distance": 3532.028114303477}, {"id": "MBtHXsIWVuaTB9SkO6BZXg", "alias": "the-phoenix-bar-and-grill-shirley", "name": "The Phoenix Bar and Grill", "image_url": "https://s3-media2.fl.yelpcdn.com/bphoto/gvyUHeoodh7h55Kjaoddaw/o.jpg", "is_closed": false, "url": "https://www.yelp.com/biz/the-phoenix-bar-and-grill-shirley?adjust_creative=h5HwbyQ0TYvQjBo6Ys5Bgw&utm_campaign=yelp_api_v3&utm_medium=api_v3_business_search&utm_source=h5HwbyQ0TYvQjBo6Ys5Bgw", "review_count": 40, "categories": [{"alias": "tradamerican", "title": "American (Traditional)"}], "rating": 3.5, "coordinates": {"latitude": 42.544955, "longitude": -71.652758}, "transactions": ["delivery", "pickup"], "price": "$$", "location": {"address1": "4 Ayer Rd", "address2": "", "address3": "", "city": "Shirley", "zip_code": "01464", "country": "US", "state": "MA", "display_address": ["4 Ayer Rd", "Shirley, MA 01464"]}, "phone": "+19784254835", "display_phone": "(978) 425-4835", "distance": 3630.874028169809}, {"id": "aOr6q6RyWWNGqOi0kiRo-Q", "alias": "wok-n-roll-ayer", "name": "Wok n' Roll", "image_url": "https://s3-media4.fl.yelpcdn.com/bphoto/QfASq1enTQCxxVMfg6iTRA/o.jpg", "is_closed": false, "url": "https://www.yelp.com/biz/wok-n-roll-ayer?adjust_creative=h5HwbyQ0TYvQjBo6Ys5Bgw&utm_campaign=yelp_api_v3&utm_medium=api_v3_business_search&utm_source=h5HwbyQ0TYvQjBo6Ys5Bgw", "review_count": 45, "categories": [{"alias": "chinese", "title": "Chinese"}, {"alias": "japanese", "title": "Japanese"}], "rating": 3.0, "coordinates": {"latitude": 42.56384, "longitude": -71.59079}, "transactions": [], "price": "$", "location": {"address1": "49 Park St", "address2": "", "address3": "", "city": "Ayer", "zip_code": "01432", "country": "US", "state": "MA", "display_address": ["49 Park St", "Ayer, MA 01432"]}, "phone": "+19787724526", "display_phone": "(978) 772-4526", "distance": 3266.817896953097}, {"id": "LkQK9JZZV6P8x1MC2Ax02Q", "alias": "kimball-farm-grill-and-seafood-shack-lancaster", "name": "Kimball Farm Grill & Seafood Shack", "image_url": "https://s3-media2.fl.yelpcdn.com/bphoto/SocFC3G5GHUgp5mkbUy2QQ/o.jpg", "is_closed": false, "url": "https://www.yelp.com/biz/kimball-farm-grill-and-seafood-shack-lancaster?adjust_creative=h5HwbyQ0TYvQjBo6Ys5Bgw&utm_campaign=yelp_api_v3&utm_medium=api_v3_business_search&utm_source=h5HwbyQ0TYvQjBo6Ys5Bgw", "review_count": 19, "categories": [{"alias": "seafood", "title": "Seafood"}], "rating": 3.5, "coordinates": {"latitude": 42.5068321228027, "longitude": -71.6903991699219}, "transactions": [], "price": "$$", "location": {"address1": "1543 Lunenburg Rd", "address2": "", "address3": "", "city": "Lancaster", "zip_code": "01523", "country": "US", "state": "MA", "display_address": ["1543 Lunenburg Rd", "Lancaster, MA 01523"]}, "phone": "+19785349800", "display_phone": "(978) 534-9800", "distance": 7574.151049121781}, {"id": "Sg926ap_SnbnEeKAMrQo3g", "alias": "village-pizza-shirley", "name": "Village Pizza", "image_url": "https://s3-media2.fl.yelpcdn.com/bphoto/4T0rSY4bDPfKCBc9nlPWAQ/o.jpg", "is_closed": false, "url": "https://www.yelp.com/biz/village-pizza-shirley?adjust_creative=h5HwbyQ0TYvQjBo6Ys5Bgw&utm_campaign=yelp_api_v3&utm_medium=api_v3_business_search&utm_source=h5HwbyQ0TYvQjBo6Ys5Bgw", "review_count": 20, "categories": [{"alias": "pizza", "title": "Pizza"}], "rating": 4.5, "coordinates": {"latitude": 42.544506100866, "longitude": -71.6552098288051}, "transactions": ["delivery"], "price": "$", "location": {"address1": "1 Front St", "address2": "", "address3": "", "city": "Shirley", "zip_code": "01464", "country": "US", "state": "MA", "display_address": ["1 Front St", "Shirley, MA 01464"]}, "phone": "+19784259502", "display_phone": "(978) 425-9502", "distance": 3810.514576484311}, {"id": "M7XG8259yfQ9GcsySDs81Q", "alias": "devens-pizza-and-deli-ayer", "name": "Devens Pizza & Deli", "image_url": "https://s3-media4.fl.yelpcdn.com/bphoto/5uxXPwy1W3uIb0lC6z4aUw/o.jpg", "is_closed": false, "url": "https://www.yelp.com/biz/devens-pizza-and-deli-ayer?adjust_creative=h5HwbyQ0TYvQjBo6Ys5Bgw&utm_campaign=yelp_api_v3&utm_medium=api_v3_business_search&utm_source=h5HwbyQ0TYvQjBo6Ys5Bgw", "review_count": 23, "categories": [{"alias": "pizza", "title": "Pizza"}, {"alias": "delis", "title": "Delis"}], "rating": 3.5, "coordinates": {"latitude": 42.5537623, "longitude": -71.6064692}, "transactions": ["delivery"], "price": "$", "location": {"address1": "220 W Main St", "address2": "", "address3": "", "city": "Ayer", "zip_code": "01432", "country": "US", "state": "MA", "display_address": ["220 W Main St", "Ayer, MA 01432"]}, "phone": "+19787722997", "display_phone": "(978) 772-2997", "distance": 1862.34659490224}, {"id": "0TW5h1N39ykfvzDozzTnPQ", "alias": "country-butcher-and-deli-groton", "name": "Country Butcher and Deli", "image_url": "https://s3-media3.fl.yelpcdn.com/bphoto/hGlOBj6oVh1RCE_RR4c83A/o.jpg", "is_closed": false, "url": "https://www.yelp.com/biz/country-butcher-and-deli-groton?adjust_creative=h5HwbyQ0TYvQjBo6Ys5Bgw&utm_campaign=yelp_api_v3&utm_medium=api_v3_business_search&utm_source=h5HwbyQ0TYvQjBo6Ys5Bgw", "review_count": 35, "categories": [{"alias": "delis", "title": "Delis"}, {"alias": "butcher", "title": "Butcher"}], "rating": 4.5, "coordinates": {"latitude": 42.597508, "longitude": -71.5628559}, "transactions": ["delivery"], "price": "$$", "location": {"address1": "68 Boston Rd", "address2": "", "address3": "", "city": "Groton", "zip_code": "01450", "country": "US", "state": "MA", "display_address": ["68 Boston Rd", "Groton, MA 01450"]}, "phone": "+19784489300", "display_phone": "(978) 448-9300", "distance": 7647.745889857594}, {"id": "LwB6c6UC-P5GVX3Vs9KmJg", "alias": "harvard-general-store-harvard", "name": "Harvard General Store", "image_url": "https://s3-media2.fl.yelpcdn.com/bphoto/EhaRdLz8I2-e3weg7tF_Zw/o.jpg", "is_closed": false, "url": "https://www.yelp.com/biz/harvard-general-store-harvard?adjust_creative=h5HwbyQ0TYvQjBo6Ys5Bgw&utm_campaign=yelp_api_v3&utm_medium=api_v3_business_search&utm_source=h5HwbyQ0TYvQjBo6Ys5Bgw", "review_count": 66, "categories": [{"alias": "coffee", "title": "Coffee & Tea"}, {"alias": "beer_and_wine", "title": "Beer, Wine & Spirits"}, {"alias": "cafes", "title": "Cafes"}], "rating": 4.0, "coordinates": {"latitude": 42.500545, "longitude": -71.583819}, "transactions": ["delivery"], "price": "$$", "location": {"address1": "1 Still River Rd", "address2": "", "address3": "", "city": "Harvard", "zip_code": "01451", "country": "US", "state": "MA", "display_address": ["1 Still River Rd", "Harvard, MA 01451"]}, "phone": "+19784300062", "display_phone": "(978) 430-0062", "distance": 4658.45526717168}, {"id": "c7fXcHOW6vQksqRdw3xBLA", "alias": "the-cottage-ayer-2", "name": "The Cottage", "image_url": "https://s3-media4.fl.yelpcdn.com/bphoto/fM3PmJfDYRNJmwpf5olzPw/o.jpg", "is_closed": false, "url": "https://www.yelp.com/biz/the-cottage-ayer-2?adjust_creative=h5HwbyQ0TYvQjBo6Ys5Bgw&utm_campaign=yelp_api_v3&utm_medium=api_v3_business_search&utm_source=h5HwbyQ0TYvQjBo6Ys5Bgw", "review_count": 40, "categories": [{"alias": "pizza", "title": "Pizza"}, {"alias": "sandwiches", "title": "Sandwiches"}, {"alias": "burgers", "title": "Burgers"}], "rating": 3.5, "coordinates": {"latitude": 42.55933, "longitude": -71.5878}, "transactions": ["delivery"], "price": "$", "location": {"address1": "18 Main St", "address2": "", "address3": "", "city": "Ayer", "zip_code": "01432", "country": "US", "state": "MA", "display_address": ["18 Main St", "Ayer, MA 01432"]}, "phone": "+19787722565", "display_phone": "(978) 772-2565", "distance": 2973.629176484712}, {"id": "hfSzMFBltglRnxUXnyzmfw", "alias": "salt-and-light-cafe-bistro-groton", "name": "Salt & Light Cafe Bistro", "image_url": "https://s3-media2.fl.yelpcdn.com/bphoto/MZXIQ7v7IQW5Y5enRS8bmA/o.jpg", "is_closed": false, "url": "https://www.yelp.com/biz/salt-and-light-cafe-bistro-groton?adjust_creative=h5HwbyQ0TYvQjBo6Ys5Bgw&utm_campaign=yelp_api_v3&utm_medium=api_v3_business_search&utm_source=h5HwbyQ0TYvQjBo6Ys5Bgw", "review_count": 145, "categories": [{"alias": "cafes", "title": "Cafes"}, {"alias": "newamerican", "title": "American (New)"}, {"alias": "breakfast_brunch", "title": "Breakfast & Brunch"}], "rating": 4.5, "coordinates": {"latitude": 42.607523, "longitude": -71.57056}, "transactions": ["delivery", "pickup"], "price": "$$", "location": {"address1": "159 Main St", "address2": null, "address3": "", "city": "Groton", "zip_code": "01450", "country": "US", "state": "MA", "display_address": ["159 Main St", "Groton, MA 01450"]}, "phone": "+19784489634", "display_phone": "(978) 448-9634", "distance": 8375.74346661846}, {"id": "xCUXkpRdAQHEQ5-j2zMXcw", "alias": "westward-orchards-harvard-2", "name": "Westward Orchards", "image_url": "https://s3-media1.fl.yelpcdn.com/bphoto/KF3qJldrBvxWkeVUIRLu2g/o.jpg", "is_closed": false, "url": "https://www.yelp.com/biz/westward-orchards-harvard-2?adjust_creative=h5HwbyQ0TYvQjBo6Ys5Bgw&utm_campaign=yelp_api_v3&utm_medium=api_v3_business_search&utm_source=h5HwbyQ0TYvQjBo6Ys5Bgw", "review_count": 17, "categories": [{"alias": "markets", "title": "Fruits & Veggies"}, {"alias": "breakfast_brunch", "title": "Breakfast & Brunch"}], "rating": 4.0, "coordinates": {"latitude": 42.4937076, "longitude": -71.5608527}, "transactions": [], "price": "$", "location": {"address1": "178 Mass Ave", "address2": null, "address3": null, "city": "Harvard", "zip_code": "01451", "country": "US", "state": "MA", "display_address": ["178 Mass Ave", "Harvard, MA 01451"]}, "phone": "+19784568363", "display_phone": "(978) 456-8363", "distance": 6331.207873272374}, {"id": "oqgkyT9y6NtrRl2ZAZJDIg", "alias": "ixtapa-mexican-grill-and-cantina-groton", "name": "Ixtapa Mexican Grill & Cantina", "image_url": "https://s3-media1.fl.yelpcdn.com/bphoto/PlGCPrTBrr168U0hUfmAPA/o.jpg", "is_closed": false, "url": "https://www.yelp.com/biz/ixtapa-mexican-grill-and-cantina-groton?adjust_creative=h5HwbyQ0TYvQjBo6Ys5Bgw&utm_campaign=yelp_api_v3&utm_medium=api_v3_business_search&utm_source=h5HwbyQ0TYvQjBo6Ys5Bgw", "review_count": 108, "categories": [{"alias": "mexican", "title": "Mexican"}], "rating": 3.0, "coordinates": {"latitude": 42.579971, "longitude": -71.52147}, "transactions": ["delivery"], "price": "$$", "location": {"address1": "765 Boston Rd", "address2": "", "address3": "", "city": "Groton", "zip_code": "01450", "country": "US", "state": "MA", "display_address": ["765 Boston Rd", "Groton, MA 01450"]}, "phone": "+19782721465", "display_phone": "(978) 272-1465", "distance": 8600.195731949354}, {"id": "FyrBt7vKNJcCliLBCF649g", "alias": "tinys-restaurant-ayer", "name": "Tiny's Restaurant", "image_url": "https://s3-media1.fl.yelpcdn.com/bphoto/WubiYGm2_fn4tzQM4Xgz5Q/o.jpg", "is_closed": false, "url": "https://www.yelp.com/biz/tinys-restaurant-ayer?adjust_creative=h5HwbyQ0TYvQjBo6Ys5Bgw&utm_campaign=yelp_api_v3&utm_medium=api_v3_business_search&utm_source=h5HwbyQ0TYvQjBo6Ys5Bgw", "review_count": 101, "categories": [{"alias": "diners", "title": "Diners"}, {"alias": "breakfast_brunch", "title": "Breakfast & Brunch"}, {"alias": "sandwiches", "title": "Sandwiches"}], "rating": 3.5, "coordinates": {"latitude": 42.5693589, "longitude": -71.5929924}, "transactions": ["delivery"], "price": "$", "location": {"address1": "2 Groton School Rd", "address2": "", "address3": "", "city": "Ayer", "zip_code": "01432", "country": "US", "state": "MA", "display_address": ["2 Groton School Rd", "Ayer, MA 01432"]}, "phone": "+19787722917", "display_phone": "(978) 772-2917", "distance": 3753.2671701019967}, {"id": "azpEJXSbMAw9bXfSKA_N6g", "alias": "minuteman-lounge-boxborough", "name": "Minuteman Lounge", "image_url": "https://s3-media2.fl.yelpcdn.com/bphoto/AMpMWRA6LxLYdT7ea6x-hw/o.jpg", "is_closed": false, "url": "https://www.yelp.com/biz/minuteman-lounge-boxborough?adjust_creative=h5HwbyQ0TYvQjBo6Ys5Bgw&utm_campaign=yelp_api_v3&utm_medium=api_v3_business_search&utm_source=h5HwbyQ0TYvQjBo6Ys5Bgw", "review_count": 11, "categories": [{"alias": "lounges", "title": "Lounges"}, {"alias": "burgers", "title": "Burgers"}, {"alias": "buffets", "title": "Buffets"}], "rating": 3.0, "coordinates": {"latitude": 42.4816166571658, "longitude": -71.5454085765636}, "transactions": [], "price": "$$", "location": {"address1": "242 Adams Pl", "address2": "", "address3": "", "city": "Boxborough", "zip_code": "01719", "country": "US", "state": "MA", "display_address": ["242 Adams Pl", "Boxborough, MA 01719"]}, "phone": "+19782638701", "display_phone": "(978) 263-8701", "distance": 8174.317195234507}, {"id": "To5rOKAoIYtPXH6Nhc_7kg", "alias": "lazy-marys-ayer", "name": "Lazy Mary's", "image_url": "https://s3-media1.fl.yelpcdn.com/bphoto/vrUFXnnd3VkhhmY9fsq0kw/o.jpg", "is_closed": false, "url": "https://www.yelp.com/biz/lazy-marys-ayer?adjust_creative=h5HwbyQ0TYvQjBo6Ys5Bgw&utm_campaign=yelp_api_v3&utm_medium=api_v3_business_search&utm_source=h5HwbyQ0TYvQjBo6Ys5Bgw", "review_count": 60, "categories": [{"alias": "pizza", "title": "Pizza"}, {"alias": "delis", "title": "Delis"}, {"alias": "bakeries", "title": "Bakeries"}], "rating": 2.5, "coordinates": {"latitude": 42.552406, "longitude": -71.567604}, "transactions": ["delivery"], "price": "$$", "location": {"address1": "30 Littleton Rd", "address2": "", "address3": "", "city": "Ayer", "zip_code": "01432", "country": "US", "state": "MA", "display_address": ["30 Littleton Rd", "Ayer, MA 01432"]}, "phone": "+19787727600", "display_phone": "(978) 772-7600", "distance": 3798.23231756639}, {"id": "KPThmwPJc6I97WKbgcyXig", "alias": "karyns-kitchen-ayer", "name": "Karyn's Kitchen", "image_url": "https://s3-media1.fl.yelpcdn.com/bphoto/B8eehPh5qylT8QWPom1fKA/o.jpg", "is_closed": false, "url": "https://www.yelp.com/biz/karyns-kitchen-ayer?adjust_creative=h5HwbyQ0TYvQjBo6Ys5Bgw&utm_campaign=yelp_api_v3&utm_medium=api_v3_business_search&utm_source=h5HwbyQ0TYvQjBo6Ys5Bgw", "review_count": 36, "categories": [{"alias": "breakfast_brunch", "title": "Breakfast & Brunch"}, {"alias": "coffee", "title": "Coffee & Tea"}], "rating": 3.5, "coordinates": {"latitude": 42.5549899, "longitude": -71.6044}, "transactions": ["delivery"], "price": "$", "location": {"address1": "200 W Main St", "address2": "", "address3": "", "city": "Ayer", "zip_code": "01432", "country": "US", "state": "MA", "display_address": ["200 W Main St", "Ayer, MA 01432"]}, "phone": "+19787726953", "display_phone": "(978) 772-6953", "distance": 1909.2181508191418}, {"id": "F4d71koRxe3yE-B-xLApEQ", "alias": "junction-rpd-ayer", "name": "Junction RPD", "image_url": "https://s3-media1.fl.yelpcdn.com/bphoto/H2AONTVIZuccpDFblVn16A/o.jpg", "is_closed": false, "url": "https://www.yelp.com/biz/junction-rpd-ayer?adjust_creative=h5HwbyQ0TYvQjBo6Ys5Bgw&utm_campaign=yelp_api_v3&utm_medium=api_v3_business_search&utm_source=h5HwbyQ0TYvQjBo6Ys5Bgw", "review_count": 6, "categories": [{"alias": "pizza", "title": "Pizza"}], "rating": 3.0, "coordinates": {"latitude": 42.560131, "longitude": -71.592976}, "transactions": ["delivery"], "location": {"address1": "60 W Main St", "address2": "", "address3": null, "city": "Ayer", "zip_code": "01432", "country": "US", "state": "MA", "display_address": ["60 W Main St", "Ayer, MA 01432"]}, "phone": "+19787725200", "display_phone": "(978) 772-5200", "distance": 2818.8056282607918}, {"id": "fjL7kT3zsEkjeTuDsORv7w", "alias": "shirley-sub-shoppe-shirley-2", "name": "Shirley Sub Shoppe", "image_url": "https://s3-media1.fl.yelpcdn.com/bphoto/upJnNxh_evc-4CBoXtndtw/o.jpg", "is_closed": false, "url": "https://www.yelp.com/biz/shirley-sub-shoppe-shirley-2?adjust_creative=h5HwbyQ0TYvQjBo6Ys5Bgw&utm_campaign=yelp_api_v3&utm_medium=api_v3_business_search&utm_source=h5HwbyQ0TYvQjBo6Ys5Bgw", "review_count": 24, "categories": [{"alias": "pizza", "title": "Pizza"}, {"alias": "burgers", "title": "Burgers"}, {"alias": "sandwiches", "title": "Sandwiches"}], "rating": 3.0, "coordinates": {"latitude": 42.544054189955, "longitude": -71.6532350331545}, "transactions": ["delivery", "pickup"], "price": "$$", "location": {"address1": "1 Front St", "address2": "", "address3": null, "city": "Shirley", "zip_code": "01464", "country": "US", "state": "MA", "display_address": ["1 Front St", "Shirley, MA 01464"]}, "phone": "+19784255436", "display_phone": "(978) 425-5436", "distance": 3642.1260159989147}, {"id": "OXLHeEg1sotGepnK06ZQTQ", "alias": "airport-diner-shirley-shirley", "name": "Airport Diner Shirley", "image_url": "https://s3-media2.fl.yelpcdn.com/bphoto/h3l_tohxv3i_4Xpl7xCfgg/o.jpg", "is_closed": false, "url": "https://www.yelp.com/biz/airport-diner-shirley-shirley?adjust_creative=h5HwbyQ0TYvQjBo6Ys5Bgw&utm_campaign=yelp_api_v3&utm_medium=api_v3_business_search&utm_source=h5HwbyQ0TYvQjBo6Ys5Bgw", "review_count": 23, "categories": [{"alias": "diners", "title": "Diners"}], "rating": 3.5, "coordinates": {"latitude": 42.5314223550833, "longitude": -71.6651258512998}, "transactions": ["delivery", "pickup"], "price": "$", "location": {"address1": "108 Lancaster Rd", "address2": "", "address3": "", "city": "Shirley", "zip_code": "01464", "country": "US", "state": "MA", "display_address": ["108 Lancaster Rd", "Shirley, MA 01464"]}, "phone": "+19784250708", "display_phone": "(978) 425-0708", "distance": 4620.382749433754}, {"id": "VARH-Wum9FjYPzWJYpMTtQ", "alias": "verona-pizza-and-seafood-ayer", "name": "Verona Pizza & Seafood", "image_url": "https://s3-media1.fl.yelpcdn.com/bphoto/ZMtox9NqmUH5MvLpnzHzoQ/o.jpg", "is_closed": false, "url": "https://www.yelp.com/biz/verona-pizza-and-seafood-ayer?adjust_creative=h5HwbyQ0TYvQjBo6Ys5Bgw&utm_campaign=yelp_api_v3&utm_medium=api_v3_business_search&utm_source=h5HwbyQ0TYvQjBo6Ys5Bgw", "review_count": 31, "categories": [{"alias": "pizza", "title": "Pizza"}], "rating": 3.0, "coordinates": {"latitude": 42.561255208883, "longitude": -71.5904309596677}, "transactions": ["delivery"], "price": "$", "location": {"address1": "18 Park St", "address2": "", "address3": "", "city": "Ayer", "zip_code": "01432", "country": "US", "state": "MA", "display_address": ["18 Park St", "Ayer, MA 01432"]}, "phone": "+19787722444", "display_phone": "(978) 772-2444", "distance": 3059.4752299747593}, {"id": "YdqVHbM3-BjxlVAiqnFwTQ", "alias": "bravo-pizza-boxborough", "name": "Bravo Pizza", "image_url": "https://s3-media4.fl.yelpcdn.com/bphoto/EE3zwF9R0kXh9WjHW5dcEw/o.jpg", "is_closed": false, "url": "https://www.yelp.com/biz/bravo-pizza-boxborough?adjust_creative=h5HwbyQ0TYvQjBo6Ys5Bgw&utm_campaign=yelp_api_v3&utm_medium=api_v3_business_search&utm_source=h5HwbyQ0TYvQjBo6Ys5Bgw", "review_count": 34, "categories": [{"alias": "pizza", "title": "Pizza"}, {"alias": "salad", "title": "Salad"}, {"alias": "bbq", "title": "Barbeque"}], "rating": 4.0, "coordinates": {"latitude": 42.4854095, "longitude": -71.5327093}, "transactions": ["delivery"], "price": "$", "location": {"address1": "1233 Massachusetts Ave Rte 111", "address2": "", "address3": "", "city": "Boxborough", "zip_code": "01719", "country": "US", "state": "MA", "display_address": ["1233 Massachusetts Ave Rte 111", "Boxborough, MA 01719"]}, "phone": "+19786350637", "display_phone": "(978) 635-0637", "distance": 8587.779638795426}, {"id": "1ntOwwqIkgMcid8St7dKTA", "alias": "subway-ayer-3", "name": "Subway", "image_url": "https://s3-media2.fl.yelpcdn.com/bphoto/UDyyzK1U-Sy9QfNfqN2Nmg/o.jpg", "is_closed": false, "url": "https://www.yelp.com/biz/subway-ayer-3?adjust_creative=h5HwbyQ0TYvQjBo6Ys5Bgw&utm_campaign=yelp_api_v3&utm_medium=api_v3_business_search&utm_source=h5HwbyQ0TYvQjBo6Ys5Bgw", "review_count": 8, "categories": [{"alias": "sandwiches", "title": "Sandwiches"}], "rating": 3.0, "coordinates": {"latitude": 42.5599578518872, "longitude": -71.5905098699579}, "transactions": [], "price": "$", "location": {"address1": "1 Mill St", "address2": "", "address3": "", "city": "Ayer", "zip_code": "01432", "country": "US", "state": "MA", "display_address": ["1 Mill St", "Ayer, MA 01432"]}, "phone": "+19787965397", "display_phone": "(978) 796-5397", "distance": 2908.3801421701064}, {"id": "gQJabSdqDPkCd29cY6eIWw", "alias": "taco-bell-ayer", "name": "Taco Bell", "image_url": "https://s3-media2.fl.yelpcdn.com/bphoto/MRxPJ7c8lvKQyccqFXr5rA/o.jpg", "is_closed": false, "url": "https://www.yelp.com/biz/taco-bell-ayer?adjust_creative=h5HwbyQ0TYvQjBo6Ys5Bgw&utm_campaign=yelp_api_v3&utm_medium=api_v3_business_search&utm_source=h5HwbyQ0TYvQjBo6Ys5Bgw", "review_count": 17, "categories": [{"alias": "tacos", "title": "Tacos"}, {"alias": "breakfast_brunch", "title": "Breakfast & Brunch"}], "rating": 2.5, "coordinates": {"latitude": 42.5540427, "longitude": -71.571142}, "transactions": ["delivery"], "price": "$", "location": {"address1": "4 Sandy Pond Rd", "address2": "", "address3": "", "city": "Ayer", "zip_code": "01432", "country": "US", "state": "MA", "display_address": ["4 Sandy Pond Rd", "Ayer, MA 01432"]}, "phone": "", "display_phone": "", "distance": 3624.5083497179457}, {"id": "Ql1eg922BG8-JVp_zDFwcg", "alias": "wendys-ayer", "name": "Wendy's", "image_url": "https://s3-media4.fl.yelpcdn.com/bphoto/wAjGnnpCn4HgozlOKY8EUQ/o.jpg", "is_closed": false, "url": "https://www.yelp.com/biz/wendys-ayer?adjust_creative=h5HwbyQ0TYvQjBo6Ys5Bgw&utm_campaign=yelp_api_v3&utm_medium=api_v3_business_search&utm_source=h5HwbyQ0TYvQjBo6Ys5Bgw", "review_count": 31, "categories": [{"alias": "hotdogs", "title": "Fast Food"}, {"alias": "burgers", "title": "Burgers"}], "rating": 1.5, "coordinates": {"latitude": 42.552204, "longitude": -71.572774}, "transactions": ["delivery"], "price": "$", "location": {"address1": "2 Barnum Rd", "address2": "", "address3": "", "city": "Ayer", "zip_code": "01432", "country": "US", "state": "MA", "display_address": ["2 Barnum Rd", "Ayer, MA 01432"]}, "phone": "+19787725650", "display_phone": "(978) 772-5650", "distance": 3398.839687800393}, {"id": "qFWXdPiBvFxapeagaYwi7w", "alias": "nancys-air-field-cafe-stow", "name": "Nancy's Air Field Cafe", "image_url": "https://s3-media3.fl.yelpcdn.com/bphoto/ZjNA6EYlmRO9LmnqZ-CMAA/o.jpg", "is_closed": false, "url": "https://www.yelp.com/biz/nancys-air-field-cafe-stow?adjust_creative=h5HwbyQ0TYvQjBo6Ys5Bgw&utm_campaign=yelp_api_v3&utm_medium=api_v3_business_search&utm_source=h5HwbyQ0TYvQjBo6Ys5Bgw", "review_count": 173, "categories": [{"alias": "breakfast_brunch", "title": "Breakfast & Brunch"}, {"alias": "tradamerican", "title": "American (Traditional)"}, {"alias": "pizza", "title": "Pizza"}], "rating": 3.5, "coordinates": {"latitude": 42.462117, "longitude": -71.516988}, "transactions": [], "price": "$$", "location": {"address1": "302 Boxboro Rd", "address2": "", "address3": "", "city": "Stow", "zip_code": "01775", "country": "US", "state": "MA", "display_address": ["302 Boxboro Rd", "Stow, MA 01775"]}, "phone": "+19788973934", "display_phone": "(978) 897-3934", "distance": 11340.496024539581}, {"id": "J3Jk5A1TnFeKf2SGNrZLrw", "alias": "brunos-pizza-groton", "name": "Bruno's Pizza", "image_url": "https://s3-media1.fl.yelpcdn.com/bphoto/XbF1z2l09ESUySya1K6rmg/o.jpg", "is_closed": false, "url": "https://www.yelp.com/biz/brunos-pizza-groton?adjust_creative=h5HwbyQ0TYvQjBo6Ys5Bgw&utm_campaign=yelp_api_v3&utm_medium=api_v3_business_search&utm_source=h5HwbyQ0TYvQjBo6Ys5Bgw", "review_count": 45, "categories": [{"alias": "pizza", "title": "Pizza"}, {"alias": "salad", "title": "Salad"}, {"alias": "sandwiches", "title": "Sandwiches"}], "rating": 3.5, "coordinates": {"latitude": 42.608847, "longitude": -71.57251}, "transactions": ["delivery"], "price": "$$", "location": {"address1": "195 Main St", "address2": "", "address3": "", "city": "Groton", "zip_code": "01450", "country": "US", "state": "MA", "display_address": ["195 Main St", "Groton, MA 01450"]}, "phone": "+19784485959", "display_phone": "(978) 448-5959", "distance": 8456.157806958998}, {"id": "zqxHL7OtsV0oigMSIEMLzA", "alias": "groton-house-of-pizza-groton", "name": "Groton House of Pizza", "image_url": "https://s3-media2.fl.yelpcdn.com/bphoto/Ksn61NM08qksXL-cxS32pA/o.jpg", "is_closed": false, "url": "https://www.yelp.com/biz/groton-house-of-pizza-groton?adjust_creative=h5HwbyQ0TYvQjBo6Ys5Bgw&utm_campaign=yelp_api_v3&utm_medium=api_v3_business_search&utm_source=h5HwbyQ0TYvQjBo6Ys5Bgw", "review_count": 17, "categories": [{"alias": "pizza", "title": "Pizza"}], "rating": 3.0, "coordinates": {"latitude": 42.606374252512, "longitude": -71.56921261825}, "transactions": [], "price": "$", "location": {"address1": "129 Main St", "address2": "", "address3": "", "city": "Groton", "zip_code": "01450", "country": "US", "state": "MA", "display_address": ["129 Main St", "Groton, MA 01450"]}, "phone": "+19784482411", "display_phone": "(978) 448-2411", "distance": 8301.127757211398}, {"id": "04xrcLxkys_iFIlHDfegug", "alias": "kimball-farm-country-store-and-cafe-lancaster", "name": "Kimball Farm Country Store and Cafe", "image_url": "https://s3-media1.fl.yelpcdn.com/bphoto/x-2K_AyPaTvpfDzE_UjOkw/o.jpg", "is_closed": false, "url": "https://www.yelp.com/biz/kimball-farm-country-store-and-cafe-lancaster?adjust_creative=h5HwbyQ0TYvQjBo6Ys5Bgw&utm_campaign=yelp_api_v3&utm_medium=api_v3_business_search&utm_source=h5HwbyQ0TYvQjBo6Ys5Bgw", "review_count": 5, "categories": [{"alias": "cafes", "title": "Cafes"}, {"alias": "giftshops", "title": "Gift Shops"}, {"alias": "gourmet", "title": "Specialty Food"}], "rating": 2.5, "coordinates": {"latitude": 42.5068321228027, "longitude": -71.6903991699219}, "transactions": [], "price": "$$", "location": {"address1": "1543 Lunenburg Rd", "address2": "", "address3": "", "city": "Lancaster", "zip_code": "01523", "country": "US", "state": "MA", "display_address": ["1543 Lunenburg Rd", "Lancaster, MA 01523"]}, "phone": "+19785349800", "display_phone": "(978) 534-9800", "distance": 7574.151049121781}, {"id": "aYJHYl5zvQ73u82AlwGlBg", "alias": "rouxs-market-shirley", "name": "Roux's Market", "image_url": "https://s3-media2.fl.yelpcdn.com/bphoto/yyIeae0vVdMDB1okYZHgrQ/o.jpg", "is_closed": false, "url": "https://www.yelp.com/biz/rouxs-market-shirley?adjust_creative=h5HwbyQ0TYvQjBo6Ys5Bgw&utm_campaign=yelp_api_v3&utm_medium=api_v3_business_search&utm_source=h5HwbyQ0TYvQjBo6Ys5Bgw", "review_count": 4, "categories": [{"alias": "pizza", "title": "Pizza"}, {"alias": "delis", "title": "Delis"}, {"alias": "breakfast_brunch", "title": "Breakfast & Brunch"}], "rating": 1.5, "coordinates": {"latitude": 42.54426, "longitude": -71.65069}, "transactions": [], "price": "$$", "location": {"address1": "25 Front St", "address2": "", "address3": "", "city": "Shirley", "zip_code": "01464", "country": "US", "state": "MA", "display_address": ["25 Front St", "Shirley, MA 01464"]}, "phone": "+19784259733", "display_phone": "(978) 425-9733", "distance": 3438.523363529552}, {"id": "0O7q2_MJXMKCGsP76P2-UA", "alias": "johnsons-restaurant-and-dairy-bar-groton", "name": "Johnson's Restaurant and Dairy Bar", "image_url": "https://s3-media3.fl.yelpcdn.com/bphoto/rGwnRAmbL4jGIeLPbXDb7A/o.jpg", "is_closed": false, "url": "https://www.yelp.com/biz/johnsons-restaurant-and-dairy-bar-groton?adjust_creative=h5HwbyQ0TYvQjBo6Ys5Bgw&utm_campaign=yelp_api_v3&utm_medium=api_v3_business_search&utm_source=h5HwbyQ0TYvQjBo6Ys5Bgw", "review_count": 62, "categories": [{"alias": "tradamerican", "title": "American (Traditional)"}, {"alias": "icecream", "title": "Ice Cream & Frozen Yogurt"}, {"alias": "breakfast_brunch", "title": "Breakfast & Brunch"}], "rating": 3.5, "coordinates": {"latitude": 42.596174, "longitude": -71.556005}, "transactions": ["delivery"], "price": "$", "location": {"address1": "164 Boston Rd", "address2": null, "address3": "", "city": "Groton", "zip_code": "01450", "country": "US", "state": "MA", "display_address": ["164 Boston Rd", "Groton, MA 01450"]}, "phone": "+19784486840", "display_phone": "(978) 448-6840", "distance": 7825.921087821868}, {"id": "AzqoWjaO2hvHl42U2NKK0A", "alias": "mcdonalds-ayer", "name": "McDonald's", "image_url": "https://s3-media2.fl.yelpcdn.com/bphoto/FCWOSxv2I4O34MEY4Xh73g/o.jpg", "is_closed": false, "url": "https://www.yelp.com/biz/mcdonalds-ayer?adjust_creative=h5HwbyQ0TYvQjBo6Ys5Bgw&utm_campaign=yelp_api_v3&utm_medium=api_v3_business_search&utm_source=h5HwbyQ0TYvQjBo6Ys5Bgw", "review_count": 34, "categories": [{"alias": "burgers", "title": "Burgers"}, {"alias": "hotdogs", "title": "Fast Food"}, {"alias": "coffee", "title": "Coffee & Tea"}], "rating": 2.0, "coordinates": {"latitude": 42.55365, "longitude": -71.57156}, "transactions": [], "price": "$", "location": {"address1": "2 Sandy Pond Rd", "address2": "", "address3": "", "city": "Ayer", "zip_code": "01432", "country": "US", "state": "MA", "display_address": ["2 Sandy Pond Rd", "Ayer, MA 01432"]}, "phone": "+19787729626", "display_phone": "(978) 772-9626", "distance": 3559.4021769957253}]