[{"id": "YDQntV-5swwLS8EDvXiU5Q", "alias": "crown-fried-chicken-worcester", "name": "Crown Fried Chicken", "image_url": "https://s3-media2.fl.yelpcdn.com/bphoto/FuVQR18Us0gtUB5q_CbC8w/o.jpg", "is_closed": false, "url": "https://www.yelp.com/biz/crown-fried-chicken-worcester?adjust_creative=ywY5UnLZrNrRl2b93Ruy_g&utm_campaign=yelp_api_v3&utm_medium=api_v3_business_search&utm_source=ywY5UnLZrNrRl2b93Ruy_g", "review_count": 39, "categories": [{"alias": "seafood", "title": "Seafood"}, {"alias": "hotdogs", "title": "Fast Food"}], "rating": 3.5, "coordinates": {"latitude": 42.2917785644531, "longitude": -71.7804183959961}, "transactions": ["delivery"], "price": "$", "location": {"address1": "443 Lincoln St", "address2": "", "address3": "", "city": "Worcester", "zip_code": "01605", "country": "US", "state": "MA", "display_address": ["443 Lincoln St", "Worcester, MA 01605"]}, "phone": "+15085950220", "display_phone": "(508) 595-0220", "distance": 193.48917509365504}, {"id": "L0wxnXXMkARmUJPUSIm6Ag", "alias": "grill-on-the-hill-worcester-2", "name": "Grill On The Hill", "image_url": "https://s3-media1.fl.yelpcdn.com/bphoto/UBJp1TtydbiqhObTIduuvQ/o.jpg", "is_closed": false, "url": "https://www.yelp.com/biz/grill-on-the-hill-worcester-2?adjust_creative=ywY5UnLZrNrRl2b93Ruy_g&utm_campaign=yelp_api_v3&utm_medium=api_v3_business_search&utm_source=ywY5UnLZrNrRl2b93Ruy_g", "review_count": 13, "categories": [{"alias": "tradamerican", "title": "American (Traditional)"}, {"alias": "pizza", "title": "Pizza"}, {"alias": "sandwiches", "title": "Sandwiches"}], "rating": 3.0, "coordinates": {"latitude": 42.2793006896973, "longitude": -71.7788696289062}, "transactions": ["delivery"], "location": {"address1": "1929 Skyline Dr", "address2": "", "address3": "", "city": "Worcester", "zip_code": "01605", "country": "US", "state": "MA", "display_address": ["1929 Skyline Dr", "Worcester, MA 01605"]}, "phone": "+15088541704", "display_phone": "(508) 854-1704", "distance": 567.8955096117467}, {"id": "5rWtBKLNVoGu9COtQ_OWGA", "alias": "kfc-worcester-5", "name": "KFC", "image_url": "https://s3-media1.fl.yelpcdn.com/bphoto/WVWJ2GwCsJrUsjzNlOJrhg/o.jpg", "is_closed": false, "url": "https://www.yelp.com/biz/kfc-worcester-5?adjust_creative=ywY5UnLZrNrRl2b93Ruy_g&utm_campaign=yelp_api_v3&utm_medium=api_v3_business_search&utm_source=ywY5UnLZrNrRl2b93Ruy_g", "review_count": 8, "categories": [{"alias": "hotdogs", "title": "Fast Food"}, {"alias": "chicken_wings", "title": "Chicken Wings"}, {"alias": "chickenshop", "title": "Chicken Shop"}], "rating": 2.0, "coordinates": {"latitude": 42.2925494944698, "longitude": -71.778546}, "transactions": [], "price": "$", "location": {"address1": "463 Lincoln St", "address2": null, "address3": null, "city": "Worcester", "zip_code": "01605", "country": "US", "state": "MA", "display_address": ["463 Lincoln St", "Worcester, MA 01605"]}, "phone": "+17747011580", "display_phone": "(774) 701-1580", "distance": 340.3078841939804}, {"id": "hB3xQooj7LIsi7ZJ3yqFrg", "alias": "golden-pizza-on-lincoln-worcester-2", "name": "Golden Pizza on Lincoln", "image_url": "https://s3-media3.fl.yelpcdn.com/bphoto/MN_gh7ejbh09zfz5m7AUWQ/o.jpg", "is_closed": false, "url": "https://www.yelp.com/biz/golden-pizza-on-lincoln-worcester-2?adjust_creative=ywY5UnLZrNrRl2b93Ruy_g&utm_campaign=yelp_api_v3&utm_medium=api_v3_business_search&utm_source=ywY5UnLZrNrRl2b93Ruy_g", "review_count": 23, "categories": [{"alias": "pizza", "title": "Pizza"}, {"alias": "hotdogs", "title": "Fast Food"}], "rating": 2.0, "coordinates": {"latitude": 42.29219, "longitude": -71.77948}, "transactions": ["pickup", "delivery"], "price": "$", "location": {"address1": "453 Lincoln St", "address2": null, "address3": "", "city": "Worcester", "zip_code": "01605", "country": "US", "state": "MA", "display_address": ["453 Lincoln St", "Worcester, MA 01605"]}, "phone": "+15088526000", "display_phone": "(508) 852-6000", "distance": 270.0502217331854}, {"id": "_Vdfn8jg_HzaL6qVnPwmhw", "alias": "taco-bell-worcester-5", "name": "Taco Bell", "image_url": "https://s3-media2.fl.yelpcdn.com/bphoto/eZDV1fq_AV17T_8hcKDl8g/o.jpg", "is_closed": false, "url": "https://www.yelp.com/biz/taco-bell-worcester-5?adjust_creative=ywY5UnLZrNrRl2b93Ruy_g&utm_campaign=yelp_api_v3&utm_medium=api_v3_business_search&utm_source=ywY5UnLZrNrRl2b93Ruy_g", "review_count": 26, "categories": [{"alias": "hotdogs", "title": "Fast Food"}, {"alias": "tacos", "title": "Tacos"}], "rating": 1.5, "coordinates": {"latitude": 42.29265, "longitude": -71.77875}, "transactions": ["delivery"], "price": "$", "location": {"address1": "463 Lincoln Street", "address2": "", "address3": "", "city": "Worcester", "zip_code": "01605", "country": "US", "state": "MA", "display_address": ["463 Lincoln Street", "Worcester, MA 01605"]}, "phone": "+15088538226", "display_phone": "(508) 853-8226", "distance": 325.3219475774433}, {"id": "iM4QB2bPeYMiMXNIiaZbOQ", "alias": "wendys-worcester-7", "name": "Wendy's", "image_url": "https://s3-media2.fl.yelpcdn.com/bphoto/vlRR3PF5_Bm6qUqXb0uKfw/o.jpg", "is_closed": false, "url": "https://www.yelp.com/biz/wendys-worcester-7?adjust_creative=ywY5UnLZrNrRl2b93Ruy_g&utm_campaign=yelp_api_v3&utm_medium=api_v3_business_search&utm_source=ywY5UnLZrNrRl2b93Ruy_g", "review_count": 17, "categories": [{"alias": "hotdogs", "title": "Fast Food"}, {"alias": "burgers", "title": "Burgers"}], "rating": 1.5, "coordinates": {"latitude": 42.294426, "longitude": -71.776505}, "transactions": ["delivery"], "price": "$", "location": {"address1": "492 Lincoln Street", "address2": "", "address3": "", "city": "Worcester", "zip_code": "01605", "country": "US", "state": "MA", "display_address": ["492 Lincoln Street", "Worcester, MA 01605"]}, "phone": "+15088522120", "display_phone": "(508) 852-2120", "distance": 564.579313181407}, {"id": "fFOQDOdmoZeQ6AiBraYh9w", "alias": "rozmarino-pizza-and-subs-worcester", "name": "Rozmarino Pizza & Subs", "image_url": "https://s3-media1.fl.yelpcdn.com/bphoto/CLaVAh0Jp3SIOogscgm-Rw/o.jpg", "is_closed": false, "url": "https://www.yelp.com/biz/rozmarino-pizza-and-subs-worcester?adjust_creative=ywY5UnLZrNrRl2b93Ruy_g&utm_campaign=yelp_api_v3&utm_medium=api_v3_business_search&utm_source=ywY5UnLZrNrRl2b93Ruy_g", "review_count": 19, "categories": [{"alias": "pizza", "title": "Pizza"}, {"alias": "burgers", "title": "Burgers"}, {"alias": "chicken_wings", "title": "Chicken Wings"}], "rating": 3.0, "coordinates": {"latitude": 42.2955765, "longitude": -71.7766312}, "transactions": ["pickup", "delivery"], "price": "$", "location": {"address1": "490 Lincoln St", "address2": "", "address3": "", "city": "Worcester", "zip_code": "01605", "country": "US", "state": "MA", "display_address": ["490 Lincoln St", "Worcester, MA 01605"]}, "phone": "+15088533377", "display_phone": "(508) 853-3377", "distance": 623.5825959877831}]