[{"id": "ESV1L-ai5ruQ-3ncZsxKdA", "alias": "goodstuff-smokehouse-blackstone", "name": "Goodstuff Smokehouse", "image_url": "https://s3-media3.fl.yelpcdn.com/bphoto/pyHBn0p5vs0PfwxFKKrOpA/o.jpg", "is_closed": false, "url": "https://www.yelp.com/biz/goodstuff-smokehouse-blackstone?adjust_creative=ywY5UnLZrNrRl2b93Ruy_g&utm_campaign=yelp_api_v3&utm_medium=api_v3_business_search&utm_source=ywY5UnLZrNrRl2b93Ruy_g", "review_count": 273, "categories": [{"alias": "bbq", "title": "Barbeque"}, {"alias": "southern", "title": "Southern"}], "rating": 4.5, "coordinates": {"latitude": 42.01865, "longitude": -71.5363}, "transactions": ["delivery"], "price": "$$", "location": {"address1": "97 Main St", "address2": null, "address3": "", "city": "Blackstone", "zip_code": "01504", "country": "US", "state": "MA", "display_address": ["97 Main St", "Blackstone, MA 01504"]}, "phone": "+15089281815", "display_phone": "(508) 928-1815", "distance": 2372.6165511258323}, {"id": "m5RLHsmP10ndwlHViypFtQ", "alias": "lucky-dog-tavern-north-smithfield", "name": "Lucky Dog Tavern", "image_url": "https://s3-media1.fl.yelpcdn.com/bphoto/B1GtVbmAsSqv7LIKsziFkQ/o.jpg", "is_closed": false, "url": "https://www.yelp.com/biz/lucky-dog-tavern-north-smithfield?adjust_creative=ywY5UnLZrNrRl2b93Ruy_g&utm_campaign=yelp_api_v3&utm_medium=api_v3_business_search&utm_source=ywY5UnLZrNrRl2b93Ruy_g", "review_count": 127, "categories": [{"alias": "tradamerican", "title": "American (Traditional)"}, {"alias": "seafood", "title": "Seafood"}, {"alias": "burgers", "title": "Burgers"}], "rating": 4.5, "coordinates": {"latitude": 42.0001733244128, "longitude": -71.570336091304}, "transactions": [], "price": "$$", "location": {"address1": "82 School St", "address2": "", "address3": null, "city": "North Smithfield", "zip_code": "02896", "country": "US", "state": "RI", "display_address": ["82 School St", "North Smithfield, RI 02896"]}, "phone": "+14014884777", "display_phone": "(401) 488-4777", "distance": 5458.688617682111}, {"id": "WPCcCtx1ue5yTrswRHi0tQ", "alias": "christophers-kitchen-and-bar-woonsocket", "name": "Christopher's Kitchen and Bar", "image_url": "https://s3-media1.fl.yelpcdn.com/bphoto/Ui7GhBQAOEEzPMVArOorDQ/o.jpg", "is_closed": false, "url": "https://www.yelp.com/biz/christophers-kitchen-and-bar-woonsocket?adjust_creative=ywY5UnLZrNrRl2b93Ruy_g&utm_campaign=yelp_api_v3&utm_medium=api_v3_business_search&utm_source=ywY5UnLZrNrRl2b93Ruy_g", "review_count": 31, "categories": [{"alias": "bars", "title": "Bars"}, {"alias": "mediterranean", "title": "Mediterranean"}], "rating": 4.0, "coordinates": {"latitude": 41.99990167, "longitude": -71.51617833}, "transactions": ["delivery"], "price": "$$", "location": {"address1": "2 S Main St", "address2": null, "address3": "", "city": "Woonsocket", "zip_code": "02895", "country": "US", "state": "RI", "display_address": ["2 S Main St", "Woonsocket, RI 02895"]}, "phone": "+14017663615", "display_phone": "(401) 766-3615", "distance": 4579.250015708763}, {"id": "GKMpQejm7E9jEl9l0ZApqA", "alias": "alicante-restaurant-and-lounge-mendon", "name": "Alicante Restaurant & Lounge", "image_url": "https://s3-media3.fl.yelpcdn.com/bphoto/seh2hwPtBSHUtovlVXh-bQ/o.jpg", "is_closed": false, "url": "https://www.yelp.com/biz/alicante-restaurant-and-lounge-mendon?adjust_creative=ywY5UnLZrNrRl2b93Ruy_g&utm_campaign=yelp_api_v3&utm_medium=api_v3_business_search&utm_source=ywY5UnLZrNrRl2b93Ruy_g", "review_count": 279, "categories": [{"alias": "mediterranean", "title": "Mediterranean"}, {"alias": "spanish", "title": "Spanish"}, {"alias": "italian", "title": "Italian"}], "rating": 4.5, "coordinates": {"latitude": 42.0976073, "longitude": -71.5727322}, "transactions": ["restaurant_reservation"], "price": "$$$", "location": {"address1": "84 Uxbridge Rd", "address2": null, "address3": "", "city": "Mendon", "zip_code": "01756", "country": "US", "state": "MA", "display_address": ["84 Uxbridge Rd", "Mendon, MA 01756"]}, "phone": "+15086348188", "display_phone": "(508) 634-8188", "distance": 7314.915346386956}, {"id": "EHFtJ_sdxLjwfc1FVvj-NA", "alias": "coachmens-lodge-bellingham", "name": "Coachmen's Lodge", "image_url": "https://s3-media2.fl.yelpcdn.com/bphoto/Wu6yyKvsMC9McH3THl8HFQ/o.jpg", "is_closed": false, "url": "https://www.yelp.com/biz/coachmens-lodge-bellingham?adjust_creative=ywY5UnLZrNrRl2b93Ruy_g&utm_campaign=yelp_api_v3&utm_medium=api_v3_business_search&utm_source=ywY5UnLZrNrRl2b93Ruy_g", "review_count": 155, "categories": [{"alias": "venues", "title": "Venues & Event Spaces"}, {"alias": "italian", "title": "Italian"}, {"alias": "mediterranean", "title": "Mediterranean"}], "rating": 3.5, "coordinates": {"latitude": 42.02531, "longitude": -71.47533}, "transactions": ["delivery", "restaurant_reservation"], "price": "$$", "location": {"address1": "273 Wrentham Rd", "address2": "", "address3": "", "city": "Bellingham", "zip_code": "02019", "country": "US", "state": "MA", "display_address": ["273 Wrentham Rd", "Bellingham, MA 02019"]}, "phone": "+15088839888", "display_phone": "(508) 883-9888", "distance": 4857.445121590856}, {"id": "g1H9zWKSZaRkCgyYRTL3kw", "alias": "lao-thai-cafe-bellingham-2", "name": "Lao Thai Cafe", "image_url": "https://s3-media4.fl.yelpcdn.com/bphoto/JijuhvmSwZN3r6k7PkZ6Yw/o.jpg", "is_closed": false, "url": "https://www.yelp.com/biz/lao-thai-cafe-bellingham-2?adjust_creative=ywY5UnLZrNrRl2b93Ruy_g&utm_campaign=yelp_api_v3&utm_medium=api_v3_business_search&utm_source=ywY5UnLZrNrRl2b93Ruy_g", "review_count": 23, "categories": [{"alias": "thai", "title": "Thai"}, {"alias": "laotian", "title": "Laotian"}], "rating": 4.0, "coordinates": {"latitude": 42.0183469, "longitude": -71.4969097}, "transactions": ["delivery"], "price": "$$", "location": {"address1": "52 Pulaski Blvd", "address2": null, "address3": "", "city": "Bellingham", "zip_code": "02895", "country": "US", "state": "RI", "display_address": ["52 Pulaski Blvd", "Bellingham, RI 02895"]}, "phone": "+15088839999", "display_phone": "(508) 883-9999", "distance": 3609.5597600865026}, {"id": "TSUFpu2DVh1D5l-9bU0TFw", "alias": "lindys-tavern-forestdale", "name": "Lindy's Tavern", "image_url": "https://s3-media4.fl.yelpcdn.com/bphoto/UTfKQo-bEPIzETtyKio33g/o.jpg", "is_closed": false, "url": "https://www.yelp.com/biz/lindys-tavern-forestdale?adjust_creative=ywY5UnLZrNrRl2b93Ruy_g&utm_campaign=yelp_api_v3&utm_medium=api_v3_business_search&utm_source=ywY5UnLZrNrRl2b93Ruy_g", "review_count": 254, "categories": [{"alias": "seafood", "title": "Seafood"}, {"alias": "bars", "title": "Bars"}, {"alias": "salad", "title": "Salad"}], "rating": 4.0, "coordinates": {"latitude": 41.99935667, "longitude": -71.56814667}, "transactions": [], "price": "$$", "location": {"address1": "98 School St", "address2": null, "address3": null, "city": "Forestdale", "zip_code": "02824", "country": "US", "state": "RI", "display_address": ["98 School St", "Forestdale, RI 02824"]}, "phone": "+14013561966", "display_phone": "(401) 356-1966", "distance": 5429.986776410864}, {"id": "ASpjMM7DCGgHXTAt1cL7kA", "alias": "roast-house-blackstone", "name": "Roast House", "image_url": "https://s3-media1.fl.yelpcdn.com/bphoto/wOxpKMRdANP8VPsb8bQCmQ/o.jpg", "is_closed": false, "url": "https://www.yelp.com/biz/roast-house-blackstone?adjust_creative=ywY5UnLZrNrRl2b93Ruy_g&utm_campaign=yelp_api_v3&utm_medium=api_v3_business_search&utm_source=ywY5UnLZrNrRl2b93Ruy_g", "review_count": 55, "categories": [{"alias": "tradamerican", "title": "American (Traditional)"}, {"alias": "bars", "title": "Bars"}], "rating": 3.5, "coordinates": {"latitude": 42.0173518, "longitude": -71.51308}, "transactions": ["delivery"], "price": "$$", "location": {"address1": "3 Farm St", "address2": null, "address3": null, "city": "Blackstone", "zip_code": "01504", "country": "US", "state": "MA", "display_address": ["3 Farm St", "Blackstone, MA 01504"]}, "phone": "+15088837700", "display_phone": "(508) 883-7700", "distance": 2880.1468517636486}, {"id": "kuMdtM2ZB43cZQYx7-ERnw", "alias": "fazzinis-restaurant-woonsocket", "name": "Fazzini's Restaurant", "image_url": "https://s3-media2.fl.yelpcdn.com/bphoto/6OVY49BfsfClHlIRdhwUSQ/o.jpg", "is_closed": false, "url": "https://www.yelp.com/biz/fazzinis-restaurant-woonsocket?adjust_creative=ywY5UnLZrNrRl2b93Ruy_g&utm_campaign=yelp_api_v3&utm_medium=api_v3_business_search&utm_source=ywY5UnLZrNrRl2b93Ruy_g", "review_count": 18, "categories": [{"alias": "italian", "title": "Italian"}, {"alias": "pubs", "title": "Pubs"}, {"alias": "cocktailbars", "title": "Cocktail Bars"}], "rating": 3.5, "coordinates": {"latitude": 42.01505, "longitude": -71.46714}, "transactions": [], "price": "$$", "location": {"address1": "2120 Diamond Hill Rd", "address2": null, "address3": "", "city": "Woonsocket", "zip_code": "02895", "country": "US", "state": "RI", "display_address": ["2120 Diamond Hill Rd", "Woonsocket, RI 02895"]}, "phone": "+14015975095", "display_phone": "(401) 597-5095", "distance": 5940.794643644177}, {"id": "L7Zdn_bFhzX6Ni-xHwRMeg", "alias": "vohns-restaurant-bellingham", "name": "Vohn's Restaurant", "image_url": "https://s3-media3.fl.yelpcdn.com/bphoto/k-Ill-vzG7pkshT3-AqOYg/o.jpg", "is_closed": false, "url": "https://www.yelp.com/biz/vohns-restaurant-bellingham?adjust_creative=ywY5UnLZrNrRl2b93Ruy_g&utm_campaign=yelp_api_v3&utm_medium=api_v3_business_search&utm_source=ywY5UnLZrNrRl2b93Ruy_g", "review_count": 171, "categories": [{"alias": "vietnamese", "title": "Vietnamese"}, {"alias": "thai", "title": "Thai"}], "rating": 4.0, "coordinates": {"latitude": 42.032706, "longitude": -71.4841304719448}, "transactions": ["delivery"], "price": "$$", "location": {"address1": "633 Pulaski Blvd", "address2": "", "address3": "", "city": "Bellingham", "zip_code": "02019", "country": "US", "state": "MA", "display_address": ["633 Pulaski Blvd", "Bellingham, MA 02019"]}, "phone": "+15088834934", "display_phone": "(508) 883-4934", "distance": 3941.973924303017}, {"id": "2o9ANW9s3BQ02-c_pJZjNg", "alias": "ciros-tavern-woonsocket", "name": "Ciro's Tavern", "image_url": "https://s3-media3.fl.yelpcdn.com/bphoto/meZXFz46ogxqHYnn1HuAvQ/o.jpg", "is_closed": false, "url": "https://www.yelp.com/biz/ciros-tavern-woonsocket?adjust_creative=ywY5UnLZrNrRl2b93Ruy_g&utm_campaign=yelp_api_v3&utm_medium=api_v3_business_search&utm_source=ywY5UnLZrNrRl2b93Ruy_g", "review_count": 157, "categories": [{"alias": "pubs", "title": "Pubs"}, {"alias": "tradamerican", "title": "American (Traditional)"}, {"alias": "salad", "title": "Salad"}], "rating": 3.5, "coordinates": {"latitude": 42.0045509338379, "longitude": -71.5132522583008}, "transactions": ["delivery"], "price": "$$", "location": {"address1": "42 Cherry St", "address2": "", "address3": "", "city": "Woonsocket", "zip_code": "02895", "country": "US", "state": "RI", "display_address": ["42 Cherry St", "Woonsocket, RI 02895"]}, "phone": "+14017693330", "display_phone": "(401) 769-3330", "distance": 4163.766104420239}, {"id": "W80UywxEeUHOjFfXikio8g", "alias": "casa-burrito-blackstone", "name": "Casa Burrito", "image_url": "https://s3-media3.fl.yelpcdn.com/bphoto/p6Zv5TIKKX6ZAq11TTyhsw/o.jpg", "is_closed": false, "url": "https://www.yelp.com/biz/casa-burrito-blackstone?adjust_creative=ywY5UnLZrNrRl2b93Ruy_g&utm_campaign=yelp_api_v3&utm_medium=api_v3_business_search&utm_source=ywY5UnLZrNrRl2b93Ruy_g", "review_count": 38, "categories": [{"alias": "mexican", "title": "Mexican"}], "rating": 4.5, "coordinates": {"latitude": 42.0189204003048, "longitude": -71.536976159632}, "transactions": ["delivery"], "price": "$$", "location": {"address1": "114 Main St", "address2": "", "address3": null, "city": "Blackstone", "zip_code": "01504", "country": "US", "state": "MA", "display_address": ["114 Main St", "Blackstone, MA 01504"]}, "phone": "+15089280904", "display_phone": "(508) 928-0904", "distance": 2351.8738589513014}, {"id": "ukGam4bZqVn_6QIjf-O7aw", "alias": "gallifords-restaurant-and-tavern-mendon", "name": "Galliford's Restaurant & Tavern", "image_url": "https://s3-media2.fl.yelpcdn.com/bphoto/9ZFBDmrQT6NvVX6TtbWI9A/o.jpg", "is_closed": false, "url": "https://www.yelp.com/biz/gallifords-restaurant-and-tavern-mendon?adjust_creative=ywY5UnLZrNrRl2b93Ruy_g&utm_campaign=yelp_api_v3&utm_medium=api_v3_business_search&utm_source=ywY5UnLZrNrRl2b93Ruy_g", "review_count": 95, "categories": [{"alias": "newamerican", "title": "American (New)"}, {"alias": "beerbar", "title": "Beer Bar"}], "rating": 4.0, "coordinates": {"latitude": 42.064921819907, "longitude": -71.5841863249914}, "transactions": [], "price": "$$", "location": {"address1": "5 Southwick St", "address2": "", "address3": "Southwick's Zoo", "city": "Mendon", "zip_code": "01756", "country": "US", "state": "MA", "display_address": ["5 Southwick St", "Southwick's Zoo", "Mendon, MA 01756"]}, "phone": "+15089280928", "display_phone": "(508) 928-0928", "distance": 5220.270684203824}, {"id": "CghRGmcqO07RcZh-kduLow", "alias": "river-falls-restaurant-woonsocket-3", "name": "River Falls Restaurant", "image_url": "https://s3-media4.fl.yelpcdn.com/bphoto/EGD7bvfQC8GNmBKEAssfQg/o.jpg", "is_closed": false, "url": "https://www.yelp.com/biz/river-falls-restaurant-woonsocket-3?adjust_creative=ywY5UnLZrNrRl2b93Ruy_g&utm_campaign=yelp_api_v3&utm_medium=api_v3_business_search&utm_source=ywY5UnLZrNrRl2b93Ruy_g", "review_count": 223, "categories": [{"alias": "italian", "title": "Italian"}, {"alias": "steak", "title": "Steakhouses"}, {"alias": "seafood", "title": "Seafood"}], "rating": 3.0, "coordinates": {"latitude": 41.99904, "longitude": -71.51743}, "transactions": ["delivery"], "price": "$$", "location": {"address1": "74 S Main St", "address2": "", "address3": "", "city": "Woonsocket", "zip_code": "02895", "country": "US", "state": "RI", "display_address": ["74 S Main St", "Woonsocket, RI 02895"]}, "phone": "+14012359026", "display_phone": "(401) 235-9026", "distance": 4682.626745382869}, {"id": "t89WXv8je9Ci3N7M7HMmug", "alias": "petes-bluebird-bellingham", "name": "Pete's Bluebird", "image_url": "https://s3-media1.fl.yelpcdn.com/bphoto/I_WrKg2NQPar93Tyg8iX6g/o.jpg", "is_closed": false, "url": "https://www.yelp.com/biz/petes-bluebird-bellingham?adjust_creative=ywY5UnLZrNrRl2b93Ruy_g&utm_campaign=yelp_api_v3&utm_medium=api_v3_business_search&utm_source=ywY5UnLZrNrRl2b93Ruy_g", "review_count": 83, "categories": [{"alias": "steak", "title": "Steakhouses"}, {"alias": "seafood", "title": "Seafood"}, {"alias": "tradamerican", "title": "American (Traditional)"}], "rating": 3.5, "coordinates": {"latitude": 42.08715, "longitude": -71.48538}, "transactions": [], "price": "$$", "location": {"address1": "93 Mendon St", "address2": "", "address3": "", "city": "Bellingham", "zip_code": "02019", "country": "US", "state": "MA", "display_address": ["93 Mendon St", "Bellingham, MA 02019"]}, "phone": "+15089669717", "display_phone": "(508) 966-9717", "distance": 6502.82585437442}, {"id": "vkfEHFP-IjQshrYIjfVIFQ", "alias": "savinis-pomodoro-woonsocket", "name": "Savini's Pomodoro", "image_url": "https://s3-media2.fl.yelpcdn.com/bphoto/QQHFdPUXpUTKN1mm6pAYRg/o.jpg", "is_closed": false, "url": "https://www.yelp.com/biz/savinis-pomodoro-woonsocket?adjust_creative=ywY5UnLZrNrRl2b93Ruy_g&utm_campaign=yelp_api_v3&utm_medium=api_v3_business_search&utm_source=ywY5UnLZrNrRl2b93Ruy_g", "review_count": 52, "categories": [{"alias": "italian", "title": "Italian"}], "rating": 3.0, "coordinates": {"latitude": 42.0153552, "longitude": -71.5027961}, "transactions": ["delivery"], "price": "$$", "location": {"address1": "476 Rathbun St", "address2": "", "address3": "", "city": "Woonsocket", "zip_code": "02895", "country": "US", "state": "RI", "display_address": ["476 Rathbun St", "Woonsocket, RI 02895"]}, "phone": "+14017625114", "display_phone": "(401) 762-5114", "distance": 3559.796248129667}, {"id": "LOJNnsHl2HyTVtL8GkoOJA", "alias": "neos-greek-restaurant-woonsocket", "name": "NEOS Greek Restaurant", "image_url": "https://s3-media2.fl.yelpcdn.com/bphoto/69veTWNuVXFGbXOjQgrFSA/o.jpg", "is_closed": false, "url": "https://www.yelp.com/biz/neos-greek-restaurant-woonsocket?adjust_creative=ywY5UnLZrNrRl2b93Ruy_g&utm_campaign=yelp_api_v3&utm_medium=api_v3_business_search&utm_source=ywY5UnLZrNrRl2b93Ruy_g", "review_count": 39, "categories": [{"alias": "greek", "title": "Greek"}], "rating": 4.5, "coordinates": {"latitude": 42.00598, "longitude": -71.48901}, "transactions": ["delivery"], "location": {"address1": "480 Cass Ave", "address2": "", "address3": null, "city": "Woonsocket", "zip_code": "02895", "country": "US", "state": "RI", "display_address": ["480 Cass Ave", "Woonsocket, RI 02895"]}, "phone": "+14013564145", "display_phone": "(401) 356-4145", "distance": 5085.491180607712}, {"id": "dEdKXuVRx8FMoi1MlXIvMw", "alias": "tavern-6-two-1-north-smithfield", "name": "Tavern 6 Two 1", "image_url": "https://s3-media4.fl.yelpcdn.com/bphoto/N1b7itR_OkZJFWh_DIdXsw/o.jpg", "is_closed": false, "url": "https://www.yelp.com/biz/tavern-6-two-1-north-smithfield?adjust_creative=ywY5UnLZrNrRl2b93Ruy_g&utm_campaign=yelp_api_v3&utm_medium=api_v3_business_search&utm_source=ywY5UnLZrNrRl2b93Ruy_g", "review_count": 47, "categories": [{"alias": "pizza", "title": "Pizza"}, {"alias": "tradamerican", "title": "American (Traditional)"}, {"alias": "sportsbars", "title": "Sports Bars"}], "rating": 4.5, "coordinates": {"latitude": 41.989519164815, "longitude": -71.5571130786062}, "transactions": [], "price": "$$", "location": {"address1": "621 Pound Hill Rd", "address2": "", "address3": null, "city": "North Smithfield", "zip_code": "02896", "country": "US", "state": "RI", "display_address": ["621 Pound Hill Rd", "North Smithfield, RI 02896"]}, "phone": "+14012499333", "display_phone": "(401) 249-9333", "distance": 5972.65942666015}, {"id": "pL5TW-MDDTeLVe_4rASxYA", "alias": "larry-joes-new-england-firepit-mendon-3", "name": "Larry Joe's New England FirePit", "image_url": "https://s3-media2.fl.yelpcdn.com/bphoto/Nmx5oHr0Klp2HbeGKHmUqg/o.jpg", "is_closed": false, "url": "https://www.yelp.com/biz/larry-joes-new-england-firepit-mendon-3?adjust_creative=ywY5UnLZrNrRl2b93Ruy_g&utm_campaign=yelp_api_v3&utm_medium=api_v3_business_search&utm_source=ywY5UnLZrNrRl2b93Ruy_g", "review_count": 53, "categories": [{"alias": "hotdog", "title": "Hot Dogs"}], "rating": 5.0, "coordinates": {"latitude": 42.0980429, "longitude": -71.499184}, "transactions": ["delivery", "pickup"], "price": "$", "location": {"address1": "30-A Cape Rd", "address2": "", "address3": "", "city": "Mendon", "zip_code": "01756", "country": "US", "state": "MA", "display_address": ["30-A Cape Rd", "Mendon, MA 01756"]}, "phone": "+15087359006", "display_phone": "(508) 735-9006", "distance": 7008.441178111269}, {"id": "Yxbri-0bGC0cyXZYpRHB-A", "alias": "sakura-asian-cuisine-bellingham-5", "name": "Sakura Asian Cuisine", "image_url": "https://s3-media3.fl.yelpcdn.com/bphoto/h-UxjWeUtXRYzhV1sMKJzw/o.jpg", "is_closed": false, "url": "https://www.yelp.com/biz/sakura-asian-cuisine-bellingham-5?adjust_creative=ywY5UnLZrNrRl2b93Ruy_g&utm_campaign=yelp_api_v3&utm_medium=api_v3_business_search&utm_source=ywY5UnLZrNrRl2b93Ruy_g", "review_count": 19, "categories": [{"alias": "japanese", "title": "Japanese"}, {"alias": "thai", "title": "Thai"}, {"alias": "noodles", "title": "Noodles"}], "rating": 4.0, "coordinates": {"latitude": 42.0192688, "longitude": -71.4953995}, "transactions": ["delivery", "pickup"], "location": {"address1": "101 Pulaski Blvd", "address2": null, "address3": "", "city": "Bellingham", "zip_code": "02019", "country": "US", "state": "MA", "display_address": ["101 Pulaski Blvd", "Bellingham, MA 02019"]}, "phone": "+15089281747", "display_phone": "(508) 928-1747", "distance": 3705.4432606912656}, {"id": "DfsUHsp2P3w-FEnlbK9JBw", "alias": "ocean-cafe-woonsocket", "name": "Ocean Cafe", "image_url": "https://s3-media1.fl.yelpcdn.com/bphoto/4IxThCDbdCarEYp5eNoaQQ/o.jpg", "is_closed": false, "url": "https://www.yelp.com/biz/ocean-cafe-woonsocket?adjust_creative=ywY5UnLZrNrRl2b93Ruy_g&utm_campaign=yelp_api_v3&utm_medium=api_v3_business_search&utm_source=ywY5UnLZrNrRl2b93Ruy_g", "review_count": 22, "categories": [{"alias": "latin", "title": "Latin American"}], "rating": 5.0, "coordinates": {"latitude": 42.002439961571, "longitude": -71.5145447105169}, "transactions": [], "price": "$", "location": {"address1": "114 N Main St", "address2": null, "address3": null, "city": "Woonsocket", "zip_code": "02895", "country": "US", "state": "RI", "display_address": ["114 N Main St", "Woonsocket, RI 02895"]}, "phone": "+14015970006", "display_phone": "(401) 597-0006", "distance": 4347.845544143274}, {"id": "oJ39jcqEPQX_Ika99L8hlQ", "alias": "new-england-steak-and-seafood-mendon", "name": "New England Steak & Seafood", "image_url": "https://s3-media4.fl.yelpcdn.com/bphoto/3FjSdEKjcZJKfEmmJEilMA/o.jpg", "is_closed": false, "url": "https://www.yelp.com/biz/new-england-steak-and-seafood-mendon?adjust_creative=ywY5UnLZrNrRl2b93Ruy_g&utm_campaign=yelp_api_v3&utm_medium=api_v3_business_search&utm_source=ywY5UnLZrNrRl2b93Ruy_g", "review_count": 199, "categories": [{"alias": "tradamerican", "title": "American (Traditional)"}, {"alias": "seafood", "title": "Seafood"}, {"alias": "steak", "title": "Steakhouses"}], "rating": 3.5, "coordinates": {"latitude": 42.10336, "longitude": -71.56254}, "transactions": ["delivery"], "price": "$$", "location": {"address1": "11 Uxbridge Rd", "address2": "", "address3": "", "city": "Mendon", "zip_code": "01756", "country": "US", "state": "MA", "display_address": ["11 Uxbridge Rd", "Mendon, MA 01756"]}, "phone": "+15084735079", "display_phone": "(508) 473-5079", "distance": 7594.538014362151}, {"id": "gHhVjJcC9PdNB10onURTzQ", "alias": "sol-de-mexico-bar-and-grill-bellingham", "name": "Sol de Mexico Bar & Grill", "image_url": "https://s3-media2.fl.yelpcdn.com/bphoto/QL17dUg2pQs4WBn56ovgSg/o.jpg", "is_closed": false, "url": "https://www.yelp.com/biz/sol-de-mexico-bar-and-grill-bellingham?adjust_creative=ywY5UnLZrNrRl2b93Ruy_g&utm_campaign=yelp_api_v3&utm_medium=api_v3_business_search&utm_source=ywY5UnLZrNrRl2b93Ruy_g", "review_count": 52, "categories": [{"alias": "mexican", "title": "Mexican"}], "rating": 4.0, "coordinates": {"latitude": 42.0825992426816, "longitude": -71.4548220754631}, "transactions": ["delivery", "pickup"], "price": "$$", "location": {"address1": "191 Mechanic St", "address2": "", "address3": null, "city": "Bellingham", "zip_code": "02019", "country": "US", "state": "MA", "display_address": ["191 Mechanic St", "Bellingham, MA 02019"]}, "phone": "+15089664000", "display_phone": "(508) 966-4000", "distance": 7897.377285170548}, {"id": "vP-HitDc-G_2ADjtu5AfbA", "alias": "the-beef-barn-bellingham-2", "name": "The Beef  Barn", "image_url": "https://s3-media2.fl.yelpcdn.com/bphoto/BaQUz9vkkzSCOy6a2vOmNw/o.jpg", "is_closed": false, "url": "https://www.yelp.com/biz/the-beef-barn-bellingham-2?adjust_creative=ywY5UnLZrNrRl2b93Ruy_g&utm_campaign=yelp_api_v3&utm_medium=api_v3_business_search&utm_source=ywY5UnLZrNrRl2b93Ruy_g", "review_count": 79, "categories": [{"alias": "desserts", "title": "Desserts"}, {"alias": "tradamerican", "title": "American (Traditional)"}], "rating": 4.5, "coordinates": {"latitude": 42.0206798941605, "longitude": -71.4950884320202}, "transactions": ["delivery", "pickup"], "price": "$", "location": {"address1": "160 Pulaski Blvd", "address2": "", "address3": "", "city": "Bellingham", "zip_code": "02019", "country": "US", "state": "MA", "display_address": ["160 Pulaski Blvd", "Bellingham, MA 02019"]}, "phone": "+15088831799", "display_phone": "(508) 883-1799", "distance": 3632.781692119883}, {"id": "lcP4rb76-ymxAdtLJGVRqw", "alias": "the-village-haven-forestdale", "name": "The Village Haven", "image_url": "https://s3-media2.fl.yelpcdn.com/bphoto/1e1FOcJWOuP5xjgcAuX4Gg/o.jpg", "is_closed": false, "url": "https://www.yelp.com/biz/the-village-haven-forestdale?adjust_creative=ywY5UnLZrNrRl2b93Ruy_g&utm_campaign=yelp_api_v3&utm_medium=api_v3_business_search&utm_source=ywY5UnLZrNrRl2b93Ruy_g", "review_count": 75, "categories": [{"alias": "tradamerican", "title": "American (Traditional)"}], "rating": 4.0, "coordinates": {"latitude": 41.999786, "longitude": -71.569072}, "transactions": [], "price": "$$", "location": {"address1": "90 School St", "address2": "", "address3": "", "city": "Forestdale", "zip_code": "02824", "country": "US", "state": "RI", "display_address": ["90 School St", "Forestdale, RI 02824"]}, "phone": "+14017624242", "display_phone": "(401) 762-4242", "distance": 5432.1442420131525}, {"id": "Ns5SdvE6PxVoXF_cDhV4Yg", "alias": "lotus-fine-thai-north-smithfield", "name": "Lotus Fine Thai", "image_url": "https://s3-media2.fl.yelpcdn.com/bphoto/5Fot6Hgx6npMnjsWHER1Sg/o.jpg", "is_closed": false, "url": "https://www.yelp.com/biz/lotus-fine-thai-north-smithfield?adjust_creative=ywY5UnLZrNrRl2b93Ruy_g&utm_campaign=yelp_api_v3&utm_medium=api_v3_business_search&utm_source=ywY5UnLZrNrRl2b93Ruy_g", "review_count": 101, "categories": [{"alias": "thai", "title": "Thai"}, {"alias": "bubbletea", "title": "Bubble Tea"}], "rating": 4.0, "coordinates": {"latitude": 41.97903, "longitude": -71.51363}, "transactions": [], "price": "$$", "location": {"address1": "175 Eddie Dowling Hwy", "address2": "", "address3": "", "city": "North Smithfield", "zip_code": "02896", "country": "US", "state": "RI", "display_address": ["175 Eddie Dowling Hwy", "North Smithfield, RI 02896"]}, "phone": "+14013256888", "display_phone": "(401) 325-6888", "distance": 6879.567645037911}, {"id": "TDPPoreNhWESN4vDz90ZzQ", "alias": "gia-ristorante-italiano-uxbridge-2", "name": "Gia Ristorante Italiano", "image_url": "https://s3-media1.fl.yelpcdn.com/bphoto/j57xuZMxQInN8Wa086bD9w/o.jpg", "is_closed": false, "url": "https://www.yelp.com/biz/gia-ristorante-italiano-uxbridge-2?adjust_creative=ywY5UnLZrNrRl2b93Ruy_g&utm_campaign=yelp_api_v3&utm_medium=api_v3_business_search&utm_source=ywY5UnLZrNrRl2b93Ruy_g", "review_count": 93, "categories": [{"alias": "italian", "title": "Italian"}, {"alias": "seafood", "title": "Seafood"}], "rating": 3.0, "coordinates": {"latitude": 42.02737, "longitude": -71.60652}, "transactions": [], "price": "$$", "location": {"address1": "785 Quaker Hwy", "address2": "", "address3": "", "city": "Uxbridge", "zip_code": "01569", "country": "US", "state": "MA", "display_address": ["785 Quaker Hwy", "Uxbridge, MA 01569"]}, "phone": "+15082787500", "display_phone": "(508) 278-7500", "distance": 6384.699171412254}, {"id": "y2zYOMc56ynw5tNgtz04YQ", "alias": "tacos-don-nacho-woonsocket", "name": "Tacos Don Nacho", "image_url": "https://s3-media4.fl.yelpcdn.com/bphoto/NuQBlcQOcOVLAqZrI4pnkQ/o.jpg", "is_closed": false, "url": "https://www.yelp.com/biz/tacos-don-nacho-woonsocket?adjust_creative=ywY5UnLZrNrRl2b93Ruy_g&utm_campaign=yelp_api_v3&utm_medium=api_v3_business_search&utm_source=ywY5UnLZrNrRl2b93Ruy_g", "review_count": 41, "categories": [{"alias": "mexican", "title": "Mexican"}], "rating": 4.5, "coordinates": {"latitude": 42.014389, "longitude": -71.5011292}, "transactions": ["delivery"], "price": "$", "location": {"address1": "986 Social St", "address2": "", "address3": "", "city": "Woonsocket", "zip_code": "02895", "country": "US", "state": "RI", "display_address": ["986 Social St", "Woonsocket, RI 02895"]}, "phone": "+14017664264", "display_phone": "(401) 766-4264", "distance": 3726.977169878109}, {"id": "42TEHIYhJ5rq9-sEascugQ", "alias": "egans-pub-bellingham", "name": "Egan's Pub", "image_url": "https://s3-media2.fl.yelpcdn.com/bphoto/wJfoCOTf84QuQFG9gzIjaA/o.jpg", "is_closed": false, "url": "https://www.yelp.com/biz/egans-pub-bellingham?adjust_creative=ywY5UnLZrNrRl2b93Ruy_g&utm_campaign=yelp_api_v3&utm_medium=api_v3_business_search&utm_source=ywY5UnLZrNrRl2b93Ruy_g", "review_count": 3, "categories": [{"alias": "pubs", "title": "Pubs"}, {"alias": "newamerican", "title": "American (New)"}, {"alias": "sandwiches", "title": "Sandwiches"}], "rating": 4.5, "coordinates": {"latitude": 42.0211076, "longitude": -71.4830976}, "transactions": [], "price": "$$", "location": {"address1": "180 Paine St", "address2": "", "address3": "The New England Country Club", "city": "Bellingham", "zip_code": "02019", "country": "US", "state": "MA", "display_address": ["180 Paine St", "The New England Country Club", "Bellingham, MA 02019"]}, "phone": "+15088832300", "display_phone": "(508) 883-2300", "distance": 4455.046211310118}, {"id": "tbAvoK7WPaivrHbiXxbDIQ", "alias": "stewarts-diner-blackstone", "name": "Stewart's Diner", "image_url": "https://s3-media2.fl.yelpcdn.com/bphoto/dIXhurw5OzixwIlxbNUHmw/o.jpg", "is_closed": false, "url": "https://www.yelp.com/biz/stewarts-diner-blackstone?adjust_creative=ywY5UnLZrNrRl2b93Ruy_g&utm_campaign=yelp_api_v3&utm_medium=api_v3_business_search&utm_source=ywY5UnLZrNrRl2b93Ruy_g", "review_count": 14, "categories": [{"alias": "diners", "title": "Diners"}, {"alias": "catering", "title": "Caterers"}], "rating": 4.0, "coordinates": {"latitude": 42.018219, "longitude": -71.539957}, "transactions": [], "price": "$", "location": {"address1": "148 Main St", "address2": "", "address3": "", "city": "Blackstone", "zip_code": "01504", "country": "US", "state": "MA", "display_address": ["148 Main St", "Blackstone, MA 01504"]}, "phone": "+15088834855", "display_phone": "(508) 883-4855", "distance": 2490.2929395190504}, {"id": "tj8x4F_EdL-27LahB6-0lQ", "alias": "the-table-family-diner-uxbridge", "name": "The Table Family Diner", "image_url": "https://s3-media2.fl.yelpcdn.com/bphoto/sbEmdN-r7aC3mpLLne-TAw/o.jpg", "is_closed": false, "url": "https://www.yelp.com/biz/the-table-family-diner-uxbridge?adjust_creative=ywY5UnLZrNrRl2b93Ruy_g&utm_campaign=yelp_api_v3&utm_medium=api_v3_business_search&utm_source=ywY5UnLZrNrRl2b93Ruy_g", "review_count": 3, "categories": [{"alias": "diners", "title": "Diners"}, {"alias": "coffee", "title": "Coffee & Tea"}, {"alias": "breakfast_brunch", "title": "Breakfast & Brunch"}], "rating": 5.0, "coordinates": {"latitude": 42.02799, "longitude": -71.60707}, "transactions": [], "location": {"address1": "775 Quaker Hwy", "address2": null, "address3": "", "city": "Uxbridge", "zip_code": "01569", "country": "US", "state": "MA", "display_address": ["775 Quaker Hwy", "Uxbridge, MA 01569"]}, "phone": "+15082787327", "display_phone": "(508) 278-7327", "distance": 6420.971219375916}, {"id": "LlTWx5oV7HPKrpjX27_QcQ", "alias": "michaels-woonsocket", "name": "Michael's", "image_url": "https://s3-media1.fl.yelpcdn.com/bphoto/TzuXtK-7-IylT_PA-KLFZQ/o.jpg", "is_closed": false, "url": "https://www.yelp.com/biz/michaels-woonsocket?adjust_creative=ywY5UnLZrNrRl2b93Ruy_g&utm_campaign=yelp_api_v3&utm_medium=api_v3_business_search&utm_source=ywY5UnLZrNrRl2b93Ruy_g", "review_count": 24, "categories": [{"alias": "sportsbars", "title": "Sports Bars"}, {"alias": "karaoke", "title": "Karaoke"}, {"alias": "newamerican", "title": "American (New)"}], "rating": 4.5, "coordinates": {"latitude": 42.0076069, "longitude": -71.4950209}, "transactions": [], "price": "$", "location": {"address1": "495 Elm St", "address2": "", "address3": "", "city": "Woonsocket", "zip_code": "02895", "country": "US", "state": "RI", "display_address": ["495 Elm St", "Woonsocket, RI 02895"]}, "phone": "+14017663741", "display_phone": "(401) 766-3741", "distance": 4632.40001396652}, {"id": "TH9nCcZL6vnlIsB0lCxvsQ", "alias": "fusion-express-bellingham", "name": "Fusion Express", "image_url": "https://s3-media1.fl.yelpcdn.com/bphoto/ujtGkZgQvy7r-rnK8uwGhg/o.jpg", "is_closed": false, "url": "https://www.yelp.com/biz/fusion-express-bellingham?adjust_creative=ywY5UnLZrNrRl2b93Ruy_g&utm_campaign=yelp_api_v3&utm_medium=api_v3_business_search&utm_source=ywY5UnLZrNrRl2b93Ruy_g", "review_count": 66, "categories": [{"alias": "asianfusion", "title": "Asian Fusion"}], "rating": 4.5, "coordinates": {"latitude": 42.083071, "longitude": -71.454925}, "transactions": ["delivery"], "price": "$$", "location": {"address1": "191 Mechanic St", "address2": "", "address3": "", "city": "Bellingham", "zip_code": "02019", "country": "US", "state": "MA", "display_address": ["191 Mechanic St", "Bellingham, MA 02019"]}, "phone": "+15086571198", "display_phone": "(508) 657-1198", "distance": 7922.499923002859}, {"id": "vRhbY_qUxTlEYO1Jii015Q", "alias": "bella-restaurant-glendale-2", "name": "Bella Restaurant", "image_url": "https://s3-media1.fl.yelpcdn.com/bphoto/ZfHT8BZFvf7BUcvZYen59Q/o.jpg", "is_closed": false, "url": "https://www.yelp.com/biz/bella-restaurant-glendale-2?adjust_creative=ywY5UnLZrNrRl2b93Ruy_g&utm_campaign=yelp_api_v3&utm_medium=api_v3_business_search&utm_source=ywY5UnLZrNrRl2b93Ruy_g", "review_count": 68, "categories": [{"alias": "italian", "title": "Italian"}, {"alias": "venues", "title": "Venues & Event Spaces"}, {"alias": "bars", "title": "Bars"}], "rating": 4.0, "coordinates": {"latitude": 41.9741, "longitude": -71.63016}, "transactions": [], "price": "$$", "location": {"address1": "1992 Victory Hwy", "address2": "", "address3": "", "city": "Glendale", "zip_code": "02826", "country": "US", "state": "RI", "display_address": ["1992 Victory Hwy", "Glendale, RI 02826"]}, "phone": "+14015686996", "display_phone": "(401) 568-6996", "distance": 10952.105968851722}, {"id": "QWyG7YDSFK3wSp4cnYV1QA", "alias": "thai-garden-woonsocket", "name": "Thai Garden", "image_url": "https://s3-media3.fl.yelpcdn.com/bphoto/5nvEBHwOcHbrLGUzP2sIIA/o.jpg", "is_closed": false, "url": "https://www.yelp.com/biz/thai-garden-woonsocket?adjust_creative=ywY5UnLZrNrRl2b93Ruy_g&utm_campaign=yelp_api_v3&utm_medium=api_v3_business_search&utm_source=ywY5UnLZrNrRl2b93Ruy_g", "review_count": 66, "categories": [{"alias": "thai", "title": "Thai"}], "rating": 4.0, "coordinates": {"latitude": 42.00444, "longitude": -71.51291}, "transactions": ["delivery"], "price": "$", "location": {"address1": "280 Main St", "address2": "", "address3": "", "city": "Woonsocket", "zip_code": "02895", "country": "US", "state": "RI", "display_address": ["280 Main St", "Woonsocket, RI 02895"]}, "phone": "+14017657010", "display_phone": "(401) 765-7010", "distance": 4188.803591027512}, {"id": "4uUDNnozeGvFdj8opI7K2g", "alias": "hunan-place-blackstone", "name": "Hunan Place", "image_url": "https://s3-media3.fl.yelpcdn.com/bphoto/86m26Gn77gZDEDLU2hncWQ/o.jpg", "is_closed": false, "url": "https://www.yelp.com/biz/hunan-place-blackstone?adjust_creative=ywY5UnLZrNrRl2b93Ruy_g&utm_campaign=yelp_api_v3&utm_medium=api_v3_business_search&utm_source=ywY5UnLZrNrRl2b93Ruy_g", "review_count": 14, "categories": [{"alias": "chinese", "title": "Chinese"}], "rating": 3.0, "coordinates": {"latitude": 42.015894, "longitude": -71.526655}, "transactions": ["delivery"], "price": "$$", "location": {"address1": "3 Main St", "address2": "Ste C", "address3": "", "city": "Blackstone", "zip_code": "01504", "country": "US", "state": "MA", "display_address": ["3 Main St", "Ste C", "Blackstone, MA 01504"]}, "phone": "+15088838822", "display_phone": "(508) 883-8822", "distance": 2664.0264583462445}, {"id": "yHPTmk4oRqiuTxo3Jme2xQ", "alias": "georges-surf-n-turf-mendon", "name": "George's Surf N Turf", "image_url": "https://s3-media2.fl.yelpcdn.com/bphoto/2mXeMMR3fTFW2sIQYDWbTQ/o.jpg", "is_closed": false, "url": "https://www.yelp.com/biz/georges-surf-n-turf-mendon?adjust_creative=ywY5UnLZrNrRl2b93Ruy_g&utm_campaign=yelp_api_v3&utm_medium=api_v3_business_search&utm_source=ywY5UnLZrNrRl2b93Ruy_g", "review_count": 76, "categories": [{"alias": "seafood", "title": "Seafood"}, {"alias": "burgers", "title": "Burgers"}], "rating": 4.0, "coordinates": {"latitude": 42.095380978894, "longitude": -71.580294736915}, "transactions": [], "price": "$$", "location": {"address1": "116 Uxbridge Rd", "address2": "", "address3": "", "city": "Mendon", "zip_code": "01756", "country": "US", "state": "MA", "display_address": ["116 Uxbridge Rd", "Mendon, MA 01756"]}, "phone": "+15084732125", "display_phone": "(508) 473-2125", "distance": 7421.003381634179}, {"id": "b6wocGQ0FxrWgtyZDB_7vw", "alias": "serios-fish-and-chips-woonsocket", "name": "Serio's Fish and Chips", "image_url": "https://s3-media3.fl.yelpcdn.com/bphoto/6Js9sojjaqt9wodrLEJ4NQ/o.jpg", "is_closed": false, "url": "https://www.yelp.com/biz/serios-fish-and-chips-woonsocket?adjust_creative=ywY5UnLZrNrRl2b93Ruy_g&utm_campaign=yelp_api_v3&utm_medium=api_v3_business_search&utm_source=ywY5UnLZrNrRl2b93Ruy_g", "review_count": 13, "categories": [{"alias": "fishnchips", "title": "Fish & Chips"}, {"alias": "seafood", "title": "Seafood"}], "rating": 4.5, "coordinates": {"latitude": 41.9942, "longitude": -71.5213}, "transactions": ["delivery"], "price": "$$", "location": {"address1": "170 Providence St", "address2": null, "address3": null, "city": "Woonsocket", "zip_code": "02895", "country": "US", "state": "RI", "display_address": ["170 Providence St", "Woonsocket, RI 02895"]}, "phone": "+14015970515", "display_phone": "(401) 597-0515", "distance": 5098.737218950895}, {"id": "8AIZ_zXg9_FWbIKBptD2lw", "alias": "broaster-house-woonsocket", "name": "Broaster House", "image_url": "https://s3-media1.fl.yelpcdn.com/bphoto/Xzz5QxXIngxTYnCSG9vADw/o.jpg", "is_closed": false, "url": "https://www.yelp.com/biz/broaster-house-woonsocket?adjust_creative=ywY5UnLZrNrRl2b93Ruy_g&utm_campaign=yelp_api_v3&utm_medium=api_v3_business_search&utm_source=ywY5UnLZrNrRl2b93Ruy_g", "review_count": 27, "categories": [{"alias": "comfortfood", "title": "Comfort Food"}, {"alias": "seafood", "title": "Seafood"}, {"alias": "chicken_wings", "title": "Chicken Wings"}], "rating": 3.0, "coordinates": {"latitude": 42.0092503386243, "longitude": -71.5112918615341}, "transactions": ["delivery", "pickup"], "price": "$$", "location": {"address1": "263 Pond St", "address2": "", "address3": "", "city": "Woonsocket", "zip_code": "02895", "country": "US", "state": "RI", "display_address": ["263 Pond St", "Woonsocket, RI 02895"]}, "phone": "+14017621717", "display_phone": "(401) 762-1717", "distance": 3744.414540252021}, {"id": "ZnRluJwcFUXwf1tDubF0TQ", "alias": "uncle-ronnies-red-tavern-burrillville-2", "name": "Uncle Ronnie's Red Tavern", "image_url": "https://s3-media2.fl.yelpcdn.com/bphoto/7KGtRqTIM2FJD4Ysbx_fRQ/o.jpg", "is_closed": false, "url": "https://www.yelp.com/biz/uncle-ronnies-red-tavern-burrillville-2?adjust_creative=ywY5UnLZrNrRl2b93Ruy_g&utm_campaign=yelp_api_v3&utm_medium=api_v3_business_search&utm_source=ywY5UnLZrNrRl2b93Ruy_g", "review_count": 54, "categories": [{"alias": "bars", "title": "Bars"}, {"alias": "newamerican", "title": "American (New)"}], "rating": 3.5, "coordinates": {"latitude": 41.980982, "longitude": -71.609991}, "transactions": [], "price": "$$", "location": {"address1": "2692 Victory Hwy", "address2": "", "address3": "", "city": "Burrillville", "zip_code": "02830", "country": "US", "state": "RI", "display_address": ["2692 Victory Hwy", "Burrillville, RI 02830"]}, "phone": "+14015686243", "display_phone": "(401) 568-6243", "distance": 9213.76670166121}, {"id": "mT-cbwNNAb9ftdEHAyWtZA", "alias": "andrews-bistro-cumberland", "name": "Andrew's Bistro", "image_url": "https://s3-media4.fl.yelpcdn.com/bphoto/clAiIg_hmIJWbOpyxJFGSQ/o.jpg", "is_closed": false, "url": "https://www.yelp.com/biz/andrews-bistro-cumberland?adjust_creative=ywY5UnLZrNrRl2b93Ruy_g&utm_campaign=yelp_api_v3&utm_medium=api_v3_business_search&utm_source=ywY5UnLZrNrRl2b93Ruy_g", "review_count": 130, "categories": [{"alias": "italian", "title": "Italian"}], "rating": 3.5, "coordinates": {"latitude": 41.983211, "longitude": -71.468025}, "transactions": ["delivery"], "price": "$$", "location": {"address1": "3755 Mendon Rd", "address2": "", "address3": "", "city": "Cumberland", "zip_code": "02864", "country": "US", "state": "RI", "display_address": ["3755 Mendon Rd", "Cumberland, RI 02864"]}, "phone": "+14016581515", "display_phone": "(401) 658-1515", "distance": 8138.096527326657}, {"id": "VrqIs4bre2LYrVbtzuDIYw", "alias": "joffs-backyard-grill-bellingham-2", "name": "Joffs Backyard Grill", "image_url": "https://s3-media4.fl.yelpcdn.com/bphoto/vFqzJ3QEUnRV0jFcD8kGkA/o.jpg", "is_closed": false, "url": "https://www.yelp.com/biz/joffs-backyard-grill-bellingham-2?adjust_creative=ywY5UnLZrNrRl2b93Ruy_g&utm_campaign=yelp_api_v3&utm_medium=api_v3_business_search&utm_source=ywY5UnLZrNrRl2b93Ruy_g", "review_count": 117, "categories": [{"alias": "bbq", "title": "Barbeque"}, {"alias": "burgers", "title": "Burgers"}], "rating": 4.0, "coordinates": {"latitude": 42.0845413, "longitude": -71.4720535}, "transactions": ["delivery"], "price": "$$", "location": {"address1": "61 Mechanic St", "address2": null, "address3": null, "city": "Bellingham", "zip_code": "02019", "country": "US", "state": "MA", "display_address": ["61 Mechanic St", "Bellingham, MA 02019"]}, "phone": "+15089662938", "display_phone": "(508) 966-2938", "distance": 6972.644104417868}, {"id": "LbDsByEV3nwV5GymcXXhgw", "alias": "toyo-steak-house-woonsocket", "name": "Toyo Steak House", "image_url": "https://s3-media2.fl.yelpcdn.com/bphoto/UStl7gWBKJZO9XxJPVrR1Q/o.jpg", "is_closed": false, "url": "https://www.yelp.com/biz/toyo-steak-house-woonsocket?adjust_creative=ywY5UnLZrNrRl2b93Ruy_g&utm_campaign=yelp_api_v3&utm_medium=api_v3_business_search&utm_source=ywY5UnLZrNrRl2b93Ruy_g", "review_count": 38, "categories": [{"alias": "sushi", "title": "Sushi Bars"}, {"alias": "japanese", "title": "Japanese"}, {"alias": "steak", "title": "Steakhouses"}], "rating": 3.5, "coordinates": {"latitude": 42.006225, "longitude": -71.506325}, "transactions": ["delivery"], "price": "$$", "location": {"address1": "401 Clinton St", "address2": "", "address3": null, "city": "Woonsocket", "zip_code": "02895", "country": "US", "state": "RI", "display_address": ["401 Clinton St", "Woonsocket, RI 02895"]}, "phone": "+14017620800", "display_phone": "(401) 762-0800", "distance": 4233.0236092599425}, {"id": "lHKSc2rS7lyiHuXHTeDoSQ", "alias": "kays-restaurant-woonsocket-2", "name": "Kay's Restaurant", "image_url": "https://s3-media2.fl.yelpcdn.com/bphoto/jvWtdSfCWe_juvACCopB4Q/o.jpg", "is_closed": false, "url": "https://www.yelp.com/biz/kays-restaurant-woonsocket-2?adjust_creative=ywY5UnLZrNrRl2b93Ruy_g&utm_campaign=yelp_api_v3&utm_medium=api_v3_business_search&utm_source=ywY5UnLZrNrRl2b93Ruy_g", "review_count": 105, "categories": [{"alias": "sandwiches", "title": "Sandwiches"}, {"alias": "bars", "title": "Bars"}], "rating": 4.0, "coordinates": {"latitude": 42.004312, "longitude": -71.480724}, "transactions": ["delivery", "pickup"], "price": "$", "location": {"address1": "1013 Cass Ave", "address2": "", "address3": "", "city": "Woonsocket", "zip_code": "02895", "country": "US", "state": "RI", "display_address": ["1013 Cass Ave", "Woonsocket, RI 02895"]}, "phone": "+14017629675", "display_phone": "(401) 762-9675", "distance": 5710.119005798195}, {"id": "u8Ue06Y2XlzRGGbNl3aYsQ", "alias": "skeffs-neighborhood-pub-cumberland", "name": "Skeff's Neighborhood Pub", "image_url": "https://s3-media1.fl.yelpcdn.com/bphoto/RArqJeu2FyM3jzvlbRhtjg/o.jpg", "is_closed": false, "url": "https://www.yelp.com/biz/skeffs-neighborhood-pub-cumberland?adjust_creative=ywY5UnLZrNrRl2b93Ruy_g&utm_campaign=yelp_api_v3&utm_medium=api_v3_business_search&utm_source=ywY5UnLZrNrRl2b93Ruy_g", "review_count": 22, "categories": [{"alias": "tradamerican", "title": "American (Traditional)"}, {"alias": "pubs", "title": "Pubs"}], "rating": 4.5, "coordinates": {"latitude": 41.97581, "longitude": -71.46541}, "transactions": ["delivery", "pickup"], "price": "$", "location": {"address1": "80 Manville Hill Rd", "address2": "", "address3": null, "city": "Cumberland", "zip_code": "02864", "country": "US", "state": "RI", "display_address": ["80 Manville Hill Rd", "Cumberland, RI 02864"]}, "phone": "+14016582591", "display_phone": "(401) 658-2591", "distance": 8963.585681183858}, {"id": "5PxlTwkz76mJi5jkUKVHhA", "alias": "ichigo-ichie-franklin", "name": "Ichigo Ichie", "image_url": "https://s3-media3.fl.yelpcdn.com/bphoto/ZtCmkcr9FMT2EAZ9ey4PFA/o.jpg", "is_closed": false, "url": "https://www.yelp.com/biz/ichigo-ichie-franklin?adjust_creative=ywY5UnLZrNrRl2b93Ruy_g&utm_campaign=yelp_api_v3&utm_medium=api_v3_business_search&utm_source=ywY5UnLZrNrRl2b93Ruy_g", "review_count": 270, "categories": [{"alias": "sushi", "title": "Sushi Bars"}], "rating": 3.5, "coordinates": {"latitude": 42.09199341862, "longitude": -71.431354564094}, "transactions": ["delivery"], "price": "$$", "location": {"address1": "837 W Central St", "address2": "", "address3": "", "city": "Franklin", "zip_code": "02038", "country": "US", "state": "MA", "display_address": ["837 W Central St", "Franklin, MA 02038"]}, "phone": "+15085418882", "display_phone": "(508) 541-8882", "distance": 10076.990161401736}, {"id": "fqocnXGgv-Db12PaigBOVg", "alias": "pacific-asian-cuisine-woonsocket", "name": "Pacific Asian Cuisine", "image_url": "https://s3-media3.fl.yelpcdn.com/bphoto/KJpRjrmFeFBs6szoKxNXNQ/o.jpg", "is_closed": false, "url": "https://www.yelp.com/biz/pacific-asian-cuisine-woonsocket?adjust_creative=ywY5UnLZrNrRl2b93Ruy_g&utm_campaign=yelp_api_v3&utm_medium=api_v3_business_search&utm_source=ywY5UnLZrNrRl2b93Ruy_g", "review_count": 49, "categories": [{"alias": "chinese", "title": "Chinese"}, {"alias": "seafood", "title": "Seafood"}, {"alias": "thai", "title": "Thai"}], "rating": 3.5, "coordinates": {"latitude": 42.00791104199, "longitude": -71.5029394626617}, "transactions": ["delivery"], "price": "$", "location": {"address1": "63 Cumberland St", "address2": "", "address3": "", "city": "Woonsocket", "zip_code": "02895", "country": "US", "state": "RI", "display_address": ["63 Cumberland St", "Woonsocket, RI 02895"]}, "phone": "+14015340100", "display_phone": "(401) 534-0100", "distance": 4214.821478331171}, {"id": "x45-99O7OHj5Y-ZeNXkO5g", "alias": "texas-roadhouse-north-smithfield", "name": "Texas Roadhouse", "image_url": "https://s3-media1.fl.yelpcdn.com/bphoto/iesYirwTuvtpLV6_TRllQQ/o.jpg", "is_closed": false, "url": "https://www.yelp.com/biz/texas-roadhouse-north-smithfield?adjust_creative=ywY5UnLZrNrRl2b93Ruy_g&utm_campaign=yelp_api_v3&utm_medium=api_v3_business_search&utm_source=ywY5UnLZrNrRl2b93Ruy_g", "review_count": 108, "categories": [{"alias": "steak", "title": "Steakhouses"}, {"alias": "bbq", "title": "Barbeque"}], "rating": 3.5, "coordinates": {"latitude": 41.9792577972983, "longitude": -71.5084980079346}, "transactions": [], "price": "$$", "location": {"address1": "39 Dowling Village Blvd", "address2": null, "address3": null, "city": "North Smithfield", "zip_code": "02896", "country": "US", "state": "RI", "display_address": ["39 Dowling Village Blvd", "North Smithfield, RI 02896"]}, "phone": "+14017667427", "display_phone": "(401) 766-7427", "distance": 6960.708910339597}, {"id": "VUBOX7Ust7JCD9WBuZo4UA", "alias": "rock-n-coal-pizza-bellingham", "name": "Rock N' Coal Pizza", "image_url": "https://s3-media1.fl.yelpcdn.com/bphoto/6aZ60f_MqFB1x2fh2Z1QRQ/o.jpg", "is_closed": false, "url": "https://www.yelp.com/biz/rock-n-coal-pizza-bellingham?adjust_creative=ywY5UnLZrNrRl2b93Ruy_g&utm_campaign=yelp_api_v3&utm_medium=api_v3_business_search&utm_source=ywY5UnLZrNrRl2b93Ruy_g", "review_count": 169, "categories": [{"alias": "pizza", "title": "Pizza"}], "rating": 2.5, "coordinates": {"latitude": 42.051201, "longitude": -71.481815}, "transactions": ["delivery"], "price": "$$", "location": {"address1": "799 S Main St", "address2": null, "address3": "", "city": "Bellingham", "zip_code": "02019", "country": "US", "state": "MA", "display_address": ["799 S Main St", "Bellingham, MA 02019"]}, "phone": "+15089282784", "display_phone": "(508) 928-2784", "distance": 4257.886049452715}, {"id": "nNn8eI7JnwedItXKv4gbpw", "alias": "the-castle-luncheonette-woonsocket", "name": "The Castle Luncheonette", "image_url": "https://s3-media2.fl.yelpcdn.com/bphoto/4ldBLCn-QFmQySX9rDywQg/o.jpg", "is_closed": false, "url": "https://www.yelp.com/biz/the-castle-luncheonette-woonsocket?adjust_creative=ywY5UnLZrNrRl2b93Ruy_g&utm_campaign=yelp_api_v3&utm_medium=api_v3_business_search&utm_source=ywY5UnLZrNrRl2b93Ruy_g", "review_count": 15, "categories": [{"alias": "tradamerican", "title": "American (Traditional)"}], "rating": 4.0, "coordinates": {"latitude": 42.008598, "longitude": -71.505897}, "transactions": ["delivery"], "price": "$$", "location": {"address1": "420 Social St", "address2": "", "address3": "", "city": "Woonsocket", "zip_code": "02895", "country": "US", "state": "RI", "display_address": ["420 Social St", "Woonsocket, RI 02895"]}, "phone": "+14017625424", "display_phone": "(401) 762-5424", "distance": 4015.746885290269}, {"id": "pjI3Xige-FX1ueGHxt4PjQ", "alias": "georges-breakfast-and-lunch-woonsocket", "name": "George's Breakfast & Lunch", "image_url": "https://s3-media3.fl.yelpcdn.com/bphoto/LMBXZZC6uBlTJ9gDDZJaTg/o.jpg", "is_closed": false, "url": "https://www.yelp.com/biz/georges-breakfast-and-lunch-woonsocket?adjust_creative=ywY5UnLZrNrRl2b93Ruy_g&utm_campaign=yelp_api_v3&utm_medium=api_v3_business_search&utm_source=ywY5UnLZrNrRl2b93Ruy_g", "review_count": 14, "categories": [{"alias": "restaurants", "title": "Restaurants"}], "rating": 4.0, "coordinates": {"latitude": 42.0136489868164, "longitude": -71.5266494750977}, "transactions": [], "price": "$", "location": {"address1": "793 Harris Ave", "address2": "", "address3": "", "city": "Woonsocket", "zip_code": "02895", "country": "US", "state": "RI", "display_address": ["793 Harris Ave", "Woonsocket, RI 02895"]}, "phone": "+14017691036", "display_phone": "(401) 769-1036", "distance": 2903.3468992201438}, {"id": "EeGiDYnY0MKAdrkYKteCTg", "alias": "mill-tavern-pizza-millville", "name": "Mill Tavern Pizza", "image_url": "https://s3-media1.fl.yelpcdn.com/bphoto/MPYWO_2hNrwuXrxpgzhNdQ/o.jpg", "is_closed": false, "url": "https://www.yelp.com/biz/mill-tavern-pizza-millville?adjust_creative=ywY5UnLZrNrRl2b93Ruy_g&utm_campaign=yelp_api_v3&utm_medium=api_v3_business_search&utm_source=ywY5UnLZrNrRl2b93Ruy_g", "review_count": 13, "categories": [{"alias": "pizza", "title": "Pizza"}, {"alias": "salad", "title": "Salad"}, {"alias": "sandwiches", "title": "Sandwiches"}], "rating": 4.0, "coordinates": {"latitude": 42.026018, "longitude": -71.575881}, "transactions": [], "price": "$", "location": {"address1": "187 Main St", "address2": "", "address3": "", "city": "Millville", "zip_code": "01529", "country": "US", "state": "MA", "display_address": ["187 Main St", "Millville, MA 01529"]}, "phone": "+15088831650", "display_phone": "(508) 883-1650", "distance": 4005.9579990210295}, {"id": "RAuxXCkh-oZQY9BHGpdfWQ", "alias": "early-bird-lincoln", "name": "Early Bird", "image_url": "https://s3-media4.fl.yelpcdn.com/bphoto/RJ97YN87pMCHsOlkvCbhAg/o.jpg", "is_closed": false, "url": "https://www.yelp.com/biz/early-bird-lincoln?adjust_creative=ywY5UnLZrNrRl2b93Ruy_g&utm_campaign=yelp_api_v3&utm_medium=api_v3_business_search&utm_source=ywY5UnLZrNrRl2b93Ruy_g", "review_count": 2, "categories": [{"alias": "breakfast_brunch", "title": "Breakfast & Brunch"}], "rating": 4.0, "coordinates": {"latitude": 41.97092, "longitude": -71.47393}, "transactions": [], "location": {"address1": "29 Winter St", "address2": "", "address3": null, "city": "Lincoln", "zip_code": "02838", "country": "US", "state": "RI", "display_address": ["29 Winter St", "Lincoln, RI 02838"]}, "phone": "", "display_phone": "", "distance": 8976.553965759103}, {"id": "C0L5oIxGYuSeYoiMFnshxA", "alias": "greenhouse-wood-fired-grill-mendon-3", "name": "Greenhouse Wood Fired Grill", "image_url": "https://s3-media4.fl.yelpcdn.com/bphoto/Stt4q-LQCevgXtYHVjYoIg/o.jpg", "is_closed": false, "url": "https://www.yelp.com/biz/greenhouse-wood-fired-grill-mendon-3?adjust_creative=ywY5UnLZrNrRl2b93Ruy_g&utm_campaign=yelp_api_v3&utm_medium=api_v3_business_search&utm_source=ywY5UnLZrNrRl2b93Ruy_g", "review_count": 150, "categories": [{"alias": "irish", "title": "Irish"}, {"alias": "newamerican", "title": "American (New)"}, {"alias": "gastropubs", "title": "Gastropubs"}], "rating": 2.5, "coordinates": {"latitude": 42.101918, "longitude": -71.505128}, "transactions": ["pickup", "delivery"], "price": "$$", "location": {"address1": "3 Cape Rd", "address2": "", "address3": "", "city": "Mendon", "zip_code": "01756", "country": "US", "state": "MA", "display_address": ["3 Cape Rd", "Mendon, MA 01756"]}, "phone": "+15086348900", "display_phone": "(508) 634-8900", "distance": 7250.666542057289}, {"id": "tdh1rVZdBvWI8nMYvZwUSA", "alias": "hong-kong-house-hopedale", "name": "Hong Kong House", "image_url": "https://s3-media2.fl.yelpcdn.com/bphoto/6MnQ0os3dBnVkYBqrG8q7A/o.jpg", "is_closed": false, "url": "https://www.yelp.com/biz/hong-kong-house-hopedale?adjust_creative=ywY5UnLZrNrRl2b93Ruy_g&utm_campaign=yelp_api_v3&utm_medium=api_v3_business_search&utm_source=ywY5UnLZrNrRl2b93Ruy_g", "review_count": 42, "categories": [{"alias": "chinese", "title": "Chinese"}], "rating": 4.0, "coordinates": {"latitude": 42.1040996969436, "longitude": -71.5022871236781}, "transactions": ["delivery"], "price": "$$", "location": {"address1": "150 Hartford Ave", "address2": "", "address3": "", "city": "Hopedale", "zip_code": "01747", "country": "US", "state": "MA", "display_address": ["150 Hartford Ave", "Hopedale, MA 01747"]}, "phone": "+15084738885", "display_phone": "(508) 473-8885", "distance": 7553.010096641562}, {"id": "fmz5pAgHqTV5LK5GOr8dLg", "alias": "wrights-farm-restaurant-harrisville-3", "name": "Wright's Farm Restaurant", "image_url": "https://s3-media2.fl.yelpcdn.com/bphoto/EhBVekzGzby0EfW0Q6ZO5Q/o.jpg", "is_closed": false, "url": "https://www.yelp.com/biz/wrights-farm-restaurant-harrisville-3?adjust_creative=ywY5UnLZrNrRl2b93Ruy_g&utm_campaign=yelp_api_v3&utm_medium=api_v3_business_search&utm_source=ywY5UnLZrNrRl2b93Ruy_g", "review_count": 325, "categories": [{"alias": "tradamerican", "title": "American (Traditional)"}], "rating": 3.5, "coordinates": {"latitude": 41.9857805, "longitude": -71.6054916}, "transactions": [], "price": "$$", "location": {"address1": "84 Inman Rd", "address2": "", "address3": "", "city": "Harrisville", "zip_code": "02830", "country": "US", "state": "RI", "display_address": ["84 Inman Rd", "Harrisville, RI 02830"]}, "phone": "+14017692856", "display_phone": "(401) 769-2856", "distance": 8586.477199079256}, {"id": "Hl1duVdJ3rPEg26hLhdmZg", "alias": "ye-olde-english-fish-and-chips-restaurant-woonsocket", "name": "Ye Olde English Fish & Chips Restaurant", "image_url": "https://s3-media2.fl.yelpcdn.com/bphoto/qKJqLMkTB_tY_B1_vNWZHA/o.jpg", "is_closed": false, "url": "https://www.yelp.com/biz/ye-olde-english-fish-and-chips-restaurant-woonsocket?adjust_creative=ywY5UnLZrNrRl2b93Ruy_g&utm_campaign=yelp_api_v3&utm_medium=api_v3_business_search&utm_source=ywY5UnLZrNrRl2b93Ruy_g", "review_count": 98, "categories": [{"alias": "fishnchips", "title": "Fish & Chips"}, {"alias": "sandwiches", "title": "Sandwiches"}, {"alias": "beer_and_wine", "title": "Beer, Wine & Spirits"}], "rating": 3.5, "coordinates": {"latitude": 41.9994303, "longitude": -71.5169909}, "transactions": ["delivery"], "price": "$$", "location": {"address1": "25 S Main St", "address2": "", "address3": "", "city": "Woonsocket", "zip_code": "02895", "country": "US", "state": "RI", "display_address": ["25 S Main St", "Woonsocket, RI 02895"]}, "phone": "+14017623637", "display_phone": "(401) 762-3637", "distance": 4523.442425605822}, {"id": "jbuFZumKE7Ke9zZdMX-y2A", "alias": "andersons-variety-blackstone", "name": "Anderson's Variety", "image_url": "", "is_closed": false, "url": "https://www.yelp.com/biz/andersons-variety-blackstone?adjust_creative=ywY5UnLZrNrRl2b93Ruy_g&utm_campaign=yelp_api_v3&utm_medium=api_v3_business_search&utm_source=ywY5UnLZrNrRl2b93Ruy_g", "review_count": 1, "categories": [{"alias": "delis", "title": "Delis"}], "rating": 5.0, "coordinates": {"latitude": 42.04968, "longitude": -71.53212}, "transactions": [], "location": {"address1": "266 Blackstone St", "address2": "", "address3": "", "city": "Blackstone", "zip_code": "01504", "country": "US", "state": "MA", "display_address": ["266 Blackstone St", "Blackstone, MA 01504"]}, "phone": "+15088837819", "display_phone": "(508) 883-7819", "distance": 1112.5057363572748}, {"id": "RO2jaB93y-_td1wWBwrtDg", "alias": "harefield-tandoori-uxbridge", "name": "Harefield Tandoori", "image_url": "", "is_closed": false, "url": "https://www.yelp.com/biz/harefield-tandoori-uxbridge?adjust_creative=ywY5UnLZrNrRl2b93Ruy_g&utm_campaign=yelp_api_v3&utm_medium=api_v3_business_search&utm_source=ywY5UnLZrNrRl2b93Ruy_g", "review_count": 1, "categories": [{"alias": "indpak", "title": "Indian"}], "rating": 4.0, "coordinates": {"latitude": 51.603534, "longitude": -0.482555}, "transactions": [], "location": {"address1": "40 High Street", "address2": "", "address3": "Harefield", "city": "Uxbridge", "zip_code": "UB9 6BU", "country": "GB", "state": "XGL", "display_address": ["40 High Street", "Harefield", "Uxbridge UB9 6BU", "United Kingdom"]}, "phone": "+441895825844", "display_phone": "+44 1895 825844", "distance": 9205.169565569426}, {"id": "toeLljzoJKxkkMabOD3Dlw", "alias": "tko-pizza-blackstone", "name": "TKO Pizza", "image_url": "https://s3-media3.fl.yelpcdn.com/bphoto/HlbaNDC5TNoprHDM1-soCQ/o.jpg", "is_closed": false, "url": "https://www.yelp.com/biz/tko-pizza-blackstone?adjust_creative=ywY5UnLZrNrRl2b93Ruy_g&utm_campaign=yelp_api_v3&utm_medium=api_v3_business_search&utm_source=ywY5UnLZrNrRl2b93Ruy_g", "review_count": 29, "categories": [{"alias": "pizza", "title": "Pizza"}], "rating": 2.5, "coordinates": {"latitude": 42.01897, "longitude": -71.53404}, "transactions": ["delivery"], "price": "$", "location": {"address1": "63 Main St", "address2": "", "address3": "", "city": "Blackstone", "zip_code": "01504", "country": "US", "state": "MA", "display_address": ["63 Main St", "Blackstone, MA 01504"]}, "phone": "+15088837607", "display_phone": "(508) 883-7607", "distance": 2306.7901322185594}, {"id": "MV-PnnPf9bzQn6jk0I4t8A", "alias": "willowbrook-restaurant-mendon", "name": "Willowbrook Restaurant", "image_url": "https://s3-media1.fl.yelpcdn.com/bphoto/68-SJ3fvanQyefRoRb9P4w/o.jpg", "is_closed": false, "url": "https://www.yelp.com/biz/willowbrook-restaurant-mendon?adjust_creative=ywY5UnLZrNrRl2b93Ruy_g&utm_campaign=yelp_api_v3&utm_medium=api_v3_business_search&utm_source=ywY5UnLZrNrRl2b93Ruy_g", "review_count": 62, "categories": [{"alias": "tradamerican", "title": "American (Traditional)"}], "rating": 3.5, "coordinates": {"latitude": 42.104744464159, "longitude": -71.5565709024668}, "transactions": [], "price": "$$", "location": {"address1": "16 Hastings St", "address2": null, "address3": null, "city": "Mendon", "zip_code": "01756", "country": "US", "state": "MA", "display_address": ["16 Hastings St", "Mendon, MA 01756"]}, "phone": "+15084734420", "display_phone": "(508) 473-4420", "distance": 7582.882885908643}, {"id": "EBjX7SLyEQ5le-CIalBNvg", "alias": "pjs-bar-and-grill-bellingham", "name": "PJ's Bar & Grill", "image_url": "https://s3-media3.fl.yelpcdn.com/bphoto/adFc6wj1vIaAyn4OncbW0g/o.jpg", "is_closed": false, "url": "https://www.yelp.com/biz/pjs-bar-and-grill-bellingham?adjust_creative=ywY5UnLZrNrRl2b93Ruy_g&utm_campaign=yelp_api_v3&utm_medium=api_v3_business_search&utm_source=ywY5UnLZrNrRl2b93Ruy_g", "review_count": 112, "categories": [{"alias": "sportsbars", "title": "Sports Bars"}, {"alias": "salad", "title": "Salad"}, {"alias": "tradamerican", "title": "American (Traditional)"}], "rating": 3.5, "coordinates": {"latitude": 42.082939, "longitude": -71.455257}, "transactions": ["delivery"], "price": "$$", "location": {"address1": "191 Mechanic St", "address2": "", "address3": "", "city": "Bellingham", "zip_code": "02019", "country": "US", "state": "MA", "display_address": ["191 Mechanic St", "Bellingham, MA 02019"]}, "phone": "+15086571787", "display_phone": "(508) 657-1787", "distance": 7891.836687797067}, {"id": "4qqoDKGdVJbGe8iY9jIuBQ", "alias": "chowder-bowl-restaurant-bellingham", "name": "Chowder Bowl Restaurant", "image_url": "https://s3-media3.fl.yelpcdn.com/bphoto/uQl6QUjw5oTtL5rMF-rfTA/o.jpg", "is_closed": false, "url": "https://www.yelp.com/biz/chowder-bowl-restaurant-bellingham?adjust_creative=ywY5UnLZrNrRl2b93Ruy_g&utm_campaign=yelp_api_v3&utm_medium=api_v3_business_search&utm_source=ywY5UnLZrNrRl2b93Ruy_g", "review_count": 34, "categories": [{"alias": "seafood", "title": "Seafood"}], "rating": 2.5, "coordinates": {"latitude": 42.057746887207, "longitude": -71.4936065673828}, "transactions": [], "price": "$$", "location": {"address1": "325 Lakeshore Dr", "address2": "", "address3": "", "city": "Bellingham", "zip_code": "02019", "country": "US", "state": "MA", "display_address": ["325 Lakeshore Dr", "Bellingham, MA 02019"]}, "phone": "+15088837030", "display_phone": "(508) 883-7030", "distance": 3689.6571443732378}, {"id": "LkHZs6Os_UXmG8M59VEC3Q", "alias": "140-pub-n-club-bellingham", "name": "140 Pub N Club", "image_url": "https://s3-media2.fl.yelpcdn.com/bphoto/Th-kA7ZN2geByIsR1MdRWw/o.jpg", "is_closed": false, "url": "https://www.yelp.com/biz/140-pub-n-club-bellingham?adjust_creative=ywY5UnLZrNrRl2b93Ruy_g&utm_campaign=yelp_api_v3&utm_medium=api_v3_business_search&utm_source=ywY5UnLZrNrRl2b93Ruy_g", "review_count": 38, "categories": [{"alias": "danceclubs", "title": "Dance Clubs"}, {"alias": "pubs", "title": "Pubs"}, {"alias": "tradamerican", "title": "American (Traditional)"}], "rating": 4.0, "coordinates": {"latitude": 42.0868768154618, "longitude": -71.4899149909616}, "transactions": ["delivery"], "price": "$$", "location": {"address1": "168 Mendon St", "address2": "", "address3": "", "city": "Bellingham", "zip_code": "02019", "country": "US", "state": "MA", "display_address": ["168 Mendon St", "Bellingham, MA 02019"]}, "phone": "+15089664411", "display_phone": "(508) 966-4411", "distance": 6254.643827299537}, {"id": "DXDb1JTWJuKjzQ0MPtne9g", "alias": "hannas-place-uxbridge", "name": "Hanna's Place", "image_url": "https://s3-media1.fl.yelpcdn.com/bphoto/SHK9qZj8YsoRKFD7QAvhZg/o.jpg", "is_closed": false, "url": "https://www.yelp.com/biz/hannas-place-uxbridge?adjust_creative=ywY5UnLZrNrRl2b93Ruy_g&utm_campaign=yelp_api_v3&utm_medium=api_v3_business_search&utm_source=ywY5UnLZrNrRl2b93Ruy_g", "review_count": 24, "categories": [{"alias": "newamerican", "title": "American (New)"}], "rating": 3.0, "coordinates": {"latitude": 42.027839, "longitude": -71.606959}, "transactions": [], "price": "$$", "location": {"address1": "775 Quaker Hwy", "address2": "", "address3": "", "city": "Uxbridge", "zip_code": "01569", "country": "US", "state": "MA", "display_address": ["775 Quaker Hwy", "Uxbridge, MA 01569"]}, "phone": "+15082785099", "display_phone": "(508) 278-5099", "distance": 6411.992660692724}, {"id": "eQGzk1MWptUdEzt7LrI2Hw", "alias": "grumpys-restaurant-bellingham", "name": "Grumpy's Restaurant", "image_url": "https://s3-media2.fl.yelpcdn.com/bphoto/X2Zec0dkD2cZqOhcL43ZHw/o.jpg", "is_closed": false, "url": "https://www.yelp.com/biz/grumpys-restaurant-bellingham?adjust_creative=ywY5UnLZrNrRl2b93Ruy_g&utm_campaign=yelp_api_v3&utm_medium=api_v3_business_search&utm_source=ywY5UnLZrNrRl2b93Ruy_g", "review_count": 65, "categories": [{"alias": "tradamerican", "title": "American (Traditional)"}], "rating": 2.5, "coordinates": {"latitude": 42.02111, "longitude": -71.49429}, "transactions": ["pickup", "delivery"], "price": "$$", "location": {"address1": "190 Pulaski Blvd", "address2": "", "address3": "", "city": "Bellingham", "zip_code": "02019", "country": "US", "state": "MA", "display_address": ["190 Pulaski Blvd", "Bellingham, MA 02019"]}, "phone": "+15088830101", "display_phone": "(508) 883-0101", "distance": 3649.341072521379}, {"id": "4Hg9SzHXTRHUwnS4FMKZEQ", "alias": "new-hunan-kitchen-bellingham", "name": "New Hunan Kitchen", "image_url": "https://s3-media1.fl.yelpcdn.com/bphoto/ChFtM3SKjw65hlU97Ud36Q/o.jpg", "is_closed": false, "url": "https://www.yelp.com/biz/new-hunan-kitchen-bellingham?adjust_creative=ywY5UnLZrNrRl2b93Ruy_g&utm_campaign=yelp_api_v3&utm_medium=api_v3_business_search&utm_source=ywY5UnLZrNrRl2b93Ruy_g", "review_count": 8, "categories": [{"alias": "chinese", "title": "Chinese"}], "rating": 3.0, "coordinates": {"latitude": 42.05164, "longitude": -71.482}, "transactions": [], "location": {"address1": "799 S Main St", "address2": null, "address3": "", "city": "Bellingham", "zip_code": "02019", "country": "US", "state": "MA", "display_address": ["799 S Main St", "Bellingham, MA 02019"]}, "phone": "+15088832088", "display_phone": "(508) 883-2088", "distance": 4253.855416517483}, {"id": "6kKipTzsrlBr1LWcgON2qA", "alias": "swagat-indian-food-and-grocery-woonsocket", "name": "Swagat Indian Food and Grocery", "image_url": "https://s3-media1.fl.yelpcdn.com/bphoto/w6aKs0YpRwtRBsZXVcn7IA/o.jpg", "is_closed": false, "url": "https://www.yelp.com/biz/swagat-indian-food-and-grocery-woonsocket?adjust_creative=ywY5UnLZrNrRl2b93Ruy_g&utm_campaign=yelp_api_v3&utm_medium=api_v3_business_search&utm_source=ywY5UnLZrNrRl2b93Ruy_g", "review_count": 1, "categories": [{"alias": "indpak", "title": "Indian"}], "rating": 5.0, "coordinates": {"latitude": 42.015711749723, "longitude": -71.4975043013692}, "transactions": [], "location": {"address1": "480 Diamond Hill Rd", "address2": "", "address3": null, "city": "Woonsocket", "zip_code": "02895", "country": "US", "state": "RI", "display_address": ["480 Diamond Hill Rd", "Woonsocket, RI 02895"]}, "phone": "+17192010667", "display_phone": "(719) 201-0667", "distance": 3831.982350244091}, {"id": "6amKZgMchVlQ6gR7kfMDlw", "alias": "domino-s-north-smithfield", "name": "Domino\u2019s", "image_url": "https://s3-media4.fl.yelpcdn.com/bphoto/dIOJytLC1BgCDi2lvvOS3g/o.jpg", "is_closed": false, "url": "https://www.yelp.com/biz/domino-s-north-smithfield?adjust_creative=ywY5UnLZrNrRl2b93Ruy_g&utm_campaign=yelp_api_v3&utm_medium=api_v3_business_search&utm_source=ywY5UnLZrNrRl2b93Ruy_g", "review_count": 1, "categories": [{"alias": "pizza", "title": "Pizza"}, {"alias": "chicken_wings", "title": "Chicken Wings"}, {"alias": "sandwiches", "title": "Sandwiches"}], "rating": 5.0, "coordinates": {"latitude": 42.00534, "longitude": -71.58487}, "transactions": [], "location": {"address1": "900 Victory Hwy", "address2": "", "address3": null, "city": "North Smithfield", "zip_code": "02896", "country": "US", "state": "RI", "display_address": ["900 Victory Hwy", "North Smithfield, RI 02896"]}, "phone": "+14017692000", "display_phone": "(401) 769-2000", "distance": 5925.901362043135}, {"id": "rpaUYCqcAQ041wpNsocuFw", "alias": "yama-fuji-north-smithfield-2", "name": "Yama Fuji", "image_url": "https://s3-media1.fl.yelpcdn.com/bphoto/hosPRo6JNWhK5ZqmdYREgg/o.jpg", "is_closed": false, "url": "https://www.yelp.com/biz/yama-fuji-north-smithfield-2?adjust_creative=ywY5UnLZrNrRl2b93Ruy_g&utm_campaign=yelp_api_v3&utm_medium=api_v3_business_search&utm_source=ywY5UnLZrNrRl2b93Ruy_g", "review_count": 74, "categories": [{"alias": "japanese", "title": "Japanese"}, {"alias": "sushi", "title": "Sushi Bars"}], "rating": 3.5, "coordinates": {"latitude": 42.0050400107292, "longitude": -71.5855900175255}, "transactions": [], "price": "$$", "location": {"address1": "900 Victory Hwy", "address2": "Ste 3", "address3": "", "city": "North Smithfield", "zip_code": "02896", "country": "US", "state": "RI", "display_address": ["900 Victory Hwy", "Ste 3", "North Smithfield, RI 02896"]}, "phone": "+14015970885", "display_phone": "(401) 597-0885", "distance": 5927.195898056606}, {"id": "scBmTjmMxxQWaOCL25XLvg", "alias": "the-beef-barn-north-smithfield", "name": "The Beef Barn", "image_url": "https://s3-media2.fl.yelpcdn.com/bphoto/UnCbLd1MLdQAlGZeNMaAyQ/o.jpg", "is_closed": false, "url": "https://www.yelp.com/biz/the-beef-barn-north-smithfield?adjust_creative=ywY5UnLZrNrRl2b93Ruy_g&utm_campaign=yelp_api_v3&utm_medium=api_v3_business_search&utm_source=ywY5UnLZrNrRl2b93Ruy_g", "review_count": 212, "categories": [{"alias": "tradamerican", "title": "American (Traditional)"}], "rating": 4.0, "coordinates": {"latitude": 41.9854007788954, "longitude": -71.5223532757637}, "transactions": ["pickup", "delivery"], "price": "$", "location": {"address1": "4 Greenville Rd", "address2": "", "address3": "", "city": "North Smithfield", "zip_code": "02896", "country": "US", "state": "RI", "display_address": ["4 Greenville Rd", "North Smithfield, RI 02896"]}, "phone": "+14017629880", "display_phone": "(401) 762-9880", "distance": 6068.6623686753655}, {"id": "ZBSij1GTQwkV64bVxTFXRw", "alias": "bamboo-express-bellingham", "name": "Bamboo Express", "image_url": "https://s3-media3.fl.yelpcdn.com/bphoto/eoNL7Ajr0PzIuh9wb5U_cg/o.jpg", "is_closed": false, "url": "https://www.yelp.com/biz/bamboo-express-bellingham?adjust_creative=ywY5UnLZrNrRl2b93Ruy_g&utm_campaign=yelp_api_v3&utm_medium=api_v3_business_search&utm_source=ywY5UnLZrNrRl2b93Ruy_g", "review_count": 37, "categories": [{"alias": "chinese", "title": "Chinese"}, {"alias": "seafood", "title": "Seafood"}, {"alias": "panasian", "title": "Pan Asian"}], "rating": 3.5, "coordinates": {"latitude": 42.0896644963225, "longitude": -71.474663607132}, "transactions": ["pickup", "delivery"], "price": "$", "location": {"address1": "15 N Main St", "address2": "", "address3": "", "city": "Bellingham", "zip_code": "02019", "country": "US", "state": "MA", "display_address": ["15 N Main St", "Bellingham, MA 02019"]}, "phone": "+15089663778", "display_phone": "(508) 966-3778", "distance": 7251.954676695347}, {"id": "DH3SW8QzVrbx7L_ZKetpcg", "alias": "patriots-diner-woonsocket", "name": "Patriots Diner", "image_url": "https://s3-media3.fl.yelpcdn.com/bphoto/PCNu3FB-GA_77KSWyQeb1w/o.jpg", "is_closed": false, "url": "https://www.yelp.com/biz/patriots-diner-woonsocket?adjust_creative=ywY5UnLZrNrRl2b93Ruy_g&utm_campaign=yelp_api_v3&utm_medium=api_v3_business_search&utm_source=ywY5UnLZrNrRl2b93Ruy_g", "review_count": 311, "categories": [{"alias": "diners", "title": "Diners"}, {"alias": "tradamerican", "title": "American (Traditional)"}], "rating": 4.0, "coordinates": {"latitude": 41.991307109827, "longitude": -71.485044928239}, "transactions": ["pickup", "delivery"], "price": "$", "location": {"address1": "65 Founders Dr", "address2": "", "address3": "", "city": "Woonsocket", "zip_code": "02895", "country": "US", "state": "RI", "display_address": ["65 Founders Dr", "Woonsocket, RI 02895"]}, "phone": "+14017656900", "display_phone": "(401) 765-6900", "distance": 6573.507510924247}, {"id": "0DgbZ9mul31T-fNhdMfmKw", "alias": "chelos-hometown-bar-and-grille-woonsocket-2", "name": "Chelo's Hometown Bar & Grille", "image_url": "https://s3-media2.fl.yelpcdn.com/bphoto/5B0xP_zE_P80rH9Zbkw72Q/o.jpg", "is_closed": false, "url": "https://www.yelp.com/biz/chelos-hometown-bar-and-grille-woonsocket-2?adjust_creative=ywY5UnLZrNrRl2b93Ruy_g&utm_campaign=yelp_api_v3&utm_medium=api_v3_business_search&utm_source=ywY5UnLZrNrRl2b93Ruy_g", "review_count": 51, "categories": [{"alias": "burgers", "title": "Burgers"}, {"alias": "tradamerican", "title": "American (Traditional)"}], "rating": 3.0, "coordinates": {"latitude": 42.007686, "longitude": -71.506278}, "transactions": ["delivery"], "price": "$$", "location": {"address1": "490 Clinton St", "address2": "", "address3": "", "city": "Woonsocket", "zip_code": "02895", "country": "US", "state": "RI", "display_address": ["490 Clinton St", "Woonsocket, RI 02895"]}, "phone": "+14017696622", "display_phone": "(401) 769-6622", "distance": 4091.6334773016356}, {"id": "3b4J007NMpzmSPplBSYDcQ", "alias": "buddys-lower-level-bar-and-grill-north-smithfield", "name": "Buddy's Lower Level Bar & Grill", "image_url": "https://s3-media4.fl.yelpcdn.com/bphoto/xpEdDgI50imkZogq_0T18g/o.jpg", "is_closed": false, "url": "https://www.yelp.com/biz/buddys-lower-level-bar-and-grill-north-smithfield?adjust_creative=ywY5UnLZrNrRl2b93Ruy_g&utm_campaign=yelp_api_v3&utm_medium=api_v3_business_search&utm_source=ywY5UnLZrNrRl2b93Ruy_g", "review_count": 7, "categories": [{"alias": "bars", "title": "Bars"}, {"alias": "tradamerican", "title": "American (Traditional)"}], "rating": 4.0, "coordinates": {"latitude": 41.97903, "longitude": -71.51363}, "transactions": [], "price": "$", "location": {"address1": "175 Eddie Dowling Hwy", "address2": null, "address3": null, "city": "North Smithfield", "zip_code": "02896", "country": "US", "state": "RI", "display_address": ["175 Eddie Dowling Hwy", "North Smithfield, RI 02896"]}, "phone": "+14017697900", "display_phone": "(401) 769-7900", "distance": 6879.567645037911}, {"id": "7irn3abXSRNeRohyFcJOxA", "alias": "blackhawk-pizza-bellingham", "name": "Blackhawk Pizza", "image_url": "https://s3-media4.fl.yelpcdn.com/bphoto/gQuc8b6JOVL8hnvaNjLgGQ/o.jpg", "is_closed": false, "url": "https://www.yelp.com/biz/blackhawk-pizza-bellingham?adjust_creative=ywY5UnLZrNrRl2b93Ruy_g&utm_campaign=yelp_api_v3&utm_medium=api_v3_business_search&utm_source=ywY5UnLZrNrRl2b93Ruy_g", "review_count": 30, "categories": [{"alias": "pizza", "title": "Pizza"}, {"alias": "hotdogs", "title": "Fast Food"}, {"alias": "greek", "title": "Greek"}], "rating": 4.0, "coordinates": {"latitude": 42.0539970397949, "longitude": -71.4838409423828}, "transactions": ["delivery"], "price": "$$", "location": {"address1": "829 S Main St", "address2": "Unit 1", "address3": "", "city": "Bellingham", "zip_code": "02019", "country": "US", "state": "MA", "display_address": ["829 S Main St", "Unit 1", "Bellingham, MA 02019"]}, "phone": "+15088830055", "display_phone": "(508) 883-0055", "distance": 4189.303595455796}, {"id": "uqzp9jHeLAjMbeNE2SRoGg", "alias": "king-wok-chinese-restaurant-woonsocket", "name": "King Wok Chinese Restaurant", "image_url": "https://s3-media3.fl.yelpcdn.com/bphoto/Asd_Zmufjkzek-pocEAzKA/o.jpg", "is_closed": false, "url": "https://www.yelp.com/biz/king-wok-chinese-restaurant-woonsocket?adjust_creative=ywY5UnLZrNrRl2b93Ruy_g&utm_campaign=yelp_api_v3&utm_medium=api_v3_business_search&utm_source=ywY5UnLZrNrRl2b93Ruy_g", "review_count": 34, "categories": [{"alias": "chinese", "title": "Chinese"}], "rating": 3.5, "coordinates": {"latitude": 42.0067499, "longitude": -71.5056199}, "transactions": ["delivery"], "price": "$", "location": {"address1": "477 Clinton St", "address2": "", "address3": "", "city": "Woonsocket", "zip_code": "02895", "country": "US", "state": "RI", "display_address": ["477 Clinton St", "Woonsocket, RI 02895"]}, "phone": "+14017620025", "display_phone": "(401) 762-0025", "distance": 4216.196157431353}, {"id": "DdyDs2x52X6Rqh2U8-KPxg", "alias": "devlins-tavern-bellingham", "name": "Devlin's Tavern", "image_url": "https://s3-media3.fl.yelpcdn.com/bphoto/UoP82YOORB9XhAEqW47Mmw/o.jpg", "is_closed": false, "url": "https://www.yelp.com/biz/devlins-tavern-bellingham?adjust_creative=ywY5UnLZrNrRl2b93Ruy_g&utm_campaign=yelp_api_v3&utm_medium=api_v3_business_search&utm_source=ywY5UnLZrNrRl2b93Ruy_g", "review_count": 11, "categories": [{"alias": "bars", "title": "Bars"}, {"alias": "tradamerican", "title": "American (Traditional)"}], "rating": 3.0, "coordinates": {"latitude": 42.088744, "longitude": -71.474123}, "transactions": ["delivery"], "location": {"address1": "15 North St", "address2": "", "address3": null, "city": "Bellingham", "zip_code": "02019", "country": "US", "state": "MA", "display_address": ["15 North St", "Bellingham, MA 02019"]}, "phone": "+15086570196", "display_phone": "(508) 657-0196", "distance": 7202.680169717985}, {"id": "N-7r3MOvaMbsEiZpmtsHOw", "alias": "new-york-lunch-woonsocket", "name": "New York Lunch", "image_url": "https://s3-media2.fl.yelpcdn.com/bphoto/68xJdHRUxVTXoCyA38fuGA/o.jpg", "is_closed": false, "url": "https://www.yelp.com/biz/new-york-lunch-woonsocket?adjust_creative=ywY5UnLZrNrRl2b93Ruy_g&utm_campaign=yelp_api_v3&utm_medium=api_v3_business_search&utm_source=ywY5UnLZrNrRl2b93Ruy_g", "review_count": 49, "categories": [{"alias": "hotdog", "title": "Hot Dogs"}], "rating": 4.0, "coordinates": {"latitude": 42.0006404, "longitude": -71.516041}, "transactions": [], "price": "$", "location": {"address1": "8 Main St", "address2": "", "address3": "", "city": "Woonsocket", "zip_code": "02895", "country": "US", "state": "RI", "display_address": ["8 Main St", "Woonsocket, RI 02895"]}, "phone": "+14017629619", "display_phone": "(401) 762-9619", "distance": 4503.040922262425}, {"id": "ASPhReiu3rooTrDue-baTQ", "alias": "empire-buffet-woonsocket", "name": "Empire Buffet", "image_url": "https://s3-media1.fl.yelpcdn.com/bphoto/DGXzBQ5UHoUcyl51Q7WUgw/o.jpg", "is_closed": false, "url": "https://www.yelp.com/biz/empire-buffet-woonsocket?adjust_creative=ywY5UnLZrNrRl2b93Ruy_g&utm_campaign=yelp_api_v3&utm_medium=api_v3_business_search&utm_source=ywY5UnLZrNrRl2b93Ruy_g", "review_count": 59, "categories": [{"alias": "chinese", "title": "Chinese"}], "rating": 3.5, "coordinates": {"latitude": 42.0158424377441, "longitude": -71.4902572631836}, "transactions": ["delivery"], "price": "$", "location": {"address1": "876 Diamond Hill Rd", "address2": "", "address3": "", "city": "Woonsocket", "zip_code": "02895", "country": "US", "state": "RI", "display_address": ["876 Diamond Hill Rd", "Woonsocket, RI 02895"]}, "phone": "+14017669888", "display_phone": "(401) 766-9888", "distance": 4270.223890554415}, {"id": "rPZMmSmvp1QbhdFzbFwH2Q", "alias": "mickey-gs-clam-shack-cumberland", "name": "Mickey G's Clam Shack", "image_url": "https://s3-media3.fl.yelpcdn.com/bphoto/BgDmNcnPxMkpxzfvv-tCrw/o.jpg", "is_closed": false, "url": "https://www.yelp.com/biz/mickey-gs-clam-shack-cumberland?adjust_creative=ywY5UnLZrNrRl2b93Ruy_g&utm_campaign=yelp_api_v3&utm_medium=api_v3_business_search&utm_source=ywY5UnLZrNrRl2b93Ruy_g", "review_count": 5, "categories": [{"alias": "foodstands", "title": "Food Stands"}], "rating": 5.0, "coordinates": {"latitude": 41.9666667, "longitude": -71.4327778}, "transactions": [], "location": {"address1": "", "address2": "", "address3": "", "city": "Cumberland", "zip_code": "", "country": "US", "state": "RI", "display_address": ["Cumberland, RI"]}, "phone": "", "display_phone": "", "distance": 11470.07340401832}, {"id": "VifmfCbrMaPVKD78lFfflA", "alias": "ideal-pizza-blackstone", "name": "Ideal Pizza", "image_url": "https://s3-media1.fl.yelpcdn.com/bphoto/sZ-0w_jT0_OtUqlRLMCcHw/o.jpg", "is_closed": false, "url": "https://www.yelp.com/biz/ideal-pizza-blackstone?adjust_creative=ywY5UnLZrNrRl2b93Ruy_g&utm_campaign=yelp_api_v3&utm_medium=api_v3_business_search&utm_source=ywY5UnLZrNrRl2b93Ruy_g", "review_count": 11, "categories": [{"alias": "pizza", "title": "Pizza"}], "rating": 2.5, "coordinates": {"latitude": 42.015372, "longitude": -71.527309}, "transactions": ["delivery"], "price": "$", "location": {"address1": "2 Main St", "address2": "Ste 1", "address3": "", "city": "Blackstone", "zip_code": "01504", "country": "US", "state": "MA", "display_address": ["2 Main St", "Ste 1", "Blackstone, MA 01504"]}, "phone": "+15088834455", "display_phone": "(508) 883-4455", "distance": 2709.9709390305206}, {"id": "wa4SGYw_n8iTLQNJwZgRHw", "alias": "chans-woonsocket", "name": "Chan's", "image_url": "https://s3-media2.fl.yelpcdn.com/bphoto/NVQRdDHC0SsDEddUVx0nOg/o.jpg", "is_closed": false, "url": "https://www.yelp.com/biz/chans-woonsocket?adjust_creative=ywY5UnLZrNrRl2b93Ruy_g&utm_campaign=yelp_api_v3&utm_medium=api_v3_business_search&utm_source=ywY5UnLZrNrRl2b93Ruy_g", "review_count": 129, "categories": [{"alias": "chinese", "title": "Chinese"}, {"alias": "jazzandblues", "title": "Jazz & Blues"}, {"alias": "seafood", "title": "Seafood"}], "rating": 2.5, "coordinates": {"latitude": 42.0040867, "longitude": -71.512502}, "transactions": ["delivery"], "price": "$$", "location": {"address1": "267 Main St", "address2": null, "address3": "", "city": "Woonsocket", "zip_code": "02895", "country": "US", "state": "RI", "display_address": ["267 Main St", "Woonsocket, RI 02895"]}, "phone": "+14017651900", "display_phone": "(401) 765-1900", "distance": 4232.045643514336}, {"id": "FP23m_z_uxIlg_Pv3BSpaw", "alias": "the-bellingham-palace-bellingham", "name": "The Bellingham Palace", "image_url": "https://s3-media3.fl.yelpcdn.com/bphoto/ssUHth_xz8kJpDhNFaMUSg/o.jpg", "is_closed": false, "url": "https://www.yelp.com/biz/the-bellingham-palace-bellingham?adjust_creative=ywY5UnLZrNrRl2b93Ruy_g&utm_campaign=yelp_api_v3&utm_medium=api_v3_business_search&utm_source=ywY5UnLZrNrRl2b93Ruy_g", "review_count": 95, "categories": [{"alias": "burgers", "title": "Burgers"}, {"alias": "pizza", "title": "Pizza"}, {"alias": "sandwiches", "title": "Sandwiches"}], "rating": 3.5, "coordinates": {"latitude": 42.01891, "longitude": -71.49647}, "transactions": ["delivery"], "price": "$", "location": {"address1": "90 Pulaski Blvd", "address2": null, "address3": "", "city": "Bellingham", "zip_code": "02019", "country": "US", "state": "MA", "display_address": ["90 Pulaski Blvd", "Bellingham, MA 02019"]}, "phone": "+15088831074", "display_phone": "(508) 883-1074", "distance": 3654.271072911532}, {"id": "FqpUGr4StGpcqGKu4kjLsQ", "alias": "famous-house-of-pizza-bellingham", "name": "Famous House of Pizza", "image_url": "https://s3-media2.fl.yelpcdn.com/bphoto/0JbpFDDFqoq1nxvoTZNGXA/o.jpg", "is_closed": false, "url": "https://www.yelp.com/biz/famous-house-of-pizza-bellingham?adjust_creative=ywY5UnLZrNrRl2b93Ruy_g&utm_campaign=yelp_api_v3&utm_medium=api_v3_business_search&utm_source=ywY5UnLZrNrRl2b93Ruy_g", "review_count": 41, "categories": [{"alias": "pizza", "title": "Pizza"}], "rating": 4.0, "coordinates": {"latitude": 42.091525, "longitude": -71.47713}, "transactions": ["delivery"], "price": "$", "location": {"address1": "40 N Main St", "address2": "", "address3": "", "city": "Bellingham", "zip_code": "02019", "country": "US", "state": "MA", "display_address": ["40 N Main St", "Bellingham, MA 02019"]}, "phone": "+15089661972", "display_phone": "(508) 966-1972", "distance": 7286.020285871139}, {"id": "gSccetieOarGSndw5ITdSw", "alias": "veg-m-bellingham", "name": "Veg M", "image_url": "https://s3-media3.fl.yelpcdn.com/bphoto/o7qeYsih3jspAyXfglE-MA/o.jpg", "is_closed": false, "url": "https://www.yelp.com/biz/veg-m-bellingham?adjust_creative=ywY5UnLZrNrRl2b93Ruy_g&utm_campaign=yelp_api_v3&utm_medium=api_v3_business_search&utm_source=ywY5UnLZrNrRl2b93Ruy_g", "review_count": 3, "categories": [{"alias": "chinese", "title": "Chinese"}], "rating": 1.0, "coordinates": {"latitude": 42.05113, "longitude": -71.48181}, "transactions": [], "location": {"address1": "799 S Main St", "address2": "Ste 7", "address3": "", "city": "Bellingham", "zip_code": "02019", "country": "US", "state": "MA", "display_address": ["799 S Main St", "Ste 7", "Bellingham, MA 02019"]}, "phone": "+15088832088", "display_phone": "(508) 883-2088", "distance": 4253.855416517483}, {"id": "FBxj5aiSH6WvjGnv0oZQGQ", "alias": "sandys-chill-spot-ice-cream-and-seafood-restaurant-bellingham", "name": "Sandy's Chill Spot Ice Cream & Seafood Restaurant", "image_url": "https://s3-media1.fl.yelpcdn.com/bphoto/9I5hExO8v1VhMASwW5JQRw/o.jpg", "is_closed": false, "url": "https://www.yelp.com/biz/sandys-chill-spot-ice-cream-and-seafood-restaurant-bellingham?adjust_creative=ywY5UnLZrNrRl2b93Ruy_g&utm_campaign=yelp_api_v3&utm_medium=api_v3_business_search&utm_source=ywY5UnLZrNrRl2b93Ruy_g", "review_count": 28, "categories": [{"alias": "icecream", "title": "Ice Cream & Frozen Yogurt"}, {"alias": "seafood", "title": "Seafood"}, {"alias": "hotdog", "title": "Hot Dogs"}], "rating": 4.5, "coordinates": {"latitude": 42.035896, "longitude": -71.481436}, "transactions": ["delivery"], "price": "$", "location": {"address1": "800 Pulaski Blvd", "address2": "", "address3": "", "city": "Bellingham", "zip_code": "02019", "country": "US", "state": "MA", "display_address": ["800 Pulaski Blvd", "Bellingham, MA 02019"]}, "phone": "+15083489478", "display_phone": "(508) 348-9478", "distance": 4109.913672942664}, {"id": "ot9ck3-nQchZ-Pno9b9y0Q", "alias": "china-house-woonsocket-2", "name": "China House", "image_url": "https://s3-media1.fl.yelpcdn.com/bphoto/jbyCULIGOkDWeyuqJjrQpA/o.jpg", "is_closed": false, "url": "https://www.yelp.com/biz/china-house-woonsocket-2?adjust_creative=ywY5UnLZrNrRl2b93Ruy_g&utm_campaign=yelp_api_v3&utm_medium=api_v3_business_search&utm_source=ywY5UnLZrNrRl2b93Ruy_g", "review_count": 6, "categories": [{"alias": "chinese", "title": "Chinese"}], "rating": 3.0, "coordinates": {"latitude": 42.0080699, "longitude": -71.50918}, "transactions": ["delivery"], "location": {"address1": "240 Social St", "address2": "", "address3": null, "city": "Woonsocket", "zip_code": "02895", "country": "US", "state": "RI", "display_address": ["240 Social St", "Woonsocket, RI 02895"]}, "phone": "+14013561443", "display_phone": "(401) 356-1443", "distance": 3938.9350524313463}, {"id": "a-Bj8NJQ_yvMG7vPe4HX1A", "alias": "coffee-and-cream-north-smithfield-3", "name": "Coffee & Cream", "image_url": "https://s3-media1.fl.yelpcdn.com/bphoto/CIQRQGgtXNESSaNWKXXBkg/o.jpg", "is_closed": false, "url": "https://www.yelp.com/biz/coffee-and-cream-north-smithfield-3?adjust_creative=ywY5UnLZrNrRl2b93Ruy_g&utm_campaign=yelp_api_v3&utm_medium=api_v3_business_search&utm_source=ywY5UnLZrNrRl2b93Ruy_g", "review_count": 7, "categories": [{"alias": "breakfast_brunch", "title": "Breakfast & Brunch"}, {"alias": "coffee", "title": "Coffee & Tea"}], "rating": 4.0, "coordinates": {"latitude": 42.0051, "longitude": -71.5856228}, "transactions": [], "location": {"address1": "900 Victory Hwy", "address2": "", "address3": null, "city": "North Smithfield", "zip_code": "02876", "country": "US", "state": "RI", "display_address": ["900 Victory Hwy", "North Smithfield, RI 02876"]}, "phone": "+14014884448", "display_phone": "(401) 488-4448", "distance": 5924.936358966671}, {"id": "zJ6ipwDq1PM4T8Qw6j6Z9Q", "alias": "maks-roast-beef-and-pizza-bellingham", "name": "Mak's Roast Beef And Pizza", "image_url": "https://s3-media3.fl.yelpcdn.com/bphoto/HRDXERSN-HssqKv71EvbdQ/o.jpg", "is_closed": false, "url": "https://www.yelp.com/biz/maks-roast-beef-and-pizza-bellingham?adjust_creative=ywY5UnLZrNrRl2b93Ruy_g&utm_campaign=yelp_api_v3&utm_medium=api_v3_business_search&utm_source=ywY5UnLZrNrRl2b93Ruy_g", "review_count": 51, "categories": [{"alias": "pizza", "title": "Pizza"}], "rating": 3.5, "coordinates": {"latitude": 42.0269597321749, "longitude": -71.4887546002865}, "transactions": ["delivery"], "price": "$", "location": {"address1": "431 Pulaski Blvd", "address2": "", "address3": "", "city": "Bellingham", "zip_code": "02019", "country": "US", "state": "MA", "display_address": ["431 Pulaski Blvd", "Bellingham, MA 02019"]}, "phone": "+15089282758", "display_phone": "(508) 928-2758", "distance": 3757.207454957264}, {"id": "D0PJqMKR1O2waHCkl3oK3g", "alias": "99-restaurants-franklin", "name": "99 Restaurants", "image_url": "https://s3-media3.fl.yelpcdn.com/bphoto/btmXw_jt49ABsrhg8UsR3g/o.jpg", "is_closed": false, "url": "https://www.yelp.com/biz/99-restaurants-franklin?adjust_creative=ywY5UnLZrNrRl2b93Ruy_g&utm_campaign=yelp_api_v3&utm_medium=api_v3_business_search&utm_source=ywY5UnLZrNrRl2b93Ruy_g", "review_count": 44, "categories": [{"alias": "tradamerican", "title": "American (Traditional)"}, {"alias": "pubs", "title": "Pubs"}, {"alias": "desserts", "title": "Desserts"}], "rating": 3.0, "coordinates": {"latitude": 42.09093, "longitude": -71.43192}, "transactions": ["pickup", "delivery"], "price": "$$", "location": {"address1": "847 W Central St", "address2": "", "address3": "", "city": "Franklin", "zip_code": "02038", "country": "US", "state": "MA", "display_address": ["847 W Central St", "Franklin, MA 02038"]}, "phone": "+15085209909", "display_phone": "(508) 520-9909", "distance": 9977.531938268403}, {"id": "UAexFbIHNTkznoH7yvPJsQ", "alias": "bocce-club-restaurant-woonsocket", "name": "Bocce Club Restaurant", "image_url": "https://s3-media1.fl.yelpcdn.com/bphoto/_1z52sc3_QHTyQW2LdfJYg/o.jpg", "is_closed": false, "url": "https://www.yelp.com/biz/bocce-club-restaurant-woonsocket?adjust_creative=ywY5UnLZrNrRl2b93Ruy_g&utm_campaign=yelp_api_v3&utm_medium=api_v3_business_search&utm_source=ywY5UnLZrNrRl2b93Ruy_g", "review_count": 18, "categories": [{"alias": "italian", "title": "Italian"}], "rating": 2.5, "coordinates": {"latitude": 42.014575958252, "longitude": -71.4899291992188}, "transactions": [], "price": "$$", "location": {"address1": "226 Saint Louis Ave", "address2": "", "address3": "", "city": "Woonsocket", "zip_code": "02895", "country": "US", "state": "RI", "display_address": ["226 Saint Louis Ave", "Woonsocket, RI 02895"]}, "phone": "+14017672000", "display_phone": "(401) 767-2000", "distance": 4386.132835167162}, {"id": "ILgqYpmPK6S64f6_wG8l-A", "alias": "outback-steakhouse-bellingham", "name": "Outback Steakhouse", "image_url": "https://s3-media2.fl.yelpcdn.com/bphoto/UaR9DFPIsRA1_ztL-knfFQ/o.jpg", "is_closed": false, "url": "https://www.yelp.com/biz/outback-steakhouse-bellingham?adjust_creative=ywY5UnLZrNrRl2b93Ruy_g&utm_campaign=yelp_api_v3&utm_medium=api_v3_business_search&utm_source=ywY5UnLZrNrRl2b93Ruy_g", "review_count": 77, "categories": [{"alias": "steak", "title": "Steakhouses"}], "rating": 3.0, "coordinates": {"latitude": 42.1129979897263, "longitude": -71.4724366239252}, "transactions": [], "price": "$$", "location": {"address1": "275 N Main St", "address2": "", "address3": "", "city": "Bellingham", "zip_code": "02019", "country": "US", "state": "MA", "display_address": ["275 N Main St", "Bellingham, MA 02019"]}, "phone": "+15089669333", "display_phone": "(508) 966-9333", "distance": 9484.087941252294}, {"id": "BtSCWqOh_z_bzQAMlF5cCQ", "alias": "woonsocket-palace-pizza-woonsocket", "name": "Woonsocket Palace Pizza", "image_url": "https://s3-media3.fl.yelpcdn.com/bphoto/KRA-HAp6R_JLNJXw1I7G6w/o.jpg", "is_closed": false, "url": "https://www.yelp.com/biz/woonsocket-palace-pizza-woonsocket?adjust_creative=ywY5UnLZrNrRl2b93Ruy_g&utm_campaign=yelp_api_v3&utm_medium=api_v3_business_search&utm_source=ywY5UnLZrNrRl2b93Ruy_g", "review_count": 12, "categories": [{"alias": "pizza", "title": "Pizza"}], "rating": 3.5, "coordinates": {"latitude": 42.0015791, "longitude": -71.5111735}, "transactions": ["pickup", "delivery"], "price": "$", "location": {"address1": "85 Front St", "address2": "Unit B", "address3": "", "city": "Woonsocket", "zip_code": "02895", "country": "US", "state": "RI", "display_address": ["85 Front St", "Unit B", "Woonsocket, RI 02895"]}, "phone": "+14017669777", "display_phone": "(401) 766-9777", "distance": 4531.7018974595485}, {"id": "z5NHbHXn0krY9XPGkdnHmQ", "alias": "js-deli-woonsocket", "name": "J's Deli", "image_url": "https://s3-media3.fl.yelpcdn.com/bphoto/mAcrBe2MECfMQEz4ZNK4zQ/o.jpg", "is_closed": false, "url": "https://www.yelp.com/biz/js-deli-woonsocket?adjust_creative=ywY5UnLZrNrRl2b93Ruy_g&utm_campaign=yelp_api_v3&utm_medium=api_v3_business_search&utm_source=ywY5UnLZrNrRl2b93Ruy_g", "review_count": 79, "categories": [{"alias": "sandwiches", "title": "Sandwiches"}], "rating": 3.5, "coordinates": {"latitude": 41.9960975646973, "longitude": -71.4883422851562}, "transactions": ["pickup", "delivery"], "price": "$", "location": {"address1": "760 Cumberland Hill Rd", "address2": "", "address3": "", "city": "Woonsocket", "zip_code": "02895", "country": "US", "state": "RI", "display_address": ["760 Cumberland Hill Rd", "Woonsocket, RI 02895"]}, "phone": "+14013561430", "display_phone": "(401) 356-1430", "distance": 5981.619467016717}, {"id": "vc3UQd1asGWc8BeJc6o4yQ", "alias": "ricks-bar-and-grill-woonsocket", "name": "Rick's Bar and Grill", "image_url": "https://s3-media3.fl.yelpcdn.com/bphoto/Zbh2G4AkH4HhH0DnghhPMw/o.jpg", "is_closed": false, "url": "https://www.yelp.com/biz/ricks-bar-and-grill-woonsocket?adjust_creative=ywY5UnLZrNrRl2b93Ruy_g&utm_campaign=yelp_api_v3&utm_medium=api_v3_business_search&utm_source=ywY5UnLZrNrRl2b93Ruy_g", "review_count": 6, "categories": [{"alias": "bars", "title": "Bars"}, {"alias": "pizza", "title": "Pizza"}, {"alias": "tradamerican", "title": "American (Traditional)"}], "rating": 4.0, "coordinates": {"latitude": 42.0054615, "longitude": -71.4936115}, "transactions": ["pickup", "delivery"], "location": {"address1": "297 Cass Ave", "address2": null, "address3": null, "city": "Woonsocket", "zip_code": "02895", "country": "US", "state": "RI", "display_address": ["297 Cass Ave", "Woonsocket, RI 02895"]}, "phone": "+14017683444", "display_phone": "(401) 768-3444", "distance": 4900.926314711172}, {"id": "aL3d51-T-06r0ZnFZg7Vpg", "alias": "italian-pizza-and-grill-bellingham", "name": "Italian Pizza & Grill", "image_url": "https://s3-media3.fl.yelpcdn.com/bphoto/q7EWk3a8HFaoOiZM3DByaA/o.jpg", "is_closed": false, "url": "https://www.yelp.com/biz/italian-pizza-and-grill-bellingham?adjust_creative=ywY5UnLZrNrRl2b93Ruy_g&utm_campaign=yelp_api_v3&utm_medium=api_v3_business_search&utm_source=ywY5UnLZrNrRl2b93Ruy_g", "review_count": 19, "categories": [{"alias": "pizza", "title": "Pizza"}, {"alias": "sandwiches", "title": "Sandwiches"}, {"alias": "italian", "title": "Italian"}], "rating": 3.5, "coordinates": {"latitude": 42.019276, "longitude": -71.495366}, "transactions": ["pickup", "delivery"], "price": "$$", "location": {"address1": "131 Pulaski Blvd", "address2": "", "address3": "", "city": "Bellingham", "zip_code": "02019", "country": "US", "state": "MA", "display_address": ["131 Pulaski Blvd", "Bellingham, MA 02019"]}, "phone": "+15088761020", "display_phone": "(508) 876-1020", "distance": 3707.148354004597}, {"id": "R2kWJn1F-w4kjMrOvi4GtA", "alias": "uno-pizzeria-and-grill-bellingham", "name": "Uno Pizzeria & Grill", "image_url": "https://s3-media1.fl.yelpcdn.com/bphoto/AmYMf_b2HmSmdhPnIl8ulg/o.jpg", "is_closed": false, "url": "https://www.yelp.com/biz/uno-pizzeria-and-grill-bellingham?adjust_creative=ywY5UnLZrNrRl2b93Ruy_g&utm_campaign=yelp_api_v3&utm_medium=api_v3_business_search&utm_source=ywY5UnLZrNrRl2b93Ruy_g", "review_count": 61, "categories": [{"alias": "pizza", "title": "Pizza"}, {"alias": "gluten_free", "title": "Gluten-Free"}, {"alias": "tradamerican", "title": "American (Traditional)"}], "rating": 3.5, "coordinates": {"latitude": 42.1136770982836, "longitude": -71.4691849650105}, "transactions": ["pickup", "delivery"], "price": "$$", "location": {"address1": "Crossroads Shopping Ctr", "address2": "205 Hartford Ave", "address3": "", "city": "Bellingham", "zip_code": "02019", "country": "US", "state": "MA", "display_address": ["Crossroads Shopping Ctr", "205 Hartford Ave", "Bellingham, MA 02019"]}, "phone": "+15089663300", "display_phone": "(508) 966-3300", "distance": 9687.640204985388}, {"id": "CfKT3OZwUZNYLViI-9sEeQ", "alias": "missys-family-restaurant-woonsocket", "name": "Missy's Family Restaurant", "image_url": "https://s3-media3.fl.yelpcdn.com/bphoto/y1vrphipvSiVyNIE_klFEA/o.jpg", "is_closed": false, "url": "https://www.yelp.com/biz/missys-family-restaurant-woonsocket?adjust_creative=ywY5UnLZrNrRl2b93Ruy_g&utm_campaign=yelp_api_v3&utm_medium=api_v3_business_search&utm_source=ywY5UnLZrNrRl2b93Ruy_g", "review_count": 22, "categories": [{"alias": "breakfast_brunch", "title": "Breakfast & Brunch"}], "rating": 4.0, "coordinates": {"latitude": 42.0092027562116, "longitude": -71.5019413456321}, "transactions": ["pickup", "delivery"], "price": "$$", "location": {"address1": "801 Clinton St", "address2": "", "address3": "", "city": "Woonsocket", "zip_code": "02895", "country": "US", "state": "RI", "display_address": ["801 Clinton St", "Woonsocket, RI 02895"]}, "phone": "+14015976442", "display_phone": "(401) 597-6442", "distance": 4142.657301150463}, {"id": "k4OOc1yd7Q57GgFgs8KTeQ", "alias": "park-ave-pizza-woonsocket", "name": "Park Ave Pizza", "image_url": "https://s3-media3.fl.yelpcdn.com/bphoto/d13MUUhRtqmn5PMJp96Ibg/o.jpg", "is_closed": false, "url": "https://www.yelp.com/biz/park-ave-pizza-woonsocket?adjust_creative=ywY5UnLZrNrRl2b93Ruy_g&utm_campaign=yelp_api_v3&utm_medium=api_v3_business_search&utm_source=ywY5UnLZrNrRl2b93Ruy_g", "review_count": 37, "categories": [{"alias": "pizza", "title": "Pizza"}, {"alias": "italian", "title": "Italian"}], "rating": 3.5, "coordinates": {"latitude": 41.9916038513184, "longitude": -71.5148010253906}, "transactions": ["delivery"], "price": "$$", "location": {"address1": "857 Park Ave", "address2": "", "address3": "", "city": "Woonsocket", "zip_code": "02895", "country": "US", "state": "RI", "display_address": ["857 Park Ave", "Woonsocket, RI 02895"]}, "phone": "+14017653142", "display_phone": "(401) 765-3142", "distance": 5497.361817316518}, {"id": "YdZPnBD1riY8rvhm1e1R0g", "alias": "modern-bistro-cumberland", "name": "Modern Bistro", "image_url": "https://s3-media2.fl.yelpcdn.com/bphoto/poFWBAIuFaWKqpklWekq2w/o.jpg", "is_closed": false, "url": "https://www.yelp.com/biz/modern-bistro-cumberland?adjust_creative=ywY5UnLZrNrRl2b93Ruy_g&utm_campaign=yelp_api_v3&utm_medium=api_v3_business_search&utm_source=ywY5UnLZrNrRl2b93Ruy_g", "review_count": 91, "categories": [{"alias": "breakfast_brunch", "title": "Breakfast & Brunch"}], "rating": 4.0, "coordinates": {"latitude": 41.9852333068848, "longitude": -71.4777755737305}, "transactions": ["delivery"], "price": "$", "location": {"address1": "4077 Mendon Rd", "address2": "", "address3": "", "city": "Cumberland", "zip_code": "02864", "country": "US", "state": "RI", "display_address": ["4077 Mendon Rd", "Cumberland, RI 02864"]}, "phone": "+14016580449", "display_phone": "(401) 658-0449", "distance": 7475.275360601946}, {"id": "q87il-TiOL3yBtWTZfvnCA", "alias": "dels-frozen-lemonade-bellingham", "name": "Del's Frozen Lemonade", "image_url": "", "is_closed": false, "url": "https://www.yelp.com/biz/dels-frozen-lemonade-bellingham?adjust_creative=ywY5UnLZrNrRl2b93Ruy_g&utm_campaign=yelp_api_v3&utm_medium=api_v3_business_search&utm_source=ywY5UnLZrNrRl2b93Ruy_g", "review_count": 1, "categories": [{"alias": "delis", "title": "Delis"}], "rating": 5.0, "coordinates": {"latitude": 42.02108, "longitude": -71.4935}, "transactions": [], "location": {"address1": "201 Pulaski Blvd", "address2": "", "address3": "", "city": "Bellingham", "zip_code": "02019", "country": "US", "state": "MA", "display_address": ["201 Pulaski Blvd", "Bellingham, MA 02019"]}, "phone": "+15088838844", "display_phone": "(508) 883-8844", "distance": 3715.629822973879}, {"id": "K78THltJtqnaNHFhH7kYTw", "alias": "vm-moonlight-north-smithfield", "name": "VM Moonlight", "image_url": "https://s3-media4.fl.yelpcdn.com/bphoto/bJlUkqTHmChjVCHqqqI_xQ/o.jpg", "is_closed": false, "url": "https://www.yelp.com/biz/vm-moonlight-north-smithfield?adjust_creative=ywY5UnLZrNrRl2b93Ruy_g&utm_campaign=yelp_api_v3&utm_medium=api_v3_business_search&utm_source=ywY5UnLZrNrRl2b93Ruy_g", "review_count": 4, "categories": [{"alias": "breakfast_brunch", "title": "Breakfast & Brunch"}], "rating": 4.0, "coordinates": {"latitude": 41.97903, "longitude": -71.51363}, "transactions": ["pickup", "delivery"], "location": {"address1": "175 Eddie Dowling Hwy", "address2": "", "address3": "", "city": "North Smithfield", "zip_code": "02896", "country": "US", "state": "RI", "display_address": ["175 Eddie Dowling Hwy", "North Smithfield, RI 02896"]}, "phone": "+14013561745", "display_phone": "(401) 356-1745", "distance": 6879.883045078823}, {"id": "CAT9w-IPD_HF4N7mn4cuZg", "alias": "new-hong-kong-woonsocket", "name": "New Hong Kong", "image_url": "https://s3-media1.fl.yelpcdn.com/bphoto/YF9nGCzPAh1mlDvUQffH5A/o.jpg", "is_closed": false, "url": "https://www.yelp.com/biz/new-hong-kong-woonsocket?adjust_creative=ywY5UnLZrNrRl2b93Ruy_g&utm_campaign=yelp_api_v3&utm_medium=api_v3_business_search&utm_source=ywY5UnLZrNrRl2b93Ruy_g", "review_count": 8, "categories": [{"alias": "chinese", "title": "Chinese"}], "rating": 3.0, "coordinates": {"latitude": 42.01145, "longitude": -71.50179}, "transactions": ["delivery"], "price": "$", "location": {"address1": "774 Social St", "address2": "", "address3": "", "city": "Woonsocket", "zip_code": "02895", "country": "US", "state": "RI", "display_address": ["774 Social St", "Woonsocket, RI 02895"]}, "phone": "+14017656868", "display_phone": "(401) 765-6868", "distance": 3953.4828588704304}, {"id": "RZBnFrMvsC2j1nyx25Y0DQ", "alias": "quaker-deli-and-variety-uxbridge", "name": "Quaker Deli & Variety", "image_url": "https://s3-media2.fl.yelpcdn.com/bphoto/z7RODcKDAqtkscJONyO4Og/o.jpg", "is_closed": false, "url": "https://www.yelp.com/biz/quaker-deli-and-variety-uxbridge?adjust_creative=ywY5UnLZrNrRl2b93Ruy_g&utm_campaign=yelp_api_v3&utm_medium=api_v3_business_search&utm_source=ywY5UnLZrNrRl2b93Ruy_g", "review_count": 6, "categories": [{"alias": "catering", "title": "Caterers"}, {"alias": "delis", "title": "Delis"}], "rating": 3.5, "coordinates": {"latitude": 42.0357551574707, "longitude": -71.6185455322266}, "transactions": [], "price": "$", "location": {"address1": "544 Quaker Hwy", "address2": "", "address3": "", "city": "Uxbridge", "zip_code": "01569", "country": "US", "state": "MA", "display_address": ["544 Quaker Hwy", "Uxbridge, MA 01569"]}, "phone": "+15082786845", "display_phone": "(508) 278-6845", "distance": 7256.426230738102}, {"id": "3icicrZjMcZUfE_P5WR80w", "alias": "barbaras-place-woonsocket", "name": "Barbara's Place", "image_url": "https://s3-media3.fl.yelpcdn.com/bphoto/KfL7qrb8A4FiRVJx2mZGEA/o.jpg", "is_closed": false, "url": "https://www.yelp.com/biz/barbaras-place-woonsocket?adjust_creative=ywY5UnLZrNrRl2b93Ruy_g&utm_campaign=yelp_api_v3&utm_medium=api_v3_business_search&utm_source=ywY5UnLZrNrRl2b93Ruy_g", "review_count": 13, "categories": [{"alias": "diners", "title": "Diners"}], "rating": 4.0, "coordinates": {"latitude": 42.0066795349121, "longitude": -71.5130157470703}, "transactions": ["delivery"], "price": "$", "location": {"address1": "79 N Main St", "address2": null, "address3": null, "city": "Woonsocket", "zip_code": "02895", "country": "US", "state": "RI", "display_address": ["79 N Main St", "Woonsocket, RI 02895"]}, "phone": "+14017624730", "display_phone": "(401) 762-4730", "distance": 3948.1813360849383}, {"id": "MkRcPhlNKCx4mLcmKphpQw", "alias": "hopedale-country-club-hopedale-3", "name": "Hopedale Country Club", "image_url": "https://s3-media4.fl.yelpcdn.com/bphoto/4OzIWiFWewdu1ekp74Rh9w/o.jpg", "is_closed": false, "url": "https://www.yelp.com/biz/hopedale-country-club-hopedale-3?adjust_creative=ywY5UnLZrNrRl2b93Ruy_g&utm_campaign=yelp_api_v3&utm_medium=api_v3_business_search&utm_source=ywY5UnLZrNrRl2b93Ruy_g", "review_count": 1, "categories": [{"alias": "venues", "title": "Venues & Event Spaces"}, {"alias": "seafood", "title": "Seafood"}, {"alias": "bars", "title": "Bars"}], "rating": 5.0, "coordinates": {"latitude": 42.11343833, "longitude": -71.5267395}, "transactions": [], "location": {"address1": "90 Mill St", "address2": "", "address3": null, "city": "Hopedale", "zip_code": "01747", "country": "US", "state": "MA", "display_address": ["90 Mill St", "Hopedale, MA 01747"]}, "phone": "+15084739876", "display_phone": "(508) 473-9876", "distance": 7965.135502399141}, {"id": "6oitktWSQGOd0KzvlMrI5Q", "alias": "hide-a-way-pizza-mendon-2", "name": "Hide-A-Way Pizza", "image_url": "https://s3-media1.fl.yelpcdn.com/bphoto/AIS6tQmxeK0EtnY3Gcjpnw/o.jpg", "is_closed": false, "url": "https://www.yelp.com/biz/hide-a-way-pizza-mendon-2?adjust_creative=ywY5UnLZrNrRl2b93Ruy_g&utm_campaign=yelp_api_v3&utm_medium=api_v3_business_search&utm_source=ywY5UnLZrNrRl2b93Ruy_g", "review_count": 89, "categories": [{"alias": "pizza", "title": "Pizza"}], "rating": 4.0, "coordinates": {"latitude": 42.0969568864465, "longitude": -71.5782347694039}, "transactions": [], "price": "$", "location": {"address1": "95 Uxbridge Rd", "address2": "", "address3": "", "city": "Mendon", "zip_code": "01756", "country": "US", "state": "MA", "display_address": ["95 Uxbridge Rd", "Mendon, MA 01756"]}, "phone": "+15084780600", "display_phone": "(508) 478-0600", "distance": 7477.929646882377}, {"id": "zDezRElRZik5ffd2_SEmEg", "alias": "buffalo-wild-wings-north-smithfield", "name": "Buffalo Wild Wings", "image_url": "https://s3-media3.fl.yelpcdn.com/bphoto/cvaG_l5qRiMUm-ge986ePw/o.jpg", "is_closed": false, "url": "https://www.yelp.com/biz/buffalo-wild-wings-north-smithfield?adjust_creative=ywY5UnLZrNrRl2b93Ruy_g&utm_campaign=yelp_api_v3&utm_medium=api_v3_business_search&utm_source=ywY5UnLZrNrRl2b93Ruy_g", "review_count": 98, "categories": [{"alias": "tradamerican", "title": "American (Traditional)"}, {"alias": "sportsbars", "title": "Sports Bars"}, {"alias": "chicken_wings", "title": "Chicken Wings"}], "rating": 2.5, "coordinates": {"latitude": 41.981884, "longitude": -71.510662}, "transactions": ["delivery"], "price": "$$", "location": {"address1": "51 Dowling Village Blvd", "address2": "", "address3": "", "city": "North Smithfield", "zip_code": "02896", "country": "US", "state": "RI", "display_address": ["51 Dowling Village Blvd", "North Smithfield, RI 02896"]}, "phone": "+14017652806", "display_phone": "(401) 765-2806", "distance": 6632.263281300369}, {"id": "h-xZBfvba5pgzDoqS1QJog", "alias": "mvp-pizzeria-woonsocket-2", "name": "MVP Pizzeria", "image_url": "https://s3-media2.fl.yelpcdn.com/bphoto/weOaCr_eMAtOrATWq897Nw/o.jpg", "is_closed": false, "url": "https://www.yelp.com/biz/mvp-pizzeria-woonsocket-2?adjust_creative=ywY5UnLZrNrRl2b93Ruy_g&utm_campaign=yelp_api_v3&utm_medium=api_v3_business_search&utm_source=ywY5UnLZrNrRl2b93Ruy_g", "review_count": 34, "categories": [{"alias": "pizza", "title": "Pizza"}, {"alias": "italian", "title": "Italian"}, {"alias": "sandwiches", "title": "Sandwiches"}], "rating": 4.0, "coordinates": {"latitude": 41.994962, "longitude": -71.486457}, "transactions": ["pickup", "delivery"], "price": "$", "location": {"address1": "840 Cumberland Hill Rd", "address2": "", "address3": "", "city": "Woonsocket", "zip_code": "02895", "country": "US", "state": "RI", "display_address": ["840 Cumberland Hill Rd", "Woonsocket, RI 02895"]}, "phone": "+14017673737", "display_phone": "(401) 767-3737", "distance": 6175.765590948567}, {"id": "UGc9EH9ygwpRnRjAbmtbmA", "alias": "sunrise-pizza-and-grille-woonsocket", "name": "Sunrise Pizza & Grille", "image_url": "https://s3-media4.fl.yelpcdn.com/bphoto/FZT--DYD1JeL44wKFUMdoA/o.jpg", "is_closed": false, "url": "https://www.yelp.com/biz/sunrise-pizza-and-grille-woonsocket?adjust_creative=ywY5UnLZrNrRl2b93Ruy_g&utm_campaign=yelp_api_v3&utm_medium=api_v3_business_search&utm_source=ywY5UnLZrNrRl2b93Ruy_g", "review_count": 74, "categories": [{"alias": "pizza", "title": "Pizza"}], "rating": 3.0, "coordinates": {"latitude": 42.00755, "longitude": -71.51024}, "transactions": ["pickup", "delivery"], "price": "$$", "location": {"address1": "180 Social St", "address2": "", "address3": "", "city": "Woonsocket", "zip_code": "02895", "country": "US", "state": "RI", "display_address": ["180 Social St", "Woonsocket, RI 02895"]}, "phone": "+14013561111", "display_phone": "(401) 356-1111", "distance": 3953.866267161852}, {"id": "hcxdGNsNSaQwxwy_dYT8ZQ", "alias": "breakfast-nook-bellingham", "name": "Breakfast Nook", "image_url": "https://s3-media2.fl.yelpcdn.com/bphoto/Vf_WWvcfXwKZ4BJiZV4yHA/o.jpg", "is_closed": false, "url": "https://www.yelp.com/biz/breakfast-nook-bellingham?adjust_creative=ywY5UnLZrNrRl2b93Ruy_g&utm_campaign=yelp_api_v3&utm_medium=api_v3_business_search&utm_source=ywY5UnLZrNrRl2b93Ruy_g", "review_count": 48, "categories": [{"alias": "breakfast_brunch", "title": "Breakfast & Brunch"}], "rating": 3.5, "coordinates": {"latitude": 42.04927, "longitude": -71.48607}, "transactions": [], "price": "$", "location": {"address1": "770 S Main St", "address2": "", "address3": "", "city": "Bellingham", "zip_code": "02019", "country": "US", "state": "MA", "display_address": ["770 S Main St", "Bellingham, MA 02019"]}, "phone": "+15088832442", "display_phone": "(508) 883-2442", "distance": 3854.4059328035983}, {"id": "jVIpzIiHKPWydcTMymq13w", "alias": "wilfreds-seafood-woonsocket", "name": "Wilfred's Seafood", "image_url": "https://s3-media1.fl.yelpcdn.com/bphoto/b45GcSBsu5Bff7WOsp6DFQ/o.jpg", "is_closed": false, "url": "https://www.yelp.com/biz/wilfreds-seafood-woonsocket?adjust_creative=ywY5UnLZrNrRl2b93Ruy_g&utm_campaign=yelp_api_v3&utm_medium=api_v3_business_search&utm_source=ywY5UnLZrNrRl2b93Ruy_g", "review_count": 10, "categories": [{"alias": "seafood", "title": "Seafood"}], "rating": 3.5, "coordinates": {"latitude": 41.995246887207, "longitude": -71.4884948730469}, "transactions": [], "price": "$$", "location": {"address1": "805 Cumberland Hill Rd", "address2": "", "address3": "", "city": "Woonsocket", "zip_code": "02895", "country": "US", "state": "RI", "display_address": ["805 Cumberland Hill Rd", "Woonsocket, RI 02895"]}, "phone": "+14017696260", "display_phone": "(401) 769-6260", "distance": 6048.331760143811}, {"id": "pv-XUNhkMT4bH16CbdYxqA", "alias": "aroma-ct-cafe-woonsocket", "name": "Aroma CT Cafe", "image_url": "https://s3-media2.fl.yelpcdn.com/bphoto/gS3ZtBrJgJousqoEJscFYA/o.jpg", "is_closed": false, "url": "https://www.yelp.com/biz/aroma-ct-cafe-woonsocket?adjust_creative=ywY5UnLZrNrRl2b93Ruy_g&utm_campaign=yelp_api_v3&utm_medium=api_v3_business_search&utm_source=ywY5UnLZrNrRl2b93Ruy_g", "review_count": 17, "categories": [{"alias": "donuts", "title": "Donuts"}, {"alias": "coffee", "title": "Coffee & Tea"}, {"alias": "breakfast_brunch", "title": "Breakfast & Brunch"}], "rating": 4.0, "coordinates": {"latitude": 42.0020019558317, "longitude": -71.5110990777612}, "transactions": ["pickup", "delivery"], "price": "$", "location": {"address1": "17 Front St", "address2": "", "address3": null, "city": "Woonsocket", "zip_code": "02895", "country": "US", "state": "RI", "display_address": ["17 Front St", "Woonsocket, RI 02895"]}, "phone": "+14017621606", "display_phone": "(401) 762-1606", "distance": 4490.116845353651}, {"id": "JLr13bSN2ccR8dbZoXn4Jg", "alias": "applebees-grill-bar-woonsocket", "name": "Applebee's Grill + Bar", "image_url": "https://s3-media4.fl.yelpcdn.com/bphoto/U5Tbsg-3ZO7V7qwlwgFHJw/o.jpg", "is_closed": false, "url": "https://www.yelp.com/biz/applebees-grill-bar-woonsocket?adjust_creative=ywY5UnLZrNrRl2b93Ruy_g&utm_campaign=yelp_api_v3&utm_medium=api_v3_business_search&utm_source=ywY5UnLZrNrRl2b93Ruy_g", "review_count": 39, "categories": [{"alias": "sportsbars", "title": "Sports Bars"}, {"alias": "burgers", "title": "Burgers"}, {"alias": "tradamerican", "title": "American (Traditional)"}], "rating": 3.0, "coordinates": {"latitude": 42.0148, "longitude": -71.4725}, "transactions": ["delivery"], "price": "$$", "location": {"address1": "1855 Diamond Hill Rd", "address2": "Diamond Hill Plaza", "address3": "", "city": "Woonsocket", "zip_code": "02895", "country": "US", "state": "RI", "display_address": ["1855 Diamond Hill Rd", "Diamond Hill Plaza", "Woonsocket, RI 02895"]}, "phone": "+14017671010", "display_phone": "(401) 767-1010", "distance": 5559.714739646302}, {"id": "7NEZVxW463XMK7kVVhBXqA", "alias": "j-and-d-pizza-woonsocket", "name": "J & D Pizza", "image_url": "https://s3-media2.fl.yelpcdn.com/bphoto/vs7qOF7lpq6uBwR4Wdt3TQ/o.jpg", "is_closed": false, "url": "https://www.yelp.com/biz/j-and-d-pizza-woonsocket?adjust_creative=ywY5UnLZrNrRl2b93Ruy_g&utm_campaign=yelp_api_v3&utm_medium=api_v3_business_search&utm_source=ywY5UnLZrNrRl2b93Ruy_g", "review_count": 32, "categories": [{"alias": "pizza", "title": "Pizza"}, {"alias": "italian", "title": "Italian"}], "rating": 3.5, "coordinates": {"latitude": 42.01409, "longitude": -71.48028}, "transactions": ["pickup", "delivery"], "price": "$", "location": {"address1": "282-284 Mendon Rd", "address2": "", "address3": "", "city": "Woonsocket", "zip_code": "02895", "country": "US", "state": "RI", "display_address": ["282-284 Mendon Rd", "Woonsocket, RI 02895"]}, "phone": "+14017692020", "display_phone": "(401) 769-2020", "distance": 5007.978222639742}, {"id": "Y28Jxm3fl0O__uK90Jzj4A", "alias": "hercules-beef-wings-and-pizza-north-smithfield", "name": "Hercules Beef, Wings & Pizza", "image_url": "https://s3-media1.fl.yelpcdn.com/bphoto/KGlnJkfJ_eysQgKjf6JVKg/o.jpg", "is_closed": false, "url": "https://www.yelp.com/biz/hercules-beef-wings-and-pizza-north-smithfield?adjust_creative=ywY5UnLZrNrRl2b93Ruy_g&utm_campaign=yelp_api_v3&utm_medium=api_v3_business_search&utm_source=ywY5UnLZrNrRl2b93Ruy_g", "review_count": 4, "categories": [{"alias": "pizza", "title": "Pizza"}, {"alias": "chicken_wings", "title": "Chicken Wings"}, {"alias": "sandwiches", "title": "Sandwiches"}], "rating": 3.5, "coordinates": {"latitude": 42.000133, "longitude": -71.579853}, "transactions": [], "location": {"address1": "7 Main St", "address2": null, "address3": "", "city": "North Smithfield", "zip_code": "02896", "country": "US", "state": "RI", "display_address": ["7 Main St", "North Smithfield, RI 02896"]}, "phone": "+14017661111", "display_phone": "(401) 766-1111", "distance": 5964.072706023786}, {"id": "-T8evaY6qmBXeRZvlu9l4g", "alias": "hideaway-pizza-uxbridge", "name": "Hideaway Pizza", "image_url": "https://s3-media1.fl.yelpcdn.com/bphoto/V_amlJ5BJqZI-lmTy01ibQ/o.jpg", "is_closed": false, "url": "https://www.yelp.com/biz/hideaway-pizza-uxbridge?adjust_creative=ywY5UnLZrNrRl2b93Ruy_g&utm_campaign=yelp_api_v3&utm_medium=api_v3_business_search&utm_source=ywY5UnLZrNrRl2b93Ruy_g", "review_count": 3, "categories": [{"alias": "pizza", "title": "Pizza"}], "rating": 3.5, "coordinates": {"latitude": 42.036511, "longitude": -71.619545}, "transactions": [], "price": "$$", "location": {"address1": "535 Quaker Hwy", "address2": "", "address3": "", "city": "Uxbridge", "zip_code": "01569", "country": "US", "state": "MA", "display_address": ["535 Quaker Hwy", "Uxbridge, MA 01569"]}, "phone": "+15082783700", "display_phone": "(508) 278-3700", "distance": 7324.382815040698}, {"id": "5rGouNNMCXi2lvBpLIeZvA", "alias": "martys-liquors-millville", "name": "Marty's Liquors", "image_url": "", "is_closed": false, "url": "https://www.yelp.com/biz/martys-liquors-millville?adjust_creative=ywY5UnLZrNrRl2b93Ruy_g&utm_campaign=yelp_api_v3&utm_medium=api_v3_business_search&utm_source=ywY5UnLZrNrRl2b93Ruy_g", "review_count": 6, "categories": [{"alias": "beer_and_wine", "title": "Beer, Wine & Spirits"}, {"alias": "delis", "title": "Delis"}, {"alias": "sandwiches", "title": "Sandwiches"}], "rating": 4.0, "coordinates": {"latitude": 42.0139304, "longitude": -71.5943051}, "transactions": [], "price": "$$", "location": {"address1": "1 Buxton St", "address2": "", "address3": null, "city": "Millville", "zip_code": "01529", "country": "US", "state": "MA", "display_address": ["1 Buxton St", "Millville, MA 01529"]}, "phone": "+15088831880", "display_phone": "(508) 883-1880", "distance": 5704.037632904784}, {"id": "BiCLQ2oUzOpUtk9LDaH07Q", "alias": "quaker-tavern-uxbridge", "name": "Quaker Tavern", "image_url": "https://s3-media4.fl.yelpcdn.com/bphoto/dCU0Y_OtzzrCsx54jFxq4w/o.jpg", "is_closed": false, "url": "https://www.yelp.com/biz/quaker-tavern-uxbridge?adjust_creative=ywY5UnLZrNrRl2b93Ruy_g&utm_campaign=yelp_api_v3&utm_medium=api_v3_business_search&utm_source=ywY5UnLZrNrRl2b93Ruy_g", "review_count": 31, "categories": [{"alias": "tradamerican", "title": "American (Traditional)"}], "rating": 3.0, "coordinates": {"latitude": 42.039944306016, "longitude": -71.620462462306}, "transactions": [], "price": "$$", "location": {"address1": "466 Quaker Hwy", "address2": "", "address3": "Rt 146A", "city": "Uxbridge", "zip_code": "01569", "country": "US", "state": "MA", "display_address": ["466 Quaker Hwy", "Rt 146A", "Uxbridge, MA 01569"]}, "phone": "+15087790901", "display_phone": "(508) 779-0901", "distance": 9205.169565569426}, {"id": "D798R4IHeoy1gX_5IG1cuA", "alias": "nonas-pizza-mendon", "name": "Nona's Pizza", "image_url": "https://s3-media1.fl.yelpcdn.com/bphoto/HwQ2N2N76jJhPt2kxDujdQ/o.jpg", "is_closed": false, "url": "https://www.yelp.com/biz/nonas-pizza-mendon?adjust_creative=ywY5UnLZrNrRl2b93Ruy_g&utm_campaign=yelp_api_v3&utm_medium=api_v3_business_search&utm_source=ywY5UnLZrNrRl2b93Ruy_g", "review_count": 12, "categories": [{"alias": "pizza", "title": "Pizza"}], "rating": 3.5, "coordinates": {"latitude": 42.095764, "longitude": -71.501494}, "transactions": ["delivery"], "location": {"address1": "1B Cape Rd Rte 140", "address2": "", "address3": "", "city": "Mendon", "zip_code": "01756", "country": "US", "state": "MA", "display_address": ["1B Cape Rd Rte 140", "Mendon, MA 01756"]}, "phone": "+15086343414", "display_phone": "(508) 634-3414", "distance": 6702.618722296504}, {"id": "oWOnXsUrsAeYZH1v9oJbBA", "alias": "muffin-house-cafe-mendon", "name": "Muffin House Cafe", "image_url": "https://s3-media1.fl.yelpcdn.com/bphoto/ygrogVtLBZttKq9Bs2wteg/o.jpg", "is_closed": false, "url": "https://www.yelp.com/biz/muffin-house-cafe-mendon?adjust_creative=ywY5UnLZrNrRl2b93Ruy_g&utm_campaign=yelp_api_v3&utm_medium=api_v3_business_search&utm_source=ywY5UnLZrNrRl2b93Ruy_g", "review_count": 98, "categories": [{"alias": "cafes", "title": "Cafes"}, {"alias": "coffee", "title": "Coffee & Tea"}, {"alias": "bakeries", "title": "Bakeries"}], "rating": 4.0, "coordinates": {"latitude": 42.10434, "longitude": -71.55735}, "transactions": ["delivery"], "price": "$", "location": {"address1": "32 Hastings St", "address2": "Ste 201", "address3": null, "city": "Mendon", "zip_code": "01756", "country": "US", "state": "MA", "display_address": ["32 Hastings St", "Ste 201", "Mendon, MA 01756"]}, "phone": "+15083810249", "display_phone": "(508) 381-0249", "distance": 7449.870576515088}, {"id": "zwJjOQPA2Sw_p4gsM-qGvQ", "alias": "subway-blackstone-3", "name": "Subway", "image_url": "https://s3-media4.fl.yelpcdn.com/bphoto/GnaYsE65ydgZ3bnXIR9Eaw/o.jpg", "is_closed": false, "url": "https://www.yelp.com/biz/subway-blackstone-3?adjust_creative=ywY5UnLZrNrRl2b93Ruy_g&utm_campaign=yelp_api_v3&utm_medium=api_v3_business_search&utm_source=ywY5UnLZrNrRl2b93Ruy_g", "review_count": 4, "categories": [{"alias": "sandwiches", "title": "Sandwiches"}], "rating": 4.5, "coordinates": {"latitude": 42.0163839934226, "longitude": -71.5273749116324}, "transactions": [], "price": "$", "location": {"address1": "4 Main St", "address2": null, "address3": null, "city": "Blackstone", "zip_code": "01504", "country": "US", "state": "MA", "display_address": ["4 Main St", "Blackstone, MA 01504"]}, "phone": "+15089282313", "display_phone": "(508) 928-2313", "distance": 2597.543359546548}, {"id": "Z03HJ4kQItWYSbppp1Er8w", "alias": "champs-diner-woonsocket", "name": "Champ's Diner", "image_url": "https://s3-media3.fl.yelpcdn.com/bphoto/Km2T4A6LYyMpwMvjIavIhQ/o.jpg", "is_closed": false, "url": "https://www.yelp.com/biz/champs-diner-woonsocket?adjust_creative=ywY5UnLZrNrRl2b93Ruy_g&utm_campaign=yelp_api_v3&utm_medium=api_v3_business_search&utm_source=ywY5UnLZrNrRl2b93Ruy_g", "review_count": 52, "categories": [{"alias": "breakfast_brunch", "title": "Breakfast & Brunch"}], "rating": 4.0, "coordinates": {"latitude": 41.9970703125, "longitude": -71.5176086425781}, "transactions": ["delivery"], "price": "$", "location": {"address1": "719 Front St", "address2": "Ste 111", "address3": "", "city": "Woonsocket", "zip_code": "02895", "country": "US", "state": "RI", "display_address": ["719 Front St", "Ste 111", "Woonsocket, RI 02895"]}, "phone": "+14017666080", "display_phone": "(401) 766-6080", "distance": 4845.640640213573}, {"id": "6k3vtgo5w41xr3h4i4kMFA", "alias": "popeyes-louisiana-kitchen-woonsocket-2", "name": "Popeyes Louisiana Kitchen", "image_url": "https://s3-media1.fl.yelpcdn.com/bphoto/ZhePsupi_V8pwEYmXQtI4g/o.jpg", "is_closed": false, "url": "https://www.yelp.com/biz/popeyes-louisiana-kitchen-woonsocket-2?adjust_creative=ywY5UnLZrNrRl2b93Ruy_g&utm_campaign=yelp_api_v3&utm_medium=api_v3_business_search&utm_source=ywY5UnLZrNrRl2b93Ruy_g", "review_count": 28, "categories": [{"alias": "hotdogs", "title": "Fast Food"}, {"alias": "chicken_wings", "title": "Chicken Wings"}], "rating": 2.5, "coordinates": {"latitude": 42.015279, "longitude": -71.478496}, "transactions": ["pickup", "delivery"], "price": "$", "location": {"address1": "1507 Diamond Hill Rd", "address2": null, "address3": "", "city": "Woonsocket", "zip_code": "02895", "country": "US", "state": "RI", "display_address": ["1507 Diamond Hill Rd", "Woonsocket, RI 02895"]}, "phone": "+14013560996", "display_phone": "(401) 356-0996", "distance": 5107.094696922317}, {"id": "04ixfA0ZJqSTRXbJ1sWuDQ", "alias": "lizs-diamond-bar-and-grille-hopedale", "name": "Liz's Diamond Bar & Grille", "image_url": "https://s3-media4.fl.yelpcdn.com/bphoto/5jf1KKpRAWaUxIH-Trpr8Q/o.jpg", "is_closed": false, "url": "https://www.yelp.com/biz/lizs-diamond-bar-and-grille-hopedale?adjust_creative=ywY5UnLZrNrRl2b93Ruy_g&utm_campaign=yelp_api_v3&utm_medium=api_v3_business_search&utm_source=ywY5UnLZrNrRl2b93Ruy_g", "review_count": 17, "categories": [{"alias": "pubs", "title": "Pubs"}, {"alias": "newamerican", "title": "American (New)"}], "rating": 4.0, "coordinates": {"latitude": 42.1038742991199, "longitude": -71.5097415447235}, "transactions": ["delivery"], "price": "$", "location": {"address1": "1 Menfi Way", "address2": "", "address3": "", "city": "Hopedale", "zip_code": "01747", "country": "US", "state": "MA", "display_address": ["1 Menfi Way", "Hopedale, MA 01747"]}, "phone": "+15084780690", "display_phone": "(508) 478-0690", "distance": 7359.077185527118}, {"id": "4rR-Nq2f9EHFxEqm-QpQqQ", "alias": "johnny-s-victory-diner-burrillville", "name": "Johnny\u2019s Victory Diner", "image_url": "https://s3-media3.fl.yelpcdn.com/bphoto/h5kREUFeypGTvhyQljYnkA/o.jpg", "is_closed": false, "url": "https://www.yelp.com/biz/johnny-s-victory-diner-burrillville?adjust_creative=ywY5UnLZrNrRl2b93Ruy_g&utm_campaign=yelp_api_v3&utm_medium=api_v3_business_search&utm_source=ywY5UnLZrNrRl2b93Ruy_g", "review_count": 55, "categories": [{"alias": "breakfast_brunch", "title": "Breakfast & Brunch"}, {"alias": "diners", "title": "Diners"}, {"alias": "tradamerican", "title": "American (Traditional)"}], "rating": 4.0, "coordinates": {"latitude": 41.9809227620163, "longitude": -71.6078001701749}, "transactions": [], "price": "$", "location": {"address1": "2731 Victory Hwy", "address2": "", "address3": "", "city": "Burrillville", "zip_code": "02830", "country": "US", "state": "RI", "display_address": ["2731 Victory Hwy", "Burrillville, RI 02830"]}, "phone": "+14017652661", "display_phone": "(401) 765-2661", "distance": 9103.410477304462}, {"id": "xSuPdhkcXrSOGW0baJH6WQ", "alias": "quik-stop-deli-north-smithfield", "name": "Quik Stop Deli", "image_url": "https://s3-media3.fl.yelpcdn.com/bphoto/sXXpgxFE1R4mf0Ef2-Q_BQ/o.jpg", "is_closed": false, "url": "https://www.yelp.com/biz/quik-stop-deli-north-smithfield?adjust_creative=ywY5UnLZrNrRl2b93Ruy_g&utm_campaign=yelp_api_v3&utm_medium=api_v3_business_search&utm_source=ywY5UnLZrNrRl2b93Ruy_g", "review_count": 16, "categories": [{"alias": "delis", "title": "Delis"}], "rating": 4.5, "coordinates": {"latitude": 42.0006, "longitude": -71.57955}, "transactions": [], "price": "$", "location": {"address1": "11 Main St", "address2": "", "address3": "", "city": "North Smithfield", "zip_code": "02896", "country": "US", "state": "RI", "display_address": ["11 Main St", "North Smithfield, RI 02896"]}, "phone": "+14017653227", "display_phone": "(401) 765-3227", "distance": 6008.061724592276}, {"id": "qfF6FV27qAmgANq3GmXvhQ", "alias": "d-angelo-woonsocket", "name": "D'Angelo", "image_url": "https://s3-media3.fl.yelpcdn.com/bphoto/FJoJnoFan2riacfH25FCtA/o.jpg", "is_closed": false, "url": "https://www.yelp.com/biz/d-angelo-woonsocket?adjust_creative=ywY5UnLZrNrRl2b93Ruy_g&utm_campaign=yelp_api_v3&utm_medium=api_v3_business_search&utm_source=ywY5UnLZrNrRl2b93Ruy_g", "review_count": 12, "categories": [{"alias": "sandwiches", "title": "Sandwiches"}], "rating": 2.5, "coordinates": {"latitude": 41.984333, "longitude": -71.515571}, "transactions": ["delivery"], "price": "$$", "location": {"address1": "1396 Park Ave", "address2": "", "address3": "", "city": "Woonsocket", "zip_code": "02895", "country": "US", "state": "RI", "display_address": ["1396 Park Ave", "Woonsocket, RI 02895"]}, "phone": "+14017620390", "display_phone": "(401) 762-0390", "distance": 6270.032601543029}, {"id": "TsVfT5igXrJU0Twyvc_OAQ", "alias": "miss-mendon-diner-mendon", "name": "Miss Mendon Diner", "image_url": "https://s3-media4.fl.yelpcdn.com/bphoto/BA5a8U--9-_0T_J4wgTiZA/o.jpg", "is_closed": false, "url": "https://www.yelp.com/biz/miss-mendon-diner-mendon?adjust_creative=ywY5UnLZrNrRl2b93Ruy_g&utm_campaign=yelp_api_v3&utm_medium=api_v3_business_search&utm_source=ywY5UnLZrNrRl2b93Ruy_g", "review_count": 114, "categories": [{"alias": "diners", "title": "Diners"}, {"alias": "breakfast_brunch", "title": "Breakfast & Brunch"}, {"alias": "tradamerican", "title": "American (Traditional)"}], "rating": 3.0, "coordinates": {"latitude": 42.1022602, "longitude": -71.5634601}, "transactions": ["delivery"], "price": "$", "location": {"address1": "16 Uxbridge Rd", "address2": "", "address3": "", "city": "Mendon", "zip_code": "01756", "country": "US", "state": "MA", "display_address": ["16 Uxbridge Rd", "Mendon, MA 01756"]}, "phone": "+15086343000", "display_phone": "(508) 634-3000", "distance": 7467.064604345683}, {"id": "reApOpm5y34rl_ycGtwckA", "alias": "firehouse-pizza-shop-ii-north-smithfield", "name": "Firehouse Pizza Shop II", "image_url": "https://s3-media1.fl.yelpcdn.com/bphoto/2RKUlXm2_P4k7S2RKaEcTw/o.jpg", "is_closed": false, "url": "https://www.yelp.com/biz/firehouse-pizza-shop-ii-north-smithfield?adjust_creative=ywY5UnLZrNrRl2b93Ruy_g&utm_campaign=yelp_api_v3&utm_medium=api_v3_business_search&utm_source=ywY5UnLZrNrRl2b93Ruy_g", "review_count": 15, "categories": [{"alias": "pizza", "title": "Pizza"}, {"alias": "sandwiches", "title": "Sandwiches"}], "rating": 3.0, "coordinates": {"latitude": 41.99982, "longitude": -71.55062}, "transactions": ["delivery"], "price": "$", "location": {"address1": "639 Great Rd", "address2": "", "address3": "", "city": "North Smithfield", "zip_code": "02896", "country": "US", "state": "RI", "display_address": ["639 Great Rd", "North Smithfield, RI 02896"]}, "phone": "+14017667171", "display_phone": "(401) 766-7171", "distance": 4709.625401590775}, {"id": "xg89wUKGQ4c2iaLNkdx6Mg", "alias": "lowells-restaurant-mendon", "name": "Lowell's Restaurant", "image_url": "https://s3-media1.fl.yelpcdn.com/bphoto/huRnyvbHdSxBjewpDCT-Ww/o.jpg", "is_closed": false, "url": "https://www.yelp.com/biz/lowells-restaurant-mendon?adjust_creative=ywY5UnLZrNrRl2b93Ruy_g&utm_campaign=yelp_api_v3&utm_medium=api_v3_business_search&utm_source=ywY5UnLZrNrRl2b93Ruy_g", "review_count": 55, "categories": [{"alias": "tradamerican", "title": "American (Traditional)"}, {"alias": "steak", "title": "Steakhouses"}], "rating": 3.0, "coordinates": {"latitude": 42.089183807373, "longitude": -71.4996032714844}, "transactions": ["delivery"], "price": "$$", "location": {"address1": "75 Cape Rd", "address2": "", "address3": "", "city": "Mendon", "zip_code": "01756", "country": "US", "state": "MA", "display_address": ["75 Cape Rd", "Mendon, MA 01756"]}, "phone": "+15084731073", "display_phone": "(508) 473-1073", "distance": 6101.052214384412}, {"id": "JmIIyv9etq8gbsUq2XUtOw", "alias": "main-street-cafe-woonsocket", "name": "Main Street Cafe", "image_url": "https://s3-media2.fl.yelpcdn.com/bphoto/-bXaBLwdyugbeVGlkiP9_Q/o.jpg", "is_closed": false, "url": "https://www.yelp.com/biz/main-street-cafe-woonsocket?adjust_creative=ywY5UnLZrNrRl2b93Ruy_g&utm_campaign=yelp_api_v3&utm_medium=api_v3_business_search&utm_source=ywY5UnLZrNrRl2b93Ruy_g", "review_count": 13, "categories": [{"alias": "coffee", "title": "Coffee & Tea"}, {"alias": "breakfast_brunch", "title": "Breakfast & Brunch"}], "rating": 4.5, "coordinates": {"latitude": 42.001664, "longitude": -71.5150756}, "transactions": ["delivery"], "price": "$", "location": {"address1": "85 Main St", "address2": null, "address3": null, "city": "Woonsocket", "zip_code": "02895", "country": "US", "state": "RI", "display_address": ["85 Main St", "Woonsocket, RI 02895"]}, "phone": "+14015337166", "display_phone": "(401) 533-7166", "distance": 4416.692220508601}, {"id": "v09mSdNmzp1mXlS0ZmU-dw", "alias": "ollys-pizzeria-woonsocket", "name": "Olly's Pizzeria", "image_url": "https://s3-media2.fl.yelpcdn.com/bphoto/X0mA35rp4OcGUnf3BUizwg/o.jpg", "is_closed": false, "url": "https://www.yelp.com/biz/ollys-pizzeria-woonsocket?adjust_creative=ywY5UnLZrNrRl2b93Ruy_g&utm_campaign=yelp_api_v3&utm_medium=api_v3_business_search&utm_source=ywY5UnLZrNrRl2b93Ruy_g", "review_count": 45, "categories": [{"alias": "pizza", "title": "Pizza"}, {"alias": "sandwiches", "title": "Sandwiches"}, {"alias": "burgers", "title": "Burgers"}], "rating": 3.0, "coordinates": {"latitude": 41.9979148, "longitude": -71.5193968}, "transactions": ["pickup", "delivery"], "price": "$", "location": {"address1": "204 S Main St", "address2": "", "address3": "", "city": "Woonsocket", "zip_code": "02895", "country": "US", "state": "RI", "display_address": ["204 S Main St", "Woonsocket, RI 02895"]}, "phone": "+14017661157", "display_phone": "(401) 766-1157", "distance": 4742.2011052216085}, {"id": "JQfFIbfoPJA_hm5dUG9LHg", "alias": "als-place-woonsocket", "name": "Al's Place", "image_url": "https://s3-media1.fl.yelpcdn.com/bphoto/Q6WYqnmqPaRSX5MDE7e_-A/o.jpg", "is_closed": false, "url": "https://www.yelp.com/biz/als-place-woonsocket?adjust_creative=ywY5UnLZrNrRl2b93Ruy_g&utm_campaign=yelp_api_v3&utm_medium=api_v3_business_search&utm_source=ywY5UnLZrNrRl2b93Ruy_g", "review_count": 8, "categories": [{"alias": "breakfast_brunch", "title": "Breakfast & Brunch"}, {"alias": "burgers", "title": "Burgers"}], "rating": 4.5, "coordinates": {"latitude": 41.9947242736816, "longitude": -71.5216217041016}, "transactions": ["delivery"], "location": {"address1": "134 Providence St", "address2": "", "address3": "", "city": "Woonsocket", "zip_code": "02895", "country": "US", "state": "RI", "display_address": ["134 Providence St", "Woonsocket, RI 02895"]}, "phone": "+14017626330", "display_phone": "(401) 762-6330", "distance": 5049.413874075792}, {"id": "OlerFWIyUIu-GNjgGk6uhA", "alias": "uxbridge-house-of-pizza-uxbridge", "name": "Uxbridge House of Pizza", "image_url": "https://s3-media2.fl.yelpcdn.com/bphoto/dNZ55es-_jIznzXzpx90Mg/o.jpg", "is_closed": false, "url": "https://www.yelp.com/biz/uxbridge-house-of-pizza-uxbridge?adjust_creative=ywY5UnLZrNrRl2b93Ruy_g&utm_campaign=yelp_api_v3&utm_medium=api_v3_business_search&utm_source=ywY5UnLZrNrRl2b93Ruy_g", "review_count": 27, "categories": [{"alias": "pizza", "title": "Pizza"}], "rating": 4.0, "coordinates": {"latitude": 42.07588, "longitude": -71.629301}, "transactions": [], "price": "$", "location": {"address1": "11 S Main St", "address2": "", "address3": "", "city": "Uxbridge", "zip_code": "01569", "country": "US", "state": "MA", "display_address": ["11 S Main St", "Uxbridge, MA 01569"]}, "phone": "+15082782300", "display_phone": "(508) 278-2300", "distance": 9063.513991745036}, {"id": "6akiug5o-_HWfptrL60g-Q", "alias": "pizza-queen-bellingham", "name": "Pizza Queen", "image_url": "https://s3-media3.fl.yelpcdn.com/bphoto/MVIG1jE-jsmFkid7tbuPrw/o.jpg", "is_closed": false, "url": "https://www.yelp.com/biz/pizza-queen-bellingham?adjust_creative=ywY5UnLZrNrRl2b93Ruy_g&utm_campaign=yelp_api_v3&utm_medium=api_v3_business_search&utm_source=ywY5UnLZrNrRl2b93Ruy_g", "review_count": 33, "categories": [{"alias": "hotdogs", "title": "Fast Food"}, {"alias": "pizza", "title": "Pizza"}], "rating": 3.0, "coordinates": {"latitude": 42.0183372, "longitude": -71.4969177}, "transactions": ["pickup", "delivery"], "price": "$$", "location": {"address1": "56 Pulaski Blvd", "address2": null, "address3": null, "city": "Bellingham", "zip_code": "02019", "country": "US", "state": "MA", "display_address": ["56 Pulaski Blvd", "Bellingham, MA 02019"]}, "phone": "+15088762666", "display_phone": "(508) 876-2666", "distance": 3576.957803483683}, {"id": "05fMFCqEAbzQzNTR4FV-mA", "alias": "dannys-breakfast-place-woonsocket", "name": "Danny's Breakfast Place", "image_url": "https://s3-media2.fl.yelpcdn.com/bphoto/GkVxFFZi9kVU_kTm3cnRKw/o.jpg", "is_closed": false, "url": "https://www.yelp.com/biz/dannys-breakfast-place-woonsocket?adjust_creative=ywY5UnLZrNrRl2b93Ruy_g&utm_campaign=yelp_api_v3&utm_medium=api_v3_business_search&utm_source=ywY5UnLZrNrRl2b93Ruy_g", "review_count": 14, "categories": [{"alias": "newamerican", "title": "American (New)"}], "rating": 3.5, "coordinates": {"latitude": 42.003879, "longitude": -71.48027}, "transactions": [], "price": "$", "location": {"address1": "1039 Cass Ave", "address2": "", "address3": "", "city": "Woonsocket", "zip_code": "02895", "country": "US", "state": "RI", "display_address": ["1039 Cass Ave", "Woonsocket, RI 02895"]}, "phone": "+14013560523", "display_phone": "(401) 356-0523", "distance": 5766.361467820472}, {"id": "Pc-mVwLu9dFLUe6TcgXleQ", "alias": "harmony-cafe-manville", "name": "Harmony Cafe", "image_url": "https://s3-media2.fl.yelpcdn.com/bphoto/iHm31Z9H6-kS2tzrS0UtKg/o.jpg", "is_closed": false, "url": "https://www.yelp.com/biz/harmony-cafe-manville?adjust_creative=ywY5UnLZrNrRl2b93Ruy_g&utm_campaign=yelp_api_v3&utm_medium=api_v3_business_search&utm_source=ywY5UnLZrNrRl2b93Ruy_g", "review_count": 3, "categories": [{"alias": "cafes", "title": "Cafes"}], "rating": 2.0, "coordinates": {"latitude": 41.970532, "longitude": -71.470765}, "transactions": ["delivery"], "location": {"address1": "3 Main St Manville", "address2": "", "address3": "", "city": "Manville", "zip_code": "02838", "country": "US", "state": "RI", "display_address": ["3 Main St Manville", "Manville, RI 02838"]}, "phone": "+14017629350", "display_phone": "(401) 762-9350", "distance": 9148.870445368168}, {"id": "6FP5M04d6si-lfXG95KIUQ", "alias": "lumberjacks-pizza-north-smithfield", "name": "Lumberjack's Pizza", "image_url": "https://s3-media1.fl.yelpcdn.com/bphoto/U5d9b52Y1oASmxbJsNO-2A/o.jpg", "is_closed": false, "url": "https://www.yelp.com/biz/lumberjacks-pizza-north-smithfield?adjust_creative=ywY5UnLZrNrRl2b93Ruy_g&utm_campaign=yelp_api_v3&utm_medium=api_v3_business_search&utm_source=ywY5UnLZrNrRl2b93Ruy_g", "review_count": 31, "categories": [{"alias": "pizza", "title": "Pizza"}], "rating": 3.0, "coordinates": {"latitude": 41.9949264526367, "longitude": -71.5978164672852}, "transactions": [], "price": "$$", "location": {"address1": "1402 Victory Hwy", "address2": null, "address3": null, "city": "North Smithfield", "zip_code": "02896", "country": "US", "state": "RI", "display_address": ["1402 Victory Hwy", "North Smithfield, RI 02896"]}, "phone": "+14017697437", "display_phone": "(401) 769-7437", "distance": 7425.181628764846}, {"id": "gKSlmXb7-TqjhbymcYYYlw", "alias": "dairy-queen-bellingham-2", "name": "Dairy Queen Grill & Chill", "image_url": "https://s3-media3.fl.yelpcdn.com/bphoto/8dm-RYbTL26HinDQayxHqA/o.jpg", "is_closed": false, "url": "https://www.yelp.com/biz/dairy-queen-bellingham-2?adjust_creative=ywY5UnLZrNrRl2b93Ruy_g&utm_campaign=yelp_api_v3&utm_medium=api_v3_business_search&utm_source=ywY5UnLZrNrRl2b93Ruy_g", "review_count": 22, "categories": [{"alias": "icecream", "title": "Ice Cream & Frozen Yogurt"}, {"alias": "hotdogs", "title": "Fast Food"}, {"alias": "burgers", "title": "Burgers"}], "rating": 3.0, "coordinates": {"latitude": 42.0894508, "longitude": -71.4756587147713}, "transactions": [], "price": "$", "location": {"address1": "21 N Main St", "address2": "", "address3": "", "city": "Bellingham", "zip_code": "02019", "country": "US", "state": "MA", "display_address": ["21 N Main St", "Bellingham, MA 02019"]}, "phone": "+15089660461", "display_phone": "(508) 966-0461", "distance": 7181.241150178348}, {"id": "nurGixU5-Cpeq_s6SCVfDA", "alias": "ronzio-pizza-and-subs-woonsocket", "name": "Ronzio Pizza & Subs", "image_url": "https://s3-media2.fl.yelpcdn.com/bphoto/G3tWp-MbguNi4cfCaAVovA/o.jpg", "is_closed": false, "url": "https://www.yelp.com/biz/ronzio-pizza-and-subs-woonsocket?adjust_creative=ywY5UnLZrNrRl2b93Ruy_g&utm_campaign=yelp_api_v3&utm_medium=api_v3_business_search&utm_source=ywY5UnLZrNrRl2b93Ruy_g", "review_count": 14, "categories": [{"alias": "pizza", "title": "Pizza"}], "rating": 3.5, "coordinates": {"latitude": 41.9914436340332, "longitude": -71.5214767456055}, "transactions": ["delivery"], "price": "$$", "location": {"address1": "375 Providence St", "address2": "", "address3": "", "city": "Woonsocket", "zip_code": "02895", "country": "US", "state": "RI", "display_address": ["375 Providence St", "Woonsocket, RI 02895"]}, "phone": "+14017672085", "display_phone": "(401) 767-2085", "distance": 5408.275439085116}, {"id": "IF564MzVcVL4vpG_ueubhw", "alias": "dominos-pizza-woonsocket", "name": "Domino's Pizza", "image_url": "https://s3-media4.fl.yelpcdn.com/bphoto/I7t9njXA53Piz5YxwjKlrg/o.jpg", "is_closed": false, "url": "https://www.yelp.com/biz/dominos-pizza-woonsocket?adjust_creative=ywY5UnLZrNrRl2b93Ruy_g&utm_campaign=yelp_api_v3&utm_medium=api_v3_business_search&utm_source=ywY5UnLZrNrRl2b93Ruy_g", "review_count": 14, "categories": [{"alias": "pizza", "title": "Pizza"}, {"alias": "chicken_wings", "title": "Chicken Wings"}, {"alias": "sandwiches", "title": "Sandwiches"}], "rating": 3.5, "coordinates": {"latitude": 42.003322, "longitude": -71.513321}, "transactions": [], "price": "$", "location": {"address1": "194 Main St", "address2": "", "address3": "", "city": "Woonsocket", "zip_code": "02895", "country": "US", "state": "RI", "display_address": ["194 Main St", "Woonsocket, RI 02895"]}, "phone": "+14017653571", "display_phone": "(401) 765-3571", "distance": 4288.033868027831}, {"id": "GM3zCfvIwbsHHrs5wLUbMg", "alias": "deluxe-pizza-mendon", "name": "Deluxe Pizza", "image_url": "https://s3-media4.fl.yelpcdn.com/bphoto/5d_60y_3s-uEso8aMrh6vA/o.jpg", "is_closed": false, "url": "https://www.yelp.com/biz/deluxe-pizza-mendon?adjust_creative=ywY5UnLZrNrRl2b93Ruy_g&utm_campaign=yelp_api_v3&utm_medium=api_v3_business_search&utm_source=ywY5UnLZrNrRl2b93Ruy_g", "review_count": 18, "categories": [{"alias": "pizza", "title": "Pizza"}], "rating": 4.0, "coordinates": {"latitude": 42.10434, "longitude": -71.55735}, "transactions": ["delivery"], "price": "$$", "location": {"address1": "32 Hastings St", "address2": "", "address3": "", "city": "Mendon", "zip_code": "01756", "country": "US", "state": "MA", "display_address": ["32 Hastings St", "Mendon, MA 01756"]}, "phone": "+15084784501", "display_phone": "(508) 478-4501", "distance": 7450.632585564991}, {"id": "yAOhnAcY2jiyDZ8UmBQ6Iw", "alias": "subway-bellingham-19", "name": "Subway", "image_url": "https://s3-media1.fl.yelpcdn.com/bphoto/ZbKHaRcFrBV3x4_jVANlAg/o.jpg", "is_closed": false, "url": "https://www.yelp.com/biz/subway-bellingham-19?adjust_creative=ywY5UnLZrNrRl2b93Ruy_g&utm_campaign=yelp_api_v3&utm_medium=api_v3_business_search&utm_source=ywY5UnLZrNrRl2b93Ruy_g", "review_count": 1, "categories": [{"alias": "sandwiches", "title": "Sandwiches"}], "rating": 5.0, "coordinates": {"latitude": 42.0205602, "longitude": -71.4948618}, "transactions": [], "price": "$", "location": {"address1": "170 Pulaski Blvd", "address2": "", "address3": "", "city": "Bellingham", "zip_code": "02019", "country": "US", "state": "MA", "display_address": ["170 Pulaski Blvd", "Bellingham, MA 02019"]}, "phone": "+15088836599", "display_phone": "(508) 883-6599", "distance": 3655.7518945476936}, {"id": "od8s4h84SJgPcNm1oHiGTA", "alias": "western-hotel-pizza-and-tavern-harrisville", "name": "Western Hotel Pizza & Tavern", "image_url": "https://s3-media2.fl.yelpcdn.com/bphoto/rLHwypluLo8njMNK_Q_Kow/o.jpg", "is_closed": false, "url": "https://www.yelp.com/biz/western-hotel-pizza-and-tavern-harrisville?adjust_creative=ywY5UnLZrNrRl2b93Ruy_g&utm_campaign=yelp_api_v3&utm_medium=api_v3_business_search&utm_source=ywY5UnLZrNrRl2b93Ruy_g", "review_count": 22, "categories": [{"alias": "pizza", "title": "Pizza"}, {"alias": "bars", "title": "Bars"}, {"alias": "tradamerican", "title": "American (Traditional)"}], "rating": 3.5, "coordinates": {"latitude": 41.9777336120605, "longitude": -71.6151733398438}, "transactions": [], "price": "$$", "location": {"address1": "610 Douglas Tpke", "address2": "", "address3": "", "city": "Harrisville", "zip_code": "02830", "country": "US", "state": "RI", "display_address": ["610 Douglas Tpke", "Harrisville, RI 02830"]}, "phone": "+14015686253", "display_phone": "(401) 568-6253", "distance": 9786.25170614173}, {"id": "s5FlMeEpVyq8IneuzsZbeg", "alias": "harrys-famous-pizza-uxbridge", "name": "Harry's Famous Pizza", "image_url": "https://s3-media2.fl.yelpcdn.com/bphoto/-NutXo0FG1bXuL-Db6zHXQ/o.jpg", "is_closed": false, "url": "https://www.yelp.com/biz/harrys-famous-pizza-uxbridge?adjust_creative=ywY5UnLZrNrRl2b93Ruy_g&utm_campaign=yelp_api_v3&utm_medium=api_v3_business_search&utm_source=ywY5UnLZrNrRl2b93Ruy_g", "review_count": 49, "categories": [{"alias": "pizza", "title": "Pizza"}], "rating": 3.0, "coordinates": {"latitude": 42.07622, "longitude": -71.62903}, "transactions": [], "price": "$", "location": {"address1": "6 S Main St", "address2": "", "address3": "", "city": "Uxbridge", "zip_code": "01569", "country": "US", "state": "MA", "display_address": ["6 S Main St", "Uxbridge, MA 01569"]}, "phone": "+15082782114", "display_phone": "(508) 278-2114", "distance": 9069.365065568136}, {"id": "aBmdShak3hXrS5AgjOI-Qw", "alias": "genji-sushi-bars-bellingham", "name": "Genji Sushi Bars", "image_url": "https://s3-media3.fl.yelpcdn.com/bphoto/8iSQjZ-cwS3kwlnookvOSg/o.jpg", "is_closed": false, "url": "https://www.yelp.com/biz/genji-sushi-bars-bellingham?adjust_creative=ywY5UnLZrNrRl2b93Ruy_g&utm_campaign=yelp_api_v3&utm_medium=api_v3_business_search&utm_source=ywY5UnLZrNrRl2b93Ruy_g", "review_count": 3, "categories": [{"alias": "sushi", "title": "Sushi Bars"}, {"alias": "grocery", "title": "Grocery"}], "rating": 4.0, "coordinates": {"latitude": 42.1147194, "longitude": -71.4617691}, "transactions": [], "price": "$$", "location": {"address1": "255 Hartford Ave", "address2": "", "address3": "Foods Market", "city": "Bellingham", "zip_code": "02019", "country": "US", "state": "MA", "display_address": ["255 Hartford Ave", "Foods Market", "Bellingham, MA 02019"]}, "phone": "+15089663331", "display_phone": "(508) 966-3331", "distance": 9818.626657317085}, {"id": "ZmHBv7mUAnlvftunnrUYgA", "alias": "little-caesars-pizza-woonsocket", "name": "Little Caesars Pizza", "image_url": "https://s3-media4.fl.yelpcdn.com/bphoto/OprdPWqc86QO20Cx7y9krg/o.jpg", "is_closed": false, "url": "https://www.yelp.com/biz/little-caesars-pizza-woonsocket?adjust_creative=ywY5UnLZrNrRl2b93Ruy_g&utm_campaign=yelp_api_v3&utm_medium=api_v3_business_search&utm_source=ywY5UnLZrNrRl2b93Ruy_g", "review_count": 17, "categories": [{"alias": "pizza", "title": "Pizza"}], "rating": 2.0, "coordinates": {"latitude": 42.0152702, "longitude": -71.4781494}, "transactions": [], "price": "$", "location": {"address1": "1551 Diamond Hill Rd", "address2": "", "address3": "", "city": "Woonsocket", "zip_code": "02895", "country": "US", "state": "RI", "display_address": ["1551 Diamond Hill Rd", "Woonsocket, RI 02895"]}, "phone": "+14017621111", "display_phone": "(401) 762-1111", "distance": 5152.342569815066}, {"id": "nROUIfhA2eg7SU-n0rWZdw", "alias": "chilis-bellingham", "name": "Chili's", "image_url": "https://s3-media3.fl.yelpcdn.com/bphoto/Arb8o8nwsMvjYtH96umZJg/o.jpg", "is_closed": false, "url": "https://www.yelp.com/biz/chilis-bellingham?adjust_creative=ywY5UnLZrNrRl2b93Ruy_g&utm_campaign=yelp_api_v3&utm_medium=api_v3_business_search&utm_source=ywY5UnLZrNrRl2b93Ruy_g", "review_count": 59, "categories": [{"alias": "tradamerican", "title": "American (Traditional)"}, {"alias": "bars", "title": "Bars"}, {"alias": "tex-mex", "title": "Tex-Mex"}], "rating": 2.5, "coordinates": {"latitude": 42.110846, "longitude": -71.460949}, "transactions": [], "price": "$$", "location": {"address1": "257 Hartford Ave", "address2": "", "address3": "", "city": "Bellingham", "zip_code": "02019", "country": "US", "state": "MA", "display_address": ["257 Hartford Ave", "Bellingham, MA 02019"]}, "phone": "+15089663439", "display_phone": "(508) 966-3439", "distance": 9805.97123960049}, {"id": "fKxLU-EcAOCdutSS_TX4AQ", "alias": "town-pizza-and-cafe-bellingham-2", "name": "Town Pizza & Cafe", "image_url": "https://s3-media3.fl.yelpcdn.com/bphoto/0vyAwt8wQYIRiucdFMN8yA/o.jpg", "is_closed": false, "url": "https://www.yelp.com/biz/town-pizza-and-cafe-bellingham-2?adjust_creative=ywY5UnLZrNrRl2b93Ruy_g&utm_campaign=yelp_api_v3&utm_medium=api_v3_business_search&utm_source=ywY5UnLZrNrRl2b93Ruy_g", "review_count": 25, "categories": [{"alias": "pizza", "title": "Pizza"}, {"alias": "italian", "title": "Italian"}], "rating": 3.0, "coordinates": {"latitude": 42.0866018, "longitude": -71.4747639}, "transactions": ["delivery"], "price": "$$", "location": {"address1": "15 Mechanic St", "address2": "", "address3": "", "city": "Bellingham", "zip_code": "02019", "country": "US", "state": "MA", "display_address": ["15 Mechanic St", "Bellingham, MA 02019"]}, "phone": "+15089662222", "display_phone": "(508) 966-2222", "distance": 6988.472255291103}, {"id": "JZFXfuheqyKKAhtfShf-Ng", "alias": "great-taste-chinese-restaurants-cumberland", "name": "Great Taste Chinese Restaurants", "image_url": "https://s3-media2.fl.yelpcdn.com/bphoto/f8oMlz5yqmXCcYPA5tpfuw/o.jpg", "is_closed": false, "url": "https://www.yelp.com/biz/great-taste-chinese-restaurants-cumberland?adjust_creative=ywY5UnLZrNrRl2b93Ruy_g&utm_campaign=yelp_api_v3&utm_medium=api_v3_business_search&utm_source=ywY5UnLZrNrRl2b93Ruy_g", "review_count": 23, "categories": [{"alias": "chinese", "title": "Chinese"}], "rating": 2.5, "coordinates": {"latitude": 41.9776419, "longitude": -71.4598213}, "transactions": ["delivery"], "price": "$", "location": {"address1": "3450 Mendon Rd", "address2": "", "address3": "", "city": "Cumberland", "zip_code": "02864", "country": "US", "state": "RI", "display_address": ["3450 Mendon Rd", "Cumberland, RI 02864"]}, "phone": "+14016581298", "display_phone": "(401) 658-1298", "distance": 9020.28207104807}, {"id": "BCxykHwS5JVzjevZS_WulA", "alias": "simons-diner-bellingham", "name": "Simon's Diner", "image_url": "https://s3-media2.fl.yelpcdn.com/bphoto/gggY6gXiGaSgp84z0J0euQ/o.jpg", "is_closed": false, "url": "https://www.yelp.com/biz/simons-diner-bellingham?adjust_creative=ywY5UnLZrNrRl2b93Ruy_g&utm_campaign=yelp_api_v3&utm_medium=api_v3_business_search&utm_source=ywY5UnLZrNrRl2b93Ruy_g", "review_count": 2, "categories": [{"alias": "diners", "title": "Diners"}], "rating": 1.0, "coordinates": {"latitude": 42.019906193018, "longitude": -71.4950423687696}, "transactions": [], "price": "$", "location": {"address1": "131 Pulaski Blvd", "address2": "", "address3": "", "city": "Bellingham", "zip_code": "02019", "country": "US", "state": "MA", "display_address": ["131 Pulaski Blvd", "Bellingham, MA 02019"]}, "phone": "+15088769444", "display_phone": "(508) 876-9444", "distance": 3700.435581479077}, {"id": "RcTzHkCTD_SDFY43_0HruQ", "alias": "tandoori-restaurant-woonsocket", "name": "Tandoori Restaurant", "image_url": "", "is_closed": false, "url": "https://www.yelp.com/biz/tandoori-restaurant-woonsocket?adjust_creative=ywY5UnLZrNrRl2b93Ruy_g&utm_campaign=yelp_api_v3&utm_medium=api_v3_business_search&utm_source=ywY5UnLZrNrRl2b93Ruy_g", "review_count": 9, "categories": [{"alias": "indpak", "title": "Indian"}, {"alias": "pakistani", "title": "Pakistani"}], "rating": 2.0, "coordinates": {"latitude": 42.0022551580312, "longitude": -71.5146380662989}, "transactions": ["pickup"], "price": "$", "location": {"address1": "114 Main St", "address2": "", "address3": "", "city": "Woonsocket", "zip_code": "02895", "country": "US", "state": "RI", "display_address": ["114 Main St", "Woonsocket, RI 02895"]}, "phone": "+14015975050", "display_phone": "(401) 597-5050", "distance": 4363.9005931584}, {"id": "CdoI0HLyNF_n0wLzPj014Q", "alias": "papa-ginos-pizzeria-woonsocket", "name": "Papa Gino's Pizzeria", "image_url": "https://s3-media1.fl.yelpcdn.com/bphoto/k5Z99GPEqkFTP6CzuFqWtQ/o.jpg", "is_closed": false, "url": "https://www.yelp.com/biz/papa-ginos-pizzeria-woonsocket?adjust_creative=ywY5UnLZrNrRl2b93Ruy_g&utm_campaign=yelp_api_v3&utm_medium=api_v3_business_search&utm_source=ywY5UnLZrNrRl2b93Ruy_g", "review_count": 18, "categories": [{"alias": "pizza", "title": "Pizza"}], "rating": 3.0, "coordinates": {"latitude": 42.0156936645508, "longitude": -71.4741058349609}, "transactions": ["delivery"], "price": "$$", "location": {"address1": "1750 Diamond Hill Rd", "address2": "", "address3": "", "city": "Woonsocket", "zip_code": "02895", "country": "US", "state": "RI", "display_address": ["1750 Diamond Hill Rd", "Woonsocket, RI 02895"]}, "phone": "+14017658181", "display_phone": "(401) 765-8181", "distance": 5394.286894619183}, {"id": "NGLEblAlDC7UufUyppZm3w", "alias": "pams-diner-bellingham", "name": "Pam's Diner", "image_url": "https://s3-media3.fl.yelpcdn.com/bphoto/uUOnDlnFuRogSD7USvX2iw/o.jpg", "is_closed": false, "url": "https://www.yelp.com/biz/pams-diner-bellingham?adjust_creative=ywY5UnLZrNrRl2b93Ruy_g&utm_campaign=yelp_api_v3&utm_medium=api_v3_business_search&utm_source=ywY5UnLZrNrRl2b93Ruy_g", "review_count": 26, "categories": [{"alias": "coffee", "title": "Coffee & Tea"}, {"alias": "breakfast_brunch", "title": "Breakfast & Brunch"}, {"alias": "diners", "title": "Diners"}], "rating": 3.5, "coordinates": {"latitude": 42.0828938, "longitude": -71.4691641}, "transactions": ["delivery", "pickup"], "price": "$", "location": {"address1": "93 Mechanic St", "address2": null, "address3": "", "city": "Bellingham", "zip_code": "02019", "country": "US", "state": "MA", "display_address": ["93 Mechanic St", "Bellingham, MA 02019"]}, "phone": "+15086571284", "display_phone": "(508) 657-1284", "distance": 7012.625415398453}, {"id": "IpsYi0rOnYQ-Q0BBP9sJgQ", "alias": "supreme-pizza-cumberland", "name": "Supreme Pizza", "image_url": "https://s3-media1.fl.yelpcdn.com/bphoto/pci6x_TK6zbexbQyyMUG3g/o.jpg", "is_closed": false, "url": "https://www.yelp.com/biz/supreme-pizza-cumberland?adjust_creative=ywY5UnLZrNrRl2b93Ruy_g&utm_campaign=yelp_api_v3&utm_medium=api_v3_business_search&utm_source=ywY5UnLZrNrRl2b93Ruy_g", "review_count": 67, "categories": [{"alias": "pizza", "title": "Pizza"}], "rating": 3.5, "coordinates": {"latitude": 41.97772, "longitude": -71.460405}, "transactions": ["delivery"], "price": "$", "location": {"address1": "3450 Mendon Rd", "address2": "", "address3": "", "city": "Cumberland", "zip_code": "02864", "country": "US", "state": "RI", "display_address": ["3450 Mendon Rd", "Cumberland, RI 02864"]}, "phone": "+14016580032", "display_phone": "(401) 658-0032", "distance": 9020.260716065119}, {"id": "pQ5z2ZMP0jFuCle9hUAfYA", "alias": "subway-mendon-5", "name": "Subway", "image_url": "https://s3-media4.fl.yelpcdn.com/bphoto/MT0rMrxVOEjrXmMafEzjRg/o.jpg", "is_closed": false, "url": "https://www.yelp.com/biz/subway-mendon-5?adjust_creative=ywY5UnLZrNrRl2b93Ruy_g&utm_campaign=yelp_api_v3&utm_medium=api_v3_business_search&utm_source=ywY5UnLZrNrRl2b93Ruy_g", "review_count": 3, "categories": [{"alias": "sandwiches", "title": "Sandwiches"}], "rating": 2.0, "coordinates": {"latitude": 42.1031327230134, "longitude": -71.5590582540693}, "transactions": [], "price": "$", "location": {"address1": "32 Hastings St", "address2": "", "address3": "", "city": "Mendon", "zip_code": "01756", "country": "US", "state": "MA", "display_address": ["32 Hastings St", "Mendon, MA 01756"]}, "phone": "+15084229430", "display_phone": "(508) 422-9430", "distance": 7436.444451298554}, {"id": "1kN8p4irqeH5eG8_CQVQlQ", "alias": "dennis-market-lincoln", "name": "Dennis Market", "image_url": "", "is_closed": false, "url": "https://www.yelp.com/biz/dennis-market-lincoln?adjust_creative=ywY5UnLZrNrRl2b93Ruy_g&utm_campaign=yelp_api_v3&utm_medium=api_v3_business_search&utm_source=ywY5UnLZrNrRl2b93Ruy_g", "review_count": 4, "categories": [{"alias": "delis", "title": "Delis"}, {"alias": "convenience", "title": "Convenience Stores"}, {"alias": "salad", "title": "Salad"}], "rating": 2.5, "coordinates": {"latitude": 41.9664195924997, "longitude": -71.4734841138124}, "transactions": [], "location": {"address1": "361 Old River Rd", "address2": "", "address3": "", "city": "Lincoln", "zip_code": "02838", "country": "US", "state": "RI", "display_address": ["361 Old River Rd", "Lincoln, RI 02838"]}, "phone": "", "display_phone": "", "distance": 9412.136547911123}, {"id": "CPpDhrFKK8CIJXcn23EVZQ", "alias": "kfc-woonsocket", "name": "KFC", "image_url": "https://s3-media3.fl.yelpcdn.com/bphoto/FKZNchDuzA-TB3Ew2sLLcQ/o.jpg", "is_closed": false, "url": "https://www.yelp.com/biz/kfc-woonsocket?adjust_creative=ywY5UnLZrNrRl2b93Ruy_g&utm_campaign=yelp_api_v3&utm_medium=api_v3_business_search&utm_source=ywY5UnLZrNrRl2b93Ruy_g", "review_count": 9, "categories": [{"alias": "hotdogs", "title": "Fast Food"}, {"alias": "chicken_wings", "title": "Chicken Wings"}, {"alias": "chickenshop", "title": "Chicken Shop"}], "rating": 1.5, "coordinates": {"latitude": 42.004470558156, "longitude": -71.5109498625948}, "transactions": ["delivery", "pickup"], "price": "$", "location": {"address1": "137 Clinton St", "address2": "", "address3": "", "city": "Woonsocket", "zip_code": "02895", "country": "US", "state": "RI", "display_address": ["137 Clinton St", "Woonsocket, RI 02895"]}, "phone": "+14017690022", "display_phone": "(401) 769-0022", "distance": 4240.5483525219925}, {"id": "t-OeMtuK5MZrg0rimrj2qQ", "alias": "depot-cafe-uxbridge", "name": "Depot Cafe", "image_url": "https://s3-media3.fl.yelpcdn.com/bphoto/QNZxvPByFQHMv78OJ2RsVA/o.jpg", "is_closed": false, "url": "https://www.yelp.com/biz/depot-cafe-uxbridge?adjust_creative=ywY5UnLZrNrRl2b93Ruy_g&utm_campaign=yelp_api_v3&utm_medium=api_v3_business_search&utm_source=ywY5UnLZrNrRl2b93Ruy_g", "review_count": 35, "categories": [{"alias": "breakfast_brunch", "title": "Breakfast & Brunch"}, {"alias": "sandwiches", "title": "Sandwiches"}], "rating": 4.0, "coordinates": {"latitude": 42.075899, "longitude": -71.629256}, "transactions": [], "price": "$", "location": {"address1": "11 S Main St", "address2": null, "address3": "", "city": "Uxbridge", "zip_code": "01569", "country": "US", "state": "MA", "display_address": ["11 S Main St", "Uxbridge, MA 01569"]}, "phone": "+15082788088", "display_phone": "(508) 278-8088", "distance": 9064.468482514194}, {"id": "IBT3O_al5H1BsfB0BJW87w", "alias": "mcdonalds-woonsocket-3", "name": "McDonald's", "image_url": "https://s3-media1.fl.yelpcdn.com/bphoto/AuLBjwFQtlqRN_Lq2uQZqQ/o.jpg", "is_closed": false, "url": "https://www.yelp.com/biz/mcdonalds-woonsocket-3?adjust_creative=ywY5UnLZrNrRl2b93Ruy_g&utm_campaign=yelp_api_v3&utm_medium=api_v3_business_search&utm_source=ywY5UnLZrNrRl2b93Ruy_g", "review_count": 13, "categories": [{"alias": "coffee", "title": "Coffee & Tea"}, {"alias": "burgers", "title": "Burgers"}, {"alias": "hotdogs", "title": "Fast Food"}], "rating": 1.5, "coordinates": {"latitude": 42.0154601610639, "longitude": -71.4713189005852}, "transactions": [], "price": "$", "location": {"address1": "1900 Diamond Hill Rd", "address2": null, "address3": null, "city": "Woonsocket", "zip_code": "02895", "country": "US", "state": "RI", "display_address": ["1900 Diamond Hill Rd", "Woonsocket, RI 02895"]}, "phone": "+14017651176", "display_phone": "(401) 765-1176", "distance": 5609.133068730258}, {"id": "Rb2MUdFwe5PDEF7xlbO0aQ", "alias": "aroma-pizza-n-grill-bellingham", "name": "Aroma Pizza N' Grill", "image_url": "https://s3-media1.fl.yelpcdn.com/bphoto/tCg8QZGg6YeNwgiQab9JiA/o.jpg", "is_closed": false, "url": "https://www.yelp.com/biz/aroma-pizza-n-grill-bellingham?adjust_creative=ywY5UnLZrNrRl2b93Ruy_g&utm_campaign=yelp_api_v3&utm_medium=api_v3_business_search&utm_source=ywY5UnLZrNrRl2b93Ruy_g", "review_count": 35, "categories": [{"alias": "pizza", "title": "Pizza"}], "rating": 2.5, "coordinates": {"latitude": 42.0826416, "longitude": -71.4668427}, "transactions": ["delivery", "pickup"], "price": "$", "location": {"address1": "108 Mechanic St", "address2": null, "address3": null, "city": "Bellingham", "zip_code": "02019", "country": "US", "state": "MA", "display_address": ["108 Mechanic St", "Bellingham, MA 02019"]}, "phone": "+15089663100", "display_phone": "(508) 966-3100", "distance": 7100.31220937445}, {"id": "onHWpahWYcgrERz9ChHb6w", "alias": "subway-uxbridge-6", "name": "Subway", "image_url": "https://s3-media4.fl.yelpcdn.com/bphoto/rztSPnjR8ZTPCDFYsU_lPQ/o.jpg", "is_closed": false, "url": "https://www.yelp.com/biz/subway-uxbridge-6?adjust_creative=ywY5UnLZrNrRl2b93Ruy_g&utm_campaign=yelp_api_v3&utm_medium=api_v3_business_search&utm_source=ywY5UnLZrNrRl2b93Ruy_g", "review_count": 8, "categories": [{"alias": "sandwiches", "title": "Sandwiches"}], "rating": 2.5, "coordinates": {"latitude": 42.0760286042075, "longitude": -71.6293811725563}, "transactions": [], "price": "$", "location": {"address1": "5 S Main St", "address2": "", "address3": null, "city": "Uxbridge", "zip_code": "01569", "country": "US", "state": "MA", "display_address": ["5 S Main St", "Uxbridge, MA 01569"]}, "phone": "+15082780202", "display_phone": "(508) 278-0202", "distance": 9080.135853911412}, {"id": "oWxrQgeUFqkMV8DQ4gyjtg", "alias": "original-house-of-pizza-woonsocket", "name": "original house of pizza", "image_url": "https://s3-media1.fl.yelpcdn.com/bphoto/fZpmYm1jpekTTMULwR3uWg/o.jpg", "is_closed": false, "url": "https://www.yelp.com/biz/original-house-of-pizza-woonsocket?adjust_creative=ywY5UnLZrNrRl2b93Ruy_g&utm_campaign=yelp_api_v3&utm_medium=api_v3_business_search&utm_source=ywY5UnLZrNrRl2b93Ruy_g", "review_count": 27, "categories": [{"alias": "pizza", "title": "Pizza"}, {"alias": "burgers", "title": "Burgers"}, {"alias": "sandwiches", "title": "Sandwiches"}], "rating": 2.5, "coordinates": {"latitude": 42.0155471, "longitude": -71.4799658}, "transactions": ["delivery", "pickup"], "price": "$", "location": {"address1": "1431 Diamond Hill Rd", "address2": "", "address3": "", "city": "Woonsocket", "zip_code": "02895", "country": "US", "state": "RI", "display_address": ["1431 Diamond Hill Rd", "Woonsocket, RI 02895"]}, "phone": "+14017666400", "display_phone": "(401) 766-6400", "distance": 4988.461232211783}, {"id": "3t_JyW3vQbhdrVJ8DW7aww", "alias": "elm-street-pizza-woonsocket", "name": "Elm Street Pizza", "image_url": "https://s3-media2.fl.yelpcdn.com/bphoto/4L85VggEfc8aScFZzuKoVg/o.jpg", "is_closed": false, "url": "https://www.yelp.com/biz/elm-street-pizza-woonsocket?adjust_creative=ywY5UnLZrNrRl2b93Ruy_g&utm_campaign=yelp_api_v3&utm_medium=api_v3_business_search&utm_source=ywY5UnLZrNrRl2b93Ruy_g", "review_count": 8, "categories": [{"alias": "pizza", "title": "Pizza"}, {"alias": "salad", "title": "Salad"}], "rating": 2.5, "coordinates": {"latitude": 42.007984161377, "longitude": -71.4932022094727}, "transactions": ["delivery"], "price": "$$", "location": {"address1": "596 Elm St", "address2": "", "address3": "", "city": "Woonsocket", "zip_code": "02895", "country": "US", "state": "RI", "display_address": ["596 Elm St", "Woonsocket, RI 02895"]}, "phone": "+14017656000", "display_phone": "(401) 765-6000", "distance": 4697.988999750238}, {"id": "Qrwxm23Q-uZL9XVi3ko9VQ", "alias": "manville-palace-pizza-manville", "name": "Manville Palace Pizza", "image_url": "https://s3-media4.fl.yelpcdn.com/bphoto/WANjHA_XTD4EdSgLV-a1tw/o.jpg", "is_closed": false, "url": "https://www.yelp.com/biz/manville-palace-pizza-manville?adjust_creative=ywY5UnLZrNrRl2b93Ruy_g&utm_campaign=yelp_api_v3&utm_medium=api_v3_business_search&utm_source=ywY5UnLZrNrRl2b93Ruy_g", "review_count": 68, "categories": [{"alias": "pizza", "title": "Pizza"}, {"alias": "hotdogs", "title": "Fast Food"}], "rating": 2.5, "coordinates": {"latitude": 41.9725714, "longitude": -71.4760236}, "transactions": ["delivery", "pickup"], "price": "$", "location": {"address1": "141 Railroad St", "address2": "", "address3": "", "city": "Manville", "zip_code": "02838", "country": "US", "state": "RI", "display_address": ["141 Railroad St", "Manville, RI 02838"]}, "phone": "+14017699777", "display_phone": "(401) 769-9777", "distance": 8738.791778348732}, {"id": "dOPhxPxb5yZQPM_Sl-hl4g", "alias": "honey-dew-donuts-bellingham", "name": "Honey Dew Donuts", "image_url": "https://s3-media3.fl.yelpcdn.com/bphoto/fYudHqmgHPfhV_PJIDJZ2A/o.jpg", "is_closed": false, "url": "https://www.yelp.com/biz/honey-dew-donuts-bellingham?adjust_creative=ywY5UnLZrNrRl2b93Ruy_g&utm_campaign=yelp_api_v3&utm_medium=api_v3_business_search&utm_source=ywY5UnLZrNrRl2b93Ruy_g", "review_count": 6, "categories": [{"alias": "donuts", "title": "Donuts"}, {"alias": "sandwiches", "title": "Sandwiches"}], "rating": 3.0, "coordinates": {"latitude": 42.0235557556152, "longitude": -71.4919815063477}, "transactions": [], "location": {"address1": "290 Pulaski Blvd", "address2": "", "address3": "", "city": "Bellingham", "zip_code": "02019", "country": "US", "state": "MA", "display_address": ["290 Pulaski Blvd", "Bellingham, MA 02019"]}, "phone": "+15088834580", "display_phone": "(508) 883-4580", "distance": 3672.851005662798}, {"id": "45EAEbIVnzW0QYv_I07DoA", "alias": "debbies-breakfast-place-woonsocket", "name": "Debbie's Breakfast Place", "image_url": "https://s3-media3.fl.yelpcdn.com/bphoto/BFK04bQws7Ey0fIhhbqhkQ/o.jpg", "is_closed": false, "url": "https://www.yelp.com/biz/debbies-breakfast-place-woonsocket?adjust_creative=ywY5UnLZrNrRl2b93Ruy_g&utm_campaign=yelp_api_v3&utm_medium=api_v3_business_search&utm_source=ywY5UnLZrNrRl2b93Ruy_g", "review_count": 22, "categories": [{"alias": "breakfast_brunch", "title": "Breakfast & Brunch"}], "rating": 3.5, "coordinates": {"latitude": 41.99224, "longitude": -71.51425}, "transactions": ["delivery"], "price": "$", "location": {"address1": "804 Park Ave", "address2": "", "address3": "", "city": "Woonsocket", "zip_code": "02895", "country": "US", "state": "RI", "display_address": ["804 Park Ave", "Woonsocket, RI 02895"]}, "phone": "+14017697205", "display_phone": "(401) 769-7205", "distance": 5442.125370033115}, {"id": "KVP5An103h9-dE_rRojzHg", "alias": "moonlight-house-of-weiners-woonsocket", "name": "Moonlight House of Weiners", "image_url": "https://s3-media2.fl.yelpcdn.com/bphoto/G5IXEjATlS7xeSDNCdE_EA/o.jpg", "is_closed": false, "url": "https://www.yelp.com/biz/moonlight-house-of-weiners-woonsocket?adjust_creative=ywY5UnLZrNrRl2b93Ruy_g&utm_campaign=yelp_api_v3&utm_medium=api_v3_business_search&utm_source=ywY5UnLZrNrRl2b93Ruy_g", "review_count": 30, "categories": [{"alias": "diners", "title": "Diners"}, {"alias": "breakfast_brunch", "title": "Breakfast & Brunch"}, {"alias": "burgers", "title": "Burgers"}], "rating": 3.0, "coordinates": {"latitude": 42.009422, "longitude": -71.503959}, "transactions": ["delivery", "pickup"], "price": "$", "location": {"address1": "32 Rathbun St", "address2": "", "address3": "", "city": "Woonsocket", "zip_code": "02895", "country": "US", "state": "RI", "display_address": ["32 Rathbun St", "Woonsocket, RI 02895"]}, "phone": "+14017665806", "display_phone": "(401) 766-5806", "distance": 4028.1549361619714}, {"id": "ta2YFZxlFUgdKgubJGPu0A", "alias": "primo-pizza-bellingham", "name": "Primo Pizza", "image_url": "https://s3-media2.fl.yelpcdn.com/bphoto/uO8kg3q7aJEFypfmsH78vA/o.jpg", "is_closed": false, "url": "https://www.yelp.com/biz/primo-pizza-bellingham?adjust_creative=ywY5UnLZrNrRl2b93Ruy_g&utm_campaign=yelp_api_v3&utm_medium=api_v3_business_search&utm_source=ywY5UnLZrNrRl2b93Ruy_g", "review_count": 29, "categories": [{"alias": "pizza", "title": "Pizza"}, {"alias": "sandwiches", "title": "Sandwiches"}, {"alias": "burgers", "title": "Burgers"}], "rating": 3.0, "coordinates": {"latitude": 42.0826054319345, "longitude": -71.4545005324021}, "transactions": ["delivery"], "price": "$", "location": {"address1": "191 Mechanic St", "address2": null, "address3": null, "city": "Bellingham", "zip_code": "02019", "country": "US", "state": "MA", "display_address": ["191 Mechanic St", "Bellingham, MA 02019"]}, "phone": "+15089665111", "display_phone": "(508) 966-5111", "distance": 7918.933919242829}, {"id": "YOB6sad0NztJdjK9mfSPSQ", "alias": "subway-north-smithfield-5", "name": "Subway", "image_url": "https://s3-media2.fl.yelpcdn.com/bphoto/_x6M3LTScaNbFBUf7idiiw/o.jpg", "is_closed": false, "url": "https://www.yelp.com/biz/subway-north-smithfield-5?adjust_creative=ywY5UnLZrNrRl2b93Ruy_g&utm_campaign=yelp_api_v3&utm_medium=api_v3_business_search&utm_source=ywY5UnLZrNrRl2b93Ruy_g", "review_count": 5, "categories": [{"alias": "sandwiches", "title": "Sandwiches"}], "rating": 4.5, "coordinates": {"latitude": 42.0050210413264, "longitude": -71.585678046627}, "transactions": [], "price": "$", "location": {"address1": "900 Victory Hwy", "address2": null, "address3": null, "city": "North Smithfield", "zip_code": "02896", "country": "US", "state": "RI", "display_address": ["900 Victory Hwy", "North Smithfield, RI 02896"]}, "phone": "+14017656400", "display_phone": "(401) 765-6400", "distance": 5934.10155792559}, {"id": "3zBGVFi0eSfoYZCfw7L-Mw", "alias": "poppys-family-restaurant-cumberland", "name": "Poppy's Family Restaurant", "image_url": "https://s3-media4.fl.yelpcdn.com/bphoto/K2AlXyDU2RwxsFYqheWBsA/o.jpg", "is_closed": false, "url": "https://www.yelp.com/biz/poppys-family-restaurant-cumberland?adjust_creative=ywY5UnLZrNrRl2b93Ruy_g&utm_campaign=yelp_api_v3&utm_medium=api_v3_business_search&utm_source=ywY5UnLZrNrRl2b93Ruy_g", "review_count": 54, "categories": [{"alias": "breakfast_brunch", "title": "Breakfast & Brunch"}], "rating": 3.5, "coordinates": {"latitude": 41.9766469, "longitude": -71.4586918}, "transactions": ["delivery", "pickup"], "price": "$", "location": {"address1": "3344 Mendon Rd", "address2": "", "address3": "", "city": "Cumberland", "zip_code": "02864", "country": "US", "state": "RI", "display_address": ["3344 Mendon Rd", "Cumberland, RI 02864"]}, "phone": "+14016582700", "display_phone": "(401) 658-2700", "distance": 9183.792462738686}, {"id": "YlWNPu9beZhqqPcUo-outQ", "alias": "berts-breakfast-and-lunch-uxbridge", "name": "Bert's Breakfast & Lunch", "image_url": "https://s3-media1.fl.yelpcdn.com/bphoto/S8Flm8zx-lkSikNj-i80_A/o.jpg", "is_closed": false, "url": "https://www.yelp.com/biz/berts-breakfast-and-lunch-uxbridge?adjust_creative=ywY5UnLZrNrRl2b93Ruy_g&utm_campaign=yelp_api_v3&utm_medium=api_v3_business_search&utm_source=ywY5UnLZrNrRl2b93Ruy_g", "review_count": 25, "categories": [{"alias": "sandwiches", "title": "Sandwiches"}, {"alias": "breakfast_brunch", "title": "Breakfast & Brunch"}], "rating": 3.5, "coordinates": {"latitude": 42.038839, "longitude": -71.619727}, "transactions": [], "price": "$", "location": {"address1": "492 Quaker Hwy", "address2": "", "address3": "", "city": "Uxbridge", "zip_code": "01569", "country": "US", "state": "MA", "display_address": ["492 Quaker Hwy", "Uxbridge, MA 01569"]}, "phone": "+15082782130", "display_phone": "(508) 278-2130", "distance": 7331.737912098027}, {"id": "eyGSmnjRucScmi3Lu_hkKg", "alias": "subway-woonsocket-5", "name": "Subway", "image_url": "https://s3-media1.fl.yelpcdn.com/bphoto/x5ovcbbkA08MqlxxGBQX8A/o.jpg", "is_closed": false, "url": "https://www.yelp.com/biz/subway-woonsocket-5?adjust_creative=ywY5UnLZrNrRl2b93Ruy_g&utm_campaign=yelp_api_v3&utm_medium=api_v3_business_search&utm_source=ywY5UnLZrNrRl2b93Ruy_g", "review_count": 5, "categories": [{"alias": "sandwiches", "title": "Sandwiches"}], "rating": 3.0, "coordinates": {"latitude": 42.0067917, "longitude": -71.5053969499363}, "transactions": ["delivery", "pickup"], "price": "$", "location": {"address1": "483 Clinton St", "address2": "", "address3": "", "city": "Woonsocket", "zip_code": "02895", "country": "US", "state": "RI", "display_address": ["483 Clinton St", "Woonsocket, RI 02895"]}, "phone": "+14017656655", "display_phone": "(401) 765-6655", "distance": 4214.141467560231}, {"id": "dhcr03qDYhfOV6YCgvKIzg", "alias": "all-star-pizza-woonsocket-2", "name": "All Star Pizza", "image_url": "https://s3-media2.fl.yelpcdn.com/bphoto/kP_RKbPBjmOEMBtKl7V-PQ/o.jpg", "is_closed": false, "url": "https://www.yelp.com/biz/all-star-pizza-woonsocket-2?adjust_creative=ywY5UnLZrNrRl2b93Ruy_g&utm_campaign=yelp_api_v3&utm_medium=api_v3_business_search&utm_source=ywY5UnLZrNrRl2b93Ruy_g", "review_count": 25, "categories": [{"alias": "pizza", "title": "Pizza"}, {"alias": "sandwiches", "title": "Sandwiches"}, {"alias": "seafood", "title": "Seafood"}], "rating": 3.5, "coordinates": {"latitude": 41.9856585495591, "longitude": -71.5217283368111}, "transactions": ["delivery"], "price": "$", "location": {"address1": "800 Providence St", "address2": "", "address3": "", "city": "Woonsocket", "zip_code": "02895", "country": "US", "state": "RI", "display_address": ["800 Providence St", "Woonsocket, RI 02895"]}, "phone": "+14017667827", "display_phone": "(401) 766-7827", "distance": 6045.415565743614}, {"id": "PJgqKP1MVUVor0_edvNVkA", "alias": "marias-pizza-hopedale", "name": "Maria's Pizza", "image_url": "", "is_closed": false, "url": "https://www.yelp.com/biz/marias-pizza-hopedale?adjust_creative=ywY5UnLZrNrRl2b93Ruy_g&utm_campaign=yelp_api_v3&utm_medium=api_v3_business_search&utm_source=ywY5UnLZrNrRl2b93Ruy_g", "review_count": 11, "categories": [{"alias": "pizza", "title": "Pizza"}], "rating": 3.0, "coordinates": {"latitude": 42.103663, "longitude": -71.50134}, "transactions": ["delivery", "pickup"], "price": "$$", "location": {"address1": "156 Hartford Ave E", "address2": null, "address3": null, "city": "Hopedale", "zip_code": "01747", "country": "US", "state": "MA", "display_address": ["156 Hartford Ave E", "Hopedale, MA 01747"]}, "phone": "+15084787878", "display_phone": "(508) 478-7878", "distance": 7531.919021324724}, {"id": "cyyIZCXunHCQxshKeugLYw", "alias": "burger-king-woonsocket", "name": "Burger King", "image_url": "https://s3-media1.fl.yelpcdn.com/bphoto/ssJ1WuMPIrfZS2hJQ5V7Dw/o.jpg", "is_closed": false, "url": "https://www.yelp.com/biz/burger-king-woonsocket?adjust_creative=ywY5UnLZrNrRl2b93Ruy_g&utm_campaign=yelp_api_v3&utm_medium=api_v3_business_search&utm_source=ywY5UnLZrNrRl2b93Ruy_g", "review_count": 5, "categories": [{"alias": "burgers", "title": "Burgers"}, {"alias": "hotdogs", "title": "Fast Food"}], "rating": 1.0, "coordinates": {"latitude": 42.007825, "longitude": -71.507923}, "transactions": [], "price": "$", "location": {"address1": "293 Social Street", "address2": "", "address3": "", "city": "Woonsocket", "zip_code": "02895", "country": "US", "state": "RI", "display_address": ["293 Social Street", "Woonsocket, RI 02895"]}, "phone": "", "display_phone": "", "distance": 4013.382551168435}, {"id": "paNYYgT1YJxTGvJZ2GVCuw", "alias": "dragon-garden-woonsocket", "name": "Dragon Garden", "image_url": "", "is_closed": false, "url": "https://www.yelp.com/biz/dragon-garden-woonsocket?adjust_creative=ywY5UnLZrNrRl2b93Ruy_g&utm_campaign=yelp_api_v3&utm_medium=api_v3_business_search&utm_source=ywY5UnLZrNrRl2b93Ruy_g", "review_count": 1, "categories": [{"alias": "chinese", "title": "Chinese"}], "rating": 2.0, "coordinates": {"latitude": 42.0080699, "longitude": -71.50918}, "transactions": ["delivery"], "price": "$", "location": {"address1": "240 Social St", "address2": null, "address3": null, "city": "Woonsocket", "zip_code": "02895", "country": "US", "state": "RI", "display_address": ["240 Social St", "Woonsocket, RI 02895"]}, "phone": "+14015976800", "display_phone": "(401) 597-6800", "distance": 3938.9350524313463}, {"id": "uvRX-9ZVB0QDz_geOtG1jw", "alias": "mcdonalds-uxbridge", "name": "McDonald's", "image_url": "https://s3-media2.fl.yelpcdn.com/bphoto/HB1umlj_wluZbTwRy1zgzw/o.jpg", "is_closed": false, "url": "https://www.yelp.com/biz/mcdonalds-uxbridge?adjust_creative=ywY5UnLZrNrRl2b93Ruy_g&utm_campaign=yelp_api_v3&utm_medium=api_v3_business_search&utm_source=ywY5UnLZrNrRl2b93Ruy_g", "review_count": 16, "categories": [{"alias": "hotdogs", "title": "Fast Food"}, {"alias": "burgers", "title": "Burgers"}, {"alias": "coffee", "title": "Coffee & Tea"}], "rating": 2.5, "coordinates": {"latitude": 42.0245784448752, "longitude": -71.6028525}, "transactions": [], "price": "$", "location": {"address1": "200 Quaker Hwy", "address2": "", "address3": "", "city": "Uxbridge", "zip_code": "01569", "country": "US", "state": "MA", "display_address": ["200 Quaker Hwy", "Uxbridge, MA 01569"]}, "phone": "+15082789431", "display_phone": "(508) 278-9431", "distance": 6168.597143818773}, {"id": "xq8vtOugiBfH09-ljuXTvQ", "alias": "taco-bell-woonsocket", "name": "Taco Bell", "image_url": "https://s3-media3.fl.yelpcdn.com/bphoto/lmkhQif6DWRJ0I3Un86WWg/o.jpg", "is_closed": false, "url": "https://www.yelp.com/biz/taco-bell-woonsocket?adjust_creative=ywY5UnLZrNrRl2b93Ruy_g&utm_campaign=yelp_api_v3&utm_medium=api_v3_business_search&utm_source=ywY5UnLZrNrRl2b93Ruy_g", "review_count": 18, "categories": [{"alias": "tacos", "title": "Tacos"}, {"alias": "breakfast_brunch", "title": "Breakfast & Brunch"}], "rating": 3.0, "coordinates": {"latitude": 42.015682, "longitude": -71.477739}, "transactions": ["delivery"], "price": "$", "location": {"address1": "1500 Diamond Hill Rd", "address2": "", "address3": "", "city": "Woonsocket", "zip_code": "02895", "country": "US", "state": "RI", "display_address": ["1500 Diamond Hill Rd", "Woonsocket, RI 02895"]}, "phone": "+14017661082", "display_phone": "(401) 766-1082", "distance": 5136.900311386287}, {"id": "5zIUKHC0sPjvvEja1hbJwA", "alias": "subway-north-smithfield-4", "name": "Subway", "image_url": "https://s3-media3.fl.yelpcdn.com/bphoto/JnUZXnBVprAUeeigFBdZMw/o.jpg", "is_closed": false, "url": "https://www.yelp.com/biz/subway-north-smithfield-4?adjust_creative=ywY5UnLZrNrRl2b93Ruy_g&utm_campaign=yelp_api_v3&utm_medium=api_v3_business_search&utm_source=ywY5UnLZrNrRl2b93Ruy_g", "review_count": 4, "categories": [{"alias": "sandwiches", "title": "Sandwiches"}], "rating": 4.0, "coordinates": {"latitude": 41.9806043, "longitude": -71.5142277}, "transactions": [], "price": "$", "location": {"address1": "99 Eddie Dowling Hwy", "address2": null, "address3": null, "city": "North Smithfield", "zip_code": "02896", "country": "US", "state": "RI", "display_address": ["99 Eddie Dowling Hwy", "North Smithfield, RI 02896"]}, "phone": "+14017665445", "display_phone": "(401) 766-5445", "distance": 6703.168269178303}, {"id": "S2af-p-xvx8jOnYrFtXMlA", "alias": "mcdonalds-north-smithfield", "name": "McDonald's", "image_url": "https://s3-media4.fl.yelpcdn.com/bphoto/3EIvQsl821zl5n5ZvTfgQA/o.jpg", "is_closed": false, "url": "https://www.yelp.com/biz/mcdonalds-north-smithfield?adjust_creative=ywY5UnLZrNrRl2b93Ruy_g&utm_campaign=yelp_api_v3&utm_medium=api_v3_business_search&utm_source=ywY5UnLZrNrRl2b93Ruy_g", "review_count": 13, "categories": [{"alias": "burgers", "title": "Burgers"}, {"alias": "hotdogs", "title": "Fast Food"}, {"alias": "coffee", "title": "Coffee & Tea"}], "rating": 1.5, "coordinates": {"latitude": 41.9827742186148, "longitude": -71.5144555346796}, "transactions": [], "price": "$", "location": {"address1": "12 Eddie Dowling Hwy", "address2": "", "address3": "", "city": "North Smithfield", "zip_code": "02896", "country": "US", "state": "RI", "display_address": ["12 Eddie Dowling Hwy", "North Smithfield, RI 02896"]}, "phone": "+14017692624", "display_phone": "(401) 769-2624", "distance": 6463.257491769865}, {"id": "Mo-FLQHmlM0V8ASDrGnoKA", "alias": "burger-king-north-smithfield", "name": "Burger King", "image_url": "https://s3-media3.fl.yelpcdn.com/bphoto/W5ahoyrVKF3Ml0XQ5rtgCQ/o.jpg", "is_closed": false, "url": "https://www.yelp.com/biz/burger-king-north-smithfield?adjust_creative=ywY5UnLZrNrRl2b93Ruy_g&utm_campaign=yelp_api_v3&utm_medium=api_v3_business_search&utm_source=ywY5UnLZrNrRl2b93Ruy_g", "review_count": 5, "categories": [{"alias": "burgers", "title": "Burgers"}, {"alias": "hotdogs", "title": "Fast Food"}], "rating": 2.0, "coordinates": {"latitude": 41.98226167, "longitude": -71.51397333}, "transactions": [], "price": "$", "location": {"address1": "66 Eddy Dowling Hwy", "address2": "", "address3": "", "city": "North Smithfield", "zip_code": "02896", "country": "US", "state": "RI", "display_address": ["66 Eddy Dowling Hwy", "North Smithfield, RI 02896"]}, "phone": "", "display_phone": "", "distance": 6526.430398286781}, {"id": "WgNLJn4dSN8PHL_5A5pgLQ", "alias": "denis-market-manville-2", "name": "Denis Market", "image_url": "https://s3-media2.fl.yelpcdn.com/bphoto/_Mz6Pm3FDRJ040d_VKtuXg/o.jpg", "is_closed": false, "url": "https://www.yelp.com/biz/denis-market-manville-2?adjust_creative=ywY5UnLZrNrRl2b93Ruy_g&utm_campaign=yelp_api_v3&utm_medium=api_v3_business_search&utm_source=ywY5UnLZrNrRl2b93Ruy_g", "review_count": 6, "categories": [{"alias": "convenience", "title": "Convenience Stores"}, {"alias": "pizza", "title": "Pizza"}, {"alias": "sandwiches", "title": "Sandwiches"}], "rating": 2.0, "coordinates": {"latitude": 41.9662018, "longitude": -71.4733487}, "transactions": ["delivery", "pickup"], "price": "$$", "location": {"address1": "359 Old River Rd", "address2": "", "address3": "", "city": "Manville", "zip_code": "02838", "country": "US", "state": "RI", "display_address": ["359 Old River Rd", "Manville, RI 02838"]}, "phone": "+14017623737", "display_phone": "(401) 762-3737", "distance": 9447.349296490842}, {"id": "NQdkm_8TEqseBQrJBlZh2Q", "alias": "honey-dew-donuts-bellingham-2", "name": "Honey Dew Donuts", "image_url": "https://s3-media4.fl.yelpcdn.com/bphoto/_ccDRGcAkjd9iSsbEE9KJA/o.jpg", "is_closed": false, "url": "https://www.yelp.com/biz/honey-dew-donuts-bellingham-2?adjust_creative=ywY5UnLZrNrRl2b93Ruy_g&utm_campaign=yelp_api_v3&utm_medium=api_v3_business_search&utm_source=ywY5UnLZrNrRl2b93Ruy_g", "review_count": 6, "categories": [{"alias": "coffee", "title": "Coffee & Tea"}, {"alias": "donuts", "title": "Donuts"}, {"alias": "sandwiches", "title": "Sandwiches"}], "rating": 2.0, "coordinates": {"latitude": 42.0890579223633, "longitude": -71.4754180908203}, "transactions": ["delivery"], "price": "$", "location": {"address1": "19 N Main St", "address2": null, "address3": null, "city": "Bellingham", "zip_code": "02019", "country": "US", "state": "MA", "display_address": ["19 N Main St", "Bellingham, MA 02019"]}, "phone": "+15089661500", "display_phone": "(508) 966-1500", "distance": 7165.893550050733}, {"id": "OtTJj4ewbEpawghv7c4vpw", "alias": "honey-dew-donuts-cumberland-2", "name": "Honey Dew Donuts", "image_url": "", "is_closed": false, "url": "https://www.yelp.com/biz/honey-dew-donuts-cumberland-2?adjust_creative=ywY5UnLZrNrRl2b93Ruy_g&utm_campaign=yelp_api_v3&utm_medium=api_v3_business_search&utm_source=ywY5UnLZrNrRl2b93Ruy_g", "review_count": 5, "categories": [{"alias": "coffee", "title": "Coffee & Tea"}, {"alias": "donuts", "title": "Donuts"}, {"alias": "sandwiches", "title": "Sandwiches"}], "rating": 2.5, "coordinates": {"latitude": 41.9776419, "longitude": -71.4598213}, "transactions": ["delivery"], "location": {"address1": "3450 Mendon Rd", "address2": "Unit A", "address3": null, "city": "Cumberland", "zip_code": "02864", "country": "US", "state": "RI", "display_address": ["3450 Mendon Rd", "Unit A", "Cumberland, RI 02864"]}, "phone": "+14016581141", "display_phone": "(401) 658-1141", "distance": 9020.664097756144}, {"id": "f6jVeg_bOTUxI56vkQCtjQ", "alias": "taco-bell-north-smithfield", "name": "Taco Bell", "image_url": "https://s3-media1.fl.yelpcdn.com/bphoto/JEQriUM0W3kJ-W51QQ6WhA/o.jpg", "is_closed": false, "url": "https://www.yelp.com/biz/taco-bell-north-smithfield?adjust_creative=ywY5UnLZrNrRl2b93Ruy_g&utm_campaign=yelp_api_v3&utm_medium=api_v3_business_search&utm_source=ywY5UnLZrNrRl2b93Ruy_g", "review_count": 13, "categories": [{"alias": "tacos", "title": "Tacos"}, {"alias": "breakfast_brunch", "title": "Breakfast & Brunch"}], "rating": 3.0, "coordinates": {"latitude": 41.97403, "longitude": -71.509876}, "transactions": ["delivery"], "price": "$", "location": {"address1": "2 Dowling Village Blvd.", "address2": "", "address3": "", "city": "North Smithfield", "zip_code": "02896", "country": "US", "state": "RI", "display_address": ["2 Dowling Village Blvd.", "North Smithfield, RI 02896"]}, "phone": "+14017621472", "display_phone": "(401) 762-1472", "distance": 7495.331657719598}, {"id": "PGU9xZZCW5zHV4biuAlHPQ", "alias": "mcdonalds-bellingham-10", "name": "McDonald's", "image_url": "https://s3-media2.fl.yelpcdn.com/bphoto/ihdEFaAwztfH9kC73H8phA/o.jpg", "is_closed": false, "url": "https://www.yelp.com/biz/mcdonalds-bellingham-10?adjust_creative=ywY5UnLZrNrRl2b93Ruy_g&utm_campaign=yelp_api_v3&utm_medium=api_v3_business_search&utm_source=ywY5UnLZrNrRl2b93Ruy_g", "review_count": 28, "categories": [{"alias": "burgers", "title": "Burgers"}, {"alias": "hotdogs", "title": "Fast Food"}, {"alias": "coffee", "title": "Coffee & Tea"}], "rating": 1.5, "coordinates": {"latitude": 42.1152202, "longitude": -71.4614155}, "transactions": [], "price": "$", "location": {"address1": "272 Hartford St", "address2": "", "address3": "", "city": "Bellingham", "zip_code": "02019", "country": "US", "state": "MA", "display_address": ["272 Hartford St", "Bellingham, MA 02019"]}, "phone": "+15089660522", "display_phone": "(508) 966-0522", "distance": 10164.227587066214}, {"id": "p7MMassD3euPwz9f_P6yZw", "alias": "dominos-pizza-cumberland", "name": "Domino's Pizza", "image_url": "", "is_closed": false, "url": "https://www.yelp.com/biz/dominos-pizza-cumberland?adjust_creative=ywY5UnLZrNrRl2b93Ruy_g&utm_campaign=yelp_api_v3&utm_medium=api_v3_business_search&utm_source=ywY5UnLZrNrRl2b93Ruy_g", "review_count": 7, "categories": [{"alias": "pizza", "title": "Pizza"}, {"alias": "chicken_wings", "title": "Chicken Wings"}, {"alias": "sandwiches", "title": "Sandwiches"}], "rating": 2.0, "coordinates": {"latitude": 41.9772761, "longitude": -71.4593986}, "transactions": [], "price": "$", "location": {"address1": "3400 Mendon Rd", "address2": "", "address3": "", "city": "Cumberland", "zip_code": "02864", "country": "US", "state": "RI", "display_address": ["3400 Mendon Rd", "Cumberland, RI 02864"]}, "phone": "+14016580077", "display_phone": "(401) 658-0077", "distance": 9125.997580030604}, {"id": "MIsHA0JzI08BqGIx7ihTyw", "alias": "wendys-n-smithfield", "name": "Wendy's", "image_url": "https://s3-media3.fl.yelpcdn.com/bphoto/4bZcStHoybdceExkpalOAg/o.jpg", "is_closed": false, "url": "https://www.yelp.com/biz/wendys-n-smithfield?adjust_creative=ywY5UnLZrNrRl2b93Ruy_g&utm_campaign=yelp_api_v3&utm_medium=api_v3_business_search&utm_source=ywY5UnLZrNrRl2b93Ruy_g", "review_count": 12, "categories": [{"alias": "hotdogs", "title": "Fast Food"}, {"alias": "burgers", "title": "Burgers"}], "rating": 2.0, "coordinates": {"latitude": 41.980836, "longitude": -71.514454}, "transactions": ["delivery"], "price": "$", "location": {"address1": "77 Eddie Dowling Hwy", "address2": "", "address3": "", "city": "N.Smithfield", "zip_code": "02896", "country": "US", "state": "RI", "display_address": ["77 Eddie Dowling Hwy", "N.Smithfield, RI 02896"]}, "phone": "+14017651927", "display_phone": "(401) 765-1927", "distance": 6675.732800058258}, {"id": "VjQembHTErT0_scWO5rG9g", "alias": "dennys-north-smithfield-2", "name": "Denny's", "image_url": "https://s3-media3.fl.yelpcdn.com/bphoto/TeWYFLq2RvHKGG-2PHlbqQ/o.jpg", "is_closed": false, "url": "https://www.yelp.com/biz/dennys-north-smithfield-2?adjust_creative=ywY5UnLZrNrRl2b93Ruy_g&utm_campaign=yelp_api_v3&utm_medium=api_v3_business_search&utm_source=ywY5UnLZrNrRl2b93Ruy_g", "review_count": 48, "categories": [{"alias": "tradamerican", "title": "American (Traditional)"}, {"alias": "breakfast_brunch", "title": "Breakfast & Brunch"}, {"alias": "diners", "title": "Diners"}], "rating": 2.5, "coordinates": {"latitude": 41.979507030443, "longitude": -71.512028953373}, "transactions": ["delivery", "pickup"], "price": "$", "location": {"address1": "44 Dowling Village Blvd", "address2": "", "address3": "", "city": "North Smithfield", "zip_code": "02896", "country": "US", "state": "RI", "display_address": ["44 Dowling Village Blvd", "North Smithfield, RI 02896"]}, "phone": "+14013561109", "display_phone": "(401) 356-1109", "distance": 6861.707068399258}]