[{"id": "GKMpQejm7E9jEl9l0ZApqA", "alias": "alicante-restaurant-and-lounge-mendon", "name": "Alicante Restaurant & Lounge", "image_url": "https://s3-media3.fl.yelpcdn.com/bphoto/seh2hwPtBSHUtovlVXh-bQ/o.jpg", "is_closed": false, "url": "https://www.yelp.com/biz/alicante-restaurant-and-lounge-mendon?adjust_creative=HdhkN5EEH6lAqE3kwhsHEQ&utm_campaign=yelp_api_v3&utm_medium=api_v3_business_search&utm_source=HdhkN5EEH6lAqE3kwhsHEQ", "review_count": 279, "categories": [{"alias": "mediterranean", "title": "Mediterranean"}, {"alias": "spanish", "title": "Spanish"}, {"alias": "italian", "title": "Italian"}], "rating": 4.5, "coordinates": {"latitude": 42.0976073, "longitude": -71.5727322}, "transactions": ["restaurant_reservation"], "price": "$$$", "location": {"address1": "84 Uxbridge Rd", "address2": null, "address3": "", "city": "Mendon", "zip_code": "01756", "country": "US", "state": "MA", "display_address": ["84 Uxbridge Rd", "Mendon, MA 01756"]}, "phone": "+15086348188", "display_phone": "(508) 634-8188", "distance": 7173.182799377346}, {"id": "-2RuJhj3BfHICxo-u8g4PA", "alias": "red-rock-grill-and-bar-upton-2", "name": "Red Rock Grill & Bar", "image_url": "https://s3-media3.fl.yelpcdn.com/bphoto/v5K-qqQlctWMu_QarUyj-g/o.jpg", "is_closed": false, "url": "https://www.yelp.com/biz/red-rock-grill-and-bar-upton-2?adjust_creative=HdhkN5EEH6lAqE3kwhsHEQ&utm_campaign=yelp_api_v3&utm_medium=api_v3_business_search&utm_source=HdhkN5EEH6lAqE3kwhsHEQ", "review_count": 294, "categories": [{"alias": "tradamerican", "title": "American (Traditional)"}, {"alias": "cocktailbars", "title": "Cocktail Bars"}], "rating": 4.0, "coordinates": {"latitude": 42.1790776, "longitude": -71.6399448}, "transactions": ["delivery"], "price": "$$", "location": {"address1": "66 W Main St", "address2": "", "address3": "", "city": "Upton", "zip_code": "01568", "country": "US", "state": "MA", "display_address": ["66 W Main St", "Upton, MA 01568"]}, "phone": "+15085290500", "display_phone": "(508) 529-0500", "distance": 4865.029980359841}, {"id": "e9-DTlkFVV7BUkoE4n-FaA", "alias": "the-uxlocale-uxbridge-2", "name": "The UxLocale", "image_url": "https://s3-media1.fl.yelpcdn.com/bphoto/n66RBpoAYX8Y7mGPyxebzg/o.jpg", "is_closed": false, "url": "https://www.yelp.com/biz/the-uxlocale-uxbridge-2?adjust_creative=HdhkN5EEH6lAqE3kwhsHEQ&utm_campaign=yelp_api_v3&utm_medium=api_v3_business_search&utm_source=HdhkN5EEH6lAqE3kwhsHEQ", "review_count": 105, "categories": [{"alias": "italian", "title": "Italian"}, {"alias": "pizza", "title": "Pizza"}, {"alias": "gastropubs", "title": "Gastropubs"}], "rating": 4.0, "coordinates": {"latitude": 42.0795967301298, "longitude": -71.6761799891327}, "transactions": [], "price": "$$", "location": {"address1": "510 Hartford Ave", "address2": "", "address3": null, "city": "Uxbridge", "zip_code": "01569", "country": "US", "state": "MA", "display_address": ["510 Hartford Ave", "Uxbridge, MA 01569"]}, "phone": "+15087797515", "display_phone": "(508) 779-7515", "distance": 6773.902366530011}, {"id": "EIWYPSesdDzsGuMFKnrQQg", "alias": "grille-122-northbridge", "name": "Grille 122", "image_url": "https://s3-media2.fl.yelpcdn.com/bphoto/sqXDj8wvul-BVFZUSW7Ghg/o.jpg", "is_closed": false, "url": "https://www.yelp.com/biz/grille-122-northbridge?adjust_creative=HdhkN5EEH6lAqE3kwhsHEQ&utm_campaign=yelp_api_v3&utm_medium=api_v3_business_search&utm_source=HdhkN5EEH6lAqE3kwhsHEQ", "review_count": 31, "categories": [{"alias": "bars", "title": "Bars"}, {"alias": "tradamerican", "title": "American (Traditional)"}], "rating": 3.0, "coordinates": {"latitude": 42.0997, "longitude": -71.644}, "transactions": [], "price": "$$", "location": {"address1": "91 Providence Rd", "address2": "", "address3": null, "city": "Northbridge", "zip_code": "01588", "country": "US", "state": "MA", "display_address": ["91 Providence Rd", "Northbridge, MA 01588"]}, "phone": "+15083729498", "display_phone": "(508) 372-9498", "distance": 3969.7268392309593}, {"id": "bpFnJ6jqbDEzvCfW-vyRTg", "alias": "brickstone-kitchen-sutton", "name": "Brickstone Kitchen", "image_url": "https://s3-media2.fl.yelpcdn.com/bphoto/YqIX8MJIbzt7V-kFshZUYw/o.jpg", "is_closed": false, "url": "https://www.yelp.com/biz/brickstone-kitchen-sutton?adjust_creative=HdhkN5EEH6lAqE3kwhsHEQ&utm_campaign=yelp_api_v3&utm_medium=api_v3_business_search&utm_source=HdhkN5EEH6lAqE3kwhsHEQ", "review_count": 46, "categories": [{"alias": "pizza", "title": "Pizza"}, {"alias": "italian", "title": "Italian"}, {"alias": "seafood", "title": "Seafood"}], "rating": 4.0, "coordinates": {"latitude": 42.1568126349271, "longitude": -71.729104667902}, "transactions": ["delivery"], "location": {"address1": "4 Worcester-Providence Tpke", "address2": "", "address3": null, "city": "Sutton", "zip_code": "01590", "country": "US", "state": "MA", "display_address": ["4 Worcester-Providence Tpke", "Sutton, MA 01590"]}, "phone": "+15088658650", "display_phone": "(508) 865-8650", "distance": 7470.600370104469}, {"id": "1tmvUK4yA3z0VprJ9Rn5ng", "alias": "maison-de-manger-whitinsville", "name": "Maison de Manger", "image_url": "https://s3-media4.fl.yelpcdn.com/bphoto/eRF2lN5iopIe_3xK5yQ8cA/o.jpg", "is_closed": false, "url": "https://www.yelp.com/biz/maison-de-manger-whitinsville?adjust_creative=HdhkN5EEH6lAqE3kwhsHEQ&utm_campaign=yelp_api_v3&utm_medium=api_v3_business_search&utm_source=HdhkN5EEH6lAqE3kwhsHEQ", "review_count": 50, "categories": [{"alias": "creperies", "title": "Creperies"}], "rating": 4.5, "coordinates": {"latitude": 42.0981689248088, "longitude": -71.6459773108363}, "transactions": [], "price": "$$", "location": {"address1": "670 Linwood Ave", "address2": "", "address3": "", "city": "Whitinsville", "zip_code": "01588", "country": "US", "state": "MA", "display_address": ["670 Linwood Ave", "Whitinsville, MA 01588"]}, "phone": "+15083729797", "display_phone": "(508) 372-9797", "distance": 4145.334188707457}, {"id": "UvlxXIaBSdZMbn4IMSc92g", "alias": "118-main-street-kitchen-and-spirits-upton", "name": "118 Main Street Kitchen & Spirits", "image_url": "https://s3-media3.fl.yelpcdn.com/bphoto/HbssHaMexb34Dk7WbOH_KA/o.jpg", "is_closed": false, "url": "https://www.yelp.com/biz/118-main-street-kitchen-and-spirits-upton?adjust_creative=HdhkN5EEH6lAqE3kwhsHEQ&utm_campaign=yelp_api_v3&utm_medium=api_v3_business_search&utm_source=HdhkN5EEH6lAqE3kwhsHEQ", "review_count": 29, "categories": [{"alias": "newamerican", "title": "American (New)"}], "rating": 3.5, "coordinates": {"latitude": 42.1696108481808, "longitude": -71.6204329580069}, "transactions": [], "location": {"address1": "118 Main St", "address2": "", "address3": null, "city": "Upton", "zip_code": "01568", "country": "US", "state": "MA", "display_address": ["118 Main St", "Upton, MA 01568"]}, "phone": "+15086031304", "display_phone": "(508) 603-1304", "distance": 4243.283114313095}, {"id": "xdhpueBbA9Pztwn7TuR7Pg", "alias": "divine-thai-northbridge", "name": "Divine Thai", "image_url": "https://s3-media4.fl.yelpcdn.com/bphoto/NIonMRv3pg-5xeTFcrDjdg/o.jpg", "is_closed": false, "url": "https://www.yelp.com/biz/divine-thai-northbridge?adjust_creative=HdhkN5EEH6lAqE3kwhsHEQ&utm_campaign=yelp_api_v3&utm_medium=api_v3_business_search&utm_source=HdhkN5EEH6lAqE3kwhsHEQ", "review_count": 91, "categories": [{"alias": "thai", "title": "Thai"}], "rating": 4.5, "coordinates": {"latitude": 42.1123352, "longitude": -71.6596985}, "transactions": ["delivery"], "price": "$$", "location": {"address1": "123 Church St", "address2": "", "address3": "", "city": "Northbridge", "zip_code": "01588", "country": "US", "state": "MA", "display_address": ["123 Church St", "Northbridge, MA 01588"]}, "phone": "+15082344500", "display_phone": "(508) 234-4500", "distance": 2939.1638081664073}, {"id": "lhC9J5lPOiuHuJbk_z0dYg", "alias": "king-jade-restaurant-whitinsville", "name": "King Jade Restaurant", "image_url": "https://s3-media3.fl.yelpcdn.com/bphoto/48fNZqZPDww3uX4d1aDmYA/o.jpg", "is_closed": false, "url": "https://www.yelp.com/biz/king-jade-restaurant-whitinsville?adjust_creative=HdhkN5EEH6lAqE3kwhsHEQ&utm_campaign=yelp_api_v3&utm_medium=api_v3_business_search&utm_source=HdhkN5EEH6lAqE3kwhsHEQ", "review_count": 57, "categories": [{"alias": "chinese", "title": "Chinese"}], "rating": 3.5, "coordinates": {"latitude": 42.1264885, "longitude": -71.6467951}, "transactions": ["delivery"], "price": "$$", "location": {"address1": "1229 Providence Rd", "address2": "", "address3": "", "city": "Whitinsville", "zip_code": "01588", "country": "US", "state": "MA", "display_address": ["1229 Providence Rd", "Whitinsville, MA 01588"]}, "phone": "+15082345968", "display_phone": "(508) 234-5968", "distance": 1019.7991541667217}, {"id": "-uN7mgH2147YHuwgQb0iUw", "alias": "the-green-plate-whitinsville-3", "name": "The Green Plate", "image_url": "https://s3-media3.fl.yelpcdn.com/bphoto/QMD1DgjIYzSu-GJSRajR-g/o.jpg", "is_closed": false, "url": "https://www.yelp.com/biz/the-green-plate-whitinsville-3?adjust_creative=HdhkN5EEH6lAqE3kwhsHEQ&utm_campaign=yelp_api_v3&utm_medium=api_v3_business_search&utm_source=HdhkN5EEH6lAqE3kwhsHEQ", "review_count": 26, "categories": [{"alias": "catering", "title": "Caterers"}, {"alias": "gluten_free", "title": "Gluten-Free"}, {"alias": "cafes", "title": "Cafes"}], "rating": 4.5, "coordinates": {"latitude": 42.112744, "longitude": -71.6586675}, "transactions": ["delivery"], "location": {"address1": "167 Church St", "address2": null, "address3": "", "city": "Whitinsville", "zip_code": "01588", "country": "US", "state": "MA", "display_address": ["167 Church St", "Whitinsville, MA 01588"]}, "phone": "+17748130200", "display_phone": "(774) 813-0200", "distance": 2822.3536077485915}, {"id": "5CU7BIMLyHRGSSq10cLekw", "alias": "john-henry-tavern-grafton", "name": "John Henry Tavern", "image_url": "https://s3-media1.fl.yelpcdn.com/bphoto/wfGb_PFepT6cg5NvDCk3aA/o.jpg", "is_closed": false, "url": "https://www.yelp.com/biz/john-henry-tavern-grafton?adjust_creative=HdhkN5EEH6lAqE3kwhsHEQ&utm_campaign=yelp_api_v3&utm_medium=api_v3_business_search&utm_source=HdhkN5EEH6lAqE3kwhsHEQ", "review_count": 15, "categories": [{"alias": "pubs", "title": "Pubs"}, {"alias": "newamerican", "title": "American (New)"}], "rating": 3.5, "coordinates": {"latitude": 42.1947606, "longitude": -71.6800296}, "transactions": [], "price": "$$", "location": {"address1": "42 Magill Dr", "address2": null, "address3": null, "city": "Grafton", "zip_code": "01519", "country": "US", "state": "MA", "display_address": ["42 Magill Dr", "Grafton, MA 01519"]}, "phone": "+15088391945", "display_phone": "(508) 839-1945", "distance": 7265.197798230233}, {"id": "gegTB3Oa-3TnNsqHL_o8pA", "alias": "the-burger-grille-uxbridge", "name": "The Burger Grille", "image_url": "https://s3-media4.fl.yelpcdn.com/bphoto/ZmFcv2QgyB2ZhTplgsDgUw/o.jpg", "is_closed": false, "url": "https://www.yelp.com/biz/the-burger-grille-uxbridge?adjust_creative=HdhkN5EEH6lAqE3kwhsHEQ&utm_campaign=yelp_api_v3&utm_medium=api_v3_business_search&utm_source=HdhkN5EEH6lAqE3kwhsHEQ", "review_count": 88, "categories": [{"alias": "burgers", "title": "Burgers"}, {"alias": "chicken_wings", "title": "Chicken Wings"}, {"alias": "salad", "title": "Salad"}], "rating": 4.0, "coordinates": {"latitude": 42.09016, "longitude": -71.64303}, "transactions": [], "price": "$", "location": {"address1": "316 N Main St", "address2": "", "address3": "", "city": "Uxbridge", "zip_code": "01569", "country": "US", "state": "MA", "display_address": ["316 N Main St", "Uxbridge, MA 01569"]}, "phone": "+15083729090", "display_phone": "(508) 372-9090", "distance": 5026.967228968478}, {"id": "oJ39jcqEPQX_Ika99L8hlQ", "alias": "new-england-steak-and-seafood-mendon", "name": "New England Steak & Seafood", "image_url": "https://s3-media4.fl.yelpcdn.com/bphoto/3FjSdEKjcZJKfEmmJEilMA/o.jpg", "is_closed": false, "url": "https://www.yelp.com/biz/new-england-steak-and-seafood-mendon?adjust_creative=HdhkN5EEH6lAqE3kwhsHEQ&utm_campaign=yelp_api_v3&utm_medium=api_v3_business_search&utm_source=HdhkN5EEH6lAqE3kwhsHEQ", "review_count": 199, "categories": [{"alias": "tradamerican", "title": "American (Traditional)"}, {"alias": "seafood", "title": "Seafood"}, {"alias": "steak", "title": "Steakhouses"}], "rating": 3.5, "coordinates": {"latitude": 42.10336, "longitude": -71.56254}, "transactions": ["delivery"], "price": "$$", "location": {"address1": "11 Uxbridge Rd", "address2": "", "address3": "", "city": "Mendon", "zip_code": "01756", "country": "US", "state": "MA", "display_address": ["11 Uxbridge Rd", "Mendon, MA 01756"]}, "phone": "+15084735079", "display_phone": "(508) 473-5079", "distance": 7485.562262030068}, {"id": "ukGam4bZqVn_6QIjf-O7aw", "alias": "gallifords-restaurant-and-tavern-mendon", "name": "Galliford's Restaurant & Tavern", "image_url": "https://s3-media2.fl.yelpcdn.com/bphoto/9ZFBDmrQT6NvVX6TtbWI9A/o.jpg", "is_closed": false, "url": "https://www.yelp.com/biz/gallifords-restaurant-and-tavern-mendon?adjust_creative=HdhkN5EEH6lAqE3kwhsHEQ&utm_campaign=yelp_api_v3&utm_medium=api_v3_business_search&utm_source=HdhkN5EEH6lAqE3kwhsHEQ", "review_count": 95, "categories": [{"alias": "newamerican", "title": "American (New)"}, {"alias": "beerbar", "title": "Beer Bar"}], "rating": 4.0, "coordinates": {"latitude": 42.064921819907, "longitude": -71.5841863249914}, "transactions": [], "price": "$$", "location": {"address1": "5 Southwick St", "address2": "", "address3": "Southwick's Zoo", "city": "Mendon", "zip_code": "01756", "country": "US", "state": "MA", "display_address": ["5 Southwick St", "Southwick's Zoo", "Mendon, MA 01756"]}, "phone": "+15089280928", "display_phone": "(508) 928-0928", "distance": 9226.248008207083}, {"id": "LoIq8iKvZkWDueFu864Iow", "alias": "kyoto-sushi-bar-and-grill-northbridge", "name": "Kyoto Sushi Bar & Grill", "image_url": "https://s3-media3.fl.yelpcdn.com/bphoto/GUbWSX3gpmmBVZpOxcq7ug/o.jpg", "is_closed": false, "url": "https://www.yelp.com/biz/kyoto-sushi-bar-and-grill-northbridge?adjust_creative=HdhkN5EEH6lAqE3kwhsHEQ&utm_campaign=yelp_api_v3&utm_medium=api_v3_business_search&utm_source=HdhkN5EEH6lAqE3kwhsHEQ", "review_count": 48, "categories": [{"alias": "japanese", "title": "Japanese"}, {"alias": "sushi", "title": "Sushi Bars"}], "rating": 3.5, "coordinates": {"latitude": 42.113716066928, "longitude": -71.6578243467222}, "transactions": ["delivery"], "price": "$$", "location": {"address1": "185 Church St", "address2": "", "address3": "", "city": "Northbridge", "zip_code": "01588", "country": "US", "state": "MA", "display_address": ["185 Church St", "Northbridge, MA 01588"]}, "phone": "+15083729516", "display_phone": "(508) 372-9516", "distance": 2694.542755294491}, {"id": "SJaZB5VlX3tfSYhEDipWJg", "alias": "grille-on-main-restaurant-and-bar-douglas", "name": "Grille on Main Restaurant & Bar", "image_url": "https://s3-media4.fl.yelpcdn.com/bphoto/vSeT1HkMBhv0ZZSWm8wsWw/o.jpg", "is_closed": false, "url": "https://www.yelp.com/biz/grille-on-main-restaurant-and-bar-douglas?adjust_creative=HdhkN5EEH6lAqE3kwhsHEQ&utm_campaign=yelp_api_v3&utm_medium=api_v3_business_search&utm_source=HdhkN5EEH6lAqE3kwhsHEQ", "review_count": 32, "categories": [{"alias": "bars", "title": "Bars"}, {"alias": "tradamerican", "title": "American (Traditional)"}], "rating": 3.5, "coordinates": {"latitude": 42.0728099023217, "longitude": -71.7128945626841}, "transactions": [], "price": "$$", "location": {"address1": "306 Main St", "address2": null, "address3": "", "city": "Douglas", "zip_code": "01516", "country": "US", "state": "MA", "display_address": ["306 Main St", "Douglas, MA 01516"]}, "phone": "+15084765661", "display_phone": "(508) 476-5661", "distance": 9025.906012146255}, {"id": "YCVM0wIYS2hqGGsH0gTcbg", "alias": "janets-hilltop-lounge-and-restaurant-south-grafton", "name": "Janet's Hilltop Lounge & Restaurant", "image_url": "https://s3-media3.fl.yelpcdn.com/bphoto/o0oLzr3wcKimYSPL8DNx8g/o.jpg", "is_closed": false, "url": "https://www.yelp.com/biz/janets-hilltop-lounge-and-restaurant-south-grafton?adjust_creative=HdhkN5EEH6lAqE3kwhsHEQ&utm_campaign=yelp_api_v3&utm_medium=api_v3_business_search&utm_source=HdhkN5EEH6lAqE3kwhsHEQ", "review_count": 18, "categories": [{"alias": "tradamerican", "title": "American (Traditional)"}, {"alias": "seafood", "title": "Seafood"}, {"alias": "sandwiches", "title": "Sandwiches"}], "rating": 3.0, "coordinates": {"latitude": 42.1660899, "longitude": -71.68197}, "transactions": [], "price": "$$", "location": {"address1": "59 Maple Ave", "address2": "", "address3": "", "city": "South Grafton", "zip_code": "01560", "country": "US", "state": "MA", "display_address": ["59 Maple Ave", "South Grafton, MA 01560"]}, "phone": "+15088396838", "display_phone": "(508) 839-6838", "distance": 4688.329679138547}, {"id": "X0T0rewIGkEWIqfY8BVtvg", "alias": "jubes-family-restaurant-whitinsville", "name": "Jube's Family Restaurant", "image_url": "https://s3-media3.fl.yelpcdn.com/bphoto/wU7vYb3Ia1IEnwXSw4bBuA/o.jpg", "is_closed": false, "url": "https://www.yelp.com/biz/jubes-family-restaurant-whitinsville?adjust_creative=HdhkN5EEH6lAqE3kwhsHEQ&utm_campaign=yelp_api_v3&utm_medium=api_v3_business_search&utm_source=HdhkN5EEH6lAqE3kwhsHEQ", "review_count": 42, "categories": [{"alias": "tradamerican", "title": "American (Traditional)"}, {"alias": "breakfast_brunch", "title": "Breakfast & Brunch"}], "rating": 3.0, "coordinates": {"latitude": 42.1265970915556, "longitude": -71.6466998308897}, "transactions": ["delivery"], "price": "$$", "location": {"address1": "1227 Providence Rd", "address2": "", "address3": "", "city": "Whitinsville", "zip_code": "01588", "country": "US", "state": "MA", "display_address": ["1227 Providence Rd", "Whitinsville, MA 01588"]}, "phone": "+15082347768", "display_phone": "(508) 234-7768", "distance": 1022.9059177255127}, {"id": "yHPTmk4oRqiuTxo3Jme2xQ", "alias": "georges-surf-n-turf-mendon", "name": "George's Surf N Turf", "image_url": "https://s3-media2.fl.yelpcdn.com/bphoto/2mXeMMR3fTFW2sIQYDWbTQ/o.jpg", "is_closed": false, "url": "https://www.yelp.com/biz/georges-surf-n-turf-mendon?adjust_creative=HdhkN5EEH6lAqE3kwhsHEQ&utm_campaign=yelp_api_v3&utm_medium=api_v3_business_search&utm_source=HdhkN5EEH6lAqE3kwhsHEQ", "review_count": 76, "categories": [{"alias": "seafood", "title": "Seafood"}, {"alias": "burgers", "title": "Burgers"}], "rating": 4.0, "coordinates": {"latitude": 42.095380978894, "longitude": -71.580294736915}, "transactions": [], "price": "$$", "location": {"address1": "116 Uxbridge Rd", "address2": "", "address3": "", "city": "Mendon", "zip_code": "01756", "country": "US", "state": "MA", "display_address": ["116 Uxbridge Rd", "Mendon, MA 01756"]}, "phone": "+15084732125", "display_phone": "(508) 473-2125", "distance": 6836.14929594375}, {"id": "jd9Qez3S2Lt9xSx5ic53yw", "alias": "hunters-grille-and-tap-at-the-grafton-inn-grafton", "name": "Hunter's Grille And Tap at The Grafton Inn", "image_url": "https://s3-media1.fl.yelpcdn.com/bphoto/r_5WLQZSnoxnaeFQ-2aHUg/o.jpg", "is_closed": false, "url": "https://www.yelp.com/biz/hunters-grille-and-tap-at-the-grafton-inn-grafton?adjust_creative=HdhkN5EEH6lAqE3kwhsHEQ&utm_campaign=yelp_api_v3&utm_medium=api_v3_business_search&utm_source=HdhkN5EEH6lAqE3kwhsHEQ", "review_count": 104, "categories": [{"alias": "hotels", "title": "Hotels"}, {"alias": "bars", "title": "Bars"}, {"alias": "tradamerican", "title": "American (Traditional)"}], "rating": 3.5, "coordinates": {"latitude": 42.2064933776855, "longitude": -71.684440612793}, "transactions": ["delivery"], "price": "$$", "location": {"address1": "25 Grafton Common", "address2": "", "address3": "", "city": "Grafton", "zip_code": "01519", "country": "US", "state": "MA", "display_address": ["25 Grafton Common", "Grafton, MA 01519"]}, "phone": "+15088395931", "display_phone": "(508) 839-5931", "distance": 8607.995166218312}, {"id": "-5aeb8D7G7OHQ-Gvfl52MQ", "alias": "pegs-diner-whitinsville", "name": "Peg's Diner", "image_url": "https://s3-media1.fl.yelpcdn.com/bphoto/t-C8pvxFWhyNc5WB4tXDgQ/o.jpg", "is_closed": false, "url": "https://www.yelp.com/biz/pegs-diner-whitinsville?adjust_creative=HdhkN5EEH6lAqE3kwhsHEQ&utm_campaign=yelp_api_v3&utm_medium=api_v3_business_search&utm_source=HdhkN5EEH6lAqE3kwhsHEQ", "review_count": 21, "categories": [{"alias": "diners", "title": "Diners"}], "rating": 4.5, "coordinates": {"latitude": 42.1117175527295, "longitude": -71.6611186929159}, "transactions": ["delivery"], "price": "$", "location": {"address1": "87 Church St", "address2": "", "address3": "", "city": "Whitinsville", "zip_code": "01588", "country": "US", "state": "MA", "display_address": ["87 Church St", "Whitinsville, MA 01588"]}, "phone": "+15082340170", "display_phone": "(508) 234-0170", "distance": 3008.8887306464953}, {"id": "XIR1_GVjl2M2P9uit2kxpA", "alias": "jade-garden-upton", "name": "Jade Garden", "image_url": "https://s3-media4.fl.yelpcdn.com/bphoto/WriBZG7PoJaEpyko39SlEw/o.jpg", "is_closed": false, "url": "https://www.yelp.com/biz/jade-garden-upton?adjust_creative=HdhkN5EEH6lAqE3kwhsHEQ&utm_campaign=yelp_api_v3&utm_medium=api_v3_business_search&utm_source=HdhkN5EEH6lAqE3kwhsHEQ", "review_count": 40, "categories": [{"alias": "chinese", "title": "Chinese"}], "rating": 4.0, "coordinates": {"latitude": 42.170270275884, "longitude": -71.619636916253}, "transactions": [], "price": "$$", "location": {"address1": "113 Main St", "address2": "", "address3": "", "city": "Upton", "zip_code": "01568", "country": "US", "state": "MA", "display_address": ["113 Main St", "Upton, MA 01568"]}, "phone": "+15085296288", "display_phone": "(508) 529-6288", "distance": 4338.157110363875}, {"id": "GpD-gxtsvv0Y-S_SXzchaA", "alias": "new-china-pacific-restaurant-whitinsville", "name": "New China Pacific Restaurant", "image_url": "https://s3-media1.fl.yelpcdn.com/bphoto/ewieQs_lylCwUI3wdI_eCw/o.jpg", "is_closed": false, "url": "https://www.yelp.com/biz/new-china-pacific-restaurant-whitinsville?adjust_creative=HdhkN5EEH6lAqE3kwhsHEQ&utm_campaign=yelp_api_v3&utm_medium=api_v3_business_search&utm_source=HdhkN5EEH6lAqE3kwhsHEQ", "review_count": 37, "categories": [{"alias": "szechuan", "title": "Szechuan"}, {"alias": "cocktailbars", "title": "Cocktail Bars"}], "rating": 3.0, "coordinates": {"latitude": 42.0985303923564, "longitude": -71.6447227075696}, "transactions": [], "price": "$$", "location": {"address1": "683 Linwood Ave", "address2": "", "address3": "", "city": "Whitinsville", "zip_code": "01588", "country": "US", "state": "MA", "display_address": ["683 Linwood Ave", "Whitinsville, MA 01588"]}, "phone": "+15082348100", "display_phone": "(508) 234-8100", "distance": 4100.7688988205055}, {"id": "ZlTXh8usbqrn24Zh4RFPKg", "alias": "kapis-pub-uxbridge", "name": "Kapi's Pub", "image_url": "https://s3-media4.fl.yelpcdn.com/bphoto/o8IYhIiJusheXAtJP53Rsw/o.jpg", "is_closed": false, "url": "https://www.yelp.com/biz/kapis-pub-uxbridge?adjust_creative=HdhkN5EEH6lAqE3kwhsHEQ&utm_campaign=yelp_api_v3&utm_medium=api_v3_business_search&utm_source=HdhkN5EEH6lAqE3kwhsHEQ", "review_count": 20, "categories": [{"alias": "pubs", "title": "Pubs"}, {"alias": "tradamerican", "title": "American (Traditional)"}], "rating": 3.0, "coordinates": {"latitude": 42.0878057754441, "longitude": -71.641791}, "transactions": [], "price": "$$", "location": {"address1": "270 North Main St", "address2": null, "address3": null, "city": "Uxbridge", "zip_code": "01569", "country": "US", "state": "MA", "display_address": ["270 North Main St", "Uxbridge, MA 01569"]}, "phone": "+15082785831", "display_phone": "(508) 278-5831", "distance": 5292.725443696558}, {"id": "MV-PnnPf9bzQn6jk0I4t8A", "alias": "willowbrook-restaurant-mendon", "name": "Willowbrook Restaurant", "image_url": "https://s3-media1.fl.yelpcdn.com/bphoto/68-SJ3fvanQyefRoRb9P4w/o.jpg", "is_closed": false, "url": "https://www.yelp.com/biz/willowbrook-restaurant-mendon?adjust_creative=HdhkN5EEH6lAqE3kwhsHEQ&utm_campaign=yelp_api_v3&utm_medium=api_v3_business_search&utm_source=HdhkN5EEH6lAqE3kwhsHEQ", "review_count": 62, "categories": [{"alias": "tradamerican", "title": "American (Traditional)"}], "rating": 3.5, "coordinates": {"latitude": 42.104744464159, "longitude": -71.5565709024668}, "transactions": [], "price": "$$", "location": {"address1": "16 Hastings St", "address2": null, "address3": null, "city": "Mendon", "zip_code": "01756", "country": "US", "state": "MA", "display_address": ["16 Hastings St", "Mendon, MA 01756"]}, "phone": "+15084734420", "display_phone": "(508) 473-4420", "distance": 7972.8870013355}, {"id": "viPH-ro4y-nZQGTuHCSD0g", "alias": "harrys-famous-pizza-whitinsville", "name": "Harry's Famous Pizza", "image_url": "https://s3-media3.fl.yelpcdn.com/bphoto/OkqPCaMOofW2tszWiBcjuA/o.jpg", "is_closed": false, "url": "https://www.yelp.com/biz/harrys-famous-pizza-whitinsville?adjust_creative=HdhkN5EEH6lAqE3kwhsHEQ&utm_campaign=yelp_api_v3&utm_medium=api_v3_business_search&utm_source=HdhkN5EEH6lAqE3kwhsHEQ", "review_count": 41, "categories": [{"alias": "pizza", "title": "Pizza"}, {"alias": "italian", "title": "Italian"}], "rating": 3.5, "coordinates": {"latitude": 42.113355, "longitude": -71.658354}, "transactions": ["delivery"], "price": "$", "location": {"address1": "185 Church St", "address2": "", "address3": "", "city": "Whitinsville", "zip_code": "01588", "country": "US", "state": "MA", "display_address": ["185 Church St", "Whitinsville, MA 01588"]}, "phone": "+15082345155", "display_phone": "(508) 234-5155", "distance": 2750.0662082394215}, {"id": "MsIxw9V1uehtUYP3AjmR7A", "alias": "new-england-pizza-and-subs-whitinsville", "name": "New England Pizza & Subs", "image_url": "https://s3-media2.fl.yelpcdn.com/bphoto/dclyiNkaj8cRm0cBRFwkmg/o.jpg", "is_closed": false, "url": "https://www.yelp.com/biz/new-england-pizza-and-subs-whitinsville?adjust_creative=HdhkN5EEH6lAqE3kwhsHEQ&utm_campaign=yelp_api_v3&utm_medium=api_v3_business_search&utm_source=HdhkN5EEH6lAqE3kwhsHEQ", "review_count": 9, "categories": [{"alias": "pizza", "title": "Pizza"}], "rating": 3.0, "coordinates": {"latitude": 42.123285, "longitude": -71.645232}, "transactions": ["delivery", "pickup"], "price": "$", "location": {"address1": "1115 Providence Rd", "address2": "", "address3": "", "city": "Whitinsville", "zip_code": "01588", "country": "US", "state": "MA", "display_address": ["1115 Providence Rd", "Whitinsville, MA 01588"]}, "phone": "+15082341888", "display_phone": "(508) 234-1888", "distance": 1356.5048726758073}, {"id": "84tESMfwulvA_rsUNVPbZQ", "alias": "cheng-kitchen-uxbridge", "name": "Cheng Kitchen", "image_url": "https://s3-media2.fl.yelpcdn.com/bphoto/JqOBR_szGPSFMOuNTSYkag/o.jpg", "is_closed": false, "url": "https://www.yelp.com/biz/cheng-kitchen-uxbridge?adjust_creative=HdhkN5EEH6lAqE3kwhsHEQ&utm_campaign=yelp_api_v3&utm_medium=api_v3_business_search&utm_source=HdhkN5EEH6lAqE3kwhsHEQ", "review_count": 5, "categories": [{"alias": "chinese", "title": "Chinese"}], "rating": 4.0, "coordinates": {"latitude": 42.081671, "longitude": -71.638958}, "transactions": [], "location": {"address1": "158 N Main St", "address2": "", "address3": null, "city": "Uxbridge", "zip_code": "01569", "country": "US", "state": "MA", "display_address": ["158 N Main St", "Uxbridge, MA 01569"]}, "phone": "+15082789399", "display_phone": "(508) 278-9399", "distance": 5983.902345323351}, {"id": "XBVkgEjoiNbZEk6MylOg-w", "alias": "quattro-hopkinton", "name": "Quattro", "image_url": "https://s3-media3.fl.yelpcdn.com/bphoto/YhJtPI1OPi4UeX5kPWOD1g/o.jpg", "is_closed": false, "url": "https://www.yelp.com/biz/quattro-hopkinton?adjust_creative=HdhkN5EEH6lAqE3kwhsHEQ&utm_campaign=yelp_api_v3&utm_medium=api_v3_business_search&utm_source=HdhkN5EEH6lAqE3kwhsHEQ", "review_count": 110, "categories": [{"alias": "italian", "title": "Italian"}], "rating": 2.5, "coordinates": {"latitude": 42.2102808546855, "longitude": -71.5503001438303}, "transactions": [], "price": "$$", "location": {"address1": "22 South St", "address2": "", "address3": "", "city": "Hopkinton", "zip_code": "01748", "country": "US", "state": "MA", "display_address": ["22 South St", "Hopkinton, MA 01748"]}, "phone": "+15084354300", "display_phone": "(508) 435-4300", "distance": 11312.687145762133}, {"id": "qoZy-Vt2rRHOG32p-Hr0yA", "alias": "breakfast-at-stephanies-upton", "name": "Breakfast At Stephanie's", "image_url": "https://s3-media1.fl.yelpcdn.com/bphoto/rtx-zf0B0YqUZPS7wEUCnA/o.jpg", "is_closed": false, "url": "https://www.yelp.com/biz/breakfast-at-stephanies-upton?adjust_creative=HdhkN5EEH6lAqE3kwhsHEQ&utm_campaign=yelp_api_v3&utm_medium=api_v3_business_search&utm_source=HdhkN5EEH6lAqE3kwhsHEQ", "review_count": 177, "categories": [{"alias": "breakfast_brunch", "title": "Breakfast & Brunch"}], "rating": 4.0, "coordinates": {"latitude": 42.169584, "longitude": -71.625271}, "transactions": [], "price": "$", "location": {"address1": "3 Farm St", "address2": null, "address3": "", "city": "Upton", "zip_code": "01568", "country": "US", "state": "MA", "display_address": ["3 Farm St", "Upton, MA 01568"]}, "phone": "+15086031668", "display_phone": "(508) 603-1668", "distance": 4079.646050862096}, {"id": "1SuoCIw7QxUQsxPVSaqvKA", "alias": "burger-king-whitinsville", "name": "Burger King", "image_url": "https://s3-media1.fl.yelpcdn.com/bphoto/LiLzKEDUM_mBq1ejVofkWw/o.jpg", "is_closed": false, "url": "https://www.yelp.com/biz/burger-king-whitinsville?adjust_creative=HdhkN5EEH6lAqE3kwhsHEQ&utm_campaign=yelp_api_v3&utm_medium=api_v3_business_search&utm_source=HdhkN5EEH6lAqE3kwhsHEQ", "review_count": 12, "categories": [{"alias": "burgers", "title": "Burgers"}, {"alias": "hotdogs", "title": "Fast Food"}], "rating": 2.0, "coordinates": {"latitude": 42.1253046, "longitude": -71.6464458}, "transactions": [], "price": "$", "location": {"address1": "1177 Providence Rd", "address2": "", "address3": "", "city": "Whitinsville", "zip_code": "01588", "country": "US", "state": "MA", "display_address": ["1177 Providence Rd", "Whitinsville, MA 01588"]}, "phone": "", "display_phone": "", "distance": 1283.8405315810944}, {"id": "dyIMv5PGbPPsLhyohcNudQ", "alias": "pirates-cove-linwood", "name": "Pirate's Cove", "image_url": "https://s3-media2.fl.yelpcdn.com/bphoto/MJ1L__WC7H9j-AP-5cDNAw/o.jpg", "is_closed": false, "url": "https://www.yelp.com/biz/pirates-cove-linwood?adjust_creative=HdhkN5EEH6lAqE3kwhsHEQ&utm_campaign=yelp_api_v3&utm_medium=api_v3_business_search&utm_source=HdhkN5EEH6lAqE3kwhsHEQ", "review_count": 29, "categories": [{"alias": "seafood", "title": "Seafood"}, {"alias": "icecream", "title": "Ice Cream & Frozen Yogurt"}, {"alias": "hotdog", "title": "Hot Dogs"}], "rating": 3.5, "coordinates": {"latitude": 42.09934, "longitude": -71.64351}, "transactions": [], "price": "$$", "location": {"address1": "74 Providence Rd", "address2": "", "address3": "", "city": "Linwood", "zip_code": "01525", "country": "US", "state": "MA", "display_address": ["74 Providence Rd", "Linwood, MA 01525"]}, "phone": "+15082340700", "display_phone": "(508) 234-0700", "distance": 4031.6519001614106}, {"id": "d7xvA4Y0PNbanoGaWpdjQw", "alias": "northbridge-house-of-pizza-northbridge", "name": "Northbridge House of Pizza", "image_url": "https://s3-media1.fl.yelpcdn.com/bphoto/GfY2772blRFfs9eihosV7A/o.jpg", "is_closed": false, "url": "https://www.yelp.com/biz/northbridge-house-of-pizza-northbridge?adjust_creative=HdhkN5EEH6lAqE3kwhsHEQ&utm_campaign=yelp_api_v3&utm_medium=api_v3_business_search&utm_source=HdhkN5EEH6lAqE3kwhsHEQ", "review_count": 14, "categories": [{"alias": "pizza", "title": "Pizza"}], "rating": 3.0, "coordinates": {"latitude": 42.1516011, "longitude": -71.6500793}, "transactions": ["delivery"], "price": "$", "location": {"address1": "2225 Providence Rd", "address2": "", "address3": "", "city": "Northbridge", "zip_code": "01534", "country": "US", "state": "MA", "display_address": ["2225 Providence Rd", "Northbridge, MA 01534"]}, "phone": "+15082343936", "display_phone": "(508) 234-3936", "distance": 1897.9326742949183}, {"id": "s5FlMeEpVyq8IneuzsZbeg", "alias": "harrys-famous-pizza-uxbridge", "name": "Harry's Famous Pizza", "image_url": "https://s3-media2.fl.yelpcdn.com/bphoto/-NutXo0FG1bXuL-Db6zHXQ/o.jpg", "is_closed": false, "url": "https://www.yelp.com/biz/harrys-famous-pizza-uxbridge?adjust_creative=HdhkN5EEH6lAqE3kwhsHEQ&utm_campaign=yelp_api_v3&utm_medium=api_v3_business_search&utm_source=HdhkN5EEH6lAqE3kwhsHEQ", "review_count": 49, "categories": [{"alias": "pizza", "title": "Pizza"}], "rating": 3.0, "coordinates": {"latitude": 42.07622, "longitude": -71.62903}, "transactions": [], "price": "$", "location": {"address1": "6 S Main St", "address2": "", "address3": "", "city": "Uxbridge", "zip_code": "01569", "country": "US", "state": "MA", "display_address": ["6 S Main St", "Uxbridge, MA 01569"]}, "phone": "+15082782114", "display_phone": "(508) 278-2114", "distance": 6680.015638204666}, {"id": "6oitktWSQGOd0KzvlMrI5Q", "alias": "hide-a-way-pizza-mendon-2", "name": "Hide-A-Way Pizza", "image_url": "https://s3-media1.fl.yelpcdn.com/bphoto/AIS6tQmxeK0EtnY3Gcjpnw/o.jpg", "is_closed": false, "url": "https://www.yelp.com/biz/hide-a-way-pizza-mendon-2?adjust_creative=HdhkN5EEH6lAqE3kwhsHEQ&utm_campaign=yelp_api_v3&utm_medium=api_v3_business_search&utm_source=HdhkN5EEH6lAqE3kwhsHEQ", "review_count": 89, "categories": [{"alias": "pizza", "title": "Pizza"}], "rating": 4.0, "coordinates": {"latitude": 42.0969568864465, "longitude": -71.5782347694039}, "transactions": [], "price": "$", "location": {"address1": "95 Uxbridge Rd", "address2": "", "address3": "", "city": "Mendon", "zip_code": "01756", "country": "US", "state": "MA", "display_address": ["95 Uxbridge Rd", "Mendon, MA 01756"]}, "phone": "+15084780600", "display_phone": "(508) 478-0600", "distance": 6855.387238959693}, {"id": "1_NXWM7QOA1dbc5266T7og", "alias": "bushel-n-peck-grafton", "name": "Bushel 'N Peck", "image_url": "https://s3-media2.fl.yelpcdn.com/bphoto/PMN3poj1DYJvP6n0OFbddA/o.jpg", "is_closed": false, "url": "https://www.yelp.com/biz/bushel-n-peck-grafton?adjust_creative=HdhkN5EEH6lAqE3kwhsHEQ&utm_campaign=yelp_api_v3&utm_medium=api_v3_business_search&utm_source=HdhkN5EEH6lAqE3kwhsHEQ", "review_count": 78, "categories": [{"alias": "breakfast_brunch", "title": "Breakfast & Brunch"}, {"alias": "delis", "title": "Delis"}], "rating": 4.0, "coordinates": {"latitude": 42.207954, "longitude": -71.685357}, "transactions": ["delivery", "pickup"], "price": "$", "location": {"address1": "8 Worcester St", "address2": "", "address3": "", "city": "Grafton", "zip_code": "01519", "country": "US", "state": "MA", "display_address": ["8 Worcester St", "Grafton, MA 01519"]}, "phone": "+15088393005", "display_phone": "(508) 839-3005", "distance": 8784.010370949629}, {"id": "RO2jaB93y-_td1wWBwrtDg", "alias": "harefield-tandoori-uxbridge", "name": "Harefield Tandoori", "image_url": "", "is_closed": false, "url": "https://www.yelp.com/biz/harefield-tandoori-uxbridge?adjust_creative=HdhkN5EEH6lAqE3kwhsHEQ&utm_campaign=yelp_api_v3&utm_medium=api_v3_business_search&utm_source=HdhkN5EEH6lAqE3kwhsHEQ", "review_count": 1, "categories": [{"alias": "indpak", "title": "Indian"}], "rating": 4.0, "coordinates": {"latitude": 51.603534, "longitude": -0.482555}, "transactions": [], "location": {"address1": "40 High Street", "address2": "", "address3": "Harefield", "city": "Uxbridge", "zip_code": "UB9 6BU", "country": "GB", "state": "XGL", "display_address": ["40 High Street", "Harefield", "Uxbridge UB9 6BU", "United Kingdom"]}, "phone": "+441895825844", "display_phone": "+44 1895 825844", "distance": 6553.8245743356565}, {"id": "BiCLQ2oUzOpUtk9LDaH07Q", "alias": "quaker-tavern-uxbridge", "name": "Quaker Tavern", "image_url": "https://s3-media4.fl.yelpcdn.com/bphoto/dCU0Y_OtzzrCsx54jFxq4w/o.jpg", "is_closed": false, "url": "https://www.yelp.com/biz/quaker-tavern-uxbridge?adjust_creative=HdhkN5EEH6lAqE3kwhsHEQ&utm_campaign=yelp_api_v3&utm_medium=api_v3_business_search&utm_source=HdhkN5EEH6lAqE3kwhsHEQ", "review_count": 31, "categories": [{"alias": "tradamerican", "title": "American (Traditional)"}], "rating": 3.0, "coordinates": {"latitude": 42.039944306016, "longitude": -71.620462462306}, "transactions": [], "price": "$$", "location": {"address1": "466 Quaker Hwy", "address2": "", "address3": "Rt 146A", "city": "Uxbridge", "zip_code": "01569", "country": "US", "state": "MA", "display_address": ["466 Quaker Hwy", "Rt 146A", "Uxbridge, MA 01569"]}, "phone": "+15087790901", "display_phone": "(508) 779-0901", "distance": 6553.8245743356565}, {"id": "rdbwZ7QhJ9-V5bhV6sNmWQ", "alias": "wanokura-milford", "name": "Wanokura", "image_url": "https://s3-media3.fl.yelpcdn.com/bphoto/OSr9w-j8_LcxNLYlIZ7FxA/o.jpg", "is_closed": false, "url": "https://www.yelp.com/biz/wanokura-milford?adjust_creative=HdhkN5EEH6lAqE3kwhsHEQ&utm_campaign=yelp_api_v3&utm_medium=api_v3_business_search&utm_source=HdhkN5EEH6lAqE3kwhsHEQ", "review_count": 137, "categories": [{"alias": "sushi", "title": "Sushi Bars"}, {"alias": "japanese", "title": "Japanese"}], "rating": 4.0, "coordinates": {"latitude": 42.142196, "longitude": -71.544883}, "transactions": ["delivery"], "price": "$$", "location": {"address1": "194 West St", "address2": "", "address3": "", "city": "Milford", "zip_code": "01757", "country": "US", "state": "MA", "display_address": ["194 West St", "Milford, MA 01757"]}, "phone": "+15083816767", "display_phone": "(508) 381-6767", "distance": 8173.613932162557}, {"id": "nbb8SJ74UoE1F_j9DLOmfw", "alias": "ko-sushi-and-grill-hopkinton", "name": "Ko Sushi & Grill", "image_url": "https://s3-media4.fl.yelpcdn.com/bphoto/O4pJBxGccwRm4QdLAaWCig/o.jpg", "is_closed": false, "url": "https://www.yelp.com/biz/ko-sushi-and-grill-hopkinton?adjust_creative=HdhkN5EEH6lAqE3kwhsHEQ&utm_campaign=yelp_api_v3&utm_medium=api_v3_business_search&utm_source=HdhkN5EEH6lAqE3kwhsHEQ", "review_count": 116, "categories": [{"alias": "japanese", "title": "Japanese"}, {"alias": "sushi", "title": "Sushi Bars"}], "rating": 4.0, "coordinates": {"latitude": 42.2055886840544, "longitude": -71.5452003181009}, "transactions": [], "price": "$$", "location": {"address1": "25 Hayward St", "address2": "", "address3": "", "city": "Hopkinton", "zip_code": "01748", "country": "US", "state": "MA", "display_address": ["25 Hayward St", "Hopkinton, MA 01748"]}, "phone": "+15086252082", "display_phone": "(508) 625-2082", "distance": 11232.879653386648}, {"id": "LR9vzh5pFbwzWilgLLlUqg", "alias": "main-street-pizza-upton-4", "name": "Main Street Pizza", "image_url": "https://s3-media3.fl.yelpcdn.com/bphoto/DuQ277xziAjtWL7xyja-Yw/o.jpg", "is_closed": false, "url": "https://www.yelp.com/biz/main-street-pizza-upton-4?adjust_creative=HdhkN5EEH6lAqE3kwhsHEQ&utm_campaign=yelp_api_v3&utm_medium=api_v3_business_search&utm_source=HdhkN5EEH6lAqE3kwhsHEQ", "review_count": 13, "categories": [{"alias": "pizza", "title": "Pizza"}, {"alias": "sandwiches", "title": "Sandwiches"}], "rating": 3.5, "coordinates": {"latitude": 42.1699035456888, "longitude": -71.6192603775148}, "transactions": [], "price": "$", "location": {"address1": "113 Main St", "address2": "", "address3": "", "city": "Upton", "zip_code": "01568", "country": "US", "state": "MA", "display_address": ["113 Main St", "Upton, MA 01568"]}, "phone": "+15085293500", "display_phone": "(508) 529-3500", "distance": 4315.859584898712}, {"id": "4qt4QHtWtdL5MTj_otAjsA", "alias": "the-picket-fence-restaurant-douglas", "name": "The Picket Fence Restaurant", "image_url": "https://s3-media4.fl.yelpcdn.com/bphoto/ujJmAk8LVm-Kq4anIbo3PA/o.jpg", "is_closed": false, "url": "https://www.yelp.com/biz/the-picket-fence-restaurant-douglas?adjust_creative=HdhkN5EEH6lAqE3kwhsHEQ&utm_campaign=yelp_api_v3&utm_medium=api_v3_business_search&utm_source=HdhkN5EEH6lAqE3kwhsHEQ", "review_count": 30, "categories": [{"alias": "tradamerican", "title": "American (Traditional)"}, {"alias": "customcakes", "title": "Custom Cakes"}, {"alias": "cupcakes", "title": "Cupcakes"}], "rating": 4.0, "coordinates": {"latitude": 42.07298586522, "longitude": -71.7128923998244}, "transactions": [], "price": "$$", "location": {"address1": "338 Main St", "address2": null, "address3": null, "city": "Douglas", "zip_code": "01516", "country": "US", "state": "MA", "display_address": ["338 Main St", "Douglas, MA 01516"]}, "phone": "+15084767990", "display_phone": "(508) 476-7990", "distance": 9010.710418193188}, {"id": "VhZLjn49eRRHJAka6XDuJg", "alias": "village-house-of-pizza-whitinsville", "name": "Village House of Pizza", "image_url": "https://s3-media2.fl.yelpcdn.com/bphoto/6t3MStQNlY-_i59LUMDk0A/o.jpg", "is_closed": false, "url": "https://www.yelp.com/biz/village-house-of-pizza-whitinsville?adjust_creative=HdhkN5EEH6lAqE3kwhsHEQ&utm_campaign=yelp_api_v3&utm_medium=api_v3_business_search&utm_source=HdhkN5EEH6lAqE3kwhsHEQ", "review_count": 24, "categories": [{"alias": "pizza", "title": "Pizza"}, {"alias": "salad", "title": "Salad"}, {"alias": "sandwiches", "title": "Sandwiches"}], "rating": 4.0, "coordinates": {"latitude": 42.1164404961342, "longitude": -71.6839722552948}, "transactions": ["delivery"], "price": "$", "location": {"address1": "199 N Main St", "address2": "", "address3": "", "city": "Whitinsville", "zip_code": "01588", "country": "US", "state": "MA", "display_address": ["199 N Main St", "Whitinsville, MA 01588"]}, "phone": "+15082346261", "display_phone": "(508) 234-6261", "distance": 3966.97468407524}, {"id": "O2Wj5Wk-qEBLvcK0aqEeiw", "alias": "dudleys-dogs-uxbridge", "name": "Dudley's Dogs", "image_url": "https://s3-media4.fl.yelpcdn.com/bphoto/qAwFX4hQQteaMRQbjE8_wA/o.jpg", "is_closed": false, "url": "https://www.yelp.com/biz/dudleys-dogs-uxbridge?adjust_creative=HdhkN5EEH6lAqE3kwhsHEQ&utm_campaign=yelp_api_v3&utm_medium=api_v3_business_search&utm_source=HdhkN5EEH6lAqE3kwhsHEQ", "review_count": 2, "categories": [{"alias": "hotdog", "title": "Hot Dogs"}, {"alias": "foodtrucks", "title": "Food Trucks"}], "rating": 5.0, "coordinates": {"latitude": 42.0771004903658, "longitude": -71.647076010704}, "transactions": [], "location": {"address1": "16 Cross Rd", "address2": "", "address3": null, "city": "Uxbridge", "zip_code": "01569", "country": "US", "state": "MA", "display_address": ["16 Cross Rd", "Uxbridge, MA 01569"]}, "phone": "+15082841638", "display_phone": "(508) 284-1638", "distance": 6489.591682392335}, {"id": "XZBRXtlw1IO3SFsPS5N7rg", "alias": "rose-garden-restaurant-and-pub-upton", "name": "Rose Garden Restaurant & Pub", "image_url": "https://s3-media4.fl.yelpcdn.com/bphoto/wx4Pm_Ld9z6PpRBERV6xEw/o.jpg", "is_closed": false, "url": "https://www.yelp.com/biz/rose-garden-restaurant-and-pub-upton?adjust_creative=HdhkN5EEH6lAqE3kwhsHEQ&utm_campaign=yelp_api_v3&utm_medium=api_v3_business_search&utm_source=HdhkN5EEH6lAqE3kwhsHEQ", "review_count": 35, "categories": [{"alias": "tradamerican", "title": "American (Traditional)"}, {"alias": "pizza", "title": "Pizza"}, {"alias": "pubs", "title": "Pubs"}], "rating": 3.0, "coordinates": {"latitude": 42.174087, "longitude": -71.60017}, "transactions": [], "price": "$$", "location": {"address1": "16 Milford St", "address2": "", "address3": "", "city": "Upton", "zip_code": "01568", "country": "US", "state": "MA", "display_address": ["16 Milford St", "Upton, MA 01568"]}, "phone": "+15085297776", "display_phone": "(508) 529-7776", "distance": 5558.603818817121}, {"id": "4lAc8-rUmNd9ekKpCuykIg", "alias": "the-valley-bean-uxbridge", "name": "The Valley Bean", "image_url": "https://s3-media3.fl.yelpcdn.com/bphoto/BVm_m0Cjjv37Gt4aZJGjew/o.jpg", "is_closed": false, "url": "https://www.yelp.com/biz/the-valley-bean-uxbridge?adjust_creative=HdhkN5EEH6lAqE3kwhsHEQ&utm_campaign=yelp_api_v3&utm_medium=api_v3_business_search&utm_source=HdhkN5EEH6lAqE3kwhsHEQ", "review_count": 13, "categories": [{"alias": "breakfast_brunch", "title": "Breakfast & Brunch"}, {"alias": "sandwiches", "title": "Sandwiches"}, {"alias": "bagels", "title": "Bagels"}], "rating": 4.0, "coordinates": {"latitude": 42.091292, "longitude": -71.643261}, "transactions": [], "location": {"address1": "336 North Main St", "address2": null, "address3": "", "city": "Uxbridge", "zip_code": "01569", "country": "US", "state": "MA", "display_address": ["336 North Main St", "Uxbridge, MA 01569"]}, "phone": "+15087797790", "display_phone": "(508) 779-7790", "distance": 4899.513877389687}, {"id": "va0TjOKngGsjaqtvlsEzlw", "alias": "nikos-pizza-chicken-and-ribs-north-uxbridge", "name": "Niko's Pizza Chicken & Ribs", "image_url": "https://s3-media3.fl.yelpcdn.com/bphoto/SN1LQY0bE9zDKdOU0o2D8g/o.jpg", "is_closed": false, "url": "https://www.yelp.com/biz/nikos-pizza-chicken-and-ribs-north-uxbridge?adjust_creative=HdhkN5EEH6lAqE3kwhsHEQ&utm_campaign=yelp_api_v3&utm_medium=api_v3_business_search&utm_source=HdhkN5EEH6lAqE3kwhsHEQ", "review_count": 26, "categories": [{"alias": "pizza", "title": "Pizza"}], "rating": 3.5, "coordinates": {"latitude": 42.08901, "longitude": -71.64248}, "transactions": [], "price": "$", "location": {"address1": "294 N Main St", "address2": "", "address3": "", "city": "North Uxbridge", "zip_code": "01538", "country": "US", "state": "MA", "display_address": ["294 N Main St", "North Uxbridge, MA 01538"]}, "phone": "+15082785055", "display_phone": "(508) 278-5055", "distance": 5145.301854920925}, {"id": "e7QvzUKpLZW-h3jJwatgYg", "alias": "tonys-sutton-pizza-restaurant-sutton", "name": "Tony's Sutton Pizza Restaurant", "image_url": "https://s3-media3.fl.yelpcdn.com/bphoto/-zdll-u8teHV7LaMn0MdNQ/o.jpg", "is_closed": false, "url": "https://www.yelp.com/biz/tonys-sutton-pizza-restaurant-sutton?adjust_creative=HdhkN5EEH6lAqE3kwhsHEQ&utm_campaign=yelp_api_v3&utm_medium=api_v3_business_search&utm_source=HdhkN5EEH6lAqE3kwhsHEQ", "review_count": 94, "categories": [{"alias": "pizza", "title": "Pizza"}], "rating": 3.5, "coordinates": {"latitude": 42.16156, "longitude": -71.73985}, "transactions": ["delivery"], "price": "$", "location": {"address1": "146 Worcester Providence Tpke", "address2": "", "address3": "", "city": "Sutton", "zip_code": "01590", "country": "US", "state": "MA", "display_address": ["146 Worcester Providence Tpke", "Sutton, MA 01590"]}, "phone": "+15088659544", "display_phone": "(508) 865-9544", "distance": 8465.319053033767}, {"id": "OlerFWIyUIu-GNjgGk6uhA", "alias": "uxbridge-house-of-pizza-uxbridge", "name": "Uxbridge House of Pizza", "image_url": "https://s3-media2.fl.yelpcdn.com/bphoto/dNZ55es-_jIznzXzpx90Mg/o.jpg", "is_closed": false, "url": "https://www.yelp.com/biz/uxbridge-house-of-pizza-uxbridge?adjust_creative=HdhkN5EEH6lAqE3kwhsHEQ&utm_campaign=yelp_api_v3&utm_medium=api_v3_business_search&utm_source=HdhkN5EEH6lAqE3kwhsHEQ", "review_count": 27, "categories": [{"alias": "pizza", "title": "Pizza"}], "rating": 4.0, "coordinates": {"latitude": 42.07588, "longitude": -71.629301}, "transactions": [], "price": "$", "location": {"address1": "11 S Main St", "address2": "", "address3": "", "city": "Uxbridge", "zip_code": "01569", "country": "US", "state": "MA", "display_address": ["11 S Main St", "Uxbridge, MA 01569"]}, "phone": "+15082782300", "display_phone": "(508) 278-2300", "distance": 6717.038101659046}, {"id": "7bFiD9xoSuY2ftHM1ml5zQ", "alias": "the-valley-cafe-whitinsville", "name": "The Valley Cafe", "image_url": "https://s3-media2.fl.yelpcdn.com/bphoto/sFakK7jvXEbFRXLF5_wQHw/o.jpg", "is_closed": false, "url": "https://www.yelp.com/biz/the-valley-cafe-whitinsville?adjust_creative=HdhkN5EEH6lAqE3kwhsHEQ&utm_campaign=yelp_api_v3&utm_medium=api_v3_business_search&utm_source=HdhkN5EEH6lAqE3kwhsHEQ", "review_count": 50, "categories": [{"alias": "breakfast_brunch", "title": "Breakfast & Brunch"}, {"alias": "tradamerican", "title": "American (Traditional)"}, {"alias": "seafood", "title": "Seafood"}], "rating": 3.0, "coordinates": {"latitude": 42.1116334429747, "longitude": -71.660699450045}, "transactions": ["delivery"], "price": "$$", "location": {"address1": "98A Church St", "address2": null, "address3": null, "city": "Whitinsville", "zip_code": "01588", "country": "US", "state": "MA", "display_address": ["98A Church St", "Whitinsville, MA 01588"]}, "phone": "+15082342180", "display_phone": "(508) 234-2180", "distance": 3009.660649070904}, {"id": "rLDuZiZNFEup3z-0DkNF4A", "alias": "bitchin-bbq-uxbridge", "name": "BitChin BBQ", "image_url": "https://s3-media2.fl.yelpcdn.com/bphoto/gPb5cL7Wg1FkM3VfS3pGXw/o.jpg", "is_closed": false, "url": "https://www.yelp.com/biz/bitchin-bbq-uxbridge?adjust_creative=HdhkN5EEH6lAqE3kwhsHEQ&utm_campaign=yelp_api_v3&utm_medium=api_v3_business_search&utm_source=HdhkN5EEH6lAqE3kwhsHEQ", "review_count": 8, "categories": [{"alias": "foodtrucks", "title": "Food Trucks"}, {"alias": "hotdog", "title": "Hot Dogs"}, {"alias": "bbq", "title": "Barbeque"}], "rating": 2.5, "coordinates": {"latitude": 42.0830841064453, "longitude": -71.6391448974609}, "transactions": [], "location": {"address1": "176 N Main St", "address2": "", "address3": "", "city": "Uxbridge", "zip_code": "01569", "country": "US", "state": "MA", "display_address": ["176 N Main St", "Uxbridge, MA 01569"]}, "phone": "+14013095858", "display_phone": "(401) 309-5858", "distance": 5820.043657878944}, {"id": "aVeRFZGJ0ffXtaZp92X4Vw", "alias": "hot-wok-douglas-3", "name": "Hot Wok", "image_url": "https://s3-media2.fl.yelpcdn.com/bphoto/9mbPxJLgqR1T2kk1PW-FoQ/o.jpg", "is_closed": false, "url": "https://www.yelp.com/biz/hot-wok-douglas-3?adjust_creative=HdhkN5EEH6lAqE3kwhsHEQ&utm_campaign=yelp_api_v3&utm_medium=api_v3_business_search&utm_source=HdhkN5EEH6lAqE3kwhsHEQ", "review_count": 17, "categories": [{"alias": "chinese", "title": "Chinese"}], "rating": 3.0, "coordinates": {"latitude": 42.073264, "longitude": -71.711965}, "transactions": [], "price": "$$", "location": {"address1": "319 Main St", "address2": "", "address3": "", "city": "Douglas", "zip_code": "01516", "country": "US", "state": "MA", "display_address": ["319 Main St", "Douglas, MA 01516"]}, "phone": "+17744823388", "display_phone": "(774) 482-3388", "distance": 8938.165721323763}, {"id": "Ask85cLMl28aX-mTAkBGUw", "alias": "corner-pizza-and-grill-northbridge", "name": "Corner Pizza and Grill", "image_url": "https://s3-media4.fl.yelpcdn.com/bphoto/WyPEgTw4PzppZ6szHR2PFA/o.jpg", "is_closed": false, "url": "https://www.yelp.com/biz/corner-pizza-and-grill-northbridge?adjust_creative=HdhkN5EEH6lAqE3kwhsHEQ&utm_campaign=yelp_api_v3&utm_medium=api_v3_business_search&utm_source=HdhkN5EEH6lAqE3kwhsHEQ", "review_count": 39, "categories": [{"alias": "pizza", "title": "Pizza"}, {"alias": "hotdogs", "title": "Fast Food"}, {"alias": "sandwiches", "title": "Sandwiches"}], "rating": 2.5, "coordinates": {"latitude": 42.1122409, "longitude": -71.659859}, "transactions": [], "price": "$$", "location": {"address1": "125 Church St", "address2": "", "address3": "", "city": "Northbridge", "zip_code": "01588", "country": "US", "state": "MA", "display_address": ["125 Church St", "Northbridge, MA 01588"]}, "phone": "+15082340001", "display_phone": "(508) 234-0001", "distance": 2917.3015472520697}, {"id": "xAwY8gxKTXVYNCTOZ0Y4Tw", "alias": "wongs-restaurant-grafton", "name": "Wong's Restaurant", "image_url": "https://s3-media3.fl.yelpcdn.com/bphoto/VT9qyvlQ1UoUZeNNru3CBQ/o.jpg", "is_closed": false, "url": "https://www.yelp.com/biz/wongs-restaurant-grafton?adjust_creative=HdhkN5EEH6lAqE3kwhsHEQ&utm_campaign=yelp_api_v3&utm_medium=api_v3_business_search&utm_source=HdhkN5EEH6lAqE3kwhsHEQ", "review_count": 47, "categories": [{"alias": "chinese", "title": "Chinese"}], "rating": 3.0, "coordinates": {"latitude": 42.2058906555176, "longitude": -71.6769561767578}, "transactions": [], "price": "$$", "location": {"address1": "62 Upton St", "address2": "", "address3": "", "city": "Grafton", "zip_code": "01519", "country": "US", "state": "MA", "display_address": ["62 Upton St", "Grafton, MA 01519"]}, "phone": "+15088393020", "display_phone": "(508) 839-3020", "distance": 8333.527754345672}, {"id": "P0LK2VEVBgDPjR3WXut30Q", "alias": "bison-burger-hopkinton", "name": "Bison Burger", "image_url": "https://s3-media3.fl.yelpcdn.com/bphoto/yk4ggjF_lNjlwrTk6PLcDg/o.jpg", "is_closed": false, "url": "https://www.yelp.com/biz/bison-burger-hopkinton?adjust_creative=HdhkN5EEH6lAqE3kwhsHEQ&utm_campaign=yelp_api_v3&utm_medium=api_v3_business_search&utm_source=HdhkN5EEH6lAqE3kwhsHEQ", "review_count": 59, "categories": [{"alias": "burgers", "title": "Burgers"}], "rating": 2.5, "coordinates": {"latitude": 42.2079659220326, "longitude": -71.5478895137857}, "transactions": [], "price": "$$", "location": {"address1": "22 South St", "address2": "", "address3": "", "city": "Hopkinton", "zip_code": "01748", "country": "US", "state": "MA", "display_address": ["22 South St", "Hopkinton, MA 01748"]}, "phone": "+15084355100", "display_phone": "(508) 435-5100", "distance": 11262.339180848268}, {"id": "23cyGoXFdHnwvQvXg0-O_g", "alias": "mcdonalds-whitinsville-2", "name": "McDonald's", "image_url": "https://s3-media3.fl.yelpcdn.com/bphoto/n_RAo9mGBU7uE7Buj1E0Xw/o.jpg", "is_closed": false, "url": "https://www.yelp.com/biz/mcdonalds-whitinsville-2?adjust_creative=HdhkN5EEH6lAqE3kwhsHEQ&utm_campaign=yelp_api_v3&utm_medium=api_v3_business_search&utm_source=HdhkN5EEH6lAqE3kwhsHEQ", "review_count": 8, "categories": [{"alias": "coffee", "title": "Coffee & Tea"}, {"alias": "burgers", "title": "Burgers"}, {"alias": "hotdogs", "title": "Fast Food"}], "rating": 2.5, "coordinates": {"latitude": 42.1255259188669, "longitude": -71.6460567712784}, "transactions": [], "price": "$", "location": {"address1": "1190 Providence Rd", "address2": null, "address3": null, "city": "Whitinsville", "zip_code": "01588", "country": "US", "state": "MA", "display_address": ["1190 Providence Rd", "Whitinsville, MA 01588"]}, "phone": "+15082342960", "display_phone": "(508) 234-2960", "distance": 1121.8103768437427}, {"id": "zR7WIqWDpeuMeCtf5obXpA", "alias": "new-fancy-house-of-pizza-south-grafton", "name": "New Fancy House of Pizza", "image_url": "https://s3-media2.fl.yelpcdn.com/bphoto/_q9VbnDl0dq-x6qxs4Is-A/o.jpg", "is_closed": false, "url": "https://www.yelp.com/biz/new-fancy-house-of-pizza-south-grafton?adjust_creative=HdhkN5EEH6lAqE3kwhsHEQ&utm_campaign=yelp_api_v3&utm_medium=api_v3_business_search&utm_source=HdhkN5EEH6lAqE3kwhsHEQ", "review_count": 14, "categories": [{"alias": "pizza", "title": "Pizza"}], "rating": 3.5, "coordinates": {"latitude": 42.176514, "longitude": -71.681079}, "transactions": [], "price": "$", "location": {"address1": "3 Main St", "address2": "", "address3": "", "city": "South Grafton", "zip_code": "01560", "country": "US", "state": "MA", "display_address": ["3 Main St", "South Grafton, MA 01560"]}, "phone": "+15088396488", "display_phone": "(508) 839-6488", "distance": 5546.561376843053}, {"id": "V7oq2Lo6fXER-uhV11IBaw", "alias": "harrys-famous-pizza-douglas", "name": "Harry's Famous Pizza", "image_url": "https://s3-media1.fl.yelpcdn.com/bphoto/xdmS0_OyR5zHpinMdv0S2g/o.jpg", "is_closed": false, "url": "https://www.yelp.com/biz/harrys-famous-pizza-douglas?adjust_creative=HdhkN5EEH6lAqE3kwhsHEQ&utm_campaign=yelp_api_v3&utm_medium=api_v3_business_search&utm_source=HdhkN5EEH6lAqE3kwhsHEQ", "review_count": 11, "categories": [{"alias": "pizza", "title": "Pizza"}, {"alias": "sandwiches", "title": "Sandwiches"}, {"alias": "wraps", "title": "Wraps"}], "rating": 3.5, "coordinates": {"latitude": 42.073373, "longitude": -71.712334}, "transactions": [], "location": {"address1": "324 Main St", "address2": "", "address3": "", "city": "Douglas", "zip_code": "01516", "country": "US", "state": "MA", "display_address": ["324 Main St", "Douglas, MA 01516"]}, "phone": "+15084764444", "display_phone": "(508) 476-4444", "distance": 8948.165107391445}, {"id": "mJnOua0hVBJ2eeu1mErJQg", "alias": "peking-garden-sutton", "name": "Peking Garden", "image_url": "https://s3-media3.fl.yelpcdn.com/bphoto/B3kYDKwKjArzXk5a09_7cQ/o.jpg", "is_closed": false, "url": "https://www.yelp.com/biz/peking-garden-sutton?adjust_creative=HdhkN5EEH6lAqE3kwhsHEQ&utm_campaign=yelp_api_v3&utm_medium=api_v3_business_search&utm_source=HdhkN5EEH6lAqE3kwhsHEQ", "review_count": 26, "categories": [{"alias": "chinese", "title": "Chinese"}], "rating": 2.5, "coordinates": {"latitude": 42.1745342, "longitude": -71.7223978}, "transactions": ["delivery"], "price": "$", "location": {"address1": "3 Boston Rd", "address2": "", "address3": "", "city": "Sutton", "zip_code": "01590", "country": "US", "state": "MA", "display_address": ["3 Boston Rd", "Sutton, MA 01590"]}, "phone": "+15088650507", "display_phone": "(508) 865-0507", "distance": 7818.809672936315}, {"id": "GM3zCfvIwbsHHrs5wLUbMg", "alias": "deluxe-pizza-mendon", "name": "Deluxe Pizza", "image_url": "https://s3-media4.fl.yelpcdn.com/bphoto/5d_60y_3s-uEso8aMrh6vA/o.jpg", "is_closed": false, "url": "https://www.yelp.com/biz/deluxe-pizza-mendon?adjust_creative=HdhkN5EEH6lAqE3kwhsHEQ&utm_campaign=yelp_api_v3&utm_medium=api_v3_business_search&utm_source=HdhkN5EEH6lAqE3kwhsHEQ", "review_count": 18, "categories": [{"alias": "pizza", "title": "Pizza"}], "rating": 4.0, "coordinates": {"latitude": 42.10434, "longitude": -71.55735}, "transactions": ["delivery"], "price": "$$", "location": {"address1": "32 Hastings St", "address2": "", "address3": "", "city": "Mendon", "zip_code": "01756", "country": "US", "state": "MA", "display_address": ["32 Hastings St", "Mendon, MA 01756"]}, "phone": "+15084784501", "display_phone": "(508) 478-4501", "distance": 7833.201782405802}, {"id": "mO_PBWmn3wj_2Pmo597KPw", "alias": "upton-house-of-pizza-upton", "name": "Upton House of Pizza", "image_url": "https://s3-media1.fl.yelpcdn.com/bphoto/gEcRlZ00HVOkXSlVoiOJ5g/o.jpg", "is_closed": false, "url": "https://www.yelp.com/biz/upton-house-of-pizza-upton?adjust_creative=HdhkN5EEH6lAqE3kwhsHEQ&utm_campaign=yelp_api_v3&utm_medium=api_v3_business_search&utm_source=HdhkN5EEH6lAqE3kwhsHEQ", "review_count": 15, "categories": [{"alias": "pizza", "title": "Pizza"}, {"alias": "italian", "title": "Italian"}], "rating": 3.0, "coordinates": {"latitude": 42.17436, "longitude": -71.602354}, "transactions": [], "price": "$$", "location": {"address1": "6 Milford St", "address2": "", "address3": "", "city": "Upton", "zip_code": "01568", "country": "US", "state": "MA", "display_address": ["6 Milford St", "Upton, MA 01568"]}, "phone": "+15085296666", "display_phone": "(508) 529-6666", "distance": 5477.812715399113}, {"id": "CXJ3N_eb_nr902pO_a3GLQ", "alias": "gregorys-pizzaria-and-restaurant-douglas", "name": "Gregory's Pizzaria & Restaurant", "image_url": "https://s3-media2.fl.yelpcdn.com/bphoto/7M3WV2AGjbWCip3b0qq3dw/o.jpg", "is_closed": false, "url": "https://www.yelp.com/biz/gregorys-pizzaria-and-restaurant-douglas?adjust_creative=HdhkN5EEH6lAqE3kwhsHEQ&utm_campaign=yelp_api_v3&utm_medium=api_v3_business_search&utm_source=HdhkN5EEH6lAqE3kwhsHEQ", "review_count": 22, "categories": [{"alias": "pizza", "title": "Pizza"}, {"alias": "salad", "title": "Salad"}, {"alias": "italian", "title": "Italian"}], "rating": 3.0, "coordinates": {"latitude": 42.072576, "longitude": -71.712729}, "transactions": [], "price": "$", "location": {"address1": "303 Main St", "address2": "", "address3": "", "city": "Douglas", "zip_code": "01516", "country": "US", "state": "MA", "display_address": ["303 Main St", "Douglas, MA 01516"]}, "phone": "+15084762552", "display_phone": "(508) 476-2552", "distance": 9037.307284794872}, {"id": "2YDv6ATuncjf_jP1645a6A", "alias": "schultzys-place-sutton", "name": "Schultzy's Place", "image_url": "https://s3-media4.fl.yelpcdn.com/bphoto/9hKQT4UdlS1uDj9Pj4UHWA/o.jpg", "is_closed": false, "url": "https://www.yelp.com/biz/schultzys-place-sutton?adjust_creative=HdhkN5EEH6lAqE3kwhsHEQ&utm_campaign=yelp_api_v3&utm_medium=api_v3_business_search&utm_source=HdhkN5EEH6lAqE3kwhsHEQ", "review_count": 55, "categories": [{"alias": "cafes", "title": "Cafes"}, {"alias": "breakfast_brunch", "title": "Breakfast & Brunch"}], "rating": 4.0, "coordinates": {"latitude": 42.1746019273996, "longitude": -71.7225104570389}, "transactions": ["delivery"], "price": "$", "location": {"address1": "3 Boston Rd", "address2": "", "address3": "", "city": "Sutton", "zip_code": "01590", "country": "US", "state": "MA", "display_address": ["3 Boston Rd", "Sutton, MA 01590"]}, "phone": "+15088656777", "display_phone": "(508) 865-6777", "distance": 7856.844585670386}, {"id": "1NsHOxcujNJssKy0CrH_oQ", "alias": "subway-whitinsville-4", "name": "Subway", "image_url": "https://s3-media3.fl.yelpcdn.com/bphoto/gRhh_FwqF09CXLuhjxcEaA/o.jpg", "is_closed": false, "url": "https://www.yelp.com/biz/subway-whitinsville-4?adjust_creative=HdhkN5EEH6lAqE3kwhsHEQ&utm_campaign=yelp_api_v3&utm_medium=api_v3_business_search&utm_source=HdhkN5EEH6lAqE3kwhsHEQ", "review_count": 3, "categories": [{"alias": "sandwiches", "title": "Sandwiches"}], "rating": 2.5, "coordinates": {"latitude": 42.1111714, "longitude": -71.6619159499166}, "transactions": [], "price": "$", "location": {"address1": "56 Church St", "address2": "", "address3": "", "city": "Whitinsville", "zip_code": "01588", "country": "US", "state": "MA", "display_address": ["56 Church St", "Whitinsville, MA 01588"]}, "phone": "+15082344007", "display_phone": "(508) 234-4007", "distance": 3103.470083564516}, {"id": "hdLBGBQWF6zq0KiLE67hwA", "alias": "red-barn-at-angels-cafe-hopkinton", "name": "Red Barn At Angel's Cafe", "image_url": "https://s3-media4.fl.yelpcdn.com/bphoto/tyhJqHO6bXxjg73GuJ0Wtg/o.jpg", "is_closed": false, "url": "https://www.yelp.com/biz/red-barn-at-angels-cafe-hopkinton?adjust_creative=HdhkN5EEH6lAqE3kwhsHEQ&utm_campaign=yelp_api_v3&utm_medium=api_v3_business_search&utm_source=HdhkN5EEH6lAqE3kwhsHEQ", "review_count": 43, "categories": [{"alias": "cafes", "title": "Cafes"}, {"alias": "coffee", "title": "Coffee & Tea"}], "rating": 4.5, "coordinates": {"latitude": 42.1989454112349, "longitude": -71.5692222118378}, "transactions": [], "price": "$", "location": {"address1": "285 W Main St", "address2": "", "address3": "", "city": "Hopkinton", "zip_code": "01748", "country": "US", "state": "MA", "display_address": ["285 W Main St", "Hopkinton, MA 01748"]}, "phone": "+15086251792", "display_phone": "(508) 625-1792", "distance": 9334.400534434622}, {"id": "oWOnXsUrsAeYZH1v9oJbBA", "alias": "muffin-house-cafe-mendon", "name": "Muffin House Cafe", "image_url": "https://s3-media1.fl.yelpcdn.com/bphoto/ygrogVtLBZttKq9Bs2wteg/o.jpg", "is_closed": false, "url": "https://www.yelp.com/biz/muffin-house-cafe-mendon?adjust_creative=HdhkN5EEH6lAqE3kwhsHEQ&utm_campaign=yelp_api_v3&utm_medium=api_v3_business_search&utm_source=HdhkN5EEH6lAqE3kwhsHEQ", "review_count": 98, "categories": [{"alias": "cafes", "title": "Cafes"}, {"alias": "coffee", "title": "Coffee & Tea"}, {"alias": "bakeries", "title": "Bakeries"}], "rating": 4.0, "coordinates": {"latitude": 42.10434, "longitude": -71.55735}, "transactions": ["delivery"], "price": "$", "location": {"address1": "32 Hastings St", "address2": "Ste 201", "address3": null, "city": "Mendon", "zip_code": "01756", "country": "US", "state": "MA", "display_address": ["32 Hastings St", "Ste 201", "Mendon, MA 01756"]}, "phone": "+15083810249", "display_phone": "(508) 381-0249", "distance": 7833.566082200493}, {"id": "t-OeMtuK5MZrg0rimrj2qQ", "alias": "depot-cafe-uxbridge", "name": "Depot Cafe", "image_url": "https://s3-media3.fl.yelpcdn.com/bphoto/QNZxvPByFQHMv78OJ2RsVA/o.jpg", "is_closed": false, "url": "https://www.yelp.com/biz/depot-cafe-uxbridge?adjust_creative=HdhkN5EEH6lAqE3kwhsHEQ&utm_campaign=yelp_api_v3&utm_medium=api_v3_business_search&utm_source=HdhkN5EEH6lAqE3kwhsHEQ", "review_count": 35, "categories": [{"alias": "breakfast_brunch", "title": "Breakfast & Brunch"}, {"alias": "sandwiches", "title": "Sandwiches"}], "rating": 4.0, "coordinates": {"latitude": 42.075899, "longitude": -71.629256}, "transactions": [], "price": "$", "location": {"address1": "11 S Main St", "address2": null, "address3": "", "city": "Uxbridge", "zip_code": "01569", "country": "US", "state": "MA", "display_address": ["11 S Main St", "Uxbridge, MA 01569"]}, "phone": "+15082788088", "display_phone": "(508) 278-8088", "distance": 6714.9238136455815}, {"id": "TsVfT5igXrJU0Twyvc_OAQ", "alias": "miss-mendon-diner-mendon", "name": "Miss Mendon Diner", "image_url": "https://s3-media4.fl.yelpcdn.com/bphoto/BA5a8U--9-_0T_J4wgTiZA/o.jpg", "is_closed": false, "url": "https://www.yelp.com/biz/miss-mendon-diner-mendon?adjust_creative=HdhkN5EEH6lAqE3kwhsHEQ&utm_campaign=yelp_api_v3&utm_medium=api_v3_business_search&utm_source=HdhkN5EEH6lAqE3kwhsHEQ", "review_count": 114, "categories": [{"alias": "diners", "title": "Diners"}, {"alias": "breakfast_brunch", "title": "Breakfast & Brunch"}, {"alias": "tradamerican", "title": "American (Traditional)"}], "rating": 3.0, "coordinates": {"latitude": 42.1022602, "longitude": -71.5634601}, "transactions": ["delivery"], "price": "$", "location": {"address1": "16 Uxbridge Rd", "address2": "", "address3": "", "city": "Mendon", "zip_code": "01756", "country": "US", "state": "MA", "display_address": ["16 Uxbridge Rd", "Mendon, MA 01756"]}, "phone": "+15086343000", "display_phone": "(508) 634-3000", "distance": 7539.83933939351}, {"id": "2VZinIb_CQaMEtOrZcBa1g", "alias": "dominos-pizza-whitinsville", "name": "Domino's Pizza", "image_url": "https://s3-media2.fl.yelpcdn.com/bphoto/o6tAg1nvf8x3feSWFHSPRw/o.jpg", "is_closed": false, "url": "https://www.yelp.com/biz/dominos-pizza-whitinsville?adjust_creative=HdhkN5EEH6lAqE3kwhsHEQ&utm_campaign=yelp_api_v3&utm_medium=api_v3_business_search&utm_source=HdhkN5EEH6lAqE3kwhsHEQ", "review_count": 13, "categories": [{"alias": "pizza", "title": "Pizza"}, {"alias": "chicken_wings", "title": "Chicken Wings"}, {"alias": "sandwiches", "title": "Sandwiches"}], "rating": 1.5, "coordinates": {"latitude": 42.1114044, "longitude": -71.6613998}, "transactions": [], "price": "$", "location": {"address1": "72 Church St", "address2": null, "address3": null, "city": "Whitinsville", "zip_code": "01588", "country": "US", "state": "MA", "display_address": ["72 Church St", "Whitinsville, MA 01588"]}, "phone": "+15082662000", "display_phone": "(508) 266-2000", "distance": 3078.2308197057478}, {"id": "-sYJ-MazNcftszOn2bBNwA", "alias": "douglas-house-of-pizza-douglas-2", "name": "Douglas House of Pizza", "image_url": "https://s3-media4.fl.yelpcdn.com/bphoto/GYqQEtQ55F5AqezbLVBjLg/o.jpg", "is_closed": false, "url": "https://www.yelp.com/biz/douglas-house-of-pizza-douglas-2?adjust_creative=HdhkN5EEH6lAqE3kwhsHEQ&utm_campaign=yelp_api_v3&utm_medium=api_v3_business_search&utm_source=HdhkN5EEH6lAqE3kwhsHEQ", "review_count": 18, "categories": [{"alias": "pizza", "title": "Pizza"}], "rating": 2.5, "coordinates": {"latitude": 42.0726474766066, "longitude": -71.7132919785042}, "transactions": [], "price": "$$", "location": {"address1": "296 Main St", "address2": null, "address3": null, "city": "Douglas", "zip_code": "01516", "country": "US", "state": "MA", "display_address": ["296 Main St", "Douglas, MA 01516"]}, "phone": "+15084762100", "display_phone": "(508) 476-2100", "distance": 9060.725795984516}, {"id": "kP0QvQp2CL-peX8e9WvBow", "alias": "papa-ginos-pizzeria-uxbridge", "name": "Papa Gino's Pizzeria", "image_url": "https://s3-media2.fl.yelpcdn.com/bphoto/kGQc6UQ7MEvHoC2jS5ijFg/o.jpg", "is_closed": false, "url": "https://www.yelp.com/biz/papa-ginos-pizzeria-uxbridge?adjust_creative=HdhkN5EEH6lAqE3kwhsHEQ&utm_campaign=yelp_api_v3&utm_medium=api_v3_business_search&utm_source=HdhkN5EEH6lAqE3kwhsHEQ", "review_count": 26, "categories": [{"alias": "pizza", "title": "Pizza"}], "rating": 1.5, "coordinates": {"latitude": 42.081616, "longitude": -71.63828}, "transactions": [], "price": "$$", "location": {"address1": "158 N. Main St.", "address2": "", "address3": "", "city": "Uxbridge", "zip_code": "01569", "country": "US", "state": "MA", "display_address": ["158 N. Main St.", "Uxbridge, MA 01569"]}, "phone": "+15082786881", "display_phone": "(508) 278-6881", "distance": 5993.549637595797}, {"id": "LjcD7neDAEFUVyVagxcKNQ", "alias": "k-ps-breakfast-and-lunch-sutton", "name": "K P's Breakfast & Lunch", "image_url": "https://s3-media3.fl.yelpcdn.com/bphoto/NNwyO-lmP6bsxi7RH1J75A/o.jpg", "is_closed": false, "url": "https://www.yelp.com/biz/k-ps-breakfast-and-lunch-sutton?adjust_creative=HdhkN5EEH6lAqE3kwhsHEQ&utm_campaign=yelp_api_v3&utm_medium=api_v3_business_search&utm_source=HdhkN5EEH6lAqE3kwhsHEQ", "review_count": 21, "categories": [{"alias": "breakfast_brunch", "title": "Breakfast & Brunch"}], "rating": 3.0, "coordinates": {"latitude": 42.17544, "longitude": -71.721}, "transactions": ["delivery"], "price": "$", "location": {"address1": "10 Providence Rd", "address2": "", "address3": "", "city": "Sutton", "zip_code": "01590", "country": "US", "state": "MA", "display_address": ["10 Providence Rd", "Sutton, MA 01590"]}, "phone": "+15088651328", "display_phone": "(508) 865-1328", "distance": 7799.102645140588}, {"id": "duBbkV1mz80Vi7ysNoAtTQ", "alias": "crystal-catering-whitinsville", "name": "Crystal Catering", "image_url": "", "is_closed": false, "url": "https://www.yelp.com/biz/crystal-catering-whitinsville?adjust_creative=HdhkN5EEH6lAqE3kwhsHEQ&utm_campaign=yelp_api_v3&utm_medium=api_v3_business_search&utm_source=HdhkN5EEH6lAqE3kwhsHEQ", "review_count": 1, "categories": [{"alias": "servicestations", "title": "Gas Stations"}, {"alias": "autorepair", "title": "Auto Repair"}, {"alias": "catering", "title": "Caterers"}, {"alias": "delis", "title": "Delis"}], "rating": 1.0, "coordinates": {"latitude": 42.112919, "longitude": -71.658243}, "transactions": [], "location": {"address1": "175 Church St", "address2": "", "address3": "", "city": "Whitinsville", "zip_code": "01588", "country": "US", "state": "MA", "display_address": ["175 Church St", "Whitinsville, MA 01588"]}, "phone": "+15082341209", "display_phone": "(508) 234-1209", "distance": 2786.5106889403814}, {"id": "QJ1P90Wkg9rz_FY-vOvDDA", "alias": "five-guys-sutton", "name": "Five Guys", "image_url": "https://s3-media1.fl.yelpcdn.com/bphoto/esJE7I_65f5J9coJWGr3TQ/o.jpg", "is_closed": false, "url": "https://www.yelp.com/biz/five-guys-sutton?adjust_creative=HdhkN5EEH6lAqE3kwhsHEQ&utm_campaign=yelp_api_v3&utm_medium=api_v3_business_search&utm_source=HdhkN5EEH6lAqE3kwhsHEQ", "review_count": 17, "categories": [{"alias": "hotdogs", "title": "Fast Food"}, {"alias": "burgers", "title": "Burgers"}], "rating": 3.0, "coordinates": {"latitude": 42.1597387, "longitude": -71.7348844}, "transactions": ["delivery"], "price": "$", "location": {"address1": "26 Galaxy Pass", "address2": "", "address3": "", "city": "Sutton", "zip_code": "01590", "country": "US", "state": "MA", "display_address": ["26 Galaxy Pass", "Sutton, MA 01590"]}, "phone": "+15089178555", "display_phone": "(508) 917-8555", "distance": 8027.330557523327}, {"id": "pQ5z2ZMP0jFuCle9hUAfYA", "alias": "subway-mendon-5", "name": "Subway", "image_url": "https://s3-media4.fl.yelpcdn.com/bphoto/MT0rMrxVOEjrXmMafEzjRg/o.jpg", "is_closed": false, "url": "https://www.yelp.com/biz/subway-mendon-5?adjust_creative=HdhkN5EEH6lAqE3kwhsHEQ&utm_campaign=yelp_api_v3&utm_medium=api_v3_business_search&utm_source=HdhkN5EEH6lAqE3kwhsHEQ", "review_count": 3, "categories": [{"alias": "sandwiches", "title": "Sandwiches"}], "rating": 2.0, "coordinates": {"latitude": 42.1031327230134, "longitude": -71.5590582540693}, "transactions": [], "price": "$", "location": {"address1": "32 Hastings St", "address2": "", "address3": "", "city": "Mendon", "zip_code": "01756", "country": "US", "state": "MA", "display_address": ["32 Hastings St", "Mendon, MA 01756"]}, "phone": "+15084229430", "display_phone": "(508) 422-9430", "distance": 7813.554700751095}, {"id": "GNdWwjv-UpUAtfpkBOkGDw", "alias": "dairy-queen-grill-and-chill-milford-4", "name": "Dairy Queen Grill & Chill", "image_url": "https://s3-media2.fl.yelpcdn.com/bphoto/cJu1MuvCkwfeSdSQws6e2Q/o.jpg", "is_closed": false, "url": "https://www.yelp.com/biz/dairy-queen-grill-and-chill-milford-4?adjust_creative=HdhkN5EEH6lAqE3kwhsHEQ&utm_campaign=yelp_api_v3&utm_medium=api_v3_business_search&utm_source=HdhkN5EEH6lAqE3kwhsHEQ", "review_count": 28, "categories": [{"alias": "hotdogs", "title": "Fast Food"}, {"alias": "icecream", "title": "Ice Cream & Frozen Yogurt"}, {"alias": "burgers", "title": "Burgers"}], "rating": 4.0, "coordinates": {"latitude": 42.1419068, "longitude": -71.5432544}, "transactions": ["delivery", "pickup"], "price": "$", "location": {"address1": "190 West St", "address2": "", "address3": "", "city": "Milford", "zip_code": "01757", "country": "US", "state": "MA", "display_address": ["190 West St", "Milford, MA 01757"]}, "phone": "+15084734654", "display_phone": "(508) 473-4654", "distance": 8274.201232580455}, {"id": "W4siqE1-H1RBPP7a8m9d2w", "alias": "rosas-villa-pizza-milford", "name": "Rosa's Villa Pizza", "image_url": "https://s3-media2.fl.yelpcdn.com/bphoto/6s9oRMvc2AdzLWqtMCR-HQ/o.jpg", "is_closed": false, "url": "https://www.yelp.com/biz/rosas-villa-pizza-milford?adjust_creative=HdhkN5EEH6lAqE3kwhsHEQ&utm_campaign=yelp_api_v3&utm_medium=api_v3_business_search&utm_source=HdhkN5EEH6lAqE3kwhsHEQ", "review_count": 23, "categories": [{"alias": "pizza", "title": "Pizza"}], "rating": 3.0, "coordinates": {"latitude": 42.143440246582, "longitude": -71.5434494018555}, "transactions": ["delivery", "pickup"], "price": "$", "location": {"address1": "189 West St", "address2": "", "address3": "", "city": "Milford", "zip_code": "01757", "country": "US", "state": "MA", "display_address": ["189 West St", "Milford, MA 01757"]}, "phone": "+15084787523", "display_phone": "(508) 478-7523", "distance": 8293.545022544356}, {"id": "ezpiAbjAVEdb5gzkbc19FQ", "alias": "subway-whitinsville-5", "name": "Subway", "image_url": "https://s3-media1.fl.yelpcdn.com/bphoto/5D26EA4ucXJfAKgkQPruTA/o.jpg", "is_closed": false, "url": "https://www.yelp.com/biz/subway-whitinsville-5?adjust_creative=HdhkN5EEH6lAqE3kwhsHEQ&utm_campaign=yelp_api_v3&utm_medium=api_v3_business_search&utm_source=HdhkN5EEH6lAqE3kwhsHEQ", "review_count": 6, "categories": [{"alias": "sandwiches", "title": "Sandwiches"}], "rating": 2.0, "coordinates": {"latitude": 42.1076898334229, "longitude": -71.7000950436261}, "transactions": [], "price": "$", "location": {"address1": "100 Valley Pkwy", "address2": null, "address3": null, "city": "Whitinsville", "zip_code": "01588", "country": "US", "state": "MA", "display_address": ["100 Valley Pkwy", "Whitinsville, MA 01588"]}, "phone": "+15082342440", "display_phone": "(508) 234-2440", "distance": 5611.903518873018}, {"id": "UAsEW-fPrVXMgZSXTkfLYg", "alias": "jims-pizza-and-restaurant-sutton", "name": "Jim's Pizza & Restaurant", "image_url": "https://s3-media2.fl.yelpcdn.com/bphoto/UbbwGYWXed_WacIzdu-xjg/o.jpg", "is_closed": false, "url": "https://www.yelp.com/biz/jims-pizza-and-restaurant-sutton?adjust_creative=HdhkN5EEH6lAqE3kwhsHEQ&utm_campaign=yelp_api_v3&utm_medium=api_v3_business_search&utm_source=HdhkN5EEH6lAqE3kwhsHEQ", "review_count": 18, "categories": [{"alias": "pizza", "title": "Pizza"}, {"alias": "salad", "title": "Salad"}, {"alias": "italian", "title": "Italian"}], "rating": 2.5, "coordinates": {"latitude": 42.1745342, "longitude": -71.7223978}, "transactions": ["delivery"], "price": "$", "location": {"address1": "3 Boston Rd", "address2": "", "address3": "", "city": "Sutton", "zip_code": "01590", "country": "US", "state": "MA", "display_address": ["3 Boston Rd", "Sutton, MA 01590"]}, "phone": "+15088650517", "display_phone": "(508) 865-0517", "distance": 7818.809672936315}, {"id": "onHWpahWYcgrERz9ChHb6w", "alias": "subway-uxbridge-6", "name": "Subway", "image_url": "https://s3-media4.fl.yelpcdn.com/bphoto/rztSPnjR8ZTPCDFYsU_lPQ/o.jpg", "is_closed": false, "url": "https://www.yelp.com/biz/subway-uxbridge-6?adjust_creative=HdhkN5EEH6lAqE3kwhsHEQ&utm_campaign=yelp_api_v3&utm_medium=api_v3_business_search&utm_source=HdhkN5EEH6lAqE3kwhsHEQ", "review_count": 8, "categories": [{"alias": "sandwiches", "title": "Sandwiches"}], "rating": 2.5, "coordinates": {"latitude": 42.0760286042075, "longitude": -71.6293811725563}, "transactions": [], "price": "$", "location": {"address1": "5 S Main St", "address2": "", "address3": null, "city": "Uxbridge", "zip_code": "01569", "country": "US", "state": "MA", "display_address": ["5 S Main St", "Uxbridge, MA 01569"]}, "phone": "+15082780202", "display_phone": "(508) 278-0202", "distance": 6698.9589472971775}]