[{"id": "bSTIM0u6sZuMmS6GX0mTqA", "alias": "stone-cow-brewery-barre", "name": "Stone Cow Brewery", "image_url": "https://s3-media2.fl.yelpcdn.com/bphoto/jMxZg8Vqw33_6aBMFZElCQ/o.jpg", "is_closed": false, "url": "https://www.yelp.com/biz/stone-cow-brewery-barre?adjust_creative=HdhkN5EEH6lAqE3kwhsHEQ&utm_campaign=yelp_api_v3&utm_medium=api_v3_business_search&utm_source=HdhkN5EEH6lAqE3kwhsHEQ", "review_count": 67, "categories": [{"alias": "breweries", "title": "Breweries"}, {"alias": "tradamerican", "title": "American (Traditional)"}], "rating": 4.5, "coordinates": {"latitude": 42.4247357, "longitude": -72.1242577}, "transactions": [], "price": "$", "location": {"address1": "500 West St", "address2": "Ste B", "address3": null, "city": "Barre", "zip_code": "01005", "country": "US", "state": "MA", "display_address": ["500 West St", "Ste B", "Barre, MA 01005"]}, "phone": "+19782578600", "display_phone": "(978) 257-8600", "distance": 9413.577756734354}, {"id": "gLsN78yTskhjpdHMa6HA3A", "alias": "ice-house-pub-barre", "name": "Ice House Pub", "image_url": "https://s3-media1.fl.yelpcdn.com/bphoto/lnDcvFdVS6GZoOB7_uRaqg/o.jpg", "is_closed": false, "url": "https://www.yelp.com/biz/ice-house-pub-barre?adjust_creative=HdhkN5EEH6lAqE3kwhsHEQ&utm_campaign=yelp_api_v3&utm_medium=api_v3_business_search&utm_source=HdhkN5EEH6lAqE3kwhsHEQ", "review_count": 40, "categories": [{"alias": "gastropubs", "title": "Gastropubs"}, {"alias": "newamerican", "title": "American (New)"}], "rating": 4.0, "coordinates": {"latitude": 42.4090505140105, "longitude": -72.0973576462425}, "transactions": [], "location": {"address1": "7 Worcester Rd", "address2": "", "address3": null, "city": "Barre", "zip_code": "01005", "country": "US", "state": "MA", "display_address": ["7 Worcester Rd", "Barre, MA 01005"]}, "phone": "+19783553000", "display_phone": "(978) 355-3000", "distance": 10189.191090481418}, {"id": "mrnvGU8_BnE6uHKHEG5XYg", "alias": "picasso-restaurant-and-bar-barre", "name": "Picasso Restaurant & Bar", "image_url": "https://s3-media1.fl.yelpcdn.com/bphoto/osSGSQKk7zlNJaKO6gbqtg/o.jpg", "is_closed": false, "url": "https://www.yelp.com/biz/picasso-restaurant-and-bar-barre?adjust_creative=HdhkN5EEH6lAqE3kwhsHEQ&utm_campaign=yelp_api_v3&utm_medium=api_v3_business_search&utm_source=HdhkN5EEH6lAqE3kwhsHEQ", "review_count": 47, "categories": [{"alias": "newamerican", "title": "American (New)"}, {"alias": "seafood", "title": "Seafood"}], "rating": 4.5, "coordinates": {"latitude": 42.42277, "longitude": -72.1061299}, "transactions": [], "price": "$$", "location": {"address1": "2 Common St", "address2": null, "address3": "", "city": "Barre", "zip_code": "01005", "country": "US", "state": "MA", "display_address": ["2 Common St", "Barre, MA 01005"]}, "phone": "+19783553099", "display_phone": "(978) 355-3099", "distance": 10411.732473353468}, {"id": "ekTKSMIx3hd5XXNmFeT-Bg", "alias": "salem-cross-inn-west-brookfield", "name": "Salem Cross Inn", "image_url": "https://s3-media4.fl.yelpcdn.com/bphoto/2OJ_dw5_3VL5zyJvN1czrA/o.jpg", "is_closed": false, "url": "https://www.yelp.com/biz/salem-cross-inn-west-brookfield?adjust_creative=HdhkN5EEH6lAqE3kwhsHEQ&utm_campaign=yelp_api_v3&utm_medium=api_v3_business_search&utm_source=HdhkN5EEH6lAqE3kwhsHEQ", "review_count": 113, "categories": [{"alias": "venues", "title": "Venues & Event Spaces"}, {"alias": "tradamerican", "title": "American (Traditional)"}], "rating": 4.0, "coordinates": {"latitude": 42.2460335987962, "longitude": -72.1747081086731}, "transactions": [], "price": "$$$", "location": {"address1": "260 W Main St Rt 9", "address2": "", "address3": "", "city": "West Brookfield", "zip_code": "01585", "country": "US", "state": "MA", "display_address": ["260 W Main St Rt 9", "West Brookfield, MA 01585"]}, "phone": "+15088672345", "display_phone": "(508) 867-2345", "distance": 13612.47358167377}, {"id": "1rd3Z8l2Ldh5GS2nhNintA", "alias": "rose32-bread-gilbertville", "name": "Rose32 Bread", "image_url": "https://s3-media1.fl.yelpcdn.com/bphoto/CYAKfGeh5XCrTses4exOhw/o.jpg", "is_closed": false, "url": "https://www.yelp.com/biz/rose32-bread-gilbertville?adjust_creative=HdhkN5EEH6lAqE3kwhsHEQ&utm_campaign=yelp_api_v3&utm_medium=api_v3_business_search&utm_source=HdhkN5EEH6lAqE3kwhsHEQ", "review_count": 85, "categories": [{"alias": "bakeries", "title": "Bakeries"}, {"alias": "breakfast_brunch", "title": "Breakfast & Brunch"}, {"alias": "tradamerican", "title": "American (Traditional)"}], "rating": 4.5, "coordinates": {"latitude": 42.304067, "longitude": -72.211452}, "transactions": [], "price": "$$", "location": {"address1": "412 Main St", "address2": "", "address3": "", "city": "Gilbertville", "zip_code": "01031", "country": "US", "state": "MA", "display_address": ["412 Main St", "Gilbertville, MA 01031"]}, "phone": "+14134779930", "display_phone": "(413) 477-9930", "distance": 6908.559904676086}, {"id": "Oa9YXvAs50RB-Xhc2BwXlg", "alias": "mimis-coffeehouse-of-hardwick-hardwick", "name": "Mimi's CoffeeHouse Of Hardwick", "image_url": "https://s3-media4.fl.yelpcdn.com/bphoto/NMlDkOX7whn4nYEiejmeSg/o.jpg", "is_closed": false, "url": "https://www.yelp.com/biz/mimis-coffeehouse-of-hardwick-hardwick?adjust_creative=HdhkN5EEH6lAqE3kwhsHEQ&utm_campaign=yelp_api_v3&utm_medium=api_v3_business_search&utm_source=HdhkN5EEH6lAqE3kwhsHEQ", "review_count": 3, "categories": [{"alias": "coffee", "title": "Coffee & Tea"}, {"alias": "breakfast_brunch", "title": "Breakfast & Brunch"}, {"alias": "sandwiches", "title": "Sandwiches"}], "rating": 4.5, "coordinates": {"latitude": 42.3486171468542, "longitude": -72.1993167786787}, "transactions": [], "price": "$$", "location": {"address1": "14 Barre Rd", "address2": "", "address3": null, "city": "Hardwick", "zip_code": "01037", "country": "US", "state": "MA", "display_address": ["14 Barre Rd", "Hardwick, MA 01037"]}, "phone": "+14134771144", "display_phone": "(413) 477-1144", "distance": 2043.6757654876953}, {"id": "Xk6_V-Sd08xSFqaQUCvZbw", "alias": "wicked-wing-ware", "name": "Wicked Wing", "image_url": "https://s3-media4.fl.yelpcdn.com/bphoto/jSg8-20Gf49RhkksAP3Iwg/o.jpg", "is_closed": false, "url": "https://www.yelp.com/biz/wicked-wing-ware?adjust_creative=HdhkN5EEH6lAqE3kwhsHEQ&utm_campaign=yelp_api_v3&utm_medium=api_v3_business_search&utm_source=HdhkN5EEH6lAqE3kwhsHEQ", "review_count": 34, "categories": [{"alias": "chicken_wings", "title": "Chicken Wings"}, {"alias": "breweries", "title": "Breweries"}, {"alias": "cocktailbars", "title": "Cocktail Bars"}], "rating": 4.0, "coordinates": {"latitude": 42.2672853535435, "longitude": -72.2480573767605}, "transactions": [], "location": {"address1": "136 Pleasant St", "address2": "", "address3": null, "city": "Ware", "zip_code": "01082", "country": "US", "state": "MA", "display_address": ["136 Pleasant St", "Ware, MA 01082"]}, "phone": "+14132770020", "display_phone": "(413) 277-0020", "distance": 11496.526791301478}, {"id": "9CB1T3OCrceK3JRmagcoMA", "alias": "308-lakeside-east-brookfield", "name": "308 Lakeside", "image_url": "https://s3-media1.fl.yelpcdn.com/bphoto/u8Fqwre_2Owsm6MLE7bvIA/o.jpg", "is_closed": false, "url": "https://www.yelp.com/biz/308-lakeside-east-brookfield?adjust_creative=HdhkN5EEH6lAqE3kwhsHEQ&utm_campaign=yelp_api_v3&utm_medium=api_v3_business_search&utm_source=HdhkN5EEH6lAqE3kwhsHEQ", "review_count": 103, "categories": [{"alias": "newamerican", "title": "American (New)"}, {"alias": "beer_and_wine", "title": "Beer, Wine & Spirits"}], "rating": 3.0, "coordinates": {"latitude": 42.2270431518555, "longitude": -72.0465240478516}, "transactions": [], "price": "$$", "location": {"address1": "308 E Main St", "address2": "", "address3": "Rt 9", "city": "East Brookfield", "zip_code": "01515", "country": "US", "state": "MA", "display_address": ["308 E Main St", "Rt 9", "East Brookfield, MA 01515"]}, "phone": "+17744498333", "display_phone": "(774) 449-8333", "distance": 20325.284585998}, {"id": "qZ2mUZB1EFz2-Was9kft2Q", "alias": "ye-olde-tavern-west-brookfield-3", "name": "Ye Olde Tavern", "image_url": "https://s3-media2.fl.yelpcdn.com/bphoto/feqtvkBcHvmzmclvTYA-WQ/o.jpg", "is_closed": false, "url": "https://www.yelp.com/biz/ye-olde-tavern-west-brookfield-3?adjust_creative=HdhkN5EEH6lAqE3kwhsHEQ&utm_campaign=yelp_api_v3&utm_medium=api_v3_business_search&utm_source=HdhkN5EEH6lAqE3kwhsHEQ", "review_count": 31, "categories": [{"alias": "pizza", "title": "Pizza"}], "rating": 3.5, "coordinates": {"latitude": 42.2349328, "longitude": -72.1419567}, "transactions": [], "price": "$$", "location": {"address1": "7 E Main St", "address2": "", "address3": "", "city": "West Brookfield", "zip_code": "01585", "country": "US", "state": "MA", "display_address": ["7 E Main St", "West Brookfield, MA 01585"]}, "phone": "+15088679709", "display_phone": "(508) 867-9709", "distance": 15534.727804463446}, {"id": "PtAMmv9zA1q6y2NuKQNtPA", "alias": "pig-park-bbq-ware", "name": "Pig Park BBQ", "image_url": "https://s3-media2.fl.yelpcdn.com/bphoto/Iwqx3PvTvW2yy2hGxH5R8Q/o.jpg", "is_closed": false, "url": "https://www.yelp.com/biz/pig-park-bbq-ware?adjust_creative=HdhkN5EEH6lAqE3kwhsHEQ&utm_campaign=yelp_api_v3&utm_medium=api_v3_business_search&utm_source=HdhkN5EEH6lAqE3kwhsHEQ", "review_count": 13, "categories": [{"alias": "bbq", "title": "Barbeque"}], "rating": 4.0, "coordinates": {"latitude": 42.2599379693609, "longitude": -72.2281836193848}, "transactions": [], "price": "$$", "location": {"address1": "97 East St Rt 9", "address2": "", "address3": "Various Locations", "city": "Ware", "zip_code": "01082", "country": "US", "state": "MA", "display_address": ["97 East St Rt 9", "Various Locations", "Ware, MA 01082"]}, "phone": "+14135444712", "display_phone": "(413) 544-4712", "distance": 11933.93176479264}, {"id": "ykJGWukwghYMNPwamxCj2A", "alias": "jenkins-inn-and-restaurant-barre", "name": "Jenkins Inn & Restaurant", "image_url": "https://s3-media2.fl.yelpcdn.com/bphoto/wkYdN4OoO_OY3LBUeV6v2Q/o.jpg", "is_closed": false, "url": "https://www.yelp.com/biz/jenkins-inn-and-restaurant-barre?adjust_creative=HdhkN5EEH6lAqE3kwhsHEQ&utm_campaign=yelp_api_v3&utm_medium=api_v3_business_search&utm_source=HdhkN5EEH6lAqE3kwhsHEQ", "review_count": 6, "categories": [{"alias": "newamerican", "title": "American (New)"}, {"alias": "bedbreakfast", "title": "Bed & Breakfast"}], "rating": 4.5, "coordinates": {"latitude": 42.423309, "longitude": -72.107398}, "transactions": [], "price": "$$", "location": {"address1": "7 West St", "address2": "", "address3": "", "city": "Barre", "zip_code": "01005", "country": "US", "state": "MA", "display_address": ["7 West St", "Barre, MA 01005"]}, "phone": "+19783556444", "display_phone": "(978) 355-6444", "distance": 10361.5812572329}, {"id": "ZNH4DMILk2mdeYDM5GDfVw", "alias": "wrights-fish-and-chips-ware", "name": "Wrights Fish & Chips", "image_url": "", "is_closed": false, "url": "https://www.yelp.com/biz/wrights-fish-and-chips-ware?adjust_creative=HdhkN5EEH6lAqE3kwhsHEQ&utm_campaign=yelp_api_v3&utm_medium=api_v3_business_search&utm_source=HdhkN5EEH6lAqE3kwhsHEQ", "review_count": 3, "categories": [{"alias": "fishnchips", "title": "Fish & Chips"}], "rating": 3.0, "coordinates": {"latitude": 51.8108, "longitude": -0.02983}, "transactions": [], "location": {"address1": "3 East Street", "address2": "", "address3": "", "city": "Ware", "zip_code": "SG12 9HJ", "country": "GB", "state": "HRT", "display_address": ["3 East Street", "Ware SG12 9HJ", "United Kingdom"]}, "phone": "+441920462888", "display_phone": "+44 1920 462888", "distance": 12121.600189691284}, {"id": "G_PPROO9ccur-m-GWzbZmA", "alias": "quabbin-woods-restaurant-petersham", "name": "Quabbin Woods Restaurant", "image_url": "https://s3-media3.fl.yelpcdn.com/bphoto/w6hsjy3EUcuAd17n0h42Eg/o.jpg", "is_closed": false, "url": "https://www.yelp.com/biz/quabbin-woods-restaurant-petersham?adjust_creative=HdhkN5EEH6lAqE3kwhsHEQ&utm_campaign=yelp_api_v3&utm_medium=api_v3_business_search&utm_source=HdhkN5EEH6lAqE3kwhsHEQ", "review_count": 15, "categories": [{"alias": "newamerican", "title": "American (New)"}, {"alias": "comfortfood", "title": "Comfort Food"}, {"alias": "burgers", "title": "Burgers"}], "rating": 4.0, "coordinates": {"latitude": 42.481931, "longitude": -72.183534}, "transactions": [], "price": "$", "location": {"address1": "8 Barre Rd", "address2": "Ste RT", "address3": "", "city": "Petersham", "zip_code": "01366", "country": "US", "state": "MA", "display_address": ["8 Barre Rd", "Ste RT", "Petersham, MA 01366"]}, "phone": "+19787243288", "display_phone": "(978) 724-3288", "distance": 13021.576177585412}, {"id": "3Y9OnIQ55G13AcdxFZkHjw", "alias": "high-tides-seafood-barre", "name": "High Tides Seafood", "image_url": "", "is_closed": false, "url": "https://www.yelp.com/biz/high-tides-seafood-barre?adjust_creative=HdhkN5EEH6lAqE3kwhsHEQ&utm_campaign=yelp_api_v3&utm_medium=api_v3_business_search&utm_source=HdhkN5EEH6lAqE3kwhsHEQ", "review_count": 7, "categories": [{"alias": "seafood", "title": "Seafood"}, {"alias": "beer_and_wine", "title": "Beer, Wine & Spirits"}, {"alias": "icecream", "title": "Ice Cream & Frozen Yogurt"}], "rating": 4.5, "coordinates": {"latitude": 42.442644144625, "longitude": -72.165020017677}, "transactions": [], "location": {"address1": "2291 West St", "address2": "", "address3": null, "city": "Barre", "zip_code": "01005", "country": "US", "state": "MA", "display_address": ["2291 West St", "Barre, MA 01005"]}, "phone": "+19783556715", "display_phone": "(978) 355-6715", "distance": 9180.523314764203}, {"id": "w7OhIPtYkrCNLt8P2uIavA", "alias": "hanna-devines-restaurant-ware", "name": "Hanna Devine's Restaurant", "image_url": "https://s3-media3.fl.yelpcdn.com/bphoto/y0x0A04JfuP0gNbBhQAbOQ/o.jpg", "is_closed": false, "url": "https://www.yelp.com/biz/hanna-devines-restaurant-ware?adjust_creative=HdhkN5EEH6lAqE3kwhsHEQ&utm_campaign=yelp_api_v3&utm_medium=api_v3_business_search&utm_source=HdhkN5EEH6lAqE3kwhsHEQ", "review_count": 65, "categories": [{"alias": "seafood", "title": "Seafood"}, {"alias": "beer_and_wine", "title": "Beer, Wine & Spirits"}, {"alias": "newamerican", "title": "American (New)"}], "rating": 3.5, "coordinates": {"latitude": 42.2605129935206, "longitude": -72.2413601052226}, "transactions": [], "price": "$$", "location": {"address1": "91 Main St", "address2": "", "address3": null, "city": "Ware", "zip_code": "01082", "country": "US", "state": "MA", "display_address": ["91 Main St", "Ware, MA 01082"]}, "phone": "+14132770707", "display_phone": "(413) 277-0707", "distance": 12077.638509863798}, {"id": "t2YP9KwOFbufQ5CdDnGspw", "alias": "howards-drive-in-west-brookfield", "name": "Howards Drive In", "image_url": "https://s3-media1.fl.yelpcdn.com/bphoto/J29KRUefCK0T3bxmW4xEvw/o.jpg", "is_closed": false, "url": "https://www.yelp.com/biz/howards-drive-in-west-brookfield?adjust_creative=HdhkN5EEH6lAqE3kwhsHEQ&utm_campaign=yelp_api_v3&utm_medium=api_v3_business_search&utm_source=HdhkN5EEH6lAqE3kwhsHEQ", "review_count": 52, "categories": [{"alias": "tradamerican", "title": "American (Traditional)"}], "rating": 4.0, "coordinates": {"latitude": 42.2305, "longitude": -72.13282}, "transactions": [], "price": "$", "location": {"address1": "121 E Main St", "address2": "", "address3": "", "city": "West Brookfield", "zip_code": "01585", "country": "US", "state": "MA", "display_address": ["121 E Main St", "West Brookfield, MA 01585"]}, "phone": "+15088676504", "display_phone": "(508) 867-6504", "distance": 16257.916811185916}, {"id": "yIhVtwTmftVIpNYcxf9yMA", "alias": "statz-sports-pub-and-grill-north-brookfield", "name": "Statz Sports Pub & Grill", "image_url": "https://s3-media3.fl.yelpcdn.com/bphoto/iOISgzMcfKXM9LCMMpr-xw/o.jpg", "is_closed": false, "url": "https://www.yelp.com/biz/statz-sports-pub-and-grill-north-brookfield?adjust_creative=HdhkN5EEH6lAqE3kwhsHEQ&utm_campaign=yelp_api_v3&utm_medium=api_v3_business_search&utm_source=HdhkN5EEH6lAqE3kwhsHEQ", "review_count": 5, "categories": [{"alias": "breakfast_brunch", "title": "Breakfast & Brunch"}, {"alias": "pubs", "title": "Pubs"}], "rating": 5.0, "coordinates": {"latitude": 42.275866, "longitude": -72.083283}, "transactions": [], "price": "$", "location": {"address1": "341 N Main St", "address2": "", "address3": null, "city": "North Brookfield", "zip_code": "01535", "country": "US", "state": "MA", "display_address": ["341 N Main St", "North Brookfield, MA 01535"]}, "phone": "+15088677204", "display_phone": "(508) 867-7204", "distance": 14299.648429540552}, {"id": "_M9tO4EUkGSL4mtSnECcrA", "alias": "teresas-restaurant-ware", "name": "Teresa's Restaurant", "image_url": "https://s3-media2.fl.yelpcdn.com/bphoto/O7o53uFX5smk1gOJzuoCzw/o.jpg", "is_closed": false, "url": "https://www.yelp.com/biz/teresas-restaurant-ware?adjust_creative=HdhkN5EEH6lAqE3kwhsHEQ&utm_campaign=yelp_api_v3&utm_medium=api_v3_business_search&utm_source=HdhkN5EEH6lAqE3kwhsHEQ", "review_count": 48, "categories": [{"alias": "pizza", "title": "Pizza"}, {"alias": "italian", "title": "Italian"}, {"alias": "venues", "title": "Venues & Event Spaces"}], "rating": 3.5, "coordinates": {"latitude": 42.24245, "longitude": -72.274393}, "transactions": [], "price": "$$", "location": {"address1": "315 Palmer Rd", "address2": "", "address3": "", "city": "Ware", "zip_code": "01082", "country": "US", "state": "MA", "display_address": ["315 Palmer Rd", "Ware, MA 01082"]}, "phone": "+14139677601", "display_phone": "(413) 967-7601", "distance": 14826.460104659755}, {"id": "NPQI9o4Gru4P1FYqfJ_NcA", "alias": "yummy-garden-barre", "name": "Yummy Garden", "image_url": "https://s3-media4.fl.yelpcdn.com/bphoto/uGJpVlkiNkjd5rYt23MpRA/o.jpg", "is_closed": false, "url": "https://www.yelp.com/biz/yummy-garden-barre?adjust_creative=HdhkN5EEH6lAqE3kwhsHEQ&utm_campaign=yelp_api_v3&utm_medium=api_v3_business_search&utm_source=HdhkN5EEH6lAqE3kwhsHEQ", "review_count": 17, "categories": [{"alias": "chinese", "title": "Chinese"}], "rating": 4.0, "coordinates": {"latitude": 42.3842252790928, "longitude": -72.098863273859}, "transactions": [], "price": "$", "location": {"address1": "57 Main St", "address2": "", "address3": "", "city": "Barre", "zip_code": "01005", "country": "US", "state": "MA", "display_address": ["57 Main St", "Barre, MA 01005"]}, "phone": "+19783552022", "display_phone": "(978) 355-2022", "distance": 9054.651816505193}, {"id": "4Jt27guQdNKXH3pJ9u1m5A", "alias": "barre-mill-restaurant-south-barre-3", "name": "Barre Mill Restaurant", "image_url": "https://s3-media4.fl.yelpcdn.com/bphoto/VIfSRtantMJBsa2O3hE2IQ/o.jpg", "is_closed": false, "url": "https://www.yelp.com/biz/barre-mill-restaurant-south-barre-3?adjust_creative=HdhkN5EEH6lAqE3kwhsHEQ&utm_campaign=yelp_api_v3&utm_medium=api_v3_business_search&utm_source=HdhkN5EEH6lAqE3kwhsHEQ", "review_count": 12, "categories": [{"alias": "italian", "title": "Italian"}, {"alias": "pizza", "title": "Pizza"}, {"alias": "tradamerican", "title": "American (Traditional)"}], "rating": 2.5, "coordinates": {"latitude": 42.3840348, "longitude": -72.1004294}, "transactions": [], "price": "$$", "location": {"address1": "90 Main St", "address2": null, "address3": null, "city": "South Barre", "zip_code": "01074", "country": "US", "state": "MA", "display_address": ["90 Main St", "South Barre, MA 01074"]}, "phone": "+19783552987", "display_phone": "(978) 355-2987", "distance": 8974.708563320562}, {"id": "FhaArV8Sex3wL-Wyv6MQuw", "alias": "gin-mill-palmer", "name": "Gin Mill", "image_url": "https://s3-media1.fl.yelpcdn.com/bphoto/hzab8IojP7MVbmN__a9RtQ/o.jpg", "is_closed": false, "url": "https://www.yelp.com/biz/gin-mill-palmer?adjust_creative=HdhkN5EEH6lAqE3kwhsHEQ&utm_campaign=yelp_api_v3&utm_medium=api_v3_business_search&utm_source=HdhkN5EEH6lAqE3kwhsHEQ", "review_count": 11, "categories": [{"alias": "divebars", "title": "Dive Bars"}, {"alias": "tradamerican", "title": "American (Traditional)"}], "rating": 4.5, "coordinates": {"latitude": 42.213802, "longitude": -72.344717}, "transactions": [], "price": "$", "location": {"address1": "3095 Main St", "address2": "", "address3": "", "city": "Palmer", "zip_code": "01069", "country": "US", "state": "MA", "display_address": ["3095 Main St", "Palmer, MA 01069"]}, "phone": "+14132832014", "display_phone": "(413) 283-2014", "distance": 20377.090937628003}, {"id": "yPx4L-3zWVT4bhD9wofJ0Q", "alias": "the-dashboard-diner-spencer", "name": "The Dashboard Diner", "image_url": "https://s3-media2.fl.yelpcdn.com/bphoto/eUHqsO9dzowr6TZxXLuwGg/o.jpg", "is_closed": false, "url": "https://www.yelp.com/biz/the-dashboard-diner-spencer?adjust_creative=HdhkN5EEH6lAqE3kwhsHEQ&utm_campaign=yelp_api_v3&utm_medium=api_v3_business_search&utm_source=HdhkN5EEH6lAqE3kwhsHEQ", "review_count": 7, "categories": [{"alias": "hotdog", "title": "Hot Dogs"}, {"alias": "burgers", "title": "Burgers"}, {"alias": "fishnchips", "title": "Fish & Chips"}], "rating": 5.0, "coordinates": {"latitude": 42.2376279610392, "longitude": -72.0048223919266}, "transactions": [], "price": "$", "location": {"address1": "6 W Main St", "address2": null, "address3": "", "city": "Spencer", "zip_code": "01562", "country": "US", "state": "MA", "display_address": ["6 W Main St", "Spencer, MA 01562"]}, "phone": "+15088645472", "display_phone": "(508) 864-5472", "distance": 21918.952189574902}, {"id": "t7FbgEITiEReUrTte9mJiw", "alias": "clamber-hill-inn-and-restaurant-petersham-2", "name": "Clamber Hill Inn & Restaurant", "image_url": "https://s3-media1.fl.yelpcdn.com/bphoto/7rAzCt1SCY2BB_WPoLwT_g/o.jpg", "is_closed": false, "url": "https://www.yelp.com/biz/clamber-hill-inn-and-restaurant-petersham-2?adjust_creative=HdhkN5EEH6lAqE3kwhsHEQ&utm_campaign=yelp_api_v3&utm_medium=api_v3_business_search&utm_source=HdhkN5EEH6lAqE3kwhsHEQ", "review_count": 11, "categories": [{"alias": "tradamerican", "title": "American (Traditional)"}, {"alias": "whiskeybars", "title": "Whiskey Bars"}, {"alias": "winetasteclasses", "title": "Wine Tasting Classes"}], "rating": 4.0, "coordinates": {"latitude": 42.5031579313361, "longitude": -72.1865090608826}, "transactions": [], "price": "$$$", "location": {"address1": "111 N Main St", "address2": "", "address3": "", "city": "Petersham", "zip_code": "01366", "country": "US", "state": "MA", "display_address": ["111 N Main St", "Petersham, MA 01366"]}, "phone": "+19787248800", "display_phone": "(978) 724-8800", "distance": 15331.310312213705}, {"id": "J5BRVzL0o2u4tCkUZUUM2Q", "alias": "kozy-kabin-restaurant-barre", "name": "Kozy Kabin Restaurant", "image_url": "https://s3-media2.fl.yelpcdn.com/bphoto/MCNZ8x6RognRL9SP6zIbPQ/o.jpg", "is_closed": false, "url": "https://www.yelp.com/biz/kozy-kabin-restaurant-barre?adjust_creative=HdhkN5EEH6lAqE3kwhsHEQ&utm_campaign=yelp_api_v3&utm_medium=api_v3_business_search&utm_source=HdhkN5EEH6lAqE3kwhsHEQ", "review_count": 3, "categories": [{"alias": "restaurants", "title": "Restaurants"}], "rating": 3.5, "coordinates": {"latitude": 42.3913459777832, "longitude": -72.0739517211914}, "transactions": [], "price": "$", "location": {"address1": "1067 Worcester Rd", "address2": "", "address3": "", "city": "Barre", "zip_code": "01005", "country": "US", "state": "MA", "display_address": ["1067 Worcester Rd", "Barre, MA 01005"]}, "phone": "+19783556264", "display_phone": "(978) 355-6264", "distance": 11279.912427752819}, {"id": "K0o9LxfijA6wNfKOBUdgVg", "alias": "j-and-j-family-restaurant-barre", "name": "J & J Family Restaurant", "image_url": "https://s3-media3.fl.yelpcdn.com/bphoto/hP0oshzQyKCXLeWljCmuMg/o.jpg", "is_closed": false, "url": "https://www.yelp.com/biz/j-and-j-family-restaurant-barre?adjust_creative=HdhkN5EEH6lAqE3kwhsHEQ&utm_campaign=yelp_api_v3&utm_medium=api_v3_business_search&utm_source=HdhkN5EEH6lAqE3kwhsHEQ", "review_count": 10, "categories": [{"alias": "tradamerican", "title": "American (Traditional)"}], "rating": 4.0, "coordinates": {"latitude": 42.391973, "longitude": -72.0819719}, "transactions": [], "price": "$$", "location": {"address1": "815 Worcester Rd", "address2": "", "address3": "", "city": "Barre", "zip_code": "01005", "country": "US", "state": "MA", "display_address": ["815 Worcester Rd", "Barre, MA 01005"]}, "phone": "+19783552122", "display_phone": "(978) 355-2122", "distance": 10661.332788492027}, {"id": "tvP1MXfXcaJKD8pGyO31Mw", "alias": "matts-breakfast-nook-west-brookfield", "name": "Matt's Breakfast Nook", "image_url": "https://s3-media3.fl.yelpcdn.com/bphoto/BBidKu4IzxWx95_oclff3w/o.jpg", "is_closed": false, "url": "https://www.yelp.com/biz/matts-breakfast-nook-west-brookfield?adjust_creative=HdhkN5EEH6lAqE3kwhsHEQ&utm_campaign=yelp_api_v3&utm_medium=api_v3_business_search&utm_source=HdhkN5EEH6lAqE3kwhsHEQ", "review_count": 1, "categories": [{"alias": "breakfast_brunch", "title": "Breakfast & Brunch"}], "rating": 5.0, "coordinates": {"latitude": 42.2351378, "longitude": -72.1417457}, "transactions": [], "location": {"address1": "8 E Main St", "address2": "", "address3": null, "city": "West Brookfield", "zip_code": "01585", "country": "US", "state": "MA", "display_address": ["8 E Main St", "West Brookfield, MA 01585"]}, "phone": "+15086371166", "display_phone": "(508) 637-1166", "distance": 15516.373265996715}, {"id": "Nb5fL0yMe1YUGQhMwEVsnA", "alias": "rise-n-shine-diner-east-brookfield", "name": "Rise N' Shine Diner", "image_url": "https://s3-media3.fl.yelpcdn.com/bphoto/pRz0fJ8uPJ4CgXUH9Wl-0w/o.jpg", "is_closed": false, "url": "https://www.yelp.com/biz/rise-n-shine-diner-east-brookfield?adjust_creative=HdhkN5EEH6lAqE3kwhsHEQ&utm_campaign=yelp_api_v3&utm_medium=api_v3_business_search&utm_source=HdhkN5EEH6lAqE3kwhsHEQ", "review_count": 6, "categories": [{"alias": "diners", "title": "Diners"}], "rating": 4.0, "coordinates": {"latitude": 42.219766, "longitude": -72.069581}, "transactions": [], "price": "$", "location": {"address1": "237 W Main St", "address2": null, "address3": null, "city": "East Brookfield", "zip_code": "01515", "country": "US", "state": "MA", "display_address": ["237 W Main St", "East Brookfield, MA 01515"]}, "phone": "+15088670034", "display_phone": "(508) 867-0034", "distance": 19810.825035121496}, {"id": "nB8kYU2SLIJHpHy3HskVDA", "alias": "mexicali-cantina-grill-ware", "name": "Mexicali Cantina Grill", "image_url": "https://s3-media3.fl.yelpcdn.com/bphoto/--DwcVl27eu8ZhHc0vgjZg/o.jpg", "is_closed": false, "url": "https://www.yelp.com/biz/mexicali-cantina-grill-ware?adjust_creative=HdhkN5EEH6lAqE3kwhsHEQ&utm_campaign=yelp_api_v3&utm_medium=api_v3_business_search&utm_source=HdhkN5EEH6lAqE3kwhsHEQ", "review_count": 67, "categories": [{"alias": "mexican", "title": "Mexican"}], "rating": 3.5, "coordinates": {"latitude": 42.2555114, "longitude": -72.2521185}, "transactions": [], "price": "$$", "location": {"address1": "146 West St", "address2": "", "address3": "", "city": "Ware", "zip_code": "01082", "country": "US", "state": "MA", "display_address": ["146 West St", "Ware, MA 01082"]}, "phone": "+14132770925", "display_phone": "(413) 277-0925", "distance": 12846.310518586215}, {"id": "NSR3gnnaeCJfL99xif_PNQ", "alias": "petersham-country-store-petersham", "name": "Petersham Country Store", "image_url": "https://s3-media2.fl.yelpcdn.com/bphoto/MGNdpq_qs24ltsY9fBcmWQ/o.jpg", "is_closed": false, "url": "https://www.yelp.com/biz/petersham-country-store-petersham?adjust_creative=HdhkN5EEH6lAqE3kwhsHEQ&utm_campaign=yelp_api_v3&utm_medium=api_v3_business_search&utm_source=HdhkN5EEH6lAqE3kwhsHEQ", "review_count": 29, "categories": [{"alias": "grocery", "title": "Grocery"}, {"alias": "cafes", "title": "Cafes"}, {"alias": "artsandcrafts", "title": "Arts & Crafts"}], "rating": 4.5, "coordinates": {"latitude": 42.48871, "longitude": -72.18573}, "transactions": [], "price": "$$", "location": {"address1": "2 N Main St", "address2": "", "address3": "", "city": "Petersham", "zip_code": "01366", "country": "US", "state": "MA", "display_address": ["2 N Main St", "Petersham, MA 01366"]}, "phone": "+19787240000", "display_phone": "(978) 724-0000", "distance": 13738.347998041527}, {"id": "yXkjcWlkcOCYP3CsfT-mEA", "alias": "red-tomato-barre", "name": "Red Tomato", "image_url": "", "is_closed": false, "url": "https://www.yelp.com/biz/red-tomato-barre?adjust_creative=HdhkN5EEH6lAqE3kwhsHEQ&utm_campaign=yelp_api_v3&utm_medium=api_v3_business_search&utm_source=HdhkN5EEH6lAqE3kwhsHEQ", "review_count": 1, "categories": [{"alias": "pizza", "title": "Pizza"}], "rating": 5.0, "coordinates": {"latitude": 42.42252, "longitude": -72.10426}, "transactions": [], "location": {"address1": "11 Exchange St", "address2": "", "address3": null, "city": "Barre", "zip_code": "01005", "country": "US", "state": "MA", "display_address": ["11 Exchange St", "Barre, MA 01005"]}, "phone": "+19783553536", "display_phone": "(978) 355-3536", "distance": 10500.806881714816}, {"id": "I0zvQlGF1--ymQeJcxTO2A", "alias": "nikos-pizza-ware", "name": "Niko's Pizza", "image_url": "https://s3-media4.fl.yelpcdn.com/bphoto/icDNBI1khs1fOAC3cVhvZw/o.jpg", "is_closed": false, "url": "https://www.yelp.com/biz/nikos-pizza-ware?adjust_creative=HdhkN5EEH6lAqE3kwhsHEQ&utm_campaign=yelp_api_v3&utm_medium=api_v3_business_search&utm_source=HdhkN5EEH6lAqE3kwhsHEQ", "review_count": 6, "categories": [{"alias": "pizza", "title": "Pizza"}, {"alias": "greek", "title": "Greek"}], "rating": 4.0, "coordinates": {"latitude": 42.260562, "longitude": -72.242328}, "transactions": [], "price": "$$", "location": {"address1": "118 Main St", "address2": "", "address3": null, "city": "Ware", "zip_code": "01082", "country": "US", "state": "MA", "display_address": ["118 Main St", "Ware, MA 01082"]}, "phone": "+14139670436", "display_phone": "(413) 967-0436", "distance": 12091.238025386567}, {"id": "E4RyhqBNIZ6AvdFTNRrmUQ", "alias": "mccarthys-pub-belchertown", "name": "McCarthy's Pub", "image_url": "https://s3-media3.fl.yelpcdn.com/bphoto/rItSlXr6jR0p5dkjXzgz1g/o.jpg", "is_closed": false, "url": "https://www.yelp.com/biz/mccarthys-pub-belchertown?adjust_creative=HdhkN5EEH6lAqE3kwhsHEQ&utm_campaign=yelp_api_v3&utm_medium=api_v3_business_search&utm_source=HdhkN5EEH6lAqE3kwhsHEQ", "review_count": 51, "categories": [{"alias": "bars", "title": "Bars"}, {"alias": "irish", "title": "Irish"}], "rating": 4.0, "coordinates": {"latitude": 42.2802, "longitude": -72.4032299}, "transactions": [], "price": "$$", "location": {"address1": "5 E Walnut St", "address2": null, "address3": "", "city": "Belchertown", "zip_code": "01007", "country": "US", "state": "MA", "display_address": ["5 E Walnut St", "Belchertown, MA 01007"]}, "phone": "+14133236420", "display_phone": "(413) 323-6420", "distance": 18758.196503974086}, {"id": "2LDyfeKYEV033znbbUjJTg", "alias": "harding-allen-estate-barre", "name": "Harding Allen Estate", "image_url": "https://s3-media3.fl.yelpcdn.com/bphoto/HOird8RBddI8wTn-8SFy2Q/o.jpg", "is_closed": false, "url": "https://www.yelp.com/biz/harding-allen-estate-barre?adjust_creative=HdhkN5EEH6lAqE3kwhsHEQ&utm_campaign=yelp_api_v3&utm_medium=api_v3_business_search&utm_source=HdhkN5EEH6lAqE3kwhsHEQ", "review_count": 14, "categories": [{"alias": "restaurants", "title": "Restaurants"}, {"alias": "venues", "title": "Venues & Event Spaces"}], "rating": 3.0, "coordinates": {"latitude": 42.42226, "longitude": -72.10778}, "transactions": [], "price": "$$", "location": {"address1": "59 Allen Dr", "address2": "", "address3": "", "city": "Barre", "zip_code": "01005", "country": "US", "state": "MA", "display_address": ["59 Allen Dr", "Barre, MA 01005"]}, "phone": "+19783554920", "display_phone": "(978) 355-4920", "distance": 10227.657507609341}, {"id": "75a3UzxS-M6tL8W5Berg9g", "alias": "beckis-bistro-barre-2", "name": "Becki's Bistro", "image_url": "https://s3-media4.fl.yelpcdn.com/bphoto/8Ed8-teABQ7se6rO_cad3w/o.jpg", "is_closed": false, "url": "https://www.yelp.com/biz/beckis-bistro-barre-2?adjust_creative=HdhkN5EEH6lAqE3kwhsHEQ&utm_campaign=yelp_api_v3&utm_medium=api_v3_business_search&utm_source=HdhkN5EEH6lAqE3kwhsHEQ", "review_count": 27, "categories": [{"alias": "cafes", "title": "Cafes"}, {"alias": "breakfast_brunch", "title": "Breakfast & Brunch"}, {"alias": "burgers", "title": "Burgers"}], "rating": 4.5, "coordinates": {"latitude": 42.4224345, "longitude": -72.1044324}, "transactions": [], "price": "$$", "location": {"address1": "25 Exchange St", "address2": "", "address3": "", "city": "Barre", "zip_code": "01005", "country": "US", "state": "MA", "display_address": ["25 Exchange St", "Barre, MA 01005"]}, "phone": "+19783550012", "display_phone": "(978) 355-0012", "distance": 10493.30374586183}, {"id": "BR-rauP8Dl8iRI1xEOJLlw", "alias": "thai-house-restaurant-east-brookfield", "name": "Thai House Restaurant", "image_url": "https://s3-media3.fl.yelpcdn.com/bphoto/Xk332iy5p35LkQyZbVl6-Q/o.jpg", "is_closed": false, "url": "https://www.yelp.com/biz/thai-house-restaurant-east-brookfield?adjust_creative=HdhkN5EEH6lAqE3kwhsHEQ&utm_campaign=yelp_api_v3&utm_medium=api_v3_business_search&utm_source=HdhkN5EEH6lAqE3kwhsHEQ", "review_count": 38, "categories": [{"alias": "thai", "title": "Thai"}], "rating": 4.0, "coordinates": {"latitude": 42.2274131, "longitude": -72.0419256}, "transactions": [], "price": "$$", "location": {"address1": "355 E Main St", "address2": "", "address3": "", "city": "East Brookfield", "zip_code": "01515", "country": "US", "state": "MA", "display_address": ["355 E Main St", "East Brookfield, MA 01515"]}, "phone": "+15088674900", "display_phone": "(508) 867-4900", "distance": 20553.120839066793}, {"id": "vlFtM9aSiPijxP6nYuRHvA", "alias": "reeds-country-store-new-braintree", "name": "Reed's Country Store", "image_url": "", "is_closed": false, "url": "https://www.yelp.com/biz/reeds-country-store-new-braintree?adjust_creative=HdhkN5EEH6lAqE3kwhsHEQ&utm_campaign=yelp_api_v3&utm_medium=api_v3_business_search&utm_source=HdhkN5EEH6lAqE3kwhsHEQ", "review_count": 3, "categories": [{"alias": "tradamerican", "title": "American (Traditional)"}], "rating": 3.0, "coordinates": {"latitude": 42.3236541748047, "longitude": -72.1021881103516}, "transactions": [], "price": "$", "location": {"address1": "753 Barre Rd", "address2": "", "address3": "", "city": "New Braintree", "zip_code": "01531", "country": "US", "state": "MA", "display_address": ["753 Barre Rd", "New Braintree, MA 01531"]}, "phone": "+15088679512", "display_phone": "(508) 867-9512", "distance": 9819.183015845461}, {"id": "ca3CuO8cgZFfGWYE-t25Qg", "alias": "lins-garden-west-brookfield", "name": "Lin's Garden", "image_url": "https://s3-media4.fl.yelpcdn.com/bphoto/rWLFqA6Nvg7NGPsGDcSTXw/o.jpg", "is_closed": false, "url": "https://www.yelp.com/biz/lins-garden-west-brookfield?adjust_creative=HdhkN5EEH6lAqE3kwhsHEQ&utm_campaign=yelp_api_v3&utm_medium=api_v3_business_search&utm_source=HdhkN5EEH6lAqE3kwhsHEQ", "review_count": 38, "categories": [{"alias": "chinese", "title": "Chinese"}, {"alias": "soup", "title": "Soup"}, {"alias": "ramen", "title": "Ramen"}], "rating": 3.5, "coordinates": {"latitude": 42.233873, "longitude": -72.157657}, "transactions": ["delivery", "pickup"], "price": "$$", "location": {"address1": "152 W Main St", "address2": null, "address3": null, "city": "West Brookfield", "zip_code": "01585", "country": "US", "state": "MA", "display_address": ["152 W Main St", "West Brookfield, MA 01585"]}, "phone": "+15088674499", "display_phone": "(508) 867-4499", "distance": 15249.684626822776}, {"id": "USutlpAeiWDKGUnbOxz_HA", "alias": "debbie-wong-ware", "name": "Debbie Wong", "image_url": "https://s3-media4.fl.yelpcdn.com/bphoto/e5sprMEJfRyWwY1CoJryiQ/o.jpg", "is_closed": false, "url": "https://www.yelp.com/biz/debbie-wong-ware?adjust_creative=HdhkN5EEH6lAqE3kwhsHEQ&utm_campaign=yelp_api_v3&utm_medium=api_v3_business_search&utm_source=HdhkN5EEH6lAqE3kwhsHEQ", "review_count": 23, "categories": [{"alias": "chinese", "title": "Chinese"}], "rating": 4.0, "coordinates": {"latitude": 42.2601, "longitude": -72.24562}, "transactions": [], "price": "$$", "location": {"address1": "54 W Main St", "address2": "", "address3": "", "city": "Ware", "zip_code": "01082", "country": "US", "state": "MA", "display_address": ["54 W Main St", "Ware, MA 01082"]}, "phone": "+14139673336", "display_phone": "(413) 967-3336", "distance": 12196.8231286905}, {"id": "M5Simi8q6gjwA9yngORcwg", "alias": "lazers-pizza-and-roast-beef-ware-2", "name": "Lazer's Pizza & Roast Beef", "image_url": "https://s3-media4.fl.yelpcdn.com/bphoto/4k1itVfqoWojH6QJtS4isA/o.jpg", "is_closed": false, "url": "https://www.yelp.com/biz/lazers-pizza-and-roast-beef-ware-2?adjust_creative=HdhkN5EEH6lAqE3kwhsHEQ&utm_campaign=yelp_api_v3&utm_medium=api_v3_business_search&utm_source=HdhkN5EEH6lAqE3kwhsHEQ", "review_count": 27, "categories": [{"alias": "pizza", "title": "Pizza"}], "rating": 4.5, "coordinates": {"latitude": 42.2599814229054, "longitude": -72.2400694034169}, "transactions": [], "price": "$", "location": {"address1": "41 Main St", "address2": "", "address3": "", "city": "Ware", "zip_code": "01082", "country": "US", "state": "MA", "display_address": ["41 Main St", "Ware, MA 01082"]}, "phone": "+14139673181", "display_phone": "(413) 967-3181", "distance": 12110.811062274168}, {"id": "pMAyOdSf-r0M2Z2bdlpVQw", "alias": "yamato-asian-bistro-spencer", "name": "Yamato Asian Bistro", "image_url": "https://s3-media3.fl.yelpcdn.com/bphoto/-EGCOg_xmnRyvXecFXLq4g/o.jpg", "is_closed": false, "url": "https://www.yelp.com/biz/yamato-asian-bistro-spencer?adjust_creative=HdhkN5EEH6lAqE3kwhsHEQ&utm_campaign=yelp_api_v3&utm_medium=api_v3_business_search&utm_source=HdhkN5EEH6lAqE3kwhsHEQ", "review_count": 41, "categories": [{"alias": "asianfusion", "title": "Asian Fusion"}, {"alias": "sushi", "title": "Sushi Bars"}], "rating": 3.5, "coordinates": {"latitude": 42.23375, "longitude": -72.01408}, "transactions": [], "price": "$$", "location": {"address1": "62 West Main St", "address2": null, "address3": "", "city": "Spencer", "zip_code": "01562", "country": "US", "state": "MA", "display_address": ["62 West Main St", "Spencer, MA 01562"]}, "phone": "+15088855288", "display_phone": "(508) 885-5288", "distance": 21639.412854102215}, {"id": "vk2DFcUOZPFd9TprRxmCoQ", "alias": "min-fen-kitchen-belchertown-2", "name": "Min Fen Kitchen", "image_url": "https://s3-media3.fl.yelpcdn.com/bphoto/sOURdtV6vvpwfx4UbMRCwQ/o.jpg", "is_closed": false, "url": "https://www.yelp.com/biz/min-fen-kitchen-belchertown-2?adjust_creative=HdhkN5EEH6lAqE3kwhsHEQ&utm_campaign=yelp_api_v3&utm_medium=api_v3_business_search&utm_source=HdhkN5EEH6lAqE3kwhsHEQ", "review_count": 12, "categories": [{"alias": "chinese", "title": "Chinese"}], "rating": 3.5, "coordinates": {"latitude": 42.277134, "longitude": -72.401396}, "transactions": [], "price": "$", "location": {"address1": "11 Main St", "address2": "", "address3": "", "city": "Belchertown", "zip_code": "01007", "country": "US", "state": "MA", "display_address": ["11 Main St", "Belchertown, MA 01007"]}, "phone": "+14133238228", "display_phone": "(413) 323-8228", "distance": 18799.76286164429}, {"id": "8r4ilmXIWyFI5Xu_zR5ILA", "alias": "asian-garden-ware", "name": "Asian Garden", "image_url": "https://s3-media4.fl.yelpcdn.com/bphoto/E45FppSufn2iRvshzJY6Yw/o.jpg", "is_closed": false, "url": "https://www.yelp.com/biz/asian-garden-ware?adjust_creative=HdhkN5EEH6lAqE3kwhsHEQ&utm_campaign=yelp_api_v3&utm_medium=api_v3_business_search&utm_source=HdhkN5EEH6lAqE3kwhsHEQ", "review_count": 24, "categories": [{"alias": "chinese", "title": "Chinese"}, {"alias": "asianfusion", "title": "Asian Fusion"}], "rating": 4.0, "coordinates": {"latitude": 42.255543, "longitude": -72.249445}, "transactions": [], "price": "$$", "location": {"address1": "124 West St", "address2": "Ste 4", "address3": "", "city": "Ware", "zip_code": "01082", "country": "US", "state": "MA", "display_address": ["124 West St", "Ste 4", "Ware, MA 01082"]}, "phone": "+14132770725", "display_phone": "(413) 277-0725", "distance": 12756.49182584862}, {"id": "F0kbFudS4Fj_UT0cJPn4Tg", "alias": "wong-garden-belchertown", "name": "Wong Garden", "image_url": "https://s3-media4.fl.yelpcdn.com/bphoto/NIF9q-xwMzYkmFyE2BCJDQ/o.jpg", "is_closed": false, "url": "https://www.yelp.com/biz/wong-garden-belchertown?adjust_creative=HdhkN5EEH6lAqE3kwhsHEQ&utm_campaign=yelp_api_v3&utm_medium=api_v3_business_search&utm_source=HdhkN5EEH6lAqE3kwhsHEQ", "review_count": 30, "categories": [{"alias": "chinese", "title": "Chinese"}], "rating": 3.0, "coordinates": {"latitude": 42.2887515, "longitude": -72.406968}, "transactions": [], "price": "$", "location": {"address1": "147 N Main St", "address2": null, "address3": null, "city": "Belchertown", "zip_code": "01007", "country": "US", "state": "MA", "display_address": ["147 N Main St", "Belchertown, MA 01007"]}, "phone": "+14133236200", "display_phone": "(413) 323-6200", "distance": 18594.640708976145}, {"id": "LMDM5k-YkN_rxeKHAFhXyQ", "alias": "e-b-flatts-east-brookfield", "name": "E.B. Flatts", "image_url": "https://s3-media2.fl.yelpcdn.com/bphoto/7dwd-U0nCvf74XXhwFKY2Q/o.jpg", "is_closed": false, "url": "https://www.yelp.com/biz/e-b-flatts-east-brookfield?adjust_creative=HdhkN5EEH6lAqE3kwhsHEQ&utm_campaign=yelp_api_v3&utm_medium=api_v3_business_search&utm_source=HdhkN5EEH6lAqE3kwhsHEQ", "review_count": 56, "categories": [{"alias": "tradamerican", "title": "American (Traditional)"}, {"alias": "breakfast_brunch", "title": "Breakfast & Brunch"}], "rating": 3.5, "coordinates": {"latitude": 42.2192947517887, "longitude": -72.0708427230705}, "transactions": [], "price": "$$", "location": {"address1": "245 W Main St Rte 9", "address2": "", "address3": "", "city": "East Brookfield", "zip_code": "01515", "country": "US", "state": "MA", "display_address": ["245 W Main St Rte 9", "East Brookfield, MA 01515"]}, "phone": "+15088676643", "display_phone": "(508) 867-6643", "distance": 19795.03303707999}, {"id": "5ld1TVlEcddnCbeq0ulxkQ", "alias": "barre-pizza-barre", "name": "Barre Pizza", "image_url": "https://s3-media1.fl.yelpcdn.com/bphoto/Lk1bGeWFqv1WyoReOh9jyA/o.jpg", "is_closed": false, "url": "https://www.yelp.com/biz/barre-pizza-barre?adjust_creative=HdhkN5EEH6lAqE3kwhsHEQ&utm_campaign=yelp_api_v3&utm_medium=api_v3_business_search&utm_source=HdhkN5EEH6lAqE3kwhsHEQ", "review_count": 12, "categories": [{"alias": "pizza", "title": "Pizza"}, {"alias": "salad", "title": "Salad"}, {"alias": "sandwiches", "title": "Sandwiches"}], "rating": 3.0, "coordinates": {"latitude": 42.42168, "longitude": -72.10447}, "transactions": [], "price": "$$", "location": {"address1": "10 Moulton St", "address2": "", "address3": "", "city": "Barre", "zip_code": "01005", "country": "US", "state": "MA", "display_address": ["10 Moulton St", "Barre, MA 01005"]}, "phone": "+19783554595", "display_phone": "(978) 355-4595", "distance": 10441.325022336881}, {"id": "s8ifd_imgK2jH0m0eZDntQ", "alias": "georges-pizza-and-subs-west-brookfield", "name": "George's Pizza and Subs", "image_url": "https://s3-media4.fl.yelpcdn.com/bphoto/Ch0ooY7hZwaElbMHeHk4Yw/o.jpg", "is_closed": false, "url": "https://www.yelp.com/biz/georges-pizza-and-subs-west-brookfield?adjust_creative=HdhkN5EEH6lAqE3kwhsHEQ&utm_campaign=yelp_api_v3&utm_medium=api_v3_business_search&utm_source=HdhkN5EEH6lAqE3kwhsHEQ", "review_count": 27, "categories": [{"alias": "salad", "title": "Salad"}, {"alias": "pizza", "title": "Pizza"}, {"alias": "sandwiches", "title": "Sandwiches"}], "rating": 3.5, "coordinates": {"latitude": 42.2348093, "longitude": -72.1424106}, "transactions": [], "price": "$", "location": {"address1": "4 East Main St", "address2": "", "address3": "", "city": "West Brookfield", "zip_code": "01585", "country": "US", "state": "MA", "display_address": ["4 East Main St", "West Brookfield, MA 01585"]}, "phone": "+15088678100", "display_phone": "(508) 867-8100", "distance": 15534.82895760023}, {"id": "vzN_ZSBdj5m3hppudN541Q", "alias": "chubbys-belchertown", "name": "Chubby'S", "image_url": "https://s3-media2.fl.yelpcdn.com/bphoto/Ivz9D71Jim0K_BscNuemEw/o.jpg", "is_closed": false, "url": "https://www.yelp.com/biz/chubbys-belchertown?adjust_creative=HdhkN5EEH6lAqE3kwhsHEQ&utm_campaign=yelp_api_v3&utm_medium=api_v3_business_search&utm_source=HdhkN5EEH6lAqE3kwhsHEQ", "review_count": 11, "categories": [{"alias": "icecream", "title": "Ice Cream & Frozen Yogurt"}, {"alias": "tradamerican", "title": "American (Traditional)"}], "rating": 2.5, "coordinates": {"latitude": 42.2719, "longitude": -72.41029}, "transactions": [], "price": "$$", "location": {"address1": "2 Stadler St", "address2": "", "address3": "", "city": "Belchertown", "zip_code": "01007", "country": "US", "state": "MA", "display_address": ["2 Stadler St", "Belchertown, MA 01007"]}, "phone": "+14133236861", "display_phone": "(413) 323-6861", "distance": 19706.496515561495}, {"id": "z5SDOfUA5zNhGmyXIAXe8A", "alias": "northeast-pizza-barre", "name": "Northeast Pizza", "image_url": "https://s3-media1.fl.yelpcdn.com/bphoto/tNBoaH8M7BxY1upCowwS4A/o.jpg", "is_closed": false, "url": "https://www.yelp.com/biz/northeast-pizza-barre?adjust_creative=HdhkN5EEH6lAqE3kwhsHEQ&utm_campaign=yelp_api_v3&utm_medium=api_v3_business_search&utm_source=HdhkN5EEH6lAqE3kwhsHEQ", "review_count": 11, "categories": [{"alias": "pizza", "title": "Pizza"}], "rating": 2.5, "coordinates": {"latitude": 42.4102211, "longitude": -72.0980759}, "transactions": [], "price": "$", "location": {"address1": "570 Summer St", "address2": null, "address3": null, "city": "Barre", "zip_code": "01005", "country": "US", "state": "MA", "display_address": ["570 Summer St", "Barre, MA 01005"]}, "phone": "+19783554333", "display_phone": "(978) 355-4333", "distance": 10150.528168354742}, {"id": "0u096yYEmPF_74mcDYKFOQ", "alias": "panda-garden-2-east-brookfield", "name": "Panda Garden 2", "image_url": "https://s3-media1.fl.yelpcdn.com/bphoto/F8G-Hgio3ROhaSmbX4d81w/o.jpg", "is_closed": false, "url": "https://www.yelp.com/biz/panda-garden-2-east-brookfield?adjust_creative=HdhkN5EEH6lAqE3kwhsHEQ&utm_campaign=yelp_api_v3&utm_medium=api_v3_business_search&utm_source=HdhkN5EEH6lAqE3kwhsHEQ", "review_count": 13, "categories": [{"alias": "chinese", "title": "Chinese"}], "rating": 3.0, "coordinates": {"latitude": 42.219459, "longitude": -72.070868}, "transactions": [], "location": {"address1": "237 W Main St", "address2": "", "address3": "", "city": "East Brookfield", "zip_code": "01515", "country": "US", "state": "MA", "display_address": ["237 W Main St", "East Brookfield, MA 01515"]}, "phone": "+15088673799", "display_phone": "(508) 867-3799", "distance": 19820.943374656406}, {"id": "r9-dhj_D6aMgxqIEIIzxLQ", "alias": "hardwick-house-of-pizza-gilbertville", "name": "Hardwick House of Pizza", "image_url": "https://s3-media3.fl.yelpcdn.com/bphoto/U1v5kFxk8Fot1l3t8QEiWQ/o.jpg", "is_closed": false, "url": "https://www.yelp.com/biz/hardwick-house-of-pizza-gilbertville?adjust_creative=HdhkN5EEH6lAqE3kwhsHEQ&utm_campaign=yelp_api_v3&utm_medium=api_v3_business_search&utm_source=HdhkN5EEH6lAqE3kwhsHEQ", "review_count": 6, "categories": [{"alias": "pizza", "title": "Pizza"}], "rating": 2.0, "coordinates": {"latitude": 42.3129577, "longitude": -72.2049821}, "transactions": [], "price": "$", "location": {"address1": "2 Main", "address2": "", "address3": null, "city": "Gilbertville", "zip_code": "01031", "country": "US", "state": "MA", "display_address": ["2 Main", "Gilbertville, MA 01031"]}, "phone": "+14134776001", "display_phone": "(413) 477-6001", "distance": 5910.558276776205}, {"id": "KnJIbX__Sh1jW2XOu1wfQA", "alias": "united-china-restaurant-ware", "name": "United China Restaurant", "image_url": "https://s3-media2.fl.yelpcdn.com/bphoto/uYRYVKANPSbSYi59nvdg-Q/o.jpg", "is_closed": false, "url": "https://www.yelp.com/biz/united-china-restaurant-ware?adjust_creative=HdhkN5EEH6lAqE3kwhsHEQ&utm_campaign=yelp_api_v3&utm_medium=api_v3_business_search&utm_source=HdhkN5EEH6lAqE3kwhsHEQ", "review_count": 10, "categories": [{"alias": "chinese", "title": "Chinese"}], "rating": 2.5, "coordinates": {"latitude": 42.25453, "longitude": -72.25311}, "transactions": [], "price": "$", "location": {"address1": "164 West St", "address2": "", "address3": "", "city": "Ware", "zip_code": "01082", "country": "US", "state": "MA", "display_address": ["164 West St", "Ware, MA 01082"]}, "phone": "+14139670311", "display_phone": "(413) 967-0311", "distance": 12985.260384618585}, {"id": "Yom8r1dLF2HMO5aSwII0Lw", "alias": "charlies-diner-spencer", "name": "Charlies Diner", "image_url": "https://s3-media4.fl.yelpcdn.com/bphoto/Luprqfrv0Q_XSTQkE10zqQ/o.jpg", "is_closed": false, "url": "https://www.yelp.com/biz/charlies-diner-spencer?adjust_creative=HdhkN5EEH6lAqE3kwhsHEQ&utm_campaign=yelp_api_v3&utm_medium=api_v3_business_search&utm_source=HdhkN5EEH6lAqE3kwhsHEQ", "review_count": 99, "categories": [{"alias": "diners", "title": "Diners"}], "rating": 3.0, "coordinates": {"latitude": 42.237049280598, "longitude": -72.010635589954}, "transactions": [], "price": "$$", "location": {"address1": "5 Meadow Rd", "address2": null, "address3": null, "city": "Spencer", "zip_code": "01562", "country": "US", "state": "MA", "display_address": ["5 Meadow Rd", "Spencer, MA 01562"]}, "phone": "+15088854033", "display_phone": "(508) 885-4033", "distance": 21601.373726763424}, {"id": "LHU-3f0kpPrG8cB7lkDhpw", "alias": "depot-square-deli-and-package-store-east-brookfield", "name": "Depot Square Deli &Package Store", "image_url": "https://s3-media3.fl.yelpcdn.com/bphoto/w5mkcnXJy8KCBx3a3AMLxw/o.jpg", "is_closed": false, "url": "https://www.yelp.com/biz/depot-square-deli-and-package-store-east-brookfield?adjust_creative=HdhkN5EEH6lAqE3kwhsHEQ&utm_campaign=yelp_api_v3&utm_medium=api_v3_business_search&utm_source=HdhkN5EEH6lAqE3kwhsHEQ", "review_count": 2, "categories": [{"alias": "desserts", "title": "Desserts"}, {"alias": "delis", "title": "Delis"}, {"alias": "sandwiches", "title": "Sandwiches"}], "rating": 5.0, "coordinates": {"latitude": 42.2256833290215, "longitude": -72.04646605713}, "transactions": [], "price": "$", "location": {"address1": "104 Pleasant St", "address2": "", "address3": "", "city": "East Brookfield", "zip_code": "01515", "country": "US", "state": "MA", "display_address": ["104 Pleasant St", "East Brookfield, MA 01515"]}, "phone": "+15088673412", "display_phone": "(508) 867-3412", "distance": 20446.322856171813}, {"id": "nO0WHyU8hH-fZox4vFx_Tw", "alias": "trolley-stop-restaurant-east-brookfield", "name": "Trolley Stop Restaurant", "image_url": "https://s3-media3.fl.yelpcdn.com/bphoto/ssiKoGUtgz6GULs3biiPxw/o.jpg", "is_closed": false, "url": "https://www.yelp.com/biz/trolley-stop-restaurant-east-brookfield?adjust_creative=HdhkN5EEH6lAqE3kwhsHEQ&utm_campaign=yelp_api_v3&utm_medium=api_v3_business_search&utm_source=HdhkN5EEH6lAqE3kwhsHEQ", "review_count": 7, "categories": [{"alias": "breakfast_brunch", "title": "Breakfast & Brunch"}], "rating": 3.5, "coordinates": {"latitude": 42.226512, "longitude": -72.047706}, "transactions": [], "price": "$", "location": {"address1": "294 E Main St", "address2": "", "address3": "", "city": "East Brookfield", "zip_code": "01515", "country": "US", "state": "MA", "display_address": ["294 E Main St", "East Brookfield, MA 01515"]}, "phone": "+15088675995", "display_phone": "(508) 867-5995", "distance": 20314.10920997804}, {"id": "_NBRK7gTiowu-v2oMO1q_w", "alias": "bistro-21-belchertown", "name": "Bistro 21", "image_url": "", "is_closed": false, "url": "https://www.yelp.com/biz/bistro-21-belchertown?adjust_creative=HdhkN5EEH6lAqE3kwhsHEQ&utm_campaign=yelp_api_v3&utm_medium=api_v3_business_search&utm_source=HdhkN5EEH6lAqE3kwhsHEQ", "review_count": 17, "categories": [{"alias": "newamerican", "title": "American (New)"}, {"alias": "bars", "title": "Bars"}], "rating": 2.5, "coordinates": {"latitude": 42.2433781, "longitude": -72.409838}, "transactions": [], "price": "$$", "location": {"address1": "330 Chauncey Walker St", "address2": "", "address3": "", "city": "Belchertown", "zip_code": "01007", "country": "US", "state": "MA", "display_address": ["330 Chauncey Walker St", "Belchertown, MA 01007"]}, "phone": "+14133234888", "display_phone": "(413) 323-4888", "distance": 21554.831061745237}, {"id": "Ul1WGrfWjffNRGfMmBkihg", "alias": "ware-cafe-and-catering-services-ware", "name": "Ware Cafe & Catering Services", "image_url": "https://s3-media3.fl.yelpcdn.com/bphoto/J9Tsr8IiCAe_0-QYes39-g/o.jpg", "is_closed": false, "url": "https://www.yelp.com/biz/ware-cafe-and-catering-services-ware?adjust_creative=HdhkN5EEH6lAqE3kwhsHEQ&utm_campaign=yelp_api_v3&utm_medium=api_v3_business_search&utm_source=HdhkN5EEH6lAqE3kwhsHEQ", "review_count": 15, "categories": [{"alias": "cafes", "title": "Cafes"}, {"alias": "catering", "title": "Caterers"}], "rating": 4.5, "coordinates": {"latitude": 42.26047, "longitude": -72.24379}, "transactions": [], "price": "$", "location": {"address1": "24 W Main St", "address2": "", "address3": "", "city": "Ware", "zip_code": "01082", "country": "US", "state": "MA", "display_address": ["24 W Main St", "Ware, MA 01082"]}, "phone": "+14139674611", "display_phone": "(413) 967-4611", "distance": 12133.35218101002}, {"id": "ulTdoEH6AfozwdGeAfHL0A", "alias": "pine-ridge-snack-bar-barre", "name": "Pine Ridge Snack Bar", "image_url": "", "is_closed": false, "url": "https://www.yelp.com/biz/pine-ridge-snack-bar-barre?adjust_creative=HdhkN5EEH6lAqE3kwhsHEQ&utm_campaign=yelp_api_v3&utm_medium=api_v3_business_search&utm_source=HdhkN5EEH6lAqE3kwhsHEQ", "review_count": 2, "categories": [{"alias": "breakfast_brunch", "title": "Breakfast & Brunch"}], "rating": 3.0, "coordinates": {"latitude": 42.4226265, "longitude": -72.1043243}, "transactions": [], "location": {"address1": "25 Exchange St", "address2": null, "address3": null, "city": "Barre", "zip_code": "01005", "country": "US", "state": "MA", "display_address": ["25 Exchange St", "Barre, MA 01005"]}, "phone": "+19783550012", "display_phone": "(978) 355-0012", "distance": 10511.687847002018}, {"id": "ytaSuRAfFw7NyjugZlGSkQ", "alias": "crystal-springs-dairy-bar-ware", "name": "Crystal Springs Dairy Bar", "image_url": "https://s3-media4.fl.yelpcdn.com/bphoto/ByMuRu-K-s8EeeqHKW_BGA/o.jpg", "is_closed": false, "url": "https://www.yelp.com/biz/crystal-springs-dairy-bar-ware?adjust_creative=HdhkN5EEH6lAqE3kwhsHEQ&utm_campaign=yelp_api_v3&utm_medium=api_v3_business_search&utm_source=HdhkN5EEH6lAqE3kwhsHEQ", "review_count": 15, "categories": [{"alias": "icecream", "title": "Ice Cream & Frozen Yogurt"}, {"alias": "breakfast_brunch", "title": "Breakfast & Brunch"}], "rating": 4.0, "coordinates": {"latitude": 42.2543680923477, "longitude": -72.2541291419154}, "transactions": [], "price": "$", "location": {"address1": "166 West St", "address2": "", "address3": "", "city": "Ware", "zip_code": "01082", "country": "US", "state": "MA", "display_address": ["166 West St", "Ware, MA 01082"]}, "phone": "+14139676190", "display_phone": "(413) 967-6190", "distance": 12989.898769911944}, {"id": "DOw6h_K6tTafiWgR2bSufg", "alias": "hubb-town-diner-hubbardston", "name": "Hubb Town Diner", "image_url": "https://s3-media3.fl.yelpcdn.com/bphoto/Oaec6pAdS2SoUdRTyIIzAA/o.jpg", "is_closed": false, "url": "https://www.yelp.com/biz/hubb-town-diner-hubbardston?adjust_creative=HdhkN5EEH6lAqE3kwhsHEQ&utm_campaign=yelp_api_v3&utm_medium=api_v3_business_search&utm_source=HdhkN5EEH6lAqE3kwhsHEQ", "review_count": 10, "categories": [{"alias": "breakfast_brunch", "title": "Breakfast & Brunch"}, {"alias": "diners", "title": "Diners"}, {"alias": "sandwiches", "title": "Sandwiches"}], "rating": 3.5, "coordinates": {"latitude": 42.4781684875488, "longitude": -72.0094299316406}, "transactions": [], "price": "$$", "location": {"address1": "32 Main St", "address2": null, "address3": "", "city": "Hubbardston", "zip_code": "01452", "country": "US", "state": "MA", "display_address": ["32 Main St", "Hubbardston, MA 01452"]}, "phone": "+19788201600", "display_phone": "(978) 820-1600", "distance": 20415.836272423076}, {"id": "6G7I24vIiyLp4_7nSNICew", "alias": "whistle-stop-restaurant-hardwick", "name": "Whistle Stop Restaurant", "image_url": "https://s3-media4.fl.yelpcdn.com/bphoto/co5S3IgUc4H4d2Nf597Nlw/o.jpg", "is_closed": false, "url": "https://www.yelp.com/biz/whistle-stop-restaurant-hardwick?adjust_creative=HdhkN5EEH6lAqE3kwhsHEQ&utm_campaign=yelp_api_v3&utm_medium=api_v3_business_search&utm_source=HdhkN5EEH6lAqE3kwhsHEQ", "review_count": 3, "categories": [{"alias": "tradamerican", "title": "American (Traditional)"}, {"alias": "breakfast_brunch", "title": "Breakfast & Brunch"}, {"alias": "sandwiches", "title": "Sandwiches"}], "rating": 2.0, "coordinates": {"latitude": 42.30823, "longitude": -72.21081}, "transactions": [], "price": "$", "location": {"address1": "248 Main", "address2": "", "address3": "", "city": "Hardwick", "zip_code": "01037", "country": "US", "state": "MA", "display_address": ["248 Main", "Hardwick, MA 01037"]}, "phone": "+14134778888", "display_phone": "(413) 477-8888", "distance": 6441.858536039402}, {"id": "0uZi3bproBbPbYdli72dSg", "alias": "north-brookfield-pizza-palace-north-brookfield-2", "name": "North Brookfield Pizza Palace", "image_url": "", "is_closed": false, "url": "https://www.yelp.com/biz/north-brookfield-pizza-palace-north-brookfield-2?adjust_creative=HdhkN5EEH6lAqE3kwhsHEQ&utm_campaign=yelp_api_v3&utm_medium=api_v3_business_search&utm_source=HdhkN5EEH6lAqE3kwhsHEQ", "review_count": 10, "categories": [{"alias": "pizza", "title": "Pizza"}], "rating": 3.5, "coordinates": {"latitude": 42.2685891, "longitude": -72.0822442}, "transactions": [], "price": "$", "location": {"address1": "60 School St", "address2": "", "address3": "", "city": "North Brookfield", "zip_code": "01535", "country": "US", "state": "MA", "display_address": ["60 School St", "North Brookfield, MA 01535"]}, "phone": "+15088670060", "display_phone": "(508) 867-0060", "distance": 14923.939627455784}, {"id": "AlqOI5JtcvjDua4CERhGMA", "alias": "antonios-pizza-belchertown-2", "name": "Antonio's Pizza", "image_url": "https://s3-media2.fl.yelpcdn.com/bphoto/Yg3GSQ3svSFiBOFwTJM_eg/o.jpg", "is_closed": false, "url": "https://www.yelp.com/biz/antonios-pizza-belchertown-2?adjust_creative=HdhkN5EEH6lAqE3kwhsHEQ&utm_campaign=yelp_api_v3&utm_medium=api_v3_business_search&utm_source=HdhkN5EEH6lAqE3kwhsHEQ", "review_count": 68, "categories": [{"alias": "pizza", "title": "Pizza"}], "rating": 4.0, "coordinates": {"latitude": 42.2898815960091, "longitude": -72.4088935579308}, "transactions": [], "price": "$$", "location": {"address1": "31 Federal St", "address2": "", "address3": "", "city": "Belchertown", "zip_code": "01007", "country": "US", "state": "MA", "display_address": ["31 Federal St", "Belchertown, MA 01007"]}, "phone": "+14133236844", "display_phone": "(413) 323-6844", "distance": 18639.338065926047}, {"id": "lQwRGkdMNvY6e_Zo1RSDVQ", "alias": "villas-pizza-restaurant-ware", "name": "Villa's Pizza Restaurant", "image_url": "https://s3-media2.fl.yelpcdn.com/bphoto/MHYLDAcp33fb74RF2IZojg/o.jpg", "is_closed": false, "url": "https://www.yelp.com/biz/villas-pizza-restaurant-ware?adjust_creative=HdhkN5EEH6lAqE3kwhsHEQ&utm_campaign=yelp_api_v3&utm_medium=api_v3_business_search&utm_source=HdhkN5EEH6lAqE3kwhsHEQ", "review_count": 4, "categories": [{"alias": "pizza", "title": "Pizza"}], "rating": 3.5, "coordinates": {"latitude": 42.26092, "longitude": -72.2427}, "transactions": [], "price": "$", "location": {"address1": "123 Main St", "address2": "", "address3": "", "city": "Ware", "zip_code": "01082", "country": "US", "state": "MA", "display_address": ["123 Main St", "Ware, MA 01082"]}, "phone": "+14139674490", "display_phone": "(413) 967-4490", "distance": 12070.057709488194}, {"id": "uLvlyJle6VxAdZyw5wGqKg", "alias": "astronaut-pizza-house-ware", "name": "Astronaut Pizza House", "image_url": "https://s3-media1.fl.yelpcdn.com/bphoto/hnCmjlVlZG-RPFldt0QL7A/o.jpg", "is_closed": false, "url": "https://www.yelp.com/biz/astronaut-pizza-house-ware?adjust_creative=HdhkN5EEH6lAqE3kwhsHEQ&utm_campaign=yelp_api_v3&utm_medium=api_v3_business_search&utm_source=HdhkN5EEH6lAqE3kwhsHEQ", "review_count": 8, "categories": [{"alias": "pizza", "title": "Pizza"}], "rating": 2.5, "coordinates": {"latitude": 42.251477, "longitude": -72.258679}, "transactions": [], "price": "$$", "location": {"address1": "197 West St", "address2": "", "address3": "", "city": "Ware", "zip_code": "01082", "country": "US", "state": "MA", "display_address": ["197 West St", "Ware, MA 01082"]}, "phone": "+14139675685", "display_phone": "(413) 967-5685", "distance": 13437.32374811948}, {"id": "0GF5VFxjfJZqJ3lb69RZbQ", "alias": "uncle-sams-pizza-east-brookfield", "name": "Uncle Sam's Pizza", "image_url": "https://s3-media3.fl.yelpcdn.com/bphoto/rJTXt0bkE5p4q83tG5v0cw/o.jpg", "is_closed": false, "url": "https://www.yelp.com/biz/uncle-sams-pizza-east-brookfield?adjust_creative=HdhkN5EEH6lAqE3kwhsHEQ&utm_campaign=yelp_api_v3&utm_medium=api_v3_business_search&utm_source=HdhkN5EEH6lAqE3kwhsHEQ", "review_count": 11, "categories": [{"alias": "pizza", "title": "Pizza"}], "rating": 3.0, "coordinates": {"latitude": 42.22993, "longitude": -72.0374}, "transactions": [], "price": "$", "location": {"address1": "400 E Main St", "address2": "", "address3": "", "city": "East Brookfield", "zip_code": "01515", "country": "US", "state": "MA", "display_address": ["400 E Main St", "East Brookfield, MA 01515"]}, "phone": "+15088855019", "display_phone": "(508) 885-5019", "distance": 20631.03996262548}, {"id": "sv1DM6SpMcc2IdMCnqYZBg", "alias": "brookies-east-brookfield", "name": "Brookies", "image_url": "https://s3-media4.fl.yelpcdn.com/bphoto/2FfwT0DTSC7L6bNbZUIeKQ/o.jpg", "is_closed": false, "url": "https://www.yelp.com/biz/brookies-east-brookfield?adjust_creative=HdhkN5EEH6lAqE3kwhsHEQ&utm_campaign=yelp_api_v3&utm_medium=api_v3_business_search&utm_source=HdhkN5EEH6lAqE3kwhsHEQ", "review_count": 9, "categories": [{"alias": "burgers", "title": "Burgers"}], "rating": 5.0, "coordinates": {"latitude": 42.21592, "longitude": -72.07718}, "transactions": [], "price": "$$", "location": {"address1": "285 W Main St", "address2": "", "address3": "", "city": "East Brookfield", "zip_code": "01515", "country": "US", "state": "MA", "display_address": ["285 W Main St", "East Brookfield, MA 01515"]}, "phone": "+17742000537", "display_phone": "(774) 200-0537", "distance": 19819.924272383985}, {"id": "PZolckom78iMsIJY-lKb_g", "alias": "checkers-general-store-and-deli-belchertown", "name": "Checkers General Store & Deli", "image_url": "https://s3-media1.fl.yelpcdn.com/bphoto/JwOLm9DtfNR2wNS-II-3_g/o.jpg", "is_closed": false, "url": "https://www.yelp.com/biz/checkers-general-store-and-deli-belchertown?adjust_creative=HdhkN5EEH6lAqE3kwhsHEQ&utm_campaign=yelp_api_v3&utm_medium=api_v3_business_search&utm_source=HdhkN5EEH6lAqE3kwhsHEQ", "review_count": 8, "categories": [{"alias": "grocery", "title": "Grocery"}, {"alias": "delis", "title": "Delis"}, {"alias": "beer_and_wine", "title": "Beer, Wine & Spirits"}], "rating": 3.0, "coordinates": {"latitude": 42.2723345449639, "longitude": -72.4103921048211}, "transactions": ["pickup"], "price": "$", "location": {"address1": "2 Stadler St", "address2": "", "address3": "", "city": "Belchertown", "zip_code": "01007", "country": "US", "state": "MA", "display_address": ["2 Stadler St", "Belchertown, MA 01007"]}, "phone": "+14133234599", "display_phone": "(413) 323-4599", "distance": 19710.1710233823}, {"id": "i6J8CBgNw1t6rF2RR1B2uw", "alias": "pizza-palace-hubbardston", "name": "Pizza Palace", "image_url": "https://s3-media1.fl.yelpcdn.com/bphoto/_CaIaZwv04TL49J59zMi6A/o.jpg", "is_closed": false, "url": "https://www.yelp.com/biz/pizza-palace-hubbardston?adjust_creative=HdhkN5EEH6lAqE3kwhsHEQ&utm_campaign=yelp_api_v3&utm_medium=api_v3_business_search&utm_source=HdhkN5EEH6lAqE3kwhsHEQ", "review_count": 19, "categories": [{"alias": "pizza", "title": "Pizza"}], "rating": 4.5, "coordinates": {"latitude": 42.490675, "longitude": -72.013496}, "transactions": [], "price": "$$", "location": {"address1": "53 Gardner Rd", "address2": null, "address3": null, "city": "Hubbardston", "zip_code": "01452", "country": "US", "state": "MA", "display_address": ["53 Gardner Rd", "Hubbardston, MA 01452"]}, "phone": "+19789285454", "display_phone": "(978) 928-5454", "distance": 21070.63116036187}, {"id": "JDJEMD0M4Q0l31-YS0mC-w", "alias": "northeast-pizza-west-brookfield", "name": "Northeast Pizza", "image_url": "https://s3-media2.fl.yelpcdn.com/bphoto/JY4uYYJAdshPFLYGjWeFjw/o.jpg", "is_closed": false, "url": "https://www.yelp.com/biz/northeast-pizza-west-brookfield?adjust_creative=HdhkN5EEH6lAqE3kwhsHEQ&utm_campaign=yelp_api_v3&utm_medium=api_v3_business_search&utm_source=HdhkN5EEH6lAqE3kwhsHEQ", "review_count": 12, "categories": [{"alias": "pizza", "title": "Pizza"}], "rating": 2.0, "coordinates": {"latitude": 42.2389831542969, "longitude": -72.1653747558594}, "transactions": [], "price": "$", "location": {"address1": "208 W Main St", "address2": null, "address3": null, "city": "West Brookfield", "zip_code": "01585", "country": "US", "state": "MA", "display_address": ["208 W Main St", "West Brookfield, MA 01585"]}, "phone": "+15088679567", "display_phone": "(508) 867-9567", "distance": 14537.869812879811}, {"id": "vmneGdXXMuwZ9lHfDAvtZg", "alias": "subway-north-brookfield-3", "name": "Subway", "image_url": "https://s3-media4.fl.yelpcdn.com/bphoto/9KjpYjzDWKMP1NWSCBnLYw/o.jpg", "is_closed": false, "url": "https://www.yelp.com/biz/subway-north-brookfield-3?adjust_creative=HdhkN5EEH6lAqE3kwhsHEQ&utm_campaign=yelp_api_v3&utm_medium=api_v3_business_search&utm_source=HdhkN5EEH6lAqE3kwhsHEQ", "review_count": 1, "categories": [{"alias": "sandwiches", "title": "Sandwiches"}], "rating": 5.0, "coordinates": {"latitude": 42.268020271248, "longitude": -72.0853124141208}, "transactions": [], "price": "$", "location": {"address1": "163 N Main St", "address2": "", "address3": "", "city": "North Brookfield", "zip_code": "01535", "country": "US", "state": "MA", "display_address": ["163 N Main St", "North Brookfield, MA 01535"]}, "phone": "+15088678800", "display_phone": "(508) 867-8800", "distance": 14798.338379327231}, {"id": "JNRdBxmhf3BaiWwQX8VJmw", "alias": "jims-pizza-north-brookfield", "name": "Jim's Pizza", "image_url": "", "is_closed": false, "url": "https://www.yelp.com/biz/jims-pizza-north-brookfield?adjust_creative=HdhkN5EEH6lAqE3kwhsHEQ&utm_campaign=yelp_api_v3&utm_medium=api_v3_business_search&utm_source=HdhkN5EEH6lAqE3kwhsHEQ", "review_count": 14, "categories": [{"alias": "pizza", "title": "Pizza"}], "rating": 3.0, "coordinates": {"latitude": 42.269747, "longitude": -72.085661}, "transactions": [], "price": "$", "location": {"address1": "219 N Main St", "address2": "", "address3": "", "city": "North Brookfield", "zip_code": "01535", "country": "US", "state": "MA", "display_address": ["219 N Main St", "North Brookfield, MA 01535"]}, "phone": "+15088678373", "display_phone": "(508) 867-8373", "distance": 14637.76486600399}, {"id": "CUhWTw6pJoTt81sMf1d2jQ", "alias": "the-belchertown-pizza-shop-belchertown-2", "name": "The Belchertown Pizza Shop", "image_url": "https://s3-media1.fl.yelpcdn.com/bphoto/hYRDG0r-R9o82ZtplReY9A/o.jpg", "is_closed": false, "url": "https://www.yelp.com/biz/the-belchertown-pizza-shop-belchertown-2?adjust_creative=HdhkN5EEH6lAqE3kwhsHEQ&utm_campaign=yelp_api_v3&utm_medium=api_v3_business_search&utm_source=HdhkN5EEH6lAqE3kwhsHEQ", "review_count": 21, "categories": [{"alias": "pizza", "title": "Pizza"}, {"alias": "desserts", "title": "Desserts"}, {"alias": "salad", "title": "Salad"}], "rating": 2.5, "coordinates": {"latitude": 42.2770346, "longitude": -72.4008884}, "transactions": [], "price": "$$", "location": {"address1": "4 Park St", "address2": "", "address3": "", "city": "Belchertown", "zip_code": "01007", "country": "US", "state": "MA", "display_address": ["4 Park St", "Belchertown, MA 01007"]}, "phone": "+14133230300", "display_phone": "(413) 323-0300", "distance": 18770.130288787383}, {"id": "5um6bgKp_RBrNh3pyS5Gig", "alias": "family-kitchen-hubbardston", "name": "Family Kitchen", "image_url": "", "is_closed": false, "url": "https://www.yelp.com/biz/family-kitchen-hubbardston?adjust_creative=HdhkN5EEH6lAqE3kwhsHEQ&utm_campaign=yelp_api_v3&utm_medium=api_v3_business_search&utm_source=HdhkN5EEH6lAqE3kwhsHEQ", "review_count": 1, "categories": [{"alias": "pizza", "title": "Pizza"}], "rating": 1.0, "coordinates": {"latitude": 42.4784779082112, "longitude": -72.0091371899555}, "transactions": [], "location": {"address1": "32 Main Street", "address2": "", "address3": null, "city": "Hubbardston", "zip_code": "01452", "country": "US", "state": "MA", "display_address": ["32 Main Street", "Hubbardston, MA 01452"]}, "phone": "+19788201440", "display_phone": "(978) 820-1440", "distance": 20488.525811195737}, {"id": "oCq_1uSutCa1PgUrnplA9w", "alias": "kristinas-kafe-and-bakery-belchertown", "name": "Kristina's Kafe and Bakery", "image_url": "https://s3-media1.fl.yelpcdn.com/bphoto/qM1fvwP0mKdskWc8TeZaOA/o.jpg", "is_closed": false, "url": "https://www.yelp.com/biz/kristinas-kafe-and-bakery-belchertown?adjust_creative=HdhkN5EEH6lAqE3kwhsHEQ&utm_campaign=yelp_api_v3&utm_medium=api_v3_business_search&utm_source=HdhkN5EEH6lAqE3kwhsHEQ", "review_count": 71, "categories": [{"alias": "bakeries", "title": "Bakeries"}, {"alias": "breakfast_brunch", "title": "Breakfast & Brunch"}, {"alias": "sandwiches", "title": "Sandwiches"}], "rating": 4.0, "coordinates": {"latitude": 42.28034, "longitude": -72.40398}, "transactions": [], "price": "$$", "location": {"address1": "9 N Main St", "address2": "", "address3": "", "city": "Belchertown", "zip_code": "01007", "country": "US", "state": "MA", "display_address": ["9 N Main St", "Belchertown, MA 01007"]}, "phone": "+14133235733", "display_phone": "(413) 323-5733", "distance": 18793.22375013487}, {"id": "5Reotu9GfyMCaMcAC4ET0w", "alias": "east-brookfield-pizza-east-brookfield", "name": "East Brookfield Pizza", "image_url": "https://s3-media1.fl.yelpcdn.com/bphoto/basBKLvUpIDlq39TVjad6w/o.jpg", "is_closed": false, "url": "https://www.yelp.com/biz/east-brookfield-pizza-east-brookfield?adjust_creative=HdhkN5EEH6lAqE3kwhsHEQ&utm_campaign=yelp_api_v3&utm_medium=api_v3_business_search&utm_source=HdhkN5EEH6lAqE3kwhsHEQ", "review_count": 8, "categories": [{"alias": "pizza", "title": "Pizza"}], "rating": 3.5, "coordinates": {"latitude": 42.226144, "longitude": -72.047749}, "transactions": [], "price": "$$", "location": {"address1": "289 East Main St", "address2": null, "address3": null, "city": "East Brookfield", "zip_code": "01515", "country": "US", "state": "MA", "display_address": ["289 East Main St", "East Brookfield, MA 01515"]}, "phone": "+15088678777", "display_phone": "(508) 867-8777", "distance": 20339.105751447438}, {"id": "PWkP3vd_SJxEyh5xbYfJ-A", "alias": "pizza-hut-spencer-7", "name": "Pizza Hut", "image_url": "https://s3-media3.fl.yelpcdn.com/bphoto/hTGz8wP4UAjVvGJneraX9w/o.jpg", "is_closed": false, "url": "https://www.yelp.com/biz/pizza-hut-spencer-7?adjust_creative=HdhkN5EEH6lAqE3kwhsHEQ&utm_campaign=yelp_api_v3&utm_medium=api_v3_business_search&utm_source=HdhkN5EEH6lAqE3kwhsHEQ", "review_count": 3, "categories": [{"alias": "pizza", "title": "Pizza"}, {"alias": "italian", "title": "Italian"}], "rating": 4.0, "coordinates": {"latitude": 42.2333170257464, "longitude": -72.0150576948935}, "transactions": [], "price": "$", "location": {"address1": "62 W Main St", "address2": "", "address3": "", "city": "Spencer", "zip_code": "01562", "country": "US", "state": "MA", "display_address": ["62 W Main St", "Spencer, MA 01562"]}, "phone": "+15088855345", "display_phone": "(508) 885-5345", "distance": 21612.642857401795}, {"id": "Dh1VmD7hHemz_J1iysZs_A", "alias": "subway-belchertown-3", "name": "Subway", "image_url": "https://s3-media1.fl.yelpcdn.com/bphoto/ToB9Q7CWePLRA8IBmfANBA/o.jpg", "is_closed": false, "url": "https://www.yelp.com/biz/subway-belchertown-3?adjust_creative=HdhkN5EEH6lAqE3kwhsHEQ&utm_campaign=yelp_api_v3&utm_medium=api_v3_business_search&utm_source=HdhkN5EEH6lAqE3kwhsHEQ", "review_count": 3, "categories": [{"alias": "sandwiches", "title": "Sandwiches"}], "rating": 3.0, "coordinates": {"latitude": 42.2886725, "longitude": -72.4075052577242}, "transactions": [], "price": "$", "location": {"address1": "145 N Main St", "address2": "", "address3": "", "city": "Belchertown", "zip_code": "01007", "country": "US", "state": "MA", "display_address": ["145 N Main St", "Belchertown, MA 01007"]}, "phone": "+14133234735", "display_phone": "(413) 323-4735", "distance": 18599.762967064948}, {"id": "n_s_vnPID1VDUO53PGE7qQ", "alias": "mcdonalds-ware", "name": "McDonald's", "image_url": "https://s3-media3.fl.yelpcdn.com/bphoto/A9Nkl7yHbhRSf4DzmMWoTg/o.jpg", "is_closed": false, "url": "https://www.yelp.com/biz/mcdonalds-ware?adjust_creative=HdhkN5EEH6lAqE3kwhsHEQ&utm_campaign=yelp_api_v3&utm_medium=api_v3_business_search&utm_source=HdhkN5EEH6lAqE3kwhsHEQ", "review_count": 8, "categories": [{"alias": "coffee", "title": "Coffee & Tea"}, {"alias": "burgers", "title": "Burgers"}, {"alias": "hotdogs", "title": "Fast Food"}], "rating": 2.0, "coordinates": {"latitude": 42.2569839, "longitude": -72.2498621}, "transactions": [], "price": "$", "location": {"address1": "117 West St", "address2": "", "address3": "", "city": "Ware", "zip_code": "01082", "country": "US", "state": "MA", "display_address": ["117 West St", "Ware, MA 01082"]}, "phone": "+14139673485", "display_phone": "(413) 967-3485", "distance": 12636.589150590733}, {"id": "kURqF15vnpJMKlzO9yOQjw", "alias": "subway-w-brookfield", "name": "Subway", "image_url": "https://s3-media1.fl.yelpcdn.com/bphoto/0a4AVwVVylrCsUo6T_Or7A/o.jpg", "is_closed": false, "url": "https://www.yelp.com/biz/subway-w-brookfield?adjust_creative=HdhkN5EEH6lAqE3kwhsHEQ&utm_campaign=yelp_api_v3&utm_medium=api_v3_business_search&utm_source=HdhkN5EEH6lAqE3kwhsHEQ", "review_count": 3, "categories": [{"alias": "sandwiches", "title": "Sandwiches"}], "rating": 1.5, "coordinates": {"latitude": 42.2341074710016, "longitude": -72.1557967975961}, "transactions": [], "price": "$", "location": {"address1": "143 W Main St", "address2": null, "address3": null, "city": "W Brookfield", "zip_code": "01585", "country": "US", "state": "MA", "display_address": ["143 W Main St", "W Brookfield, MA 01585"]}, "phone": "+15088673433", "display_phone": "(508) 867-3433", "distance": 15268.92260764312}, {"id": "a4BtLxq7zyevP_ceyFTTMA", "alias": "mcdonalds-spencer-2", "name": "McDonald's", "image_url": "https://s3-media1.fl.yelpcdn.com/bphoto/AkOAfQAISQcyF_nS7Rx2sw/o.jpg", "is_closed": false, "url": "https://www.yelp.com/biz/mcdonalds-spencer-2?adjust_creative=HdhkN5EEH6lAqE3kwhsHEQ&utm_campaign=yelp_api_v3&utm_medium=api_v3_business_search&utm_source=HdhkN5EEH6lAqE3kwhsHEQ", "review_count": 13, "categories": [{"alias": "hotdogs", "title": "Fast Food"}, {"alias": "burgers", "title": "Burgers"}, {"alias": "coffee", "title": "Coffee & Tea"}], "rating": 2.5, "coordinates": {"latitude": 42.233007, "longitude": -72.012469}, "transactions": [], "price": "$", "location": {"address1": "59 W Main St", "address2": "", "address3": "", "city": "Spencer", "zip_code": "01562", "country": "US", "state": "MA", "display_address": ["59 W Main St", "Spencer, MA 01562"]}, "phone": "+15088853355", "display_phone": "(508) 885-3355", "distance": 21792.02475397221}, {"id": "7xfUwsnwfiI-FppHfXeq8w", "alias": "mcdonalds-belchertown", "name": "McDonald's", "image_url": "https://s3-media3.fl.yelpcdn.com/bphoto/vEDcWwtTZSaulesDaa94JA/o.jpg", "is_closed": false, "url": "https://www.yelp.com/biz/mcdonalds-belchertown?adjust_creative=HdhkN5EEH6lAqE3kwhsHEQ&utm_campaign=yelp_api_v3&utm_medium=api_v3_business_search&utm_source=HdhkN5EEH6lAqE3kwhsHEQ", "review_count": 12, "categories": [{"alias": "hotdogs", "title": "Fast Food"}, {"alias": "burgers", "title": "Burgers"}, {"alias": "coffee", "title": "Coffee & Tea"}], "rating": 1.5, "coordinates": {"latitude": 42.2883518825547, "longitude": -72.4062457680702}, "transactions": [], "price": "$", "location": {"address1": "148 N Main St", "address2": "", "address3": "", "city": "Belchertown", "zip_code": "01007", "country": "US", "state": "MA", "display_address": ["148 N Main St", "Belchertown, MA 01007"]}, "phone": "+14133236498", "display_phone": "(413) 323-6498", "distance": 18524.69819344542}, {"id": "Io4C5tUwnb_YzeaMXHBqBA", "alias": "shuckin-truck-narragansett-2", "name": "Shuckin Truck", "image_url": "https://s3-media2.fl.yelpcdn.com/bphoto/r7QRORfe9UYVS7GGzUm9DQ/o.jpg", "is_closed": false, "url": "https://www.yelp.com/biz/shuckin-truck-narragansett-2?adjust_creative=HdhkN5EEH6lAqE3kwhsHEQ&utm_campaign=yelp_api_v3&utm_medium=api_v3_business_search&utm_source=HdhkN5EEH6lAqE3kwhsHEQ", "review_count": 24, "categories": [{"alias": "foodtrucks", "title": "Food Trucks"}, {"alias": "seafood", "title": "Seafood"}], "rating": 4.5, "coordinates": {"latitude": 41.4274482727051, "longitude": -71.4597778320313}, "transactions": [], "price": "$$", "location": {"address1": "", "address2": "", "address3": "", "city": "Narragansett", "zip_code": "02882", "country": "US", "state": "RI", "display_address": ["Narragansett, RI 02882"]}, "phone": "+14017415953", "display_phone": "(401) 741-5953", "distance": 122920.98814416546}, {"id": "qqA8YX58xnmEXLyanHfdUg", "alias": "stufd-food-truck-brooklyn", "name": "Stuf'd Food Truck", "image_url": "https://s3-media2.fl.yelpcdn.com/bphoto/_Wn0i-tLIOFinw8BPAqxPA/o.jpg", "is_closed": false, "url": "https://www.yelp.com/biz/stufd-food-truck-brooklyn?adjust_creative=HdhkN5EEH6lAqE3kwhsHEQ&utm_campaign=yelp_api_v3&utm_medium=api_v3_business_search&utm_source=HdhkN5EEH6lAqE3kwhsHEQ", "review_count": 4, "categories": [{"alias": "sandwiches", "title": "Sandwiches"}, {"alias": "foodtrucks", "title": "Food Trucks"}], "rating": 4.0, "coordinates": {"latitude": 40.7124539, "longitude": -73.9287374}, "transactions": [], "location": {"address1": "178 Varick Ave", "address2": "", "address3": null, "city": "Brooklyn", "zip_code": "11237", "country": "US", "state": "NY", "display_address": ["178 Varick Ave", "Brooklyn, NY 11237"]}, "phone": "+18457091808", "display_phone": "(845) 709-1808", "distance": 233112.2559390373}]