[{"id": "HQEBY4lEJxmn6G5tDYWEVg", "alias": "russos-lakeside-seafood-and-steakhouse-palmer", "name": "Russo's Lakeside Seafood & Steakhouse", "image_url": "https://s3-media3.fl.yelpcdn.com/bphoto/cE5L8cxQbGhT18yqnV8RWw/o.jpg", "is_closed": false, "url": "https://www.yelp.com/biz/russos-lakeside-seafood-and-steakhouse-palmer?adjust_creative=wVJJqwOt_3apsoGmwgRWnw&utm_campaign=yelp_api_v3&utm_medium=api_v3_business_search&utm_source=wVJJqwOt_3apsoGmwgRWnw", "review_count": 45, "categories": [{"alias": "seafood", "title": "Seafood"}, {"alias": "steak", "title": "Steakhouses"}], "rating": 4.0, "coordinates": {"latitude": 42.210545, "longitude": -72.307816}, "transactions": ["pickup", "delivery"], "price": "$$", "location": {"address1": "702 River St", "address2": "", "address3": "", "city": "Palmer", "zip_code": "01069", "country": "US", "state": "MA", "display_address": ["702 River St", "Palmer, MA 01069"]}, "phone": "+14132892360", "display_phone": "(413) 289-2360", "distance": 6002.638734632446}, {"id": "uAyUmojSQXzAhpTrOyF00A", "alias": "steaming-tender-restaurant-palmer", "name": "Steaming Tender Restaurant", "image_url": "https://s3-media4.fl.yelpcdn.com/bphoto/jSMFp3L69snOsgsKQWS5Cg/o.jpg", "is_closed": false, "url": "https://www.yelp.com/biz/steaming-tender-restaurant-palmer?adjust_creative=wVJJqwOt_3apsoGmwgRWnw&utm_campaign=yelp_api_v3&utm_medium=api_v3_business_search&utm_source=wVJJqwOt_3apsoGmwgRWnw", "review_count": 221, "categories": [{"alias": "tradamerican", "title": "American (Traditional)"}, {"alias": "bars", "title": "Bars"}, {"alias": "breakfast_brunch", "title": "Breakfast & Brunch"}], "rating": 4.0, "coordinates": {"latitude": 42.15578, "longitude": -72.3292}, "transactions": [], "price": "$$", "location": {"address1": "28 Depot St", "address2": "", "address3": "", "city": "Palmer", "zip_code": "01069", "country": "US", "state": "MA", "display_address": ["28 Depot St", "Palmer, MA 01069"]}, "phone": "+14132832744", "display_phone": "(413) 283-2744", "distance": 9151.929032479964}, {"id": "ekTKSMIx3hd5XXNmFeT-Bg", "alias": "salem-cross-inn-west-brookfield", "name": "Salem Cross Inn", "image_url": "https://s3-media4.fl.yelpcdn.com/bphoto/2OJ_dw5_3VL5zyJvN1czrA/o.jpg", "is_closed": false, "url": "https://www.yelp.com/biz/salem-cross-inn-west-brookfield?adjust_creative=wVJJqwOt_3apsoGmwgRWnw&utm_campaign=yelp_api_v3&utm_medium=api_v3_business_search&utm_source=wVJJqwOt_3apsoGmwgRWnw", "review_count": 113, "categories": [{"alias": "venues", "title": "Venues & Event Spaces"}, {"alias": "tradamerican", "title": "American (Traditional)"}], "rating": 4.0, "coordinates": {"latitude": 42.2460335987962, "longitude": -72.1747081086731}, "transactions": [], "price": "$$$", "location": {"address1": "260 W Main St Rt 9", "address2": "", "address3": "", "city": "West Brookfield", "zip_code": "01585", "country": "US", "state": "MA", "display_address": ["260 W Main St Rt 9", "West Brookfield, MA 01585"]}, "phone": "+15088672345", "display_phone": "(508) 867-2345", "distance": 7134.137981764705}, {"id": "w7OhIPtYkrCNLt8P2uIavA", "alias": "hanna-devines-restaurant-ware", "name": "Hanna Devine's Restaurant", "image_url": "https://s3-media3.fl.yelpcdn.com/bphoto/y0x0A04JfuP0gNbBhQAbOQ/o.jpg", "is_closed": false, "url": "https://www.yelp.com/biz/hanna-devines-restaurant-ware?adjust_creative=wVJJqwOt_3apsoGmwgRWnw&utm_campaign=yelp_api_v3&utm_medium=api_v3_business_search&utm_source=wVJJqwOt_3apsoGmwgRWnw", "review_count": 65, "categories": [{"alias": "seafood", "title": "Seafood"}, {"alias": "beer_and_wine", "title": "Beer, Wine & Spirits"}, {"alias": "newamerican", "title": "American (New)"}], "rating": 3.5, "coordinates": {"latitude": 42.2605129935206, "longitude": -72.2413601052226}, "transactions": [], "price": "$$", "location": {"address1": "91 Main St", "address2": "", "address3": null, "city": "Ware", "zip_code": "01082", "country": "US", "state": "MA", "display_address": ["91 Main St", "Ware, MA 01082"]}, "phone": "+14132770707", "display_phone": "(413) 277-0707", "distance": 6654.821420448698}, {"id": "Xk6_V-Sd08xSFqaQUCvZbw", "alias": "wicked-wing-ware", "name": "Wicked Wing", "image_url": "https://s3-media4.fl.yelpcdn.com/bphoto/jSg8-20Gf49RhkksAP3Iwg/o.jpg", "is_closed": false, "url": "https://www.yelp.com/biz/wicked-wing-ware?adjust_creative=wVJJqwOt_3apsoGmwgRWnw&utm_campaign=yelp_api_v3&utm_medium=api_v3_business_search&utm_source=wVJJqwOt_3apsoGmwgRWnw", "review_count": 34, "categories": [{"alias": "chicken_wings", "title": "Chicken Wings"}, {"alias": "breweries", "title": "Breweries"}, {"alias": "cocktailbars", "title": "Cocktail Bars"}], "rating": 4.0, "coordinates": {"latitude": 42.2672853535435, "longitude": -72.2480573767605}, "transactions": [], "location": {"address1": "136 Pleasant St", "address2": "", "address3": null, "city": "Ware", "zip_code": "01082", "country": "US", "state": "MA", "display_address": ["136 Pleasant St", "Ware, MA 01082"]}, "phone": "+14132770020", "display_phone": "(413) 277-0020", "distance": 7458.806956307686}, {"id": "2BIeNbfudbD_sPWyDv0pNQ", "alias": "masons-grille-warren", "name": "Mason's Grille", "image_url": "https://s3-media2.fl.yelpcdn.com/bphoto/KA3N3PP2O1OO_iykU_NoDw/o.jpg", "is_closed": false, "url": "https://www.yelp.com/biz/masons-grille-warren?adjust_creative=wVJJqwOt_3apsoGmwgRWnw&utm_campaign=yelp_api_v3&utm_medium=api_v3_business_search&utm_source=wVJJqwOt_3apsoGmwgRWnw", "review_count": 16, "categories": [{"alias": "breakfast_brunch", "title": "Breakfast & Brunch"}], "rating": 4.0, "coordinates": {"latitude": 42.2128038938205, "longitude": -72.1945668384433}, "transactions": [], "price": "$", "location": {"address1": "14 Milton Fountain Way", "address2": "", "address3": null, "city": "Warren", "zip_code": "01083", "country": "US", "state": "MA", "display_address": ["14 Milton Fountain Way", "Warren, MA 01083"]}, "phone": "+14134368042", "display_phone": "(413) 436-8042", "distance": 3675.333968093061}, {"id": "T04Zol_-RBaQowkVUSlWGw", "alias": "yummy-asian-cuisine-palmer", "name": "Yummy Asian cuisine", "image_url": "https://s3-media2.fl.yelpcdn.com/bphoto/_nUjtBsR4HG_B5HWhWqDaw/o.jpg", "is_closed": false, "url": "https://www.yelp.com/biz/yummy-asian-cuisine-palmer?adjust_creative=wVJJqwOt_3apsoGmwgRWnw&utm_campaign=yelp_api_v3&utm_medium=api_v3_business_search&utm_source=wVJJqwOt_3apsoGmwgRWnw", "review_count": 24, "categories": [{"alias": "asianfusion", "title": "Asian Fusion"}], "rating": 4.5, "coordinates": {"latitude": 42.15904, "longitude": -72.3289999}, "transactions": [], "price": "$$", "location": {"address1": "1033 Thorndike St", "address2": null, "address3": "", "city": "Palmer", "zip_code": "01069", "country": "US", "state": "MA", "display_address": ["1033 Thorndike St", "Palmer, MA 01069"]}, "phone": "+14132836888", "display_phone": "(413) 283-6888", "distance": 8970.736475262975}, {"id": "_M9tO4EUkGSL4mtSnECcrA", "alias": "teresas-restaurant-ware", "name": "Teresa's Restaurant", "image_url": "https://s3-media2.fl.yelpcdn.com/bphoto/O7o53uFX5smk1gOJzuoCzw/o.jpg", "is_closed": false, "url": "https://www.yelp.com/biz/teresas-restaurant-ware?adjust_creative=wVJJqwOt_3apsoGmwgRWnw&utm_campaign=yelp_api_v3&utm_medium=api_v3_business_search&utm_source=wVJJqwOt_3apsoGmwgRWnw", "review_count": 48, "categories": [{"alias": "pizza", "title": "Pizza"}, {"alias": "italian", "title": "Italian"}, {"alias": "venues", "title": "Venues & Event Spaces"}], "rating": 3.5, "coordinates": {"latitude": 42.24245, "longitude": -72.274393}, "transactions": [], "price": "$$", "location": {"address1": "315 Palmer Rd", "address2": "", "address3": "", "city": "Ware", "zip_code": "01082", "country": "US", "state": "MA", "display_address": ["315 Palmer Rd", "Ware, MA 01082"]}, "phone": "+14139677601", "display_phone": "(413) 967-7601", "distance": 5602.045585822298}, {"id": "qZ2mUZB1EFz2-Was9kft2Q", "alias": "ye-olde-tavern-west-brookfield-3", "name": "Ye Olde Tavern", "image_url": "https://s3-media2.fl.yelpcdn.com/bphoto/feqtvkBcHvmzmclvTYA-WQ/o.jpg", "is_closed": false, "url": "https://www.yelp.com/biz/ye-olde-tavern-west-brookfield-3?adjust_creative=wVJJqwOt_3apsoGmwgRWnw&utm_campaign=yelp_api_v3&utm_medium=api_v3_business_search&utm_source=wVJJqwOt_3apsoGmwgRWnw", "review_count": 31, "categories": [{"alias": "pizza", "title": "Pizza"}], "rating": 3.5, "coordinates": {"latitude": 42.2349328, "longitude": -72.1419567}, "transactions": [], "price": "$$", "location": {"address1": "7 E Main St", "address2": "", "address3": "", "city": "West Brookfield", "zip_code": "01585", "country": "US", "state": "MA", "display_address": ["7 E Main St", "West Brookfield, MA 01585"]}, "phone": "+15088679709", "display_phone": "(508) 867-9709", "distance": 8635.1742050249}, {"id": "5XNM4ZhQAO64mQcEatrFpw", "alias": "angels-1376-palmer-restaurant-palmer", "name": "Angel's 1376 Palmer Restaurant", "image_url": "https://s3-media3.fl.yelpcdn.com/bphoto/1t1QlFaiIZlpnq_n4DQQzQ/o.jpg", "is_closed": false, "url": "https://www.yelp.com/biz/angels-1376-palmer-restaurant-palmer?adjust_creative=wVJJqwOt_3apsoGmwgRWnw&utm_campaign=yelp_api_v3&utm_medium=api_v3_business_search&utm_source=wVJJqwOt_3apsoGmwgRWnw", "review_count": 30, "categories": [{"alias": "breakfast_brunch", "title": "Breakfast & Brunch"}], "rating": 4.5, "coordinates": {"latitude": 42.1563998023598, "longitude": -72.3289753496647}, "transactions": [], "location": {"address1": "1376 Main St", "address2": "", "address3": null, "city": "Palmer", "zip_code": "01069", "country": "US", "state": "MA", "display_address": ["1376 Main St", "Palmer, MA 01069"]}, "phone": "+14132896956", "display_phone": "(413) 289-6956", "distance": 9104.16028399718}, {"id": "PtAMmv9zA1q6y2NuKQNtPA", "alias": "pig-park-bbq-ware", "name": "Pig Park BBQ", "image_url": "https://s3-media2.fl.yelpcdn.com/bphoto/Iwqx3PvTvW2yy2hGxH5R8Q/o.jpg", "is_closed": false, "url": "https://www.yelp.com/biz/pig-park-bbq-ware?adjust_creative=wVJJqwOt_3apsoGmwgRWnw&utm_campaign=yelp_api_v3&utm_medium=api_v3_business_search&utm_source=wVJJqwOt_3apsoGmwgRWnw", "review_count": 13, "categories": [{"alias": "bbq", "title": "Barbeque"}], "rating": 4.0, "coordinates": {"latitude": 42.2599379693609, "longitude": -72.2281836193848}, "transactions": [], "price": "$$", "location": {"address1": "97 East St Rt 9", "address2": "", "address3": "Various Locations", "city": "Ware", "zip_code": "01082", "country": "US", "state": "MA", "display_address": ["97 East St Rt 9", "Various Locations", "Ware, MA 01082"]}, "phone": "+14135444712", "display_phone": "(413) 544-4712", "distance": 6609.49659154851}, {"id": "nB8kYU2SLIJHpHy3HskVDA", "alias": "mexicali-cantina-grill-ware", "name": "Mexicali Cantina Grill", "image_url": "https://s3-media3.fl.yelpcdn.com/bphoto/--DwcVl27eu8ZhHc0vgjZg/o.jpg", "is_closed": false, "url": "https://www.yelp.com/biz/mexicali-cantina-grill-ware?adjust_creative=wVJJqwOt_3apsoGmwgRWnw&utm_campaign=yelp_api_v3&utm_medium=api_v3_business_search&utm_source=wVJJqwOt_3apsoGmwgRWnw", "review_count": 67, "categories": [{"alias": "mexican", "title": "Mexican"}], "rating": 3.5, "coordinates": {"latitude": 42.2555114, "longitude": -72.2521185}, "transactions": [], "price": "$$", "location": {"address1": "146 West St", "address2": "", "address3": "", "city": "Ware", "zip_code": "01082", "country": "US", "state": "MA", "display_address": ["146 West St", "Ware, MA 01082"]}, "phone": "+14132770925", "display_phone": "(413) 277-0925", "distance": 6225.4128192435}, {"id": "tvP1MXfXcaJKD8pGyO31Mw", "alias": "matts-breakfast-nook-west-brookfield", "name": "Matt's Breakfast Nook", "image_url": "https://s3-media3.fl.yelpcdn.com/bphoto/BBidKu4IzxWx95_oclff3w/o.jpg", "is_closed": false, "url": "https://www.yelp.com/biz/matts-breakfast-nook-west-brookfield?adjust_creative=wVJJqwOt_3apsoGmwgRWnw&utm_campaign=yelp_api_v3&utm_medium=api_v3_business_search&utm_source=wVJJqwOt_3apsoGmwgRWnw", "review_count": 1, "categories": [{"alias": "breakfast_brunch", "title": "Breakfast & Brunch"}], "rating": 5.0, "coordinates": {"latitude": 42.2351378, "longitude": -72.1417457}, "transactions": [], "location": {"address1": "8 E Main St", "address2": "", "address3": null, "city": "West Brookfield", "zip_code": "01585", "country": "US", "state": "MA", "display_address": ["8 E Main St", "West Brookfield, MA 01585"]}, "phone": "+15086371166", "display_phone": "(508) 637-1166", "distance": 8661.543682180229}, {"id": "M5Simi8q6gjwA9yngORcwg", "alias": "lazers-pizza-and-roast-beef-ware-2", "name": "Lazer's Pizza & Roast Beef", "image_url": "https://s3-media4.fl.yelpcdn.com/bphoto/4k1itVfqoWojH6QJtS4isA/o.jpg", "is_closed": false, "url": "https://www.yelp.com/biz/lazers-pizza-and-roast-beef-ware-2?adjust_creative=wVJJqwOt_3apsoGmwgRWnw&utm_campaign=yelp_api_v3&utm_medium=api_v3_business_search&utm_source=wVJJqwOt_3apsoGmwgRWnw", "review_count": 27, "categories": [{"alias": "pizza", "title": "Pizza"}], "rating": 4.5, "coordinates": {"latitude": 42.2599814229054, "longitude": -72.2400694034169}, "transactions": [], "price": "$", "location": {"address1": "41 Main St", "address2": "", "address3": "", "city": "Ware", "zip_code": "01082", "country": "US", "state": "MA", "display_address": ["41 Main St", "Ware, MA 01082"]}, "phone": "+14139673181", "display_phone": "(413) 967-3181", "distance": 6589.763508106274}, {"id": "r_Zv8AQJ7V8_Bc5H275Zmw", "alias": "wen-ming-house-palmer", "name": "Wen Ming House", "image_url": "https://s3-media4.fl.yelpcdn.com/bphoto/_uqi-cjB7PvInUbkDJWcLQ/o.jpg", "is_closed": false, "url": "https://www.yelp.com/biz/wen-ming-house-palmer?adjust_creative=wVJJqwOt_3apsoGmwgRWnw&utm_campaign=yelp_api_v3&utm_medium=api_v3_business_search&utm_source=wVJJqwOt_3apsoGmwgRWnw", "review_count": 56, "categories": [{"alias": "sushi", "title": "Sushi Bars"}, {"alias": "chinese", "title": "Chinese"}, {"alias": "japanese", "title": "Japanese"}], "rating": 4.5, "coordinates": {"latitude": 42.1581185, "longitude": -72.3303866}, "transactions": [], "price": "$$", "location": {"address1": "1427 N Main St", "address2": "", "address3": "", "city": "Palmer", "zip_code": "01069", "country": "US", "state": "MA", "display_address": ["1427 N Main St", "Palmer, MA 01069"]}, "phone": "+14132896478", "display_phone": "(413) 289-6478", "distance": 9100.920239926296}, {"id": "8r4ilmXIWyFI5Xu_zR5ILA", "alias": "asian-garden-ware", "name": "Asian Garden", "image_url": "https://s3-media4.fl.yelpcdn.com/bphoto/E45FppSufn2iRvshzJY6Yw/o.jpg", "is_closed": false, "url": "https://www.yelp.com/biz/asian-garden-ware?adjust_creative=wVJJqwOt_3apsoGmwgRWnw&utm_campaign=yelp_api_v3&utm_medium=api_v3_business_search&utm_source=wVJJqwOt_3apsoGmwgRWnw", "review_count": 24, "categories": [{"alias": "chinese", "title": "Chinese"}, {"alias": "asianfusion", "title": "Asian Fusion"}], "rating": 4.0, "coordinates": {"latitude": 42.255543, "longitude": -72.249445}, "transactions": [], "price": "$$", "location": {"address1": "124 West St", "address2": "Ste 4", "address3": "", "city": "Ware", "zip_code": "01082", "country": "US", "state": "MA", "display_address": ["124 West St", "Ste 4", "Ware, MA 01082"]}, "phone": "+14132770725", "display_phone": "(413) 277-0725", "distance": 6217.1800974923535}, {"id": "USutlpAeiWDKGUnbOxz_HA", "alias": "debbie-wong-ware", "name": "Debbie Wong", "image_url": "https://s3-media4.fl.yelpcdn.com/bphoto/e5sprMEJfRyWwY1CoJryiQ/o.jpg", "is_closed": false, "url": "https://www.yelp.com/biz/debbie-wong-ware?adjust_creative=wVJJqwOt_3apsoGmwgRWnw&utm_campaign=yelp_api_v3&utm_medium=api_v3_business_search&utm_source=wVJJqwOt_3apsoGmwgRWnw", "review_count": 23, "categories": [{"alias": "chinese", "title": "Chinese"}], "rating": 4.0, "coordinates": {"latitude": 42.2601, "longitude": -72.24562}, "transactions": [], "price": "$$", "location": {"address1": "54 W Main St", "address2": "", "address3": "", "city": "Ware", "zip_code": "01082", "country": "US", "state": "MA", "display_address": ["54 W Main St", "Ware, MA 01082"]}, "phone": "+14139673336", "display_phone": "(413) 967-3336", "distance": 6652.724831926961}, {"id": "ZNH4DMILk2mdeYDM5GDfVw", "alias": "wrights-fish-and-chips-ware", "name": "Wrights Fish & Chips", "image_url": "", "is_closed": false, "url": "https://www.yelp.com/biz/wrights-fish-and-chips-ware?adjust_creative=wVJJqwOt_3apsoGmwgRWnw&utm_campaign=yelp_api_v3&utm_medium=api_v3_business_search&utm_source=wVJJqwOt_3apsoGmwgRWnw", "review_count": 3, "categories": [{"alias": "fishnchips", "title": "Fish & Chips"}], "rating": 3.0, "coordinates": {"latitude": 51.8108, "longitude": -0.02983}, "transactions": [], "location": {"address1": "3 East Street", "address2": "", "address3": "", "city": "Ware", "zip_code": "SG12 9HJ", "country": "GB", "state": "HRT", "display_address": ["3 East Street", "Ware SG12 9HJ", "United Kingdom"]}, "phone": "+441920462888", "display_phone": "+44 1920 462888", "distance": 6573.850665402245}, {"id": "ca3CuO8cgZFfGWYE-t25Qg", "alias": "lins-garden-west-brookfield", "name": "Lin's Garden", "image_url": "https://s3-media4.fl.yelpcdn.com/bphoto/rWLFqA6Nvg7NGPsGDcSTXw/o.jpg", "is_closed": false, "url": "https://www.yelp.com/biz/lins-garden-west-brookfield?adjust_creative=wVJJqwOt_3apsoGmwgRWnw&utm_campaign=yelp_api_v3&utm_medium=api_v3_business_search&utm_source=wVJJqwOt_3apsoGmwgRWnw", "review_count": 38, "categories": [{"alias": "chinese", "title": "Chinese"}, {"alias": "soup", "title": "Soup"}, {"alias": "ramen", "title": "Ramen"}], "rating": 3.5, "coordinates": {"latitude": 42.233873, "longitude": -72.157657}, "transactions": ["pickup", "delivery"], "price": "$$", "location": {"address1": "152 W Main St", "address2": null, "address3": null, "city": "West Brookfield", "zip_code": "01585", "country": "US", "state": "MA", "display_address": ["152 W Main St", "West Brookfield, MA 01585"]}, "phone": "+15088674499", "display_phone": "(508) 867-4499", "distance": 7457.654349985217}, {"id": "ytaSuRAfFw7NyjugZlGSkQ", "alias": "crystal-springs-dairy-bar-ware", "name": "Crystal Springs Dairy Bar", "image_url": "https://s3-media4.fl.yelpcdn.com/bphoto/ByMuRu-K-s8EeeqHKW_BGA/o.jpg", "is_closed": false, "url": "https://www.yelp.com/biz/crystal-springs-dairy-bar-ware?adjust_creative=wVJJqwOt_3apsoGmwgRWnw&utm_campaign=yelp_api_v3&utm_medium=api_v3_business_search&utm_source=wVJJqwOt_3apsoGmwgRWnw", "review_count": 15, "categories": [{"alias": "icecream", "title": "Ice Cream & Frozen Yogurt"}, {"alias": "breakfast_brunch", "title": "Breakfast & Brunch"}], "rating": 4.0, "coordinates": {"latitude": 42.2543680923477, "longitude": -72.2541291419154}, "transactions": [], "price": "$", "location": {"address1": "166 West St", "address2": "", "address3": "", "city": "Ware", "zip_code": "01082", "country": "US", "state": "MA", "display_address": ["166 West St", "Ware, MA 01082"]}, "phone": "+14139676190", "display_phone": "(413) 967-6190", "distance": 6132.9005015161065}, {"id": "DXgDN6EItxuEWx-o7sYInA", "alias": "china-house-restaurant-palmer", "name": "China House Restaurant", "image_url": "https://s3-media2.fl.yelpcdn.com/bphoto/LmrBfsuE4xtY8tWJdiV-eQ/o.jpg", "is_closed": false, "url": "https://www.yelp.com/biz/china-house-restaurant-palmer?adjust_creative=wVJJqwOt_3apsoGmwgRWnw&utm_campaign=yelp_api_v3&utm_medium=api_v3_business_search&utm_source=wVJJqwOt_3apsoGmwgRWnw", "review_count": 8, "categories": [{"alias": "chinese", "title": "Chinese"}], "rating": 2.5, "coordinates": {"latitude": 42.15189, "longitude": -72.31515}, "transactions": [], "price": "$$", "location": {"address1": "1240 Park St", "address2": "", "address3": "", "city": "Palmer", "zip_code": "01069", "country": "US", "state": "MA", "display_address": ["1240 Park St", "Palmer, MA 01069"]}, "phone": "+14132838983", "display_phone": "(413) 283-8983", "distance": 8446.898040284415}, {"id": "Ul1WGrfWjffNRGfMmBkihg", "alias": "ware-cafe-and-catering-services-ware", "name": "Ware Cafe & Catering Services", "image_url": "https://s3-media3.fl.yelpcdn.com/bphoto/J9Tsr8IiCAe_0-QYes39-g/o.jpg", "is_closed": false, "url": "https://www.yelp.com/biz/ware-cafe-and-catering-services-ware?adjust_creative=wVJJqwOt_3apsoGmwgRWnw&utm_campaign=yelp_api_v3&utm_medium=api_v3_business_search&utm_source=wVJJqwOt_3apsoGmwgRWnw", "review_count": 15, "categories": [{"alias": "cafes", "title": "Cafes"}, {"alias": "catering", "title": "Caterers"}], "rating": 4.5, "coordinates": {"latitude": 42.26047, "longitude": -72.24379}, "transactions": [], "price": "$", "location": {"address1": "24 W Main St", "address2": "", "address3": "", "city": "Ware", "zip_code": "01082", "country": "US", "state": "MA", "display_address": ["24 W Main St", "Ware, MA 01082"]}, "phone": "+14139674611", "display_phone": "(413) 967-4611", "distance": 6664.421792335114}, {"id": "QAYlKRxw_hdSe8PjkVbgrg", "alias": "alvin-rondeaus-dairy-bar-palmer", "name": "Alvin Rondeau's Dairy Bar", "image_url": "https://s3-media2.fl.yelpcdn.com/bphoto/P7hATNpoqavOsVP2iG9akg/o.jpg", "is_closed": false, "url": "https://www.yelp.com/biz/alvin-rondeaus-dairy-bar-palmer?adjust_creative=wVJJqwOt_3apsoGmwgRWnw&utm_campaign=yelp_api_v3&utm_medium=api_v3_business_search&utm_source=wVJJqwOt_3apsoGmwgRWnw", "review_count": 33, "categories": [{"alias": "foodstands", "title": "Food Stands"}, {"alias": "hotdog", "title": "Hot Dogs"}, {"alias": "seafood", "title": "Seafood"}], "rating": 4.0, "coordinates": {"latitude": 42.21143, "longitude": -72.3027}, "transactions": [], "price": "$", "location": {"address1": "1300 Ware St", "address2": "", "address3": "", "city": "Palmer", "zip_code": "01069", "country": "US", "state": "MA", "display_address": ["1300 Ware St", "Palmer, MA 01069"]}, "phone": "+14132835281", "display_phone": "(413) 283-5281", "distance": 5616.563544825513}, {"id": "3gPEJ6FE1_Ivtq4MEuhCgg", "alias": "girlys-grill-palmer-2", "name": "Girly's Grill", "image_url": "https://s3-media2.fl.yelpcdn.com/bphoto/mrjt2150qBzPkV6EpdzvbA/o.jpg", "is_closed": false, "url": "https://www.yelp.com/biz/girlys-grill-palmer-2?adjust_creative=wVJJqwOt_3apsoGmwgRWnw&utm_campaign=yelp_api_v3&utm_medium=api_v3_business_search&utm_source=wVJJqwOt_3apsoGmwgRWnw", "review_count": 27, "categories": [{"alias": "diners", "title": "Diners"}, {"alias": "breakfast_brunch", "title": "Breakfast & Brunch"}, {"alias": "tradamerican", "title": "American (Traditional)"}], "rating": 3.5, "coordinates": {"latitude": 42.1501241705257, "longitude": -72.3098161605006}, "transactions": [], "price": "$$", "location": {"address1": "1315 Park St", "address2": "", "address3": "", "city": "Palmer", "zip_code": "01069", "country": "US", "state": "MA", "display_address": ["1315 Park St", "Palmer, MA 01069"]}, "phone": "+14132840005", "display_phone": "(413) 284-0005", "distance": 8282.67853092799}, {"id": "s8ifd_imgK2jH0m0eZDntQ", "alias": "georges-pizza-and-subs-west-brookfield", "name": "George's Pizza and Subs", "image_url": "https://s3-media4.fl.yelpcdn.com/bphoto/Ch0ooY7hZwaElbMHeHk4Yw/o.jpg", "is_closed": false, "url": "https://www.yelp.com/biz/georges-pizza-and-subs-west-brookfield?adjust_creative=wVJJqwOt_3apsoGmwgRWnw&utm_campaign=yelp_api_v3&utm_medium=api_v3_business_search&utm_source=wVJJqwOt_3apsoGmwgRWnw", "review_count": 27, "categories": [{"alias": "salad", "title": "Salad"}, {"alias": "pizza", "title": "Pizza"}, {"alias": "sandwiches", "title": "Sandwiches"}], "rating": 3.5, "coordinates": {"latitude": 42.2348093, "longitude": -72.1424106}, "transactions": [], "price": "$", "location": {"address1": "4 East Main St", "address2": "", "address3": "", "city": "West Brookfield", "zip_code": "01585", "country": "US", "state": "MA", "display_address": ["4 East Main St", "West Brookfield, MA 01585"]}, "phone": "+15088678100", "display_phone": "(508) 867-8100", "distance": 8595.571989371789}, {"id": "uLvlyJle6VxAdZyw5wGqKg", "alias": "astronaut-pizza-house-ware", "name": "Astronaut Pizza House", "image_url": "https://s3-media1.fl.yelpcdn.com/bphoto/hnCmjlVlZG-RPFldt0QL7A/o.jpg", "is_closed": false, "url": "https://www.yelp.com/biz/astronaut-pizza-house-ware?adjust_creative=wVJJqwOt_3apsoGmwgRWnw&utm_campaign=yelp_api_v3&utm_medium=api_v3_business_search&utm_source=wVJJqwOt_3apsoGmwgRWnw", "review_count": 8, "categories": [{"alias": "pizza", "title": "Pizza"}], "rating": 2.5, "coordinates": {"latitude": 42.251477, "longitude": -72.258679}, "transactions": [], "price": "$$", "location": {"address1": "197 West St", "address2": "", "address3": "", "city": "Ware", "zip_code": "01082", "country": "US", "state": "MA", "display_address": ["197 West St", "Ware, MA 01082"]}, "phone": "+14139675685", "display_phone": "(413) 967-5685", "distance": 5933.908190315849}, {"id": "I0zvQlGF1--ymQeJcxTO2A", "alias": "nikos-pizza-ware", "name": "Niko's Pizza", "image_url": "https://s3-media4.fl.yelpcdn.com/bphoto/icDNBI1khs1fOAC3cVhvZw/o.jpg", "is_closed": false, "url": "https://www.yelp.com/biz/nikos-pizza-ware?adjust_creative=wVJJqwOt_3apsoGmwgRWnw&utm_campaign=yelp_api_v3&utm_medium=api_v3_business_search&utm_source=wVJJqwOt_3apsoGmwgRWnw", "review_count": 6, "categories": [{"alias": "pizza", "title": "Pizza"}, {"alias": "greek", "title": "Greek"}], "rating": 4.0, "coordinates": {"latitude": 42.260562, "longitude": -72.242328}, "transactions": [], "price": "$$", "location": {"address1": "118 Main St", "address2": "", "address3": null, "city": "Ware", "zip_code": "01082", "country": "US", "state": "MA", "display_address": ["118 Main St", "Ware, MA 01082"]}, "phone": "+14139670436", "display_phone": "(413) 967-0436", "distance": 6665.878701741456}, {"id": "KnJIbX__Sh1jW2XOu1wfQA", "alias": "united-china-restaurant-ware", "name": "United China Restaurant", "image_url": "https://s3-media2.fl.yelpcdn.com/bphoto/uYRYVKANPSbSYi59nvdg-Q/o.jpg", "is_closed": false, "url": "https://www.yelp.com/biz/united-china-restaurant-ware?adjust_creative=wVJJqwOt_3apsoGmwgRWnw&utm_campaign=yelp_api_v3&utm_medium=api_v3_business_search&utm_source=wVJJqwOt_3apsoGmwgRWnw", "review_count": 10, "categories": [{"alias": "chinese", "title": "Chinese"}], "rating": 2.5, "coordinates": {"latitude": 42.25453, "longitude": -72.25311}, "transactions": [], "price": "$", "location": {"address1": "164 West St", "address2": "", "address3": "", "city": "Ware", "zip_code": "01082", "country": "US", "state": "MA", "display_address": ["164 West St", "Ware, MA 01082"]}, "phone": "+14139670311", "display_phone": "(413) 967-0311", "distance": 6133.5853136228225}, {"id": "DeSyCZVRHBSBr1MUq34uQQ", "alias": "day-and-night-diner-palmer", "name": "Day & Night Diner", "image_url": "https://s3-media1.fl.yelpcdn.com/bphoto/e0MxzR5XQ_BYUKAcqEcy1g/o.jpg", "is_closed": false, "url": "https://www.yelp.com/biz/day-and-night-diner-palmer?adjust_creative=wVJJqwOt_3apsoGmwgRWnw&utm_campaign=yelp_api_v3&utm_medium=api_v3_business_search&utm_source=wVJJqwOt_3apsoGmwgRWnw", "review_count": 22, "categories": [{"alias": "diners", "title": "Diners"}], "rating": 3.0, "coordinates": {"latitude": 42.15815, "longitude": -72.3315}, "transactions": [], "price": "$", "location": {"address1": "1456 N Main St", "address2": "", "address3": "", "city": "Palmer", "zip_code": "01069", "country": "US", "state": "MA", "display_address": ["1456 N Main St", "Palmer, MA 01069"]}, "phone": "+14132834536", "display_phone": "(413) 283-4536", "distance": 9158.601718574733}, {"id": "lQwRGkdMNvY6e_Zo1RSDVQ", "alias": "villas-pizza-restaurant-ware", "name": "Villa's Pizza Restaurant", "image_url": "https://s3-media2.fl.yelpcdn.com/bphoto/MHYLDAcp33fb74RF2IZojg/o.jpg", "is_closed": false, "url": "https://www.yelp.com/biz/villas-pizza-restaurant-ware?adjust_creative=wVJJqwOt_3apsoGmwgRWnw&utm_campaign=yelp_api_v3&utm_medium=api_v3_business_search&utm_source=wVJJqwOt_3apsoGmwgRWnw", "review_count": 4, "categories": [{"alias": "pizza", "title": "Pizza"}], "rating": 3.5, "coordinates": {"latitude": 42.26092, "longitude": -72.2427}, "transactions": [], "price": "$", "location": {"address1": "123 Main St", "address2": "", "address3": "", "city": "Ware", "zip_code": "01082", "country": "US", "state": "MA", "display_address": ["123 Main St", "Ware, MA 01082"]}, "phone": "+14139674490", "display_phone": "(413) 967-4490", "distance": 6696.974619891476}, {"id": "Fl_AW8AT7kHFFzDsTGwwvQ", "alias": "roadside-pizza-and-grinders-palmer", "name": "Roadside Pizza & Grinders", "image_url": "https://s3-media3.fl.yelpcdn.com/bphoto/hjglCEymUsObTMuhYn7ytA/o.jpg", "is_closed": false, "url": "https://www.yelp.com/biz/roadside-pizza-and-grinders-palmer?adjust_creative=wVJJqwOt_3apsoGmwgRWnw&utm_campaign=yelp_api_v3&utm_medium=api_v3_business_search&utm_source=wVJJqwOt_3apsoGmwgRWnw", "review_count": 19, "categories": [{"alias": "pizza", "title": "Pizza"}, {"alias": "burgers", "title": "Burgers"}, {"alias": "sandwiches", "title": "Sandwiches"}], "rating": 3.5, "coordinates": {"latitude": 42.1592066, "longitude": -72.3291096}, "transactions": [], "price": "$", "location": {"address1": "1037 Thorndike St", "address2": "", "address3": "", "city": "Palmer", "zip_code": "01069", "country": "US", "state": "MA", "display_address": ["1037 Thorndike St", "Palmer, MA 01069"]}, "phone": "+14132891111", "display_phone": "(413) 289-1111", "distance": 8948.12235990627}, {"id": "JDJEMD0M4Q0l31-YS0mC-w", "alias": "northeast-pizza-west-brookfield", "name": "Northeast Pizza", "image_url": "https://s3-media2.fl.yelpcdn.com/bphoto/JY4uYYJAdshPFLYGjWeFjw/o.jpg", "is_closed": false, "url": "https://www.yelp.com/biz/northeast-pizza-west-brookfield?adjust_creative=wVJJqwOt_3apsoGmwgRWnw&utm_campaign=yelp_api_v3&utm_medium=api_v3_business_search&utm_source=wVJJqwOt_3apsoGmwgRWnw", "review_count": 12, "categories": [{"alias": "pizza", "title": "Pizza"}], "rating": 2.0, "coordinates": {"latitude": 42.2389831542969, "longitude": -72.1653747558594}, "transactions": [], "price": "$", "location": {"address1": "208 W Main St", "address2": null, "address3": null, "city": "West Brookfield", "zip_code": "01585", "country": "US", "state": "MA", "display_address": ["208 W Main St", "West Brookfield, MA 01585"]}, "phone": "+15088679567", "display_phone": "(508) 867-9567", "distance": 7214.602282690718}, {"id": "miO060zZkIlbbXeDr1YFRw", "alias": "ricks-parkside-drivein-restaurant-palmer", "name": "Rick's Parkside Drivein Restaurant", "image_url": "https://s3-media4.fl.yelpcdn.com/bphoto/ZZ2d6kyVBm2529cuzKXiWg/o.jpg", "is_closed": false, "url": "https://www.yelp.com/biz/ricks-parkside-drivein-restaurant-palmer?adjust_creative=wVJJqwOt_3apsoGmwgRWnw&utm_campaign=yelp_api_v3&utm_medium=api_v3_business_search&utm_source=wVJJqwOt_3apsoGmwgRWnw", "review_count": 9, "categories": [{"alias": "icecream", "title": "Ice Cream & Frozen Yogurt"}, {"alias": "burgers", "title": "Burgers"}, {"alias": "hotdog", "title": "Hot Dogs"}], "rating": 3.0, "coordinates": {"latitude": 42.1496238, "longitude": -72.307246}, "transactions": [], "price": "$", "location": {"address1": "1189 Park St", "address2": "", "address3": "", "city": "Palmer", "zip_code": "01069", "country": "US", "state": "MA", "display_address": ["1189 Park St", "Palmer, MA 01069"]}, "phone": "+14132833517", "display_phone": "(413) 283-3517", "distance": 8167.37680471789}, {"id": "mT-H7hC-8x0mMu7alu_InA", "alias": "jenny-chans-chinese-restaurant-palmer", "name": "Jenny Chan's Chinese Restaurant", "image_url": "", "is_closed": false, "url": "https://www.yelp.com/biz/jenny-chans-chinese-restaurant-palmer?adjust_creative=wVJJqwOt_3apsoGmwgRWnw&utm_campaign=yelp_api_v3&utm_medium=api_v3_business_search&utm_source=wVJJqwOt_3apsoGmwgRWnw", "review_count": 7, "categories": [{"alias": "chinese", "title": "Chinese"}], "rating": 1.5, "coordinates": {"latitude": 42.15904, "longitude": -72.3289999}, "transactions": [], "price": "$", "location": {"address1": "1033 Thorndike St", "address2": "", "address3": "", "city": "Palmer", "zip_code": "01069", "country": "US", "state": "MA", "display_address": ["1033 Thorndike St", "Palmer, MA 01069"]}, "phone": "+14132891008", "display_phone": "(413) 289-1008", "distance": 8970.736475262975}, {"id": "y1XxQtglRjrnlzJqLEhpHw", "alias": "acropolis-pizza-palmer", "name": "Acropolis Pizza", "image_url": "https://s3-media3.fl.yelpcdn.com/bphoto/7JsSTFTxkoASrYfGHTlZTA/o.jpg", "is_closed": false, "url": "https://www.yelp.com/biz/acropolis-pizza-palmer?adjust_creative=wVJJqwOt_3apsoGmwgRWnw&utm_campaign=yelp_api_v3&utm_medium=api_v3_business_search&utm_source=wVJJqwOt_3apsoGmwgRWnw", "review_count": 14, "categories": [{"alias": "pizza", "title": "Pizza"}], "rating": 3.5, "coordinates": {"latitude": 42.15189, "longitude": -72.31515}, "transactions": [], "price": "$", "location": {"address1": "1240 Park St", "address2": "Ste 3", "address3": "", "city": "Palmer", "zip_code": "01069", "country": "US", "state": "MA", "display_address": ["1240 Park St", "Ste 3", "Palmer, MA 01069"]}, "phone": "+14132833488", "display_phone": "(413) 283-3488", "distance": 8446.898040284415}, {"id": "x7yFaf0pMFT-YVl_wEQF5w", "alias": "friendlys-palmer-2", "name": "Friendly's", "image_url": "https://s3-media3.fl.yelpcdn.com/bphoto/7hjR8G0ItbLVVEoI_EpXNQ/o.jpg", "is_closed": false, "url": "https://www.yelp.com/biz/friendlys-palmer-2?adjust_creative=wVJJqwOt_3apsoGmwgRWnw&utm_campaign=yelp_api_v3&utm_medium=api_v3_business_search&utm_source=wVJJqwOt_3apsoGmwgRWnw", "review_count": 32, "categories": [{"alias": "burgers", "title": "Burgers"}, {"alias": "icecream", "title": "Ice Cream & Frozen Yogurt"}, {"alias": "tradamerican", "title": "American (Traditional)"}], "rating": 2.5, "coordinates": {"latitude": 42.16064453125, "longitude": -72.3360443115234}, "transactions": [], "price": "$$", "location": {"address1": "1519 N Main St", "address2": "", "address3": "", "city": "Palmer", "zip_code": "01069", "country": "US", "state": "MA", "display_address": ["1519 N Main St", "Palmer, MA 01069"]}, "phone": "+14132837648", "display_phone": "(413) 283-7648", "distance": 9374.57180286645}, {"id": "i36ybHMGuHOgH7BN7cFN1A", "alias": "mcdonalds-palmer-4", "name": "McDonald's", "image_url": "https://s3-media3.fl.yelpcdn.com/bphoto/OHjM5Gi4Hm6A4yeWkbCCgg/o.jpg", "is_closed": false, "url": "https://www.yelp.com/biz/mcdonalds-palmer-4?adjust_creative=wVJJqwOt_3apsoGmwgRWnw&utm_campaign=yelp_api_v3&utm_medium=api_v3_business_search&utm_source=wVJJqwOt_3apsoGmwgRWnw", "review_count": 6, "categories": [{"alias": "coffee", "title": "Coffee & Tea"}, {"alias": "burgers", "title": "Burgers"}, {"alias": "hotdogs", "title": "Fast Food"}], "rating": 3.0, "coordinates": {"latitude": 42.1744, "longitude": -72.32263}, "transactions": [], "price": "$", "location": {"address1": "1184 Thorndike St", "address2": null, "address3": null, "city": "Palmer", "zip_code": "01069", "country": "US", "state": "MA", "display_address": ["1184 Thorndike St", "Palmer, MA 01069"]}, "phone": "+14132839095", "display_phone": "(413) 283-9095", "distance": 7747.8237157887415}, {"id": "MwToLNoS7ocAP983G30vrg", "alias": "wendys-palmer-2", "name": "Wendy's", "image_url": "https://s3-media3.fl.yelpcdn.com/bphoto/xOLby4pZ-wowdApIyQMYkw/o.jpg", "is_closed": false, "url": "https://www.yelp.com/biz/wendys-palmer-2?adjust_creative=wVJJqwOt_3apsoGmwgRWnw&utm_campaign=yelp_api_v3&utm_medium=api_v3_business_search&utm_source=wVJJqwOt_3apsoGmwgRWnw", "review_count": 5, "categories": [{"alias": "burgers", "title": "Burgers"}, {"alias": "hotdogs", "title": "Fast Food"}], "rating": 2.0, "coordinates": {"latitude": 42.17377, "longitude": -72.32249}, "transactions": [], "price": "$", "location": {"address1": "1213 Thorndyke St", "address2": "", "address3": "", "city": "Palmer", "zip_code": "01069", "country": "US", "state": "MA", "display_address": ["1213 Thorndyke St", "Palmer, MA 01069"]}, "phone": "+14132833037", "display_phone": "(413) 283-3037", "distance": 7720.818780161775}, {"id": "DqykbdUgYwboKgNhqjuAIA", "alias": "dominos-pizza-palmer", "name": "Domino's Pizza", "image_url": "", "is_closed": false, "url": "https://www.yelp.com/biz/dominos-pizza-palmer?adjust_creative=wVJJqwOt_3apsoGmwgRWnw&utm_campaign=yelp_api_v3&utm_medium=api_v3_business_search&utm_source=wVJJqwOt_3apsoGmwgRWnw", "review_count": 3, "categories": [{"alias": "chicken_wings", "title": "Chicken Wings"}, {"alias": "pizza", "title": "Pizza"}, {"alias": "sandwiches", "title": "Sandwiches"}], "rating": 3.5, "coordinates": {"latitude": 42.1744194030762, "longitude": -72.3206405639648}, "transactions": [], "price": "$", "location": {"address1": "1219 Thorndike St", "address2": null, "address3": null, "city": "Palmer", "zip_code": "01069", "country": "US", "state": "MA", "display_address": ["1219 Thorndike St", "Palmer, MA 01069"]}, "phone": "+14132896245", "display_phone": "(413) 289-6245", "distance": 7620.431316781705}, {"id": "n_s_vnPID1VDUO53PGE7qQ", "alias": "mcdonalds-ware", "name": "McDonald's", "image_url": "https://s3-media3.fl.yelpcdn.com/bphoto/A9Nkl7yHbhRSf4DzmMWoTg/o.jpg", "is_closed": false, "url": "https://www.yelp.com/biz/mcdonalds-ware?adjust_creative=wVJJqwOt_3apsoGmwgRWnw&utm_campaign=yelp_api_v3&utm_medium=api_v3_business_search&utm_source=wVJJqwOt_3apsoGmwgRWnw", "review_count": 8, "categories": [{"alias": "coffee", "title": "Coffee & Tea"}, {"alias": "burgers", "title": "Burgers"}, {"alias": "hotdogs", "title": "Fast Food"}], "rating": 2.0, "coordinates": {"latitude": 42.2569839, "longitude": -72.2498621}, "transactions": [], "price": "$", "location": {"address1": "117 West St", "address2": "", "address3": "", "city": "Ware", "zip_code": "01082", "country": "US", "state": "MA", "display_address": ["117 West St", "Ware, MA 01082"]}, "phone": "+14139673485", "display_phone": "(413) 967-3485", "distance": 6349.8586290602425}, {"id": "KJa-iIuKduViaLU8jAcfMg", "alias": "subway-palmer-5", "name": "Subway", "image_url": "https://s3-media2.fl.yelpcdn.com/bphoto/nSFpWOT8ZkmJFpuhQ_CdRA/o.jpg", "is_closed": false, "url": "https://www.yelp.com/biz/subway-palmer-5?adjust_creative=wVJJqwOt_3apsoGmwgRWnw&utm_campaign=yelp_api_v3&utm_medium=api_v3_business_search&utm_source=wVJJqwOt_3apsoGmwgRWnw", "review_count": 3, "categories": [{"alias": "sandwiches", "title": "Sandwiches"}], "rating": 1.5, "coordinates": {"latitude": 42.1588369288609, "longitude": -72.3281560129118}, "transactions": [], "price": "$", "location": {"address1": "1049 Thorndike St", "address2": "", "address3": "", "city": "Palmer", "zip_code": "01069", "country": "US", "state": "MA", "display_address": ["1049 Thorndike St", "Palmer, MA 01069"]}, "phone": "+14132834570", "display_phone": "(413) 283-4570", "distance": 8902.43291679386}, {"id": "kURqF15vnpJMKlzO9yOQjw", "alias": "subway-w-brookfield", "name": "Subway", "image_url": "https://s3-media1.fl.yelpcdn.com/bphoto/0a4AVwVVylrCsUo6T_Or7A/o.jpg", "is_closed": false, "url": "https://www.yelp.com/biz/subway-w-brookfield?adjust_creative=wVJJqwOt_3apsoGmwgRWnw&utm_campaign=yelp_api_v3&utm_medium=api_v3_business_search&utm_source=wVJJqwOt_3apsoGmwgRWnw", "review_count": 3, "categories": [{"alias": "sandwiches", "title": "Sandwiches"}], "rating": 1.5, "coordinates": {"latitude": 42.2341074710016, "longitude": -72.1557967975961}, "transactions": [], "price": "$", "location": {"address1": "143 W Main St", "address2": null, "address3": null, "city": "W Brookfield", "zip_code": "01585", "country": "US", "state": "MA", "display_address": ["143 W Main St", "W Brookfield, MA 01585"]}, "phone": "+15088673433", "display_phone": "(508) 867-3433", "distance": 7582.75907372564}, {"id": "Io4C5tUwnb_YzeaMXHBqBA", "alias": "shuckin-truck-narragansett-2", "name": "Shuckin Truck", "image_url": "https://s3-media2.fl.yelpcdn.com/bphoto/r7QRORfe9UYVS7GGzUm9DQ/o.jpg", "is_closed": false, "url": "https://www.yelp.com/biz/shuckin-truck-narragansett-2?adjust_creative=wVJJqwOt_3apsoGmwgRWnw&utm_campaign=yelp_api_v3&utm_medium=api_v3_business_search&utm_source=wVJJqwOt_3apsoGmwgRWnw", "review_count": 24, "categories": [{"alias": "foodtrucks", "title": "Food Trucks"}, {"alias": "seafood", "title": "Seafood"}], "rating": 4.5, "coordinates": {"latitude": 41.4274482727051, "longitude": -71.4597778320313}, "transactions": [], "price": "$$", "location": {"address1": "", "address2": "", "address3": "", "city": "Narragansett", "zip_code": "02882", "country": "US", "state": "RI", "display_address": ["Narragansett, RI 02882"]}, "phone": "+14017415953", "display_phone": "(401) 741-5953", "distance": 108600.32285718406}, {"id": "qqA8YX58xnmEXLyanHfdUg", "alias": "stufd-food-truck-brooklyn", "name": "Stuf'd Food Truck", "image_url": "https://s3-media2.fl.yelpcdn.com/bphoto/_Wn0i-tLIOFinw8BPAqxPA/o.jpg", "is_closed": false, "url": "https://www.yelp.com/biz/stufd-food-truck-brooklyn?adjust_creative=wVJJqwOt_3apsoGmwgRWnw&utm_campaign=yelp_api_v3&utm_medium=api_v3_business_search&utm_source=wVJJqwOt_3apsoGmwgRWnw", "review_count": 4, "categories": [{"alias": "sandwiches", "title": "Sandwiches"}, {"alias": "foodtrucks", "title": "Food Trucks"}], "rating": 4.0, "coordinates": {"latitude": 40.7124539, "longitude": -73.9287374}, "transactions": [], "location": {"address1": "178 Varick Ave", "address2": "", "address3": null, "city": "Brooklyn", "zip_code": "11237", "country": "US", "state": "NY", "display_address": ["178 Varick Ave", "Brooklyn, NY 11237"]}, "phone": "+18457091808", "display_phone": "(845) 709-1808", "distance": 217440.9024186957}]