[{"id": "mb_yMnSRswDTs3hbR_st-A", "alias": "casa-bella-italian-kitchen-and-bar-hampden", "name": "Casa Bella Italian Kitchen And Bar", "image_url": "https://s3-media2.fl.yelpcdn.com/bphoto/5FmpfHwLdKU9iamL3OSy_Q/o.jpg", "is_closed": false, "url": "https://www.yelp.com/biz/casa-bella-italian-kitchen-and-bar-hampden?adjust_creative=HdhkN5EEH6lAqE3kwhsHEQ&utm_campaign=yelp_api_v3&utm_medium=api_v3_business_search&utm_source=HdhkN5EEH6lAqE3kwhsHEQ", "review_count": 48, "categories": [{"alias": "bars", "title": "Bars"}, {"alias": "italian", "title": "Italian"}], "rating": 4.0, "coordinates": {"latitude": 42.06276, "longitude": -72.4175099}, "transactions": [], "price": "$$", "location": {"address1": "546 Main St", "address2": "", "address3": null, "city": "Hampden", "zip_code": "01036", "country": "US", "state": "MA", "display_address": ["546 Main St", "Hampden, MA 01036"]}, "phone": "+14135661466", "display_phone": "(413) 566-1466", "distance": 542.6705041389197}, {"id": "-4hbPMcWdMFEuhCJ75ZRMA", "alias": "la-cucina-di-hampden-house-hampden", "name": "La Cucina Di Hampden House", "image_url": "https://s3-media1.fl.yelpcdn.com/bphoto/IlPcJ5ct0aam8M4GHH17uA/o.jpg", "is_closed": false, "url": "https://www.yelp.com/biz/la-cucina-di-hampden-house-hampden?adjust_creative=HdhkN5EEH6lAqE3kwhsHEQ&utm_campaign=yelp_api_v3&utm_medium=api_v3_business_search&utm_source=HdhkN5EEH6lAqE3kwhsHEQ", "review_count": 55, "categories": [{"alias": "italian", "title": "Italian"}], "rating": 3.5, "coordinates": {"latitude": 42.0587707310915, "longitude": -72.4404861778021}, "transactions": ["delivery"], "price": "$$", "location": {"address1": "1 Allen St", "address2": "", "address3": "", "city": "Hampden", "zip_code": "01036", "country": "US", "state": "MA", "display_address": ["1 Allen St", "Hampden, MA 01036"]}, "phone": "+14135668324", "display_phone": "(413) 566-8324", "distance": 2134.009534193297}, {"id": "I3hPUXO_T1KRcwW83aZSiw", "alias": "greathorse-hampden", "name": "GreatHorse", "image_url": "https://s3-media1.fl.yelpcdn.com/bphoto/4I0p8hnP-DYuAJY8hwBysw/o.jpg", "is_closed": false, "url": "https://www.yelp.com/biz/greathorse-hampden?adjust_creative=HdhkN5EEH6lAqE3kwhsHEQ&utm_campaign=yelp_api_v3&utm_medium=api_v3_business_search&utm_source=HdhkN5EEH6lAqE3kwhsHEQ", "review_count": 4, "categories": [{"alias": "newamerican", "title": "American (New)"}], "rating": 5.0, "coordinates": {"latitude": 42.0656899, "longitude": -72.43407}, "transactions": [], "price": "$$$", "location": {"address1": "128 Wilbraham Rd", "address2": "", "address3": "", "city": "Hampden", "zip_code": "01036", "country": "US", "state": "MA", "display_address": ["128 Wilbraham Rd", "Hampden, MA 01036"]}, "phone": "+14135668010", "display_phone": "(413) 566-8010", "distance": 1592.1798155465867}, {"id": "NYYIGL8JP4g2XQuyxivq-A", "alias": "center-square-grill-east-longmeadow", "name": "Center Square Grill", "image_url": "https://s3-media1.fl.yelpcdn.com/bphoto/bHBxqCxNxcJV2_tK8XDkyg/o.jpg", "is_closed": false, "url": "https://www.yelp.com/biz/center-square-grill-east-longmeadow?adjust_creative=HdhkN5EEH6lAqE3kwhsHEQ&utm_campaign=yelp_api_v3&utm_medium=api_v3_business_search&utm_source=HdhkN5EEH6lAqE3kwhsHEQ", "review_count": 372, "categories": [{"alias": "newamerican", "title": "American (New)"}, {"alias": "tradamerican", "title": "American (Traditional)"}, {"alias": "italian", "title": "Italian"}], "rating": 4.5, "coordinates": {"latitude": 42.0654985, "longitude": -72.5148327}, "transactions": ["delivery", "restaurant_reservation"], "price": "$$", "location": {"address1": "84 Center Sq", "address2": "", "address3": "", "city": "East Longmeadow", "zip_code": "01028", "country": "US", "state": "MA", "display_address": ["84 Center Sq", "East Longmeadow, MA 01028"]}, "phone": "+14135250055", "display_phone": "(413) 525-0055", "distance": 7961.237704659131}, {"id": "RkWI9RHeF938rHWc9upfdQ", "alias": "gios-pizzeria-hampden", "name": "Gio's Pizzeria", "image_url": "https://s3-media1.fl.yelpcdn.com/bphoto/RMO8_gTByp99UAtxJBrPxA/o.jpg", "is_closed": false, "url": "https://www.yelp.com/biz/gios-pizzeria-hampden?adjust_creative=HdhkN5EEH6lAqE3kwhsHEQ&utm_campaign=yelp_api_v3&utm_medium=api_v3_business_search&utm_source=HdhkN5EEH6lAqE3kwhsHEQ", "review_count": 59, "categories": [{"alias": "pizza", "title": "Pizza"}, {"alias": "italian", "title": "Italian"}], "rating": 4.0, "coordinates": {"latitude": 42.0596536, "longitude": -72.4420908}, "transactions": ["delivery"], "price": "$$", "location": {"address1": "9 Allen St", "address2": null, "address3": "", "city": "Hampden", "zip_code": "01036", "country": "US", "state": "MA", "display_address": ["9 Allen St", "Hampden, MA 01036"]}, "phone": "+14135668015", "display_phone": "(413) 566-8015", "distance": 2156.3547302574816}, {"id": "p0PIC-Xo-Z_c5uf4ptRNAQ", "alias": "min-chao-gourmet-hampden", "name": "Min Chao Gourmet", "image_url": "https://s3-media1.fl.yelpcdn.com/bphoto/lpMvCrU4AHvBacB8Owm9Lg/o.jpg", "is_closed": false, "url": "https://www.yelp.com/biz/min-chao-gourmet-hampden?adjust_creative=HdhkN5EEH6lAqE3kwhsHEQ&utm_campaign=yelp_api_v3&utm_medium=api_v3_business_search&utm_source=HdhkN5EEH6lAqE3kwhsHEQ", "review_count": 8, "categories": [{"alias": "chinese", "title": "Chinese"}], "rating": 3.0, "coordinates": {"latitude": 42.0588349, "longitude": -72.4407245}, "transactions": [], "price": "$", "location": {"address1": "5 Allen St", "address2": "", "address3": "", "city": "Hampden", "zip_code": "01036", "country": "US", "state": "MA", "display_address": ["5 Allen St", "Hampden, MA 01036"]}, "phone": "+14135668000", "display_phone": "(413) 566-8000", "distance": 2186.449864839776}, {"id": "QxF6lr-VXxvlxOPJizwBzQ", "alias": "reids-corner-hampden", "name": "Reid's Corner", "image_url": "https://s3-media1.fl.yelpcdn.com/bphoto/EJ_vb6ii52rkPdQCkS0h0g/o.jpg", "is_closed": false, "url": "https://www.yelp.com/biz/reids-corner-hampden?adjust_creative=HdhkN5EEH6lAqE3kwhsHEQ&utm_campaign=yelp_api_v3&utm_medium=api_v3_business_search&utm_source=HdhkN5EEH6lAqE3kwhsHEQ", "review_count": 33, "categories": [{"alias": "breakfast_brunch", "title": "Breakfast & Brunch"}], "rating": 4.5, "coordinates": {"latitude": 42.0586143, "longitude": -72.4423473}, "transactions": [], "price": "$", "location": {"address1": "20 E Longmeadow Rd", "address2": "", "address3": "", "city": "Hampden", "zip_code": "01036", "country": "US", "state": "MA", "display_address": ["20 E Longmeadow Rd", "Hampden, MA 01036"]}, "phone": "+14135668286", "display_phone": "(413) 566-8286", "distance": 2213.928638423488}, {"id": "mNNTXbRPA6xKsWAFEJekdA", "alias": "fazios-ristorante-and-pizzeria-east-longmeadow", "name": "Fazio's Ristorante & Pizzeria", "image_url": "https://s3-media4.fl.yelpcdn.com/bphoto/Xcm8qoaZFpxKGYAXiPNO2g/o.jpg", "is_closed": false, "url": "https://www.yelp.com/biz/fazios-ristorante-and-pizzeria-east-longmeadow?adjust_creative=HdhkN5EEH6lAqE3kwhsHEQ&utm_campaign=yelp_api_v3&utm_medium=api_v3_business_search&utm_source=HdhkN5EEH6lAqE3kwhsHEQ", "review_count": 57, "categories": [{"alias": "italian", "title": "Italian"}, {"alias": "pizza", "title": "Pizza"}], "rating": 3.5, "coordinates": {"latitude": 42.0574039, "longitude": -72.5172633}, "transactions": ["delivery"], "price": "$$", "location": {"address1": "162 Shaker Rd", "address2": "", "address3": "", "city": "East Longmeadow", "zip_code": "01028", "country": "US", "state": "MA", "display_address": ["162 Shaker Rd", "East Longmeadow, MA 01028"]}, "phone": "+14135252735", "display_phone": "(413) 525-2735", "distance": 8240.849038997387}, {"id": "hg9_mB-vLWnoJ7xRLqpnyg", "alias": "marios-cafe-ambiance-east-longmeadow", "name": "Mario's Cafe Ambiance", "image_url": "https://s3-media2.fl.yelpcdn.com/bphoto/LkdGgRVPttmR0lms_TK66A/o.jpg", "is_closed": false, "url": "https://www.yelp.com/biz/marios-cafe-ambiance-east-longmeadow?adjust_creative=HdhkN5EEH6lAqE3kwhsHEQ&utm_campaign=yelp_api_v3&utm_medium=api_v3_business_search&utm_source=HdhkN5EEH6lAqE3kwhsHEQ", "review_count": 28, "categories": [{"alias": "italian", "title": "Italian"}], "rating": 3.0, "coordinates": {"latitude": 42.06239, "longitude": -72.51375}, "transactions": ["delivery"], "price": "$$", "location": {"address1": "60 Shaker Rd", "address2": "", "address3": "", "city": "East Longmeadow", "zip_code": "01028", "country": "US", "state": "MA", "display_address": ["60 Shaker Rd", "East Longmeadow, MA 01028"]}, "phone": "+14132242295", "display_phone": "(413) 224-2295", "distance": 7868.337856717925}, {"id": "jB9DMn0GcWxchOJPEFvS3A", "alias": "galo-rei-springfield", "name": "Galo Rei", "image_url": "https://s3-media4.fl.yelpcdn.com/bphoto/qropt5cv4grc7v5h8FKMXA/o.jpg", "is_closed": false, "url": "https://www.yelp.com/biz/galo-rei-springfield?adjust_creative=HdhkN5EEH6lAqE3kwhsHEQ&utm_campaign=yelp_api_v3&utm_medium=api_v3_business_search&utm_source=HdhkN5EEH6lAqE3kwhsHEQ", "review_count": 24, "categories": [{"alias": "bbq", "title": "Barbeque"}, {"alias": "portuguese", "title": "Portuguese"}], "rating": 4.0, "coordinates": {"latitude": 42.1382959, "longitude": -72.5112822}, "transactions": [], "price": "$$", "location": {"address1": "995 Boston Rd", "address2": null, "address3": null, "city": "Springfield", "zip_code": "01119", "country": "US", "state": "MA", "display_address": ["995 Boston Rd", "Springfield, MA 01119"]}, "phone": "+14134552847", "display_phone": "(413) 455-2847", "distance": 10952.460713274433}, {"id": "XQvkLpEj6tKzRo2p1zrdUw", "alias": "pafumis-wilbraham", "name": "Pafumi's", "image_url": "https://s3-media1.fl.yelpcdn.com/bphoto/NTbDbP0GpMKEm_GxzD2JwA/o.jpg", "is_closed": false, "url": "https://www.yelp.com/biz/pafumis-wilbraham?adjust_creative=HdhkN5EEH6lAqE3kwhsHEQ&utm_campaign=yelp_api_v3&utm_medium=api_v3_business_search&utm_source=HdhkN5EEH6lAqE3kwhsHEQ", "review_count": 6, "categories": [{"alias": "pizza", "title": "Pizza"}, {"alias": "sandwiches", "title": "Sandwiches"}, {"alias": "salad", "title": "Salad"}], "rating": 3.5, "coordinates": {"latitude": 42.1218736043268, "longitude": -72.4297935060459}, "transactions": ["delivery"], "price": "$$", "location": {"address1": "1 Crane Park Dr", "address2": "", "address3": null, "city": "Wilbraham", "zip_code": "01095", "country": "US", "state": "MA", "display_address": ["1 Crane Park Dr", "Wilbraham, MA 01095"]}, "phone": "+14132793303", "display_phone": "(413) 279-3303", "distance": 6075.432600357333}, {"id": "IFFkEPwixhBQgg9IfCCobQ", "alias": "juicy-seafood-springfield", "name": "Juicy Seafood", "image_url": "https://s3-media4.fl.yelpcdn.com/bphoto/inUvguwXC1lZFMIecoKmfQ/o.jpg", "is_closed": false, "url": "https://www.yelp.com/biz/juicy-seafood-springfield?adjust_creative=HdhkN5EEH6lAqE3kwhsHEQ&utm_campaign=yelp_api_v3&utm_medium=api_v3_business_search&utm_source=HdhkN5EEH6lAqE3kwhsHEQ", "review_count": 49, "categories": [{"alias": "seafood", "title": "Seafood"}, {"alias": "cajun", "title": "Cajun/Creole"}], "rating": 3.5, "coordinates": {"latitude": 42.14188, "longitude": -72.497}, "transactions": ["delivery"], "price": "$$", "location": {"address1": "1404 Boston Rd", "address2": null, "address3": null, "city": "Springfield", "zip_code": "01119", "country": "US", "state": "MA", "display_address": ["1404 Boston Rd", "Springfield, MA 01119"]}, "phone": "+14132098297", "display_phone": "(413) 209-8297", "distance": 10508.166934485518}, {"id": "hax0L5Z8G-3EAQDsYOXdIw", "alias": "leones-restaurant-springfield", "name": "Leone's Restaurant", "image_url": "https://s3-media4.fl.yelpcdn.com/bphoto/AMwfIntc9inaowUByD9F6Q/o.jpg", "is_closed": false, "url": "https://www.yelp.com/biz/leones-restaurant-springfield?adjust_creative=HdhkN5EEH6lAqE3kwhsHEQ&utm_campaign=yelp_api_v3&utm_medium=api_v3_business_search&utm_source=HdhkN5EEH6lAqE3kwhsHEQ", "review_count": 81, "categories": [{"alias": "pizza", "title": "Pizza"}, {"alias": "italian", "title": "Italian"}], "rating": 3.5, "coordinates": {"latitude": 42.0950132390435, "longitude": -72.4990786515415}, "transactions": ["delivery"], "price": "$$", "location": {"address1": "320 Cooley St", "address2": "", "address3": "", "city": "Springfield", "zip_code": "01128", "country": "US", "state": "MA", "display_address": ["320 Cooley St", "Springfield, MA 01128"]}, "phone": "+14137834363", "display_phone": "(413) 783-4363", "distance": 7306.367090367106}, {"id": "nrLxUbJiQd6De_8yx7_jIQ", "alias": "crazy-arepas-springfield", "name": "Crazy Arepas", "image_url": "https://s3-media2.fl.yelpcdn.com/bphoto/xBRYNve2vxH1M1iG5Gm4lQ/o.jpg", "is_closed": false, "url": "https://www.yelp.com/biz/crazy-arepas-springfield?adjust_creative=HdhkN5EEH6lAqE3kwhsHEQ&utm_campaign=yelp_api_v3&utm_medium=api_v3_business_search&utm_source=HdhkN5EEH6lAqE3kwhsHEQ", "review_count": 3, "categories": [{"alias": "foodtrucks", "title": "Food Trucks"}, {"alias": "spanish", "title": "Spanish"}, {"alias": "tradamerican", "title": "American (Traditional)"}], "rating": 5.0, "coordinates": {"latitude": 42.1191, "longitude": -72.55044}, "transactions": [], "location": {"address1": null, "address2": null, "address3": null, "city": "Springfield", "zip_code": "01109", "country": "US", "state": "MA", "display_address": ["Springfield, MA 01109"]}, "phone": "+14138888083", "display_phone": "(413) 888-8083", "distance": 12508.64755675838}, {"id": "E1yNA7a2TehGpiM-QXE1-Q", "alias": "sabores-springfield", "name": "Sabores", "image_url": "https://s3-media4.fl.yelpcdn.com/bphoto/VbDaN_rPfxOpgKJNrro6Aw/o.jpg", "is_closed": false, "url": "https://www.yelp.com/biz/sabores-springfield?adjust_creative=HdhkN5EEH6lAqE3kwhsHEQ&utm_campaign=yelp_api_v3&utm_medium=api_v3_business_search&utm_source=HdhkN5EEH6lAqE3kwhsHEQ", "review_count": 21, "categories": [{"alias": "mexican", "title": "Mexican"}], "rating": 4.0, "coordinates": {"latitude": 42.09321, "longitude": -72.51024}, "transactions": ["delivery", "pickup"], "location": {"address1": "1490 Allen St", "address2": "", "address3": null, "city": "Springfield", "zip_code": "01118", "country": "US", "state": "MA", "display_address": ["1490 Allen St", "Springfield, MA 01118"]}, "phone": "+14133016307", "display_phone": "(413) 301-6307", "distance": 8162.7480318525395}, {"id": "n7HMrtLa4dNArFDKzmoDVQ", "alias": "frontera-grill-of-springfield-springfield", "name": "Frontera Grill Of Springfield", "image_url": "https://s3-media4.fl.yelpcdn.com/bphoto/R5GcTHKPgMYkX32zXKiwtw/o.jpg", "is_closed": false, "url": "https://www.yelp.com/biz/frontera-grill-of-springfield-springfield?adjust_creative=HdhkN5EEH6lAqE3kwhsHEQ&utm_campaign=yelp_api_v3&utm_medium=api_v3_business_search&utm_source=HdhkN5EEH6lAqE3kwhsHEQ", "review_count": 58, "categories": [{"alias": "mexican", "title": "Mexican"}, {"alias": "bars", "title": "Bars"}], "rating": 3.5, "coordinates": {"latitude": 42.1409001047393, "longitude": -72.4963237345219}, "transactions": ["delivery"], "location": {"address1": "1411 Boston Rd", "address2": "", "address3": null, "city": "Springfield", "zip_code": "01129", "country": "US", "state": "MA", "display_address": ["1411 Boston Rd", "Springfield, MA 01129"]}, "phone": "+14134552050", "display_phone": "(413) 455-2050", "distance": 10353.322265941637}, {"id": "jXG4MNGxp8-xia-1i4feQQ", "alias": "saray-turkish-restaurant-ii-springfield-2", "name": "Saray Turkish Restaurant II", "image_url": "https://s3-media4.fl.yelpcdn.com/bphoto/u90YBKkXrwHKu1ykYLH7Qw/o.jpg", "is_closed": false, "url": "https://www.yelp.com/biz/saray-turkish-restaurant-ii-springfield-2?adjust_creative=HdhkN5EEH6lAqE3kwhsHEQ&utm_campaign=yelp_api_v3&utm_medium=api_v3_business_search&utm_source=HdhkN5EEH6lAqE3kwhsHEQ", "review_count": 123, "categories": [{"alias": "turkish", "title": "Turkish"}, {"alias": "mideastern", "title": "Middle Eastern"}, {"alias": "seafood", "title": "Seafood"}], "rating": 4.5, "coordinates": {"latitude": 42.0940960228413, "longitude": -72.5144910705872}, "transactions": ["delivery", "pickup"], "price": "$$", "location": {"address1": "1374 Allen St", "address2": "", "address3": "", "city": "Springfield", "zip_code": "01118", "country": "US", "state": "MA", "display_address": ["1374 Allen St", "Springfield, MA 01118"]}, "phone": "+14137965505", "display_phone": "(413) 796-5505", "distance": 8445.483150808592}, {"id": "o3g3py94erorbByKE47i2g", "alias": "marias-pizzeria-and-seafood-monson", "name": "Maria's Pizzeria & Seafood", "image_url": "https://s3-media1.fl.yelpcdn.com/bphoto/RepwC3NKpAJLyYzPQqUCHA/o.jpg", "is_closed": false, "url": "https://www.yelp.com/biz/marias-pizzeria-and-seafood-monson?adjust_creative=HdhkN5EEH6lAqE3kwhsHEQ&utm_campaign=yelp_api_v3&utm_medium=api_v3_business_search&utm_source=HdhkN5EEH6lAqE3kwhsHEQ", "review_count": 16, "categories": [{"alias": "seafood", "title": "Seafood"}, {"alias": "pizza", "title": "Pizza"}], "rating": 4.5, "coordinates": {"latitude": 42.104267, "longitude": -72.317604}, "transactions": [], "price": "$$", "location": {"address1": "52 Main St", "address2": "", "address3": "", "city": "Monson", "zip_code": "01057", "country": "US", "state": "MA", "display_address": ["52 Main St", "Monson, MA 01057"]}, "phone": "+14132670111", "display_phone": "(413) 267-0111", "distance": 9252.742798978144}, {"id": "m1AUh5Enj2_8pIs1W2mGdQ", "alias": "palate-springfield", "name": "Palate", "image_url": "https://s3-media2.fl.yelpcdn.com/bphoto/48R9VlmZ-IxwFG46FvSBGQ/o.jpg", "is_closed": false, "url": "https://www.yelp.com/biz/palate-springfield?adjust_creative=HdhkN5EEH6lAqE3kwhsHEQ&utm_campaign=yelp_api_v3&utm_medium=api_v3_business_search&utm_source=HdhkN5EEH6lAqE3kwhsHEQ", "review_count": 51, "categories": [{"alias": "latin", "title": "Latin American"}], "rating": 4.0, "coordinates": {"latitude": 42.139824, "longitude": -72.505369}, "transactions": ["delivery"], "price": "$$", "location": {"address1": "1168 Boston Rd", "address2": "", "address3": "", "city": "Springfield", "zip_code": "01119", "country": "US", "state": "MA", "display_address": ["1168 Boston Rd", "Springfield, MA 01119"]}, "phone": "+14133632354", "display_phone": "(413) 363-2354", "distance": 10742.882112743962}, {"id": "XJC6C0bzkrqMxiO2b2xDZw", "alias": "ph-delicious-authentic-vietnamese-cuisine-east-longmeadow", "name": "Ph Delicious - Authentic Vietnamese Cuisine", "image_url": "https://s3-media2.fl.yelpcdn.com/bphoto/LHlghEZlg_7efpfDHSpLLg/o.jpg", "is_closed": false, "url": "https://www.yelp.com/biz/ph-delicious-authentic-vietnamese-cuisine-east-longmeadow?adjust_creative=HdhkN5EEH6lAqE3kwhsHEQ&utm_campaign=yelp_api_v3&utm_medium=api_v3_business_search&utm_source=HdhkN5EEH6lAqE3kwhsHEQ", "review_count": 27, "categories": [{"alias": "vietnamese", "title": "Vietnamese"}], "rating": 4.0, "coordinates": {"latitude": 42.06417, "longitude": -72.51393}, "transactions": [], "price": "$$", "location": {"address1": "14 Maple St", "address2": "", "address3": null, "city": "East Longmeadow", "zip_code": "01028", "country": "US", "state": "MA", "display_address": ["14 Maple St", "East Longmeadow, MA 01028"]}, "phone": "+14132242245", "display_phone": "(413) 224-2245", "distance": 7880.131137457152}, {"id": "9QxngSMOIiRLPvvdRaZXJg", "alias": "de-nardos-pizzeria-and-restaurant-east-longmeadow", "name": "De Nardo's Pizzeria & Restaurant", "image_url": "https://s3-media2.fl.yelpcdn.com/bphoto/Ie4bGC4Efs3COVLOwz88Sw/o.jpg", "is_closed": false, "url": "https://www.yelp.com/biz/de-nardos-pizzeria-and-restaurant-east-longmeadow?adjust_creative=HdhkN5EEH6lAqE3kwhsHEQ&utm_campaign=yelp_api_v3&utm_medium=api_v3_business_search&utm_source=HdhkN5EEH6lAqE3kwhsHEQ", "review_count": 21, "categories": [{"alias": "pizza", "title": "Pizza"}, {"alias": "italian", "title": "Italian"}], "rating": 3.5, "coordinates": {"latitude": 42.06411, "longitude": -72.51569}, "transactions": ["delivery"], "price": "$$", "location": {"address1": "39 Maple St", "address2": "", "address3": "", "city": "East Longmeadow", "zip_code": "01028", "country": "US", "state": "MA", "display_address": ["39 Maple St", "East Longmeadow, MA 01028"]}, "phone": "+14135253600", "display_phone": "(413) 525-3600", "distance": 8033.08048781209}, {"id": "A2E7BDtZHvlOfaraA3CTCQ", "alias": "frigo-foods-east-longmeadow", "name": "Frigo Foods", "image_url": "https://s3-media1.fl.yelpcdn.com/bphoto/FE2JxZXwtYaHOZ7s3K6Gbw/o.jpg", "is_closed": false, "url": "https://www.yelp.com/biz/frigo-foods-east-longmeadow?adjust_creative=HdhkN5EEH6lAqE3kwhsHEQ&utm_campaign=yelp_api_v3&utm_medium=api_v3_business_search&utm_source=HdhkN5EEH6lAqE3kwhsHEQ", "review_count": 48, "categories": [{"alias": "delis", "title": "Delis"}, {"alias": "sandwiches", "title": "Sandwiches"}, {"alias": "newamerican", "title": "American (New)"}], "rating": 4.0, "coordinates": {"latitude": 42.0579993, "longitude": -72.517425}, "transactions": ["delivery"], "price": "$", "location": {"address1": "159 Shaker Rd", "address2": null, "address3": null, "city": "East Longmeadow", "zip_code": "01028", "country": "US", "state": "MA", "display_address": ["159 Shaker Rd", "East Longmeadow, MA 01028"]}, "phone": "+14135259400", "display_phone": "(413) 525-9400", "distance": 8266.355565982609}, {"id": "5rVWRP3F9H7le5RAQEK0uQ", "alias": "coughlins-place-east-longmeadow", "name": "Coughlin's Place", "image_url": "https://s3-media2.fl.yelpcdn.com/bphoto/1-WkozvSLR_-8BpHwY9_LQ/o.jpg", "is_closed": false, "url": "https://www.yelp.com/biz/coughlins-place-east-longmeadow?adjust_creative=HdhkN5EEH6lAqE3kwhsHEQ&utm_campaign=yelp_api_v3&utm_medium=api_v3_business_search&utm_source=HdhkN5EEH6lAqE3kwhsHEQ", "review_count": 79, "categories": [{"alias": "breakfast_brunch", "title": "Breakfast & Brunch"}], "rating": 4.5, "coordinates": {"latitude": 42.07145, "longitude": -72.51796}, "transactions": ["delivery"], "price": "$", "location": {"address1": "182 N Main St", "address2": "", "address3": "", "city": "East Longmeadow", "zip_code": "01028", "country": "US", "state": "MA", "display_address": ["182 N Main St", "East Longmeadow, MA 01028"]}, "phone": "+14135251899", "display_phone": "(413) 525-1899", "distance": 8221.481465831252}, {"id": "j-0iCAjaBm3ARzFj2M-mLw", "alias": "fresh-acres-market-springfield", "name": "Fresh Acres Market", "image_url": "https://s3-media1.fl.yelpcdn.com/bphoto/V9SCK9INSpqaOzWbNd0Q9g/o.jpg", "is_closed": false, "url": "https://www.yelp.com/biz/fresh-acres-market-springfield?adjust_creative=HdhkN5EEH6lAqE3kwhsHEQ&utm_campaign=yelp_api_v3&utm_medium=api_v3_business_search&utm_source=HdhkN5EEH6lAqE3kwhsHEQ", "review_count": 36, "categories": [{"alias": "grocery", "title": "Grocery"}, {"alias": "seafood", "title": "Seafood"}, {"alias": "delis", "title": "Delis"}], "rating": 4.0, "coordinates": {"latitude": 42.1138897, "longitude": -72.4971424}, "transactions": [], "price": "$$", "location": {"address1": "1941 Wilbraham Rd", "address2": null, "address3": null, "city": "Springfield", "zip_code": "01129", "country": "US", "state": "MA", "display_address": ["1941 Wilbraham Rd", "Springfield, MA 01129"]}, "phone": "+14137839141", "display_phone": "(413) 783-9141", "distance": 8266.562360324046}, {"id": "EZTbio4sz6fUPIvixiRxfA", "alias": "bentleys-bistro-east-longmeadow", "name": "Bentley's Bistro", "image_url": "https://s3-media3.fl.yelpcdn.com/bphoto/6THiRmv6YNAgT9g2nUPUyQ/o.jpg", "is_closed": false, "url": "https://www.yelp.com/biz/bentleys-bistro-east-longmeadow?adjust_creative=HdhkN5EEH6lAqE3kwhsHEQ&utm_campaign=yelp_api_v3&utm_medium=api_v3_business_search&utm_source=HdhkN5EEH6lAqE3kwhsHEQ", "review_count": 86, "categories": [{"alias": "newamerican", "title": "American (New)"}, {"alias": "bars", "title": "Bars"}], "rating": 3.0, "coordinates": {"latitude": 42.06691, "longitude": -72.5135899}, "transactions": [], "price": "$$", "location": {"address1": "53 N Main St", "address2": "", "address3": "", "city": "East Longmeadow", "zip_code": "01028", "country": "US", "state": "MA", "display_address": ["53 N Main St", "East Longmeadow, MA 01028"]}, "phone": "+14135257777", "display_phone": "(413) 525-7777", "distance": 7855.092316212864}, {"id": "_rFWs84CLzUfjcrvN9lYbQ", "alias": "el-morro-springfield", "name": "El Morro", "image_url": "https://s3-media2.fl.yelpcdn.com/bphoto/PMJ9l1zfSSIiq5h7qcXhZQ/o.jpg", "is_closed": false, "url": "https://www.yelp.com/biz/el-morro-springfield?adjust_creative=HdhkN5EEH6lAqE3kwhsHEQ&utm_campaign=yelp_api_v3&utm_medium=api_v3_business_search&utm_source=HdhkN5EEH6lAqE3kwhsHEQ", "review_count": 4, "categories": [{"alias": "desserts", "title": "Desserts"}, {"alias": "salad", "title": "Salad"}, {"alias": "latin", "title": "Latin American"}], "rating": 3.5, "coordinates": {"latitude": 42.1402489618456, "longitude": -72.498977958315}, "transactions": [], "location": {"address1": "1333 Boston Rd", "address2": "", "address3": null, "city": "Springfield", "zip_code": "01119", "country": "US", "state": "MA", "display_address": ["1333 Boston Rd", "Springfield, MA 01119"]}, "phone": "+14133639086", "display_phone": "(413) 363-9086", "distance": 10434.706942393135}, {"id": "jXamKqdG9BeRc2LrgagKiw", "alias": "village-store-and-cafe-wilbraham", "name": "Village Store & Cafe", "image_url": "https://s3-media4.fl.yelpcdn.com/bphoto/8-LuwXkdwBTVOqFcHQIarQ/o.jpg", "is_closed": false, "url": "https://www.yelp.com/biz/village-store-and-cafe-wilbraham?adjust_creative=HdhkN5EEH6lAqE3kwhsHEQ&utm_campaign=yelp_api_v3&utm_medium=api_v3_business_search&utm_source=HdhkN5EEH6lAqE3kwhsHEQ", "review_count": 28, "categories": [{"alias": "cafes", "title": "Cafes"}, {"alias": "salad", "title": "Salad"}, {"alias": "sandwiches", "title": "Sandwiches"}], "rating": 4.0, "coordinates": {"latitude": 42.12259, "longitude": -72.4309}, "transactions": ["delivery"], "price": "$", "location": {"address1": "462 Main St", "address2": "", "address3": "", "city": "Wilbraham", "zip_code": "01095", "country": "US", "state": "MA", "display_address": ["462 Main St", "Wilbraham, MA 01095"]}, "phone": "+14135963300", "display_phone": "(413) 596-3300", "distance": 6172.676443858437}, {"id": "wK0jzyEit29bpeWqFhQvTQ", "alias": "peacock-chinese-restaurant-springfield", "name": "Peacock Chinese Restaurant", "image_url": "https://s3-media1.fl.yelpcdn.com/bphoto/XgdVnNd5hpOQtQdFlKM2zQ/o.jpg", "is_closed": false, "url": "https://www.yelp.com/biz/peacock-chinese-restaurant-springfield?adjust_creative=HdhkN5EEH6lAqE3kwhsHEQ&utm_campaign=yelp_api_v3&utm_medium=api_v3_business_search&utm_source=HdhkN5EEH6lAqE3kwhsHEQ", "review_count": 47, "categories": [{"alias": "chinese", "title": "Chinese"}, {"alias": "soup", "title": "Soup"}], "rating": 3.5, "coordinates": {"latitude": 42.094299, "longitude": -72.4989373}, "transactions": ["delivery"], "price": "$$", "location": {"address1": "338 Cooley St", "address2": "", "address3": "", "city": "Springfield", "zip_code": "01128", "country": "US", "state": "MA", "display_address": ["338 Cooley St", "Springfield, MA 01128"]}, "phone": "+14137839996", "display_phone": "(413) 783-9996", "distance": 7471.169702071212}, {"id": "6H_PdeeEiI9b4VJ2f18Ctg", "alias": "christophers-tavern-springfield-2", "name": "Christopher's Tavern", "image_url": "https://s3-media1.fl.yelpcdn.com/bphoto/XYXHnReKL-4I3qun_UvitQ/o.jpg", "is_closed": false, "url": "https://www.yelp.com/biz/christophers-tavern-springfield-2?adjust_creative=HdhkN5EEH6lAqE3kwhsHEQ&utm_campaign=yelp_api_v3&utm_medium=api_v3_business_search&utm_source=HdhkN5EEH6lAqE3kwhsHEQ", "review_count": 72, "categories": [{"alias": "sportsbars", "title": "Sports Bars"}, {"alias": "tradamerican", "title": "American (Traditional)"}, {"alias": "salad", "title": "Salad"}], "rating": 2.5, "coordinates": {"latitude": 42.0945954327243, "longitude": -72.5014025055573}, "transactions": ["delivery", "pickup"], "price": "$$", "location": {"address1": "360 Cooley St", "address2": "", "address3": "", "city": "Springfield", "zip_code": "01128", "country": "US", "state": "MA", "display_address": ["360 Cooley St", "Springfield, MA 01128"]}, "phone": "+14133630650", "display_phone": "(413) 363-0650", "distance": 7462.878928310274}, {"id": "2jWPG3T4w4DdbUD_ffg5Pw", "alias": "mykonos-ii-springfield", "name": "Mykonos II", "image_url": "https://s3-media1.fl.yelpcdn.com/bphoto/L1T5k6HjBHm2s7RsFu0MhA/o.jpg", "is_closed": false, "url": "https://www.yelp.com/biz/mykonos-ii-springfield?adjust_creative=HdhkN5EEH6lAqE3kwhsHEQ&utm_campaign=yelp_api_v3&utm_medium=api_v3_business_search&utm_source=HdhkN5EEH6lAqE3kwhsHEQ", "review_count": 6, "categories": [{"alias": "mediterranean", "title": "Mediterranean"}], "rating": 4.5, "coordinates": {"latitude": 42.1407585, "longitude": -72.4864426}, "transactions": ["delivery"], "price": "$", "location": {"address1": "1655 Boston Rd", "address2": "", "address3": "", "city": "Springfield", "zip_code": "01129", "country": "US", "state": "MA", "display_address": ["1655 Boston Rd", "Springfield, MA 01129"]}, "phone": "+14135433675", "display_phone": "(413) 543-3675", "distance": 9813.617617196522}, {"id": "SFZqYfQqWbR4P78-8uP2nQ", "alias": "donovans-irish-pub-springfield", "name": "Donovan's Irish Pub", "image_url": "https://s3-media3.fl.yelpcdn.com/bphoto/qzZ0mXPPG9neD_VsI5rsUQ/o.jpg", "is_closed": false, "url": "https://www.yelp.com/biz/donovans-irish-pub-springfield?adjust_creative=HdhkN5EEH6lAqE3kwhsHEQ&utm_campaign=yelp_api_v3&utm_medium=api_v3_business_search&utm_source=HdhkN5EEH6lAqE3kwhsHEQ", "review_count": 19, "categories": [{"alias": "irish", "title": "Irish"}, {"alias": "irish_pubs", "title": "Irish Pub"}], "rating": 4.0, "coordinates": {"latitude": 42.141569, "longitude": -72.48702}, "transactions": ["delivery"], "price": "$$", "location": {"address1": "1655 Boston Rd", "address2": "", "address3": "", "city": "Springfield", "zip_code": "01129", "country": "US", "state": "MA", "display_address": ["1655 Boston Rd", "Springfield, MA 01129"]}, "phone": "+14135430791", "display_phone": "(413) 543-0791", "distance": 9956.414215254812}, {"id": "616-oQCamCRDa5JhXQnBuw", "alias": "cantina-curbside-grill-springfield", "name": "Cantina Curbside Grill", "image_url": "https://s3-media3.fl.yelpcdn.com/bphoto/DmWL1gUNkbEH9PdiO9Or9g/o.jpg", "is_closed": false, "url": "https://www.yelp.com/biz/cantina-curbside-grill-springfield?adjust_creative=HdhkN5EEH6lAqE3kwhsHEQ&utm_campaign=yelp_api_v3&utm_medium=api_v3_business_search&utm_source=HdhkN5EEH6lAqE3kwhsHEQ", "review_count": 1, "categories": [{"alias": "latin", "title": "Latin American"}, {"alias": "foodtrucks", "title": "Food Trucks"}], "rating": 5.0, "coordinates": {"latitude": 42.1011632858, "longitude": -72.5874854261}, "transactions": [], "location": {"address1": null, "address2": null, "address3": null, "city": "Springfield", "zip_code": "01103", "country": "US", "state": "MA", "display_address": ["Springfield, MA 01103"]}, "phone": "+14134262604", "display_phone": "(413) 426-2604", "distance": 14432.469686599066}, {"id": "Ekrf4syMooqKVyXJoAeP0Q", "alias": "parker-pizza-springfield", "name": "Parker Pizza", "image_url": "https://s3-media2.fl.yelpcdn.com/bphoto/hMRGhEG0W0piowz3Wq3plQ/o.jpg", "is_closed": false, "url": "https://www.yelp.com/biz/parker-pizza-springfield?adjust_creative=HdhkN5EEH6lAqE3kwhsHEQ&utm_campaign=yelp_api_v3&utm_medium=api_v3_business_search&utm_source=HdhkN5EEH6lAqE3kwhsHEQ", "review_count": 16, "categories": [{"alias": "pizza", "title": "Pizza"}, {"alias": "italian", "title": "Italian"}], "rating": 4.0, "coordinates": {"latitude": 42.1165321, "longitude": -72.499016}, "transactions": ["delivery", "pickup"], "price": "$$", "location": {"address1": "1192 Parker St", "address2": "", "address3": "", "city": "Springfield", "zip_code": "01129", "country": "US", "state": "MA", "display_address": ["1192 Parker St", "Springfield, MA 01129"]}, "phone": "+14137961111", "display_phone": "(413) 796-1111", "distance": 8587.515792292932}, {"id": "hJNHtqIAC6zNgGL9F1j8vg", "alias": "subway-restaurants-hampden-2", "name": "Subway Restaurants", "image_url": "https://s3-media4.fl.yelpcdn.com/bphoto/h_T3FoX26v97rIV8WWVa0Q/o.jpg", "is_closed": false, "url": "https://www.yelp.com/biz/subway-restaurants-hampden-2?adjust_creative=HdhkN5EEH6lAqE3kwhsHEQ&utm_campaign=yelp_api_v3&utm_medium=api_v3_business_search&utm_source=HdhkN5EEH6lAqE3kwhsHEQ", "review_count": 1, "categories": [{"alias": "sandwiches", "title": "Sandwiches"}], "rating": 3.0, "coordinates": {"latitude": 42.0588294405936, "longitude": -72.4403942219859}, "transactions": [], "price": "$", "location": {"address1": "4 Allen St", "address2": "", "address3": "", "city": "Hampden", "zip_code": "01036", "country": "US", "state": "MA", "display_address": ["4 Allen St", "Hampden, MA 01036"]}, "phone": "+14135663055", "display_phone": "(413) 566-3055", "distance": 2196.8585228867755}, {"id": "qp3oeJHdIEq--wmA9_Psag", "alias": "main-garden-springfield", "name": "Main Garden", "image_url": "https://s3-media4.fl.yelpcdn.com/bphoto/alXymuihtU0Lac3gUtTF6g/o.jpg", "is_closed": false, "url": "https://www.yelp.com/biz/main-garden-springfield?adjust_creative=HdhkN5EEH6lAqE3kwhsHEQ&utm_campaign=yelp_api_v3&utm_medium=api_v3_business_search&utm_source=HdhkN5EEH6lAqE3kwhsHEQ", "review_count": 18, "categories": [{"alias": "chinese", "title": "Chinese"}], "rating": 3.5, "coordinates": {"latitude": 42.1141541537004, "longitude": -72.4978381619713}, "transactions": ["delivery"], "price": "$", "location": {"address1": "1911 Wilbraham Rd", "address2": "", "address3": "", "city": "Springfield", "zip_code": "01129", "country": "US", "state": "MA", "display_address": ["1911 Wilbraham Rd", "Springfield, MA 01129"]}, "phone": "+14137821013", "display_phone": "(413) 782-1013", "distance": 8329.857194973447}, {"id": "jz-t1jQYPEeJ7ROvcn960A", "alias": "moes-southwest-grill-springfield-5", "name": "Moe's Southwest Grill", "image_url": "https://s3-media2.fl.yelpcdn.com/bphoto/QKVKxY4SYH61f0fu6TxF_w/o.jpg", "is_closed": false, "url": "https://www.yelp.com/biz/moes-southwest-grill-springfield-5?adjust_creative=HdhkN5EEH6lAqE3kwhsHEQ&utm_campaign=yelp_api_v3&utm_medium=api_v3_business_search&utm_source=HdhkN5EEH6lAqE3kwhsHEQ", "review_count": 3, "categories": [{"alias": "tex-mex", "title": "Tex-Mex"}, {"alias": "mexican", "title": "Mexican"}], "rating": 3.0, "coordinates": {"latitude": 42.14131, "longitude": -72.50057}, "transactions": [], "location": {"address1": "1300 Boston Rd", "address2": null, "address3": null, "city": "Springfield", "zip_code": "01119", "country": "US", "state": "MA", "display_address": ["1300 Boston Rd", "Springfield, MA 01119"]}, "phone": "+14133631397", "display_phone": "(413) 363-1397", "distance": 10610.148480138634}, {"id": "d1_kG_CUok5Zd26OaVP5tA", "alias": "pizza-shoppe-east-longmeadow", "name": "Pizza Shoppe", "image_url": "https://s3-media2.fl.yelpcdn.com/bphoto/XNtG_pjCTvWSzz-dszBq2w/o.jpg", "is_closed": false, "url": "https://www.yelp.com/biz/pizza-shoppe-east-longmeadow?adjust_creative=HdhkN5EEH6lAqE3kwhsHEQ&utm_campaign=yelp_api_v3&utm_medium=api_v3_business_search&utm_source=HdhkN5EEH6lAqE3kwhsHEQ", "review_count": 66, "categories": [{"alias": "pizza", "title": "Pizza"}], "rating": 3.0, "coordinates": {"latitude": 42.0587958, "longitude": -72.5163018}, "transactions": ["delivery"], "price": "$$", "location": {"address1": "134 Shaker Rd", "address2": "", "address3": "", "city": "East Longmeadow", "zip_code": "01028", "country": "US", "state": "MA", "display_address": ["134 Shaker Rd", "East Longmeadow, MA 01028"]}, "phone": "+14135252470", "display_phone": "(413) 525-2470", "distance": 8113.936699683261}, {"id": "uptJi3HQFB89PuLLVaDEpQ", "alias": "koffee-tyme-east-longmeadow", "name": "Koffee Tyme", "image_url": "https://s3-media3.fl.yelpcdn.com/bphoto/bYvajo-9u156spJgafXYiw/o.jpg", "is_closed": false, "url": "https://www.yelp.com/biz/koffee-tyme-east-longmeadow?adjust_creative=HdhkN5EEH6lAqE3kwhsHEQ&utm_campaign=yelp_api_v3&utm_medium=api_v3_business_search&utm_source=HdhkN5EEH6lAqE3kwhsHEQ", "review_count": 14, "categories": [{"alias": "breakfast_brunch", "title": "Breakfast & Brunch"}], "rating": 4.5, "coordinates": {"latitude": 42.063139, "longitude": -72.513617}, "transactions": [], "price": "$", "location": {"address1": "46 Shaker Rd", "address2": "", "address3": "", "city": "East Longmeadow", "zip_code": "01028", "country": "US", "state": "MA", "display_address": ["46 Shaker Rd", "East Longmeadow, MA 01028"]}, "phone": "+14135258394", "display_phone": "(413) 525-8394", "distance": 7873.150275013504}, {"id": "ZgBGVR0jmg9IyP6_qx-wlw", "alias": "texas-roadhouse-springfield-6", "name": "Texas Roadhouse", "image_url": "https://s3-media2.fl.yelpcdn.com/bphoto/vCqGIeQz_S1jYQgd7UXaZA/o.jpg", "is_closed": false, "url": "https://www.yelp.com/biz/texas-roadhouse-springfield-6?adjust_creative=HdhkN5EEH6lAqE3kwhsHEQ&utm_campaign=yelp_api_v3&utm_medium=api_v3_business_search&utm_source=HdhkN5EEH6lAqE3kwhsHEQ", "review_count": 73, "categories": [{"alias": "steak", "title": "Steakhouses"}, {"alias": "bbq", "title": "Barbeque"}], "rating": 3.5, "coordinates": {"latitude": 42.094153, "longitude": -72.499439}, "transactions": [], "price": "$$", "location": {"address1": "12 Mall St", "address2": "", "address3": "", "city": "Springfield", "zip_code": "01128", "country": "US", "state": "MA", "display_address": ["12 Mall St", "Springfield, MA 01128"]}, "phone": "+14137828100", "display_phone": "(413) 782-8100", "distance": 7294.686684361384}, {"id": "bpSvLt1XMLAY7tEhfCMapQ", "alias": "tokyo-asian-fusion-springfield", "name": "Tokyo Asian Fusion", "image_url": "https://s3-media4.fl.yelpcdn.com/bphoto/iE1jv1U8FY-Eu4m38xU80A/o.jpg", "is_closed": false, "url": "https://www.yelp.com/biz/tokyo-asian-fusion-springfield?adjust_creative=HdhkN5EEH6lAqE3kwhsHEQ&utm_campaign=yelp_api_v3&utm_medium=api_v3_business_search&utm_source=HdhkN5EEH6lAqE3kwhsHEQ", "review_count": 81, "categories": [{"alias": "asianfusion", "title": "Asian Fusion"}, {"alias": "sushi", "title": "Sushi Bars"}, {"alias": "japanese", "title": "Japanese"}], "rating": 3.0, "coordinates": {"latitude": 42.09184, "longitude": -72.4987}, "transactions": ["delivery", "pickup"], "price": "$$", "location": {"address1": "415 Cooley St", "address2": null, "address3": "", "city": "Springfield", "zip_code": "01128", "country": "US", "state": "MA", "display_address": ["415 Cooley St", "Springfield, MA 01128"]}, "phone": "+14137823333", "display_phone": "(413) 782-3333", "distance": 7108.179259947446}, {"id": "IU0QtamwIWFCbCUmrwbV2w", "alias": "pops-pizza-hampden", "name": "Pop's Pizza", "image_url": "", "is_closed": false, "url": "https://www.yelp.com/biz/pops-pizza-hampden?adjust_creative=HdhkN5EEH6lAqE3kwhsHEQ&utm_campaign=yelp_api_v3&utm_medium=api_v3_business_search&utm_source=HdhkN5EEH6lAqE3kwhsHEQ", "review_count": 1, "categories": [{"alias": "pizza", "title": "Pizza"}], "rating": 1.0, "coordinates": {"latitude": 42.0591022255081, "longitude": -72.4409108014087}, "transactions": [], "location": {"address1": "9 Allen St", "address2": "", "address3": "", "city": "Hampden", "zip_code": "01036", "country": "US", "state": "MA", "display_address": ["9 Allen St", "Hampden, MA 01036"]}, "phone": "+14135668015", "display_phone": "(413) 566-8015", "distance": 2156.9274509257984}, {"id": "_LnsCTAhf3zrteMxR2Traw", "alias": "pizza-makers-springfield", "name": "Pizza Makers", "image_url": "https://s3-media1.fl.yelpcdn.com/bphoto/Is8O5Q22vPlO7DpO4CCqHA/o.jpg", "is_closed": false, "url": "https://www.yelp.com/biz/pizza-makers-springfield?adjust_creative=HdhkN5EEH6lAqE3kwhsHEQ&utm_campaign=yelp_api_v3&utm_medium=api_v3_business_search&utm_source=HdhkN5EEH6lAqE3kwhsHEQ", "review_count": 23, "categories": [{"alias": "pizza", "title": "Pizza"}], "rating": 2.5, "coordinates": {"latitude": 42.09039, "longitude": -72.49984}, "transactions": [], "price": "$$", "location": {"address1": "1826 Allen St", "address2": "", "address3": "", "city": "Springfield", "zip_code": "01118", "country": "US", "state": "MA", "display_address": ["1826 Allen St", "Springfield, MA 01118"]}, "phone": "+14137836126", "display_phone": "(413) 783-6126", "distance": 7166.278584470456}, {"id": "r0Fb7VbDN2NXc23dhAE8OQ", "alias": "subway-east-longmeadow-3", "name": "Subway", "image_url": "https://s3-media1.fl.yelpcdn.com/bphoto/v92DM3Ehbdt4OWX5L3_NnQ/o.jpg", "is_closed": false, "url": "https://www.yelp.com/biz/subway-east-longmeadow-3?adjust_creative=HdhkN5EEH6lAqE3kwhsHEQ&utm_campaign=yelp_api_v3&utm_medium=api_v3_business_search&utm_source=HdhkN5EEH6lAqE3kwhsHEQ", "review_count": 2, "categories": [{"alias": "sandwiches", "title": "Sandwiches"}], "rating": 3.0, "coordinates": {"latitude": 42.0639089088259, "longitude": -72.5133884}, "transactions": ["delivery", "pickup"], "price": "$", "location": {"address1": "24 Shaker Rd", "address2": "", "address3": "", "city": "East Longmeadow", "zip_code": "01028", "country": "US", "state": "MA", "display_address": ["24 Shaker Rd", "East Longmeadow, MA 01028"]}, "phone": "+14135258189", "display_phone": "(413) 525-8189", "distance": 7850.159542398644}, {"id": "ew2tljzEvKuC1KHWoQrNIQ", "alias": "99-restaurants-springfield-2", "name": "99 Restaurants", "image_url": "https://s3-media3.fl.yelpcdn.com/bphoto/fEz3mGSX2K9PpsbbT6iFCg/o.jpg", "is_closed": false, "url": "https://www.yelp.com/biz/99-restaurants-springfield-2?adjust_creative=HdhkN5EEH6lAqE3kwhsHEQ&utm_campaign=yelp_api_v3&utm_medium=api_v3_business_search&utm_source=HdhkN5EEH6lAqE3kwhsHEQ", "review_count": 14, "categories": [{"alias": "pubs", "title": "Pubs"}, {"alias": "tradamerican", "title": "American (Traditional)"}, {"alias": "desserts", "title": "Desserts"}], "rating": 3.5, "coordinates": {"latitude": 42.14139, "longitude": -72.487551}, "transactions": [], "price": "$$", "location": {"address1": "1655 Boston Rd", "address2": "", "address3": "Eastfield Mall", "city": "Springfield", "zip_code": "01129", "country": "US", "state": "MA", "display_address": ["1655 Boston Rd", "Eastfield Mall", "Springfield, MA 01129"]}, "phone": "+14132738999", "display_phone": "(413) 273-8999", "distance": 9965.045160578075}, {"id": "DPOSF_hwd_0G_Q60dLvxMg", "alias": "5-star-supermarket-springfield", "name": "5 Star Supermarket", "image_url": "https://s3-media3.fl.yelpcdn.com/bphoto/4NSVmtXcjyFMB1H0QXEldA/o.jpg", "is_closed": false, "url": "https://www.yelp.com/biz/5-star-supermarket-springfield?adjust_creative=HdhkN5EEH6lAqE3kwhsHEQ&utm_campaign=yelp_api_v3&utm_medium=api_v3_business_search&utm_source=HdhkN5EEH6lAqE3kwhsHEQ", "review_count": 13, "categories": [{"alias": "grocery", "title": "Grocery"}, {"alias": "delis", "title": "Delis"}, {"alias": "seafood", "title": "Seafood"}], "rating": 4.5, "coordinates": {"latitude": 42.1369964, "longitude": -72.5190457}, "transactions": [], "price": "$$", "location": {"address1": "780 Boston Rd", "address2": "", "address3": null, "city": "Springfield", "zip_code": "01119", "country": "US", "state": "MA", "display_address": ["780 Boston Rd", "Springfield, MA 01119"]}, "phone": "+14137828888", "display_phone": "(413) 782-8888", "distance": 11393.354982211924}, {"id": "12wcHCFE4KtkXdyV8EWXvg", "alias": "brunos-pizza-16-acres-springfield", "name": "Bruno's Pizza 16 Acres", "image_url": "https://s3-media2.fl.yelpcdn.com/bphoto/W7eIrC_H-XbuBKVAUAGKxQ/o.jpg", "is_closed": false, "url": "https://www.yelp.com/biz/brunos-pizza-16-acres-springfield?adjust_creative=HdhkN5EEH6lAqE3kwhsHEQ&utm_campaign=yelp_api_v3&utm_medium=api_v3_business_search&utm_source=HdhkN5EEH6lAqE3kwhsHEQ", "review_count": 15, "categories": [{"alias": "pizza", "title": "Pizza"}], "rating": 3.5, "coordinates": {"latitude": 42.116081237793, "longitude": -72.4995956420898}, "transactions": ["delivery"], "price": "$$", "location": {"address1": "1810 Wilbraham Rd", "address2": "", "address3": "", "city": "Springfield", "zip_code": "01119", "country": "US", "state": "MA", "display_address": ["1810 Wilbraham Rd", "Springfield, MA 01119"]}, "phone": "+14137833333", "display_phone": "(413) 783-3333", "distance": 8581.868253771867}, {"id": "UXVfq9o1KLkovYLSsdEu-A", "alias": "d-angelo-springfield", "name": "D'Angelo", "image_url": "https://s3-media2.fl.yelpcdn.com/bphoto/9FrSuusH8JKLzQm8wJEggA/o.jpg", "is_closed": false, "url": "https://www.yelp.com/biz/d-angelo-springfield?adjust_creative=HdhkN5EEH6lAqE3kwhsHEQ&utm_campaign=yelp_api_v3&utm_medium=api_v3_business_search&utm_source=HdhkN5EEH6lAqE3kwhsHEQ", "review_count": 1, "categories": [{"alias": "sandwiches", "title": "Sandwiches"}], "rating": 4.0, "coordinates": {"latitude": 42.14115, "longitude": -72.4943399}, "transactions": ["delivery"], "price": "$", "location": {"address1": "1465 Boston Rd", "address2": "", "address3": "", "city": "Springfield", "zip_code": "01129", "country": "US", "state": "MA", "display_address": ["1465 Boston Rd", "Springfield, MA 01129"]}, "phone": "+14135435278", "display_phone": "(413) 543-5278", "distance": 10275.026090002584}, {"id": "wP59E3G0irF-vqpKGMH_BA", "alias": "chipotle-mexican-grill-east-longmeadow", "name": "Chipotle Mexican Grill", "image_url": "https://s3-media1.fl.yelpcdn.com/bphoto/z9KMX5FCgaLXdKbI0H1dKQ/o.jpg", "is_closed": false, "url": "https://www.yelp.com/biz/chipotle-mexican-grill-east-longmeadow?adjust_creative=HdhkN5EEH6lAqE3kwhsHEQ&utm_campaign=yelp_api_v3&utm_medium=api_v3_business_search&utm_source=HdhkN5EEH6lAqE3kwhsHEQ", "review_count": 4, "categories": [{"alias": "hotdogs", "title": "Fast Food"}, {"alias": "mexican", "title": "Mexican"}], "rating": 3.0, "coordinates": {"latitude": 42.06512, "longitude": -72.515104}, "transactions": ["delivery"], "price": "$", "location": {"address1": "42 Center Sq", "address2": null, "address3": null, "city": "East Longmeadow", "zip_code": "01028", "country": "US", "state": "MA", "display_address": ["42 Center Sq", "East Longmeadow, MA 01028"]}, "phone": "+14135251059", "display_phone": "(413) 525-1059", "distance": 7985.156181481443}, {"id": "hj6VHG-Lko8RcrlIQjhbOw", "alias": "burger-king-springfield-36", "name": "Burger King", "image_url": "https://s3-media1.fl.yelpcdn.com/bphoto/oEyyrIrfji5UtRIx0SEDIw/o.jpg", "is_closed": false, "url": "https://www.yelp.com/biz/burger-king-springfield-36?adjust_creative=HdhkN5EEH6lAqE3kwhsHEQ&utm_campaign=yelp_api_v3&utm_medium=api_v3_business_search&utm_source=HdhkN5EEH6lAqE3kwhsHEQ", "review_count": 1, "categories": [{"alias": "burgers", "title": "Burgers"}, {"alias": "hotdogs", "title": "Fast Food"}], "rating": 2.0, "coordinates": {"latitude": 42.136097, "longitude": -72.520361}, "transactions": ["delivery"], "location": {"address1": "727 Boston Rd", "address2": null, "address3": null, "city": "Springfield", "zip_code": "01119", "country": "US", "state": "MA", "display_address": ["727 Boston Rd", "Springfield, MA 01119"]}, "phone": "", "display_phone": "", "distance": 11324.776536704045}, {"id": "03JlUap-Awz7BCewJ1zWZQ", "alias": "kfc-springfield-25", "name": "KFC", "image_url": "https://s3-media3.fl.yelpcdn.com/bphoto/6D1ljwZgXPfFrRHzYMZ8TA/o.jpg", "is_closed": false, "url": "https://www.yelp.com/biz/kfc-springfield-25?adjust_creative=HdhkN5EEH6lAqE3kwhsHEQ&utm_campaign=yelp_api_v3&utm_medium=api_v3_business_search&utm_source=HdhkN5EEH6lAqE3kwhsHEQ", "review_count": 1, "categories": [{"alias": "chickenshop", "title": "Chicken Shop"}, {"alias": "hotdogs", "title": "Fast Food"}, {"alias": "chicken_wings", "title": "Chicken Wings"}], "rating": 1.0, "coordinates": {"latitude": 42.1411035, "longitude": -72.4997394}, "transactions": ["delivery", "pickup"], "location": {"address1": "1324 Boston Rd", "address2": null, "address3": null, "city": "Springfield", "zip_code": "01129", "country": "US", "state": "MA", "display_address": ["1324 Boston Rd", "Springfield, MA 01129"]}, "phone": "+14133425184", "display_phone": "(413) 342-5184", "distance": 10547.951858373095}, {"id": "v4sRuHrAxqilOZ-mD1xn9A", "alias": "big-daddys-ice-cream-and-hot-dogs-springfield", "name": "Big Daddy's Ice Cream & Hot Dogs", "image_url": "https://s3-media1.fl.yelpcdn.com/bphoto/4512-qHGMdEn43Ipk2yTQg/o.jpg", "is_closed": false, "url": "https://www.yelp.com/biz/big-daddys-ice-cream-and-hot-dogs-springfield?adjust_creative=HdhkN5EEH6lAqE3kwhsHEQ&utm_campaign=yelp_api_v3&utm_medium=api_v3_business_search&utm_source=HdhkN5EEH6lAqE3kwhsHEQ", "review_count": 11, "categories": [{"alias": "icecream", "title": "Ice Cream & Frozen Yogurt"}, {"alias": "hotdog", "title": "Hot Dogs"}], "rating": 3.0, "coordinates": {"latitude": 42.13781, "longitude": -72.51256}, "transactions": ["delivery"], "price": "$", "location": {"address1": "955 Boston Rd", "address2": "", "address3": "", "city": "Springfield", "zip_code": "01119", "country": "US", "state": "MA", "display_address": ["955 Boston Rd", "Springfield, MA 01119"]}, "phone": "+14137836300", "display_phone": "(413) 783-6300", "distance": 10983.854541200768}, {"id": "1e7CYOm8lBUHph7O03iANA", "alias": "taco-bell-springfield-43", "name": "Taco Bell", "image_url": "https://s3-media1.fl.yelpcdn.com/bphoto/Mp714EE5MOb9fy_S4Eq6wQ/o.jpg", "is_closed": false, "url": "https://www.yelp.com/biz/taco-bell-springfield-43?adjust_creative=HdhkN5EEH6lAqE3kwhsHEQ&utm_campaign=yelp_api_v3&utm_medium=api_v3_business_search&utm_source=HdhkN5EEH6lAqE3kwhsHEQ", "review_count": 9, "categories": [{"alias": "hotdogs", "title": "Fast Food"}, {"alias": "tacos", "title": "Tacos"}], "rating": 3.5, "coordinates": {"latitude": 42.14106, "longitude": -72.50295}, "transactions": ["delivery"], "price": "$", "location": {"address1": "1264 Boston Road", "address2": "", "address3": "", "city": "Springfield", "zip_code": "01119", "country": "US", "state": "MA", "display_address": ["1264 Boston Road", "Springfield, MA 01119"]}, "phone": "+14134269636", "display_phone": "(413) 426-9636", "distance": 10714.645372346544}, {"id": "UcrSN5M71NEpive27zjCow", "alias": "wings-over-springfield-springfield", "name": "Wings Over Springfield", "image_url": "https://s3-media2.fl.yelpcdn.com/bphoto/BSM6Hc3-Yybc-RrgsMxdRg/o.jpg", "is_closed": false, "url": "https://www.yelp.com/biz/wings-over-springfield-springfield?adjust_creative=HdhkN5EEH6lAqE3kwhsHEQ&utm_campaign=yelp_api_v3&utm_medium=api_v3_business_search&utm_source=HdhkN5EEH6lAqE3kwhsHEQ", "review_count": 74, "categories": [{"alias": "chicken_wings", "title": "Chicken Wings"}, {"alias": "hotdogs", "title": "Fast Food"}, {"alias": "sandwiches", "title": "Sandwiches"}], "rating": 3.0, "coordinates": {"latitude": 42.11612, "longitude": -72.49788}, "transactions": ["delivery"], "price": "$$", "location": {"address1": "1219 Parker St", "address2": null, "address3": "", "city": "Springfield", "zip_code": "01129", "country": "US", "state": "MA", "display_address": ["1219 Parker St", "Springfield, MA 01129"]}, "phone": "+14137839464", "display_phone": "(413) 783-9464", "distance": 8475.90123350889}, {"id": "h8pzuk06KFhryJllLX0eYw", "alias": "golden-corral-buffet-and-grill-springfield", "name": "Golden Corral Buffet & Grill", "image_url": "https://s3-media3.fl.yelpcdn.com/bphoto/r7DXf51bYm5Z4pViuboGfA/o.jpg", "is_closed": false, "url": "https://www.yelp.com/biz/golden-corral-buffet-and-grill-springfield?adjust_creative=HdhkN5EEH6lAqE3kwhsHEQ&utm_campaign=yelp_api_v3&utm_medium=api_v3_business_search&utm_source=HdhkN5EEH6lAqE3kwhsHEQ", "review_count": 107, "categories": [{"alias": "tradamerican", "title": "American (Traditional)"}, {"alias": "buffets", "title": "Buffets"}], "rating": 3.0, "coordinates": {"latitude": 42.142661, "longitude": -72.495958}, "transactions": [], "price": "$$", "location": {"address1": "436 Parker Street", "address2": "", "address3": "", "city": "Springfield", "zip_code": "01129", "country": "US", "state": "MA", "display_address": ["436 Parker Street", "Springfield, MA 01129"]}, "phone": "+14135434600", "display_phone": "(413) 543-4600", "distance": 10491.561079719442}, {"id": "f8MNpvdz1J5WH6kQCPc4ww", "alias": "chilis-springfield-7", "name": "Chili's", "image_url": "https://s3-media3.fl.yelpcdn.com/bphoto/uMD0jQoETQyBhikKqjxK9Q/o.jpg", "is_closed": false, "url": "https://www.yelp.com/biz/chilis-springfield-7?adjust_creative=HdhkN5EEH6lAqE3kwhsHEQ&utm_campaign=yelp_api_v3&utm_medium=api_v3_business_search&utm_source=HdhkN5EEH6lAqE3kwhsHEQ", "review_count": 50, "categories": [{"alias": "tex-mex", "title": "Tex-Mex"}, {"alias": "tradamerican", "title": "American (Traditional)"}, {"alias": "bars", "title": "Bars"}], "rating": 2.0, "coordinates": {"latitude": 42.0950482, "longitude": -72.4986301}, "transactions": [], "price": "$$", "location": {"address1": "302 Cooley St", "address2": null, "address3": null, "city": "Springfield", "zip_code": "01128", "country": "US", "state": "MA", "display_address": ["302 Cooley St", "Springfield, MA 01128"]}, "phone": "+14134269507", "display_phone": "(413) 426-9507", "distance": 7315.843956642995}, {"id": "rh87yudqa5a-iURHMZJfrA", "alias": "olive-garden-italian-restaurant-springfield-6", "name": "Olive Garden Italian Restaurant", "image_url": "https://s3-media2.fl.yelpcdn.com/bphoto/3v5oKIs389GmjNQEgRjlfg/o.jpg", "is_closed": false, "url": "https://www.yelp.com/biz/olive-garden-italian-restaurant-springfield-6?adjust_creative=HdhkN5EEH6lAqE3kwhsHEQ&utm_campaign=yelp_api_v3&utm_medium=api_v3_business_search&utm_source=HdhkN5EEH6lAqE3kwhsHEQ", "review_count": 27, "categories": [{"alias": "italian", "title": "Italian"}, {"alias": "salad", "title": "Salad"}, {"alias": "soup", "title": "Soup"}], "rating": 3.0, "coordinates": {"latitude": 42.1415320426003, "longitude": -72.4975126214264}, "transactions": [], "price": "$$", "location": {"address1": "1380 Boston Rd", "address2": "", "address3": "", "city": "Springfield", "zip_code": "01119", "country": "US", "state": "MA", "display_address": ["1380 Boston Rd", "Springfield, MA 01119"]}, "phone": "+14137839003", "display_phone": "(413) 783-9003", "distance": 10469.32255726904}, {"id": "pQ0eNvBaT8F8C29Zv8oAyQ", "alias": "dennys-springfield-6", "name": "Denny's", "image_url": "https://s3-media1.fl.yelpcdn.com/bphoto/J5Jk7KhDY__B2MT94PxRoQ/o.jpg", "is_closed": false, "url": "https://www.yelp.com/biz/dennys-springfield-6?adjust_creative=HdhkN5EEH6lAqE3kwhsHEQ&utm_campaign=yelp_api_v3&utm_medium=api_v3_business_search&utm_source=HdhkN5EEH6lAqE3kwhsHEQ", "review_count": 48, "categories": [{"alias": "diners", "title": "Diners"}, {"alias": "tradamerican", "title": "American (Traditional)"}, {"alias": "breakfast_brunch", "title": "Breakfast & Brunch"}], "rating": 1.5, "coordinates": {"latitude": 42.140897, "longitude": -72.501202}, "transactions": ["pickup", "delivery"], "price": "$$", "location": {"address1": "1284 Boston Rd", "address2": null, "address3": null, "city": "Springfield", "zip_code": "01119", "country": "US", "state": "MA", "display_address": ["1284 Boston Rd", "Springfield, MA 01119"]}, "phone": "+14137823300", "display_phone": "(413) 782-3300", "distance": 10607.506237311653}, {"id": "E-GBzX-_puSiAIQBHf5XTA", "alias": "holyoke-hummus-company-holyoke", "name": "Holyoke Hummus Company", "image_url": "https://s3-media2.fl.yelpcdn.com/bphoto/K-RvwwHMrU-8EFC9r_j1bw/o.jpg", "is_closed": false, "url": "https://www.yelp.com/biz/holyoke-hummus-company-holyoke?adjust_creative=HdhkN5EEH6lAqE3kwhsHEQ&utm_campaign=yelp_api_v3&utm_medium=api_v3_business_search&utm_source=HdhkN5EEH6lAqE3kwhsHEQ", "review_count": 65, "categories": [{"alias": "mideastern", "title": "Middle Eastern"}, {"alias": "foodtrucks", "title": "Food Trucks"}, {"alias": "breakfast_brunch", "title": "Breakfast & Brunch"}], "rating": 4.5, "coordinates": {"latitude": 42.206426, "longitude": -72.6086119}, "transactions": ["pickup", "delivery"], "price": "$", "location": {"address1": "285 High St", "address2": null, "address3": "", "city": "Holyoke", "zip_code": "01040", "country": "US", "state": "MA", "display_address": ["285 High St", "Holyoke, MA 01040"]}, "phone": "+14132251755", "display_phone": "(413) 225-1755", "distance": 21981.380280934045}, {"id": "0wX6Ax4ukobv7BhNlQZIXw", "alias": "subway-springfield-190", "name": "Subway", "image_url": "https://s3-media4.fl.yelpcdn.com/bphoto/8S5fz7iC0dALFhQt9qtIJg/o.jpg", "is_closed": false, "url": "https://www.yelp.com/biz/subway-springfield-190?adjust_creative=HdhkN5EEH6lAqE3kwhsHEQ&utm_campaign=yelp_api_v3&utm_medium=api_v3_business_search&utm_source=HdhkN5EEH6lAqE3kwhsHEQ", "review_count": 1, "categories": [{"alias": "sandwiches", "title": "Sandwiches"}], "rating": 5.0, "coordinates": {"latitude": 42.1360965978808, "longitude": -72.5068355491535}, "transactions": ["pickup", "delivery"], "price": "$", "location": {"address1": "1105 Boston Rd", "address2": null, "address3": null, "city": "Springfield", "zip_code": "01119", "country": "US", "state": "MA", "display_address": ["1105 Boston Rd", "Springfield, MA 01119"]}, "phone": "+14137830044", "display_phone": "(413) 783-0044", "distance": 10521.59205541898}, {"id": "Cd9Z5X43e0ZRtq2mHaQXjA", "alias": "jack-chens-east-longmeadow", "name": "Jack Chen's", "image_url": "https://s3-media3.fl.yelpcdn.com/bphoto/wwYpaC6GJmck20KIKXPZBA/o.jpg", "is_closed": false, "url": "https://www.yelp.com/biz/jack-chens-east-longmeadow?adjust_creative=HdhkN5EEH6lAqE3kwhsHEQ&utm_campaign=yelp_api_v3&utm_medium=api_v3_business_search&utm_source=HdhkN5EEH6lAqE3kwhsHEQ", "review_count": 10, "categories": [{"alias": "chinese", "title": "Chinese"}], "rating": 3.0, "coordinates": {"latitude": 42.0635885, "longitude": -72.5165277}, "transactions": ["delivery"], "price": "$$", "location": {"address1": "59 Maple St", "address2": "", "address3": "", "city": "East Longmeadow", "zip_code": "01028", "country": "US", "state": "MA", "display_address": ["59 Maple St", "East Longmeadow, MA 01028"]}, "phone": "+14135269828", "display_phone": "(413) 526-9828", "distance": 8095.792621708254}, {"id": "XNx-MsFB8X4orIxEn1IBiA", "alias": "ihop-springfield-13", "name": "IHOP", "image_url": "https://s3-media3.fl.yelpcdn.com/bphoto/d1FqZJAirVOi44I9gDXcIA/o.jpg", "is_closed": false, "url": "https://www.yelp.com/biz/ihop-springfield-13?adjust_creative=HdhkN5EEH6lAqE3kwhsHEQ&utm_campaign=yelp_api_v3&utm_medium=api_v3_business_search&utm_source=HdhkN5EEH6lAqE3kwhsHEQ", "review_count": 21, "categories": [{"alias": "tradamerican", "title": "American (Traditional)"}, {"alias": "breakfast_brunch", "title": "Breakfast & Brunch"}, {"alias": "burgers", "title": "Burgers"}], "rating": 2.0, "coordinates": {"latitude": 42.0946, "longitude": -72.5011}, "transactions": ["pickup", "delivery"], "price": "$$", "location": {"address1": "270 Cooley St", "address2": "", "address3": null, "city": "Springfield", "zip_code": "01128", "country": "US", "state": "MA", "display_address": ["270 Cooley St", "Springfield, MA 01128"]}, "phone": "+14133424002", "display_phone": "(413) 342-4002", "distance": 7440.1844007937}, {"id": "M_ToVgKYo4gMrvvWFFGdCg", "alias": "906-homwin-chinese-restaurant-springfield", "name": "906 Homwin Chinese Restaurant", "image_url": "https://s3-media4.fl.yelpcdn.com/bphoto/fDMm2WOy_0gPslhjKFgLlA/o.jpg", "is_closed": false, "url": "https://www.yelp.com/biz/906-homwin-chinese-restaurant-springfield?adjust_creative=HdhkN5EEH6lAqE3kwhsHEQ&utm_campaign=yelp_api_v3&utm_medium=api_v3_business_search&utm_source=HdhkN5EEH6lAqE3kwhsHEQ", "review_count": 20, "categories": [{"alias": "chinese", "title": "Chinese"}], "rating": 3.0, "coordinates": {"latitude": 42.1379699707031, "longitude": -72.5143661499023}, "transactions": ["pickup", "delivery"], "location": {"address1": "906 Boston Rd", "address2": null, "address3": null, "city": "Springfield", "zip_code": "01119", "country": "US", "state": "MA", "display_address": ["906 Boston Rd", "Springfield, MA 01119"]}, "phone": "+14137838906", "display_phone": "(413) 783-8906", "distance": 11109.218731938043}, {"id": "FVxRY7zDSBm50bTxlapBEg", "alias": "subway-springfield-179", "name": "Subway", "image_url": "https://s3-media2.fl.yelpcdn.com/bphoto/yzcqM-95dJpC-nKidxFy-w/o.jpg", "is_closed": false, "url": "https://www.yelp.com/biz/subway-springfield-179?adjust_creative=HdhkN5EEH6lAqE3kwhsHEQ&utm_campaign=yelp_api_v3&utm_medium=api_v3_business_search&utm_source=HdhkN5EEH6lAqE3kwhsHEQ", "review_count": 5, "categories": [{"alias": "sandwiches", "title": "Sandwiches"}], "rating": 2.0, "coordinates": {"latitude": 42.0942471902106, "longitude": -72.5006176389784}, "transactions": ["pickup", "delivery"], "price": "$", "location": {"address1": "374 Cooley St", "address2": "Unit 26", "address3": "", "city": "Springfield", "zip_code": "01128", "country": "US", "state": "MA", "display_address": ["374 Cooley St", "Unit 26", "Springfield, MA 01128"]}, "phone": "+14137837782", "display_phone": "(413) 783-7782", "distance": 7388.069259490679}, {"id": "2l4l2aGHo3JvyAsQ30AcQg", "alias": "ginger-blossom-springfield", "name": "Ginger Blossom", "image_url": "https://s3-media2.fl.yelpcdn.com/bphoto/4aK8qB2hJJmTrhvGYutZbg/o.jpg", "is_closed": false, "url": "https://www.yelp.com/biz/ginger-blossom-springfield?adjust_creative=HdhkN5EEH6lAqE3kwhsHEQ&utm_campaign=yelp_api_v3&utm_medium=api_v3_business_search&utm_source=HdhkN5EEH6lAqE3kwhsHEQ", "review_count": 67, "categories": [{"alias": "chinese", "title": "Chinese"}, {"alias": "japanese", "title": "Japanese"}, {"alias": "sushi", "title": "Sushi Bars"}], "rating": 3.5, "coordinates": {"latitude": 42.1165726, "longitude": -72.498659}, "transactions": ["delivery"], "price": "$$", "location": {"address1": "1203 Parker St", "address2": "", "address3": "", "city": "Springfield", "zip_code": "01129", "country": "US", "state": "MA", "display_address": ["1203 Parker St", "Springfield, MA 01129"]}, "phone": "+14137838300", "display_phone": "(413) 783-8300", "distance": 8457.999130525468}, {"id": "jvpKH8Nx47Deg_Elp7mvxA", "alias": "applebees-grill-bar-springfield-6", "name": "Applebee's Grill + Bar", "image_url": "https://s3-media4.fl.yelpcdn.com/bphoto/0l58-UKuM4rr325rlP3iKA/o.jpg", "is_closed": false, "url": "https://www.yelp.com/biz/applebees-grill-bar-springfield-6?adjust_creative=HdhkN5EEH6lAqE3kwhsHEQ&utm_campaign=yelp_api_v3&utm_medium=api_v3_business_search&utm_source=HdhkN5EEH6lAqE3kwhsHEQ", "review_count": 23, "categories": [{"alias": "tradamerican", "title": "American (Traditional)"}, {"alias": "sportsbars", "title": "Sports Bars"}, {"alias": "burgers", "title": "Burgers"}], "rating": 2.0, "coordinates": {"latitude": 42.140482, "longitude": -72.498442}, "transactions": ["delivery"], "price": "$$", "location": {"address1": "1349 Boston Rd", "address2": null, "address3": null, "city": "Springfield", "zip_code": "01119", "country": "US", "state": "MA", "display_address": ["1349 Boston Rd", "Springfield, MA 01119"]}, "phone": "+14137968183", "display_phone": "(413) 796-8183", "distance": 10426.649216408245}, {"id": "68WTARQY8lQB0rDUtVoYQA", "alias": "wendys-springfield-34", "name": "Wendy's", "image_url": "https://s3-media1.fl.yelpcdn.com/bphoto/XUfswDZa6AOLfj555fj6eA/o.jpg", "is_closed": false, "url": "https://www.yelp.com/biz/wendys-springfield-34?adjust_creative=HdhkN5EEH6lAqE3kwhsHEQ&utm_campaign=yelp_api_v3&utm_medium=api_v3_business_search&utm_source=HdhkN5EEH6lAqE3kwhsHEQ", "review_count": 10, "categories": [{"alias": "burgers", "title": "Burgers"}, {"alias": "hotdogs", "title": "Fast Food"}], "rating": 1.5, "coordinates": {"latitude": 42.136393, "longitude": -72.519296}, "transactions": ["delivery"], "price": "$", "location": {"address1": "757 Boston Road", "address2": "", "address3": "", "city": "Springfield", "zip_code": "01119", "country": "US", "state": "MA", "display_address": ["757 Boston Road", "Springfield, MA 01119"]}, "phone": "+14137825439", "display_phone": "(413) 782-5439", "distance": 11280.73970188742}, {"id": "IfXmyVW8cF0DfVpz5oIx-A", "alias": "golden-pizza-springfield", "name": "Golden Pizza", "image_url": "https://s3-media2.fl.yelpcdn.com/bphoto/Q-0TWfRTkPcF0JuckiGTSQ/o.jpg", "is_closed": false, "url": "https://www.yelp.com/biz/golden-pizza-springfield?adjust_creative=HdhkN5EEH6lAqE3kwhsHEQ&utm_campaign=yelp_api_v3&utm_medium=api_v3_business_search&utm_source=HdhkN5EEH6lAqE3kwhsHEQ", "review_count": 8, "categories": [{"alias": "pizza", "title": "Pizza"}, {"alias": "italian", "title": "Italian"}, {"alias": "sandwiches", "title": "Sandwiches"}], "rating": 3.0, "coordinates": {"latitude": 42.09405, "longitude": -72.51515}, "transactions": ["delivery"], "price": "$$", "location": {"address1": "1350 Allen St", "address2": "", "address3": "", "city": "Springfield", "zip_code": "01118", "country": "US", "state": "MA", "display_address": ["1350 Allen St", "Springfield, MA 01118"]}, "phone": "+14137831109", "display_phone": "(413) 783-1109", "distance": 8494.783861112808}, {"id": "NHE9EyCXID1wjUZHOPJTAA", "alias": "boston-market-springfield-2", "name": "Boston Market", "image_url": "https://s3-media3.fl.yelpcdn.com/bphoto/ixBAkU_Ekd4WluQAuP7fhA/o.jpg", "is_closed": false, "url": "https://www.yelp.com/biz/boston-market-springfield-2?adjust_creative=HdhkN5EEH6lAqE3kwhsHEQ&utm_campaign=yelp_api_v3&utm_medium=api_v3_business_search&utm_source=HdhkN5EEH6lAqE3kwhsHEQ", "review_count": 10, "categories": [{"alias": "comfortfood", "title": "Comfort Food"}, {"alias": "tradamerican", "title": "American (Traditional)"}, {"alias": "sandwiches", "title": "Sandwiches"}], "rating": 2.5, "coordinates": {"latitude": 42.1406152747576, "longitude": -72.4971927130878}, "transactions": ["pickup", "delivery"], "price": "$", "location": {"address1": "1387 Boston Rd", "address2": "", "address3": "", "city": "Springfield", "zip_code": "01119", "country": "US", "state": "MA", "display_address": ["1387 Boston Rd", "Springfield, MA 01119"]}, "phone": "+14132713808", "display_phone": "(413) 271-3808", "distance": 10373.26307701533}, {"id": "Oa5h3HCBXaYLXQKjVsZSMQ", "alias": "burger-king-springfield-9", "name": "Burger King", "image_url": "https://s3-media4.fl.yelpcdn.com/bphoto/pj-LNI57qNRRKcUId6KJQw/o.jpg", "is_closed": false, "url": "https://www.yelp.com/biz/burger-king-springfield-9?adjust_creative=HdhkN5EEH6lAqE3kwhsHEQ&utm_campaign=yelp_api_v3&utm_medium=api_v3_business_search&utm_source=HdhkN5EEH6lAqE3kwhsHEQ", "review_count": 3, "categories": [{"alias": "burgers", "title": "Burgers"}, {"alias": "hotdogs", "title": "Fast Food"}], "rating": 2.5, "coordinates": {"latitude": 42.0928993225098, "longitude": -72.4999389648438}, "transactions": ["delivery"], "price": "$", "location": {"address1": "400 Cooley St", "address2": null, "address3": null, "city": "Springfield", "zip_code": "01128", "country": "US", "state": "MA", "display_address": ["400 Cooley St", "Springfield, MA 01128"]}, "phone": "", "display_phone": "", "distance": 7280.378496324889}, {"id": "joB60NYFypqX91UefDkKCw", "alias": "boston-road-pizza-springfield", "name": "Boston Road Pizza", "image_url": "https://s3-media4.fl.yelpcdn.com/bphoto/zzm584Ek6rLBnf0I6QzDVA/o.jpg", "is_closed": false, "url": "https://www.yelp.com/biz/boston-road-pizza-springfield?adjust_creative=HdhkN5EEH6lAqE3kwhsHEQ&utm_campaign=yelp_api_v3&utm_medium=api_v3_business_search&utm_source=HdhkN5EEH6lAqE3kwhsHEQ", "review_count": 8, "categories": [{"alias": "pizza", "title": "Pizza"}, {"alias": "burgers", "title": "Burgers"}, {"alias": "chicken_wings", "title": "Chicken Wings"}], "rating": 3.5, "coordinates": {"latitude": 42.1403859, "longitude": -72.5008455}, "transactions": ["pickup", "delivery"], "location": {"address1": "1291 Boston Post Rd", "address2": "", "address3": "", "city": "Springfield", "zip_code": "01119", "country": "US", "state": "MA", "display_address": ["1291 Boston Post Rd", "Springfield, MA 01119"]}, "phone": "+14137967777", "display_phone": "(413) 796-7777", "distance": 10523.580817365471}, {"id": "tHCH-nNzfwYV29tuj4n9Yw", "alias": "sonic-drive-in-springfield-21", "name": "Sonic Drive-In", "image_url": "https://s3-media2.fl.yelpcdn.com/bphoto/5kK3eUr0x8fX9MOLJsMwBg/o.jpg", "is_closed": false, "url": "https://www.yelp.com/biz/sonic-drive-in-springfield-21?adjust_creative=HdhkN5EEH6lAqE3kwhsHEQ&utm_campaign=yelp_api_v3&utm_medium=api_v3_business_search&utm_source=HdhkN5EEH6lAqE3kwhsHEQ", "review_count": 43, "categories": [{"alias": "hotdogs", "title": "Fast Food"}, {"alias": "burgers", "title": "Burgers"}, {"alias": "icecream", "title": "Ice Cream & Frozen Yogurt"}], "rating": 2.5, "coordinates": {"latitude": 42.138423, "longitude": -72.5085312}, "transactions": [], "price": "$", "location": {"address1": "1057 Boston Rd", "address2": "", "address3": "", "city": "Springfield", "zip_code": "01119", "country": "US", "state": "MA", "display_address": ["1057 Boston Rd", "Springfield, MA 01119"]}, "phone": "+14133042061", "display_phone": "(413) 304-2061", "distance": 10805.212250247485}, {"id": "NX5hCRtwNJVxAWWHRNEDEA", "alias": "mcdonalds-springfield-62", "name": "McDonald's", "image_url": "https://s3-media3.fl.yelpcdn.com/bphoto/294i0pFCnLYmyY-hyVSGRg/o.jpg", "is_closed": false, "url": "https://www.yelp.com/biz/mcdonalds-springfield-62?adjust_creative=HdhkN5EEH6lAqE3kwhsHEQ&utm_campaign=yelp_api_v3&utm_medium=api_v3_business_search&utm_source=HdhkN5EEH6lAqE3kwhsHEQ", "review_count": 14, "categories": [{"alias": "hotdogs", "title": "Fast Food"}, {"alias": "coffee", "title": "Coffee & Tea"}, {"alias": "burgers", "title": "Burgers"}], "rating": 1.0, "coordinates": {"latitude": 42.094622, "longitude": -72.512971}, "transactions": ["delivery"], "price": "$", "location": {"address1": "1402 Allen St", "address2": "", "address3": "", "city": "Springfield", "zip_code": "01118", "country": "US", "state": "MA", "display_address": ["1402 Allen St", "Springfield, MA 01118"]}, "phone": "+14137838044", "display_phone": "(413) 783-8044", "distance": 8348.465654156249}, {"id": "5632fwrUZPu-TufwwFU9DQ", "alias": "wendys-springfield-27", "name": "Wendy's", "image_url": "https://s3-media1.fl.yelpcdn.com/bphoto/khAlPq3Pr1SsUP4nnEiedQ/o.jpg", "is_closed": false, "url": "https://www.yelp.com/biz/wendys-springfield-27?adjust_creative=HdhkN5EEH6lAqE3kwhsHEQ&utm_campaign=yelp_api_v3&utm_medium=api_v3_business_search&utm_source=HdhkN5EEH6lAqE3kwhsHEQ", "review_count": 7, "categories": [{"alias": "hotdogs", "title": "Fast Food"}, {"alias": "burgers", "title": "Burgers"}], "rating": 1.5, "coordinates": {"latitude": 42.09487, "longitude": -72.51242}, "transactions": ["delivery"], "price": "$", "location": {"address1": "1420 Allen St.", "address2": "", "address3": "", "city": "Springfield", "zip_code": "01118", "country": "US", "state": "MA", "display_address": ["1420 Allen St.", "Springfield, MA 01118"]}, "phone": "+14137825134", "display_phone": "(413) 782-5134", "distance": 8311.335435519779}, {"id": "dSYlB7JL1ki4zNqMvFIszg", "alias": "sianos-pizzeria-and-restaurant-springfield", "name": "Siano's Pizzeria & Restaurant", "image_url": "https://s3-media4.fl.yelpcdn.com/bphoto/m_uRYfQafNUEH_mdKuumLw/o.jpg", "is_closed": false, "url": "https://www.yelp.com/biz/sianos-pizzeria-and-restaurant-springfield?adjust_creative=HdhkN5EEH6lAqE3kwhsHEQ&utm_campaign=yelp_api_v3&utm_medium=api_v3_business_search&utm_source=HdhkN5EEH6lAqE3kwhsHEQ", "review_count": 35, "categories": [{"alias": "pizza", "title": "Pizza"}, {"alias": "italian", "title": "Italian"}, {"alias": "sandwiches", "title": "Sandwiches"}], "rating": 3.5, "coordinates": {"latitude": 42.1379737854004, "longitude": -72.5121154785156}, "transactions": ["pickup", "delivery"], "price": "$$", "location": {"address1": "965 Boston Rd", "address2": "", "address3": "", "city": "Springfield", "zip_code": "01119", "country": "US", "state": "MA", "display_address": ["965 Boston Rd", "Springfield, MA 01119"]}, "phone": "+14137820066", "display_phone": "(413) 782-0066", "distance": 10974.748821627189}, {"id": "1R5pgDnnzXZcRSvpjmHpPQ", "alias": "mcdonalds-springfield-85", "name": "McDonald's", "image_url": "https://s3-media1.fl.yelpcdn.com/bphoto/ief_0gvHuuuDeLkojIqE9Q/o.jpg", "is_closed": false, "url": "https://www.yelp.com/biz/mcdonalds-springfield-85?adjust_creative=HdhkN5EEH6lAqE3kwhsHEQ&utm_campaign=yelp_api_v3&utm_medium=api_v3_business_search&utm_source=HdhkN5EEH6lAqE3kwhsHEQ", "review_count": 3, "categories": [{"alias": "coffee", "title": "Coffee & Tea"}, {"alias": "burgers", "title": "Burgers"}, {"alias": "hotdogs", "title": "Fast Food"}], "rating": 1.5, "coordinates": {"latitude": 42.136743, "longitude": -72.517783}, "transactions": ["delivery"], "price": "$", "location": {"address1": "809 Boston Rd", "address2": "", "address3": "", "city": "Springfield", "zip_code": "01109", "country": "US", "state": "MA", "display_address": ["809 Boston Rd", "Springfield, MA 01109"]}, "phone": "+14137832328", "display_phone": "(413) 783-2328", "distance": 11215.498643927282}, {"id": "k6q5RxyN9j3XFfV2Be4AGw", "alias": "mcdonalds-springfield-83", "name": "McDonald's", "image_url": "https://s3-media2.fl.yelpcdn.com/bphoto/86NsUHORh9MqhfnletXqaQ/o.jpg", "is_closed": false, "url": "https://www.yelp.com/biz/mcdonalds-springfield-83?adjust_creative=HdhkN5EEH6lAqE3kwhsHEQ&utm_campaign=yelp_api_v3&utm_medium=api_v3_business_search&utm_source=HdhkN5EEH6lAqE3kwhsHEQ", "review_count": 6, "categories": [{"alias": "coffee", "title": "Coffee & Tea"}, {"alias": "burgers", "title": "Burgers"}, {"alias": "hotdogs", "title": "Fast Food"}], "rating": 1.0, "coordinates": {"latitude": 42.1428147516783, "longitude": -72.4894222396568}, "transactions": ["delivery"], "price": "$", "location": {"address1": "1610 Boston Post Rd", "address2": "", "address3": "", "city": "Springfield", "zip_code": "01119", "country": "US", "state": "MA", "display_address": ["1610 Boston Post Rd", "Springfield, MA 01119"]}, "phone": "+14135433473", "display_phone": "(413) 543-3473", "distance": 10221.651682887297}, {"id": "Io4C5tUwnb_YzeaMXHBqBA", "alias": "shuckin-truck-narragansett-2", "name": "Shuckin Truck", "image_url": "https://s3-media2.fl.yelpcdn.com/bphoto/r7QRORfe9UYVS7GGzUm9DQ/o.jpg", "is_closed": false, "url": "https://www.yelp.com/biz/shuckin-truck-narragansett-2?adjust_creative=HdhkN5EEH6lAqE3kwhsHEQ&utm_campaign=yelp_api_v3&utm_medium=api_v3_business_search&utm_source=HdhkN5EEH6lAqE3kwhsHEQ", "review_count": 24, "categories": [{"alias": "foodtrucks", "title": "Food Trucks"}, {"alias": "seafood", "title": "Seafood"}], "rating": 4.5, "coordinates": {"latitude": 41.4274482727051, "longitude": -71.4597778320313}, "transactions": [], "price": "$$", "location": {"address1": "", "address2": "", "address3": "", "city": "Narragansett", "zip_code": "02882", "country": "US", "state": "RI", "display_address": ["Narragansett, RI 02882"]}, "phone": "+14017415953", "display_phone": "(401) 741-5953", "distance": 107177.04991386572}, {"id": "qqA8YX58xnmEXLyanHfdUg", "alias": "stufd-food-truck-brooklyn", "name": "Stuf'd Food Truck", "image_url": "https://s3-media2.fl.yelpcdn.com/bphoto/_Wn0i-tLIOFinw8BPAqxPA/o.jpg", "is_closed": false, "url": "https://www.yelp.com/biz/stufd-food-truck-brooklyn?adjust_creative=HdhkN5EEH6lAqE3kwhsHEQ&utm_campaign=yelp_api_v3&utm_medium=api_v3_business_search&utm_source=HdhkN5EEH6lAqE3kwhsHEQ", "review_count": 4, "categories": [{"alias": "sandwiches", "title": "Sandwiches"}, {"alias": "foodtrucks", "title": "Food Trucks"}], "rating": 4.0, "coordinates": {"latitude": 40.7124539, "longitude": -73.9287374}, "transactions": [], "location": {"address1": "178 Varick Ave", "address2": "", "address3": null, "city": "Brooklyn", "zip_code": "11237", "country": "US", "state": "NY", "display_address": ["178 Varick Ave", "Brooklyn, NY 11237"]}, "phone": "+18457091808", "display_phone": "(845) 709-1808", "distance": 196434.34160892465}]