[{"id": "75CHObb-0bxspwAaWcHsyw", "alias": "the-whately-inn-whately", "name": "The Whately Inn", "image_url": "https://s3-media3.fl.yelpcdn.com/bphoto/TkyLjBwFpK2kdenqUkKi0g/o.jpg", "is_closed": false, "url": "https://www.yelp.com/biz/the-whately-inn-whately?adjust_creative=wVJJqwOt_3apsoGmwgRWnw&utm_campaign=yelp_api_v3&utm_medium=api_v3_business_search&utm_source=wVJJqwOt_3apsoGmwgRWnw", "review_count": 60, "categories": [{"alias": "french", "title": "French"}, {"alias": "tradamerican", "title": "American (Traditional)"}], "rating": 3.5, "coordinates": {"latitude": 42.4398746, "longitude": -72.6349179}, "transactions": [], "price": "$$$", "location": {"address1": "193 Chestnut Plain Rd", "address2": "", "address3": "", "city": "Whately", "zip_code": "01093", "country": "US", "state": "MA", "display_address": ["193 Chestnut Plain Rd", "Whately, MA 01093"]}, "phone": "+14136653044", "display_phone": "(413) 665-3044", "distance": 1435.0273474250334}, {"id": "ZrnKQkZYNw_otzzh6EIiHQ", "alias": "blue-heron-restaurant-sunderland", "name": "Blue Heron Restaurant", "image_url": "https://s3-media3.fl.yelpcdn.com/bphoto/IdK76wlrON2OqFado0LeKQ/o.jpg", "is_closed": false, "url": "https://www.yelp.com/biz/blue-heron-restaurant-sunderland?adjust_creative=wVJJqwOt_3apsoGmwgRWnw&utm_campaign=yelp_api_v3&utm_medium=api_v3_business_search&utm_source=wVJJqwOt_3apsoGmwgRWnw", "review_count": 116, "categories": [{"alias": "newamerican", "title": "American (New)"}], "rating": 4.0, "coordinates": {"latitude": 42.46719, "longitude": -72.57818}, "transactions": ["delivery"], "price": "$$$", "location": {"address1": "112 N Main St", "address2": "", "address3": "", "city": "Sunderland", "zip_code": "01375", "country": "US", "state": "MA", "display_address": ["112 N Main St", "Sunderland, MA 01375"]}, "phone": "+14136652102", "display_phone": "(413) 665-2102", "distance": 6971.607984619522}, {"id": "1SuRjphJzX8b9mhicrjGSA", "alias": "the-waxwing-hatfield", "name": "The Waxwing", "image_url": "https://s3-media2.fl.yelpcdn.com/bphoto/QWAmNTvZfp7mBBSPK0Camw/o.jpg", "is_closed": false, "url": "https://www.yelp.com/biz/the-waxwing-hatfield?adjust_creative=wVJJqwOt_3apsoGmwgRWnw&utm_campaign=yelp_api_v3&utm_medium=api_v3_business_search&utm_source=wVJJqwOt_3apsoGmwgRWnw", "review_count": 1, "categories": [{"alias": "seafood", "title": "Seafood"}, {"alias": "mediterranean", "title": "Mediterranean"}, {"alias": "cocktailbars", "title": "Cocktail Bars"}], "rating": 5.0, "coordinates": {"latitude": 42.37246, "longitude": -72.63478}, "transactions": [], "location": {"address1": "34 West St", "address2": "", "address3": null, "city": "Hatfield", "zip_code": "01088", "country": "US", "state": "MA", "display_address": ["34 West St", "Hatfield, MA 01088"]}, "phone": "+14132476113", "display_phone": "(413) 247-6113", "distance": 6913.750454561306}, {"id": "bfNy4CK-UWtNIIfzVXeZ-A", "alias": "wolfies-restaurant-south-deerfield", "name": "Wolfie's Restaurant", "image_url": "https://s3-media2.fl.yelpcdn.com/bphoto/6mdshhOQiXEPBs8xUe9O7A/o.jpg", "is_closed": false, "url": "https://www.yelp.com/biz/wolfies-restaurant-south-deerfield?adjust_creative=wVJJqwOt_3apsoGmwgRWnw&utm_campaign=yelp_api_v3&utm_medium=api_v3_business_search&utm_source=wVJJqwOt_3apsoGmwgRWnw", "review_count": 92, "categories": [{"alias": "tradamerican", "title": "American (Traditional)"}, {"alias": "bars", "title": "Bars"}, {"alias": "chicken_wings", "title": "Chicken Wings"}], "rating": 3.5, "coordinates": {"latitude": 42.4768333435059, "longitude": -72.6083679199219}, "transactions": ["delivery"], "price": "$$", "location": {"address1": "52 S Main St", "address2": "", "address3": "", "city": "South Deerfield", "zip_code": "01373", "country": "US", "state": "MA", "display_address": ["52 S Main St", "South Deerfield, MA 01373"]}, "phone": "+14136657068", "display_phone": "(413) 665-7068", "distance": 5912.564771995611}, {"id": "RjcmsCplUC_ZFvaJb2nfMA", "alias": "gianni-figs-ristorante-deerfield", "name": "Gianni Fig's Ristorante", "image_url": "https://s3-media1.fl.yelpcdn.com/bphoto/SWZ-jpqvOAfR3OM4KI_rLg/o.jpg", "is_closed": false, "url": "https://www.yelp.com/biz/gianni-figs-ristorante-deerfield?adjust_creative=wVJJqwOt_3apsoGmwgRWnw&utm_campaign=yelp_api_v3&utm_medium=api_v3_business_search&utm_source=wVJJqwOt_3apsoGmwgRWnw", "review_count": 30, "categories": [{"alias": "italian", "title": "Italian"}], "rating": 4.0, "coordinates": {"latitude": 42.4775047039286, "longitude": -72.609119691213}, "transactions": ["delivery"], "location": {"address1": "6 Elm St", "address2": "", "address3": null, "city": "Deerfield", "zip_code": "01373", "country": "US", "state": "MA", "display_address": ["6 Elm St", "Deerfield, MA 01373"]}, "phone": "+14133505940", "display_phone": "(413) 350-5940", "distance": 5933.261799346515}, {"id": "QBdFoCiVYe2ZTwmTH8nIdQ", "alias": "damn-yankees-bbq-south-deerfield", "name": "Damn Yankees BBQ", "image_url": "https://s3-media1.fl.yelpcdn.com/bphoto/E-hdAq7izmIS7zdo860Org/o.jpg", "is_closed": false, "url": "https://www.yelp.com/biz/damn-yankees-bbq-south-deerfield?adjust_creative=wVJJqwOt_3apsoGmwgRWnw&utm_campaign=yelp_api_v3&utm_medium=api_v3_business_search&utm_source=wVJJqwOt_3apsoGmwgRWnw", "review_count": 25, "categories": [{"alias": "bbq", "title": "Barbeque"}], "rating": 3.5, "coordinates": {"latitude": 42.477924, "longitude": -72.61121}, "transactions": [], "price": "$$", "location": {"address1": "20 Elm St", "address2": "", "address3": "", "city": "South Deerfield", "zip_code": "01373", "country": "US", "state": "MA", "display_address": ["20 Elm St", "South Deerfield, MA 01373"]}, "phone": "+14132729347", "display_phone": "(413) 272-9347", "distance": 5876.653701003015}, {"id": "shdRdjPzsHQn5SXhsT9bVw", "alias": "toms-hot-dog-whately", "name": "Tom's Hot Dog", "image_url": "https://s3-media1.fl.yelpcdn.com/bphoto/8sAD2sXoHiFeNzO598_MaQ/o.jpg", "is_closed": false, "url": "https://www.yelp.com/biz/toms-hot-dog-whately?adjust_creative=wVJJqwOt_3apsoGmwgRWnw&utm_campaign=yelp_api_v3&utm_medium=api_v3_business_search&utm_source=wVJJqwOt_3apsoGmwgRWnw", "review_count": 34, "categories": [{"alias": "hotdog", "title": "Hot Dogs"}, {"alias": "burgers", "title": "Burgers"}, {"alias": "soup", "title": "Soup"}], "rating": 4.0, "coordinates": {"latitude": 42.4235720399516, "longitude": -72.6222722370316}, "transactions": ["delivery"], "price": "$", "location": {"address1": "61 State Rd Rte 5 And 10", "address2": "", "address3": "", "city": "Whately", "zip_code": "01093", "country": "US", "state": "MA", "display_address": ["61 State Rd Rte 5 And 10", "Whately, MA 01093"]}, "phone": "+14136652931", "display_phone": "(413) 665-2931", "distance": 2546.96690370033}, {"id": "2jbnnI5522q_T0pl-MuJXA", "alias": "bueno-y-sano-south-deerfield", "name": "Bueno Y Sano", "image_url": "https://s3-media1.fl.yelpcdn.com/bphoto/LGK_mCBWcVAPyyIenMDuBw/o.jpg", "is_closed": false, "url": "https://www.yelp.com/biz/bueno-y-sano-south-deerfield?adjust_creative=wVJJqwOt_3apsoGmwgRWnw&utm_campaign=yelp_api_v3&utm_medium=api_v3_business_search&utm_source=wVJJqwOt_3apsoGmwgRWnw", "review_count": 2, "categories": [{"alias": "mexican", "title": "Mexican"}], "rating": 5.0, "coordinates": {"latitude": 42.477567, "longitude": -72.608631}, "transactions": [], "location": {"address1": "3 Elm Streeet", "address2": null, "address3": "", "city": "South Deerfield", "zip_code": "01373", "country": "US", "state": "MA", "display_address": ["3 Elm Streeet", "South Deerfield, MA 01373"]}, "phone": "+14136654241", "display_phone": "(413) 665-4241", "distance": 5961.798330340206}, {"id": "35kzCz1iaCkTaJU63sDVaw", "alias": "smithsonian-cafe-and-chowder-house-west-hatfield", "name": "Smithsonian Cafe and Chowder House", "image_url": "https://s3-media4.fl.yelpcdn.com/bphoto/C4k2O-DbgIRb9ljmxwlHbg/o.jpg", "is_closed": false, "url": "https://www.yelp.com/biz/smithsonian-cafe-and-chowder-house-west-hatfield?adjust_creative=wVJJqwOt_3apsoGmwgRWnw&utm_campaign=yelp_api_v3&utm_medium=api_v3_business_search&utm_source=wVJJqwOt_3apsoGmwgRWnw", "review_count": 75, "categories": [{"alias": "tradamerican", "title": "American (Traditional)"}], "rating": 4.5, "coordinates": {"latitude": 42.3671380235461, "longitude": -72.6379209011793}, "transactions": ["delivery"], "price": "$", "location": {"address1": "1 W St", "address2": "", "address3": "", "city": "West Hatfield", "zip_code": "01088", "country": "US", "state": "MA", "display_address": ["1 W St", "West Hatfield, MA 01088"]}, "phone": "+14132475157", "display_phone": "(413) 247-5157", "distance": 7456.482211575839}, {"id": "8x750RlduCSBUMZoZ8sJ8Q", "alias": "wild-roots-sunderland", "name": "Wild Roots", "image_url": "https://s3-media1.fl.yelpcdn.com/bphoto/9SsPB5uUmMUjJBzkOcp6yA/o.jpg", "is_closed": false, "url": "https://www.yelp.com/biz/wild-roots-sunderland?adjust_creative=wVJJqwOt_3apsoGmwgRWnw&utm_campaign=yelp_api_v3&utm_medium=api_v3_business_search&utm_source=wVJJqwOt_3apsoGmwgRWnw", "review_count": 26, "categories": [{"alias": "juicebars", "title": "Juice Bars & Smoothies"}, {"alias": "breakfast_brunch", "title": "Breakfast & Brunch"}, {"alias": "sandwiches", "title": "Sandwiches"}], "rating": 4.5, "coordinates": {"latitude": 42.46628, "longitude": -72.58093}, "transactions": ["pickup", "delivery"], "price": "$$", "location": {"address1": "11 Bridge St", "address2": null, "address3": "", "city": "Sunderland", "zip_code": "01375", "country": "US", "state": "MA", "display_address": ["11 Bridge St", "Sunderland, MA 01375"]}, "phone": "+14133505911", "display_phone": "(413) 350-5911", "distance": 6752.176807966876}, {"id": "jilRIDbiEEtDhi4hnV6Oug", "alias": "local-burgy-williamsburg", "name": "Local Burgy", "image_url": "https://s3-media2.fl.yelpcdn.com/bphoto/V9kmP6sTF9MSAXbNKLptZw/o.jpg", "is_closed": false, "url": "https://www.yelp.com/biz/local-burgy-williamsburg?adjust_creative=wVJJqwOt_3apsoGmwgRWnw&utm_campaign=yelp_api_v3&utm_medium=api_v3_business_search&utm_source=wVJJqwOt_3apsoGmwgRWnw", "review_count": 23, "categories": [{"alias": "bbq", "title": "Barbeque"}, {"alias": "foodstands", "title": "Food Stands"}, {"alias": "burgers", "title": "Burgers"}], "rating": 4.5, "coordinates": {"latitude": 42.3818416889538, "longitude": -72.7114339380672}, "transactions": [], "price": "$$", "location": {"address1": "93 Main St", "address2": "", "address3": null, "city": "Williamsburg", "zip_code": "01039", "country": "US", "state": "MA", "display_address": ["93 Main St", "Williamsburg, MA 01039"]}, "phone": "+14132688300", "display_phone": "(413) 268-8300", "distance": 7641.1534167163145}, {"id": "uzplqOLK7sx5gV3DYURn1Q", "alias": "goten-of-japan-sunderland", "name": "Goten of Japan", "image_url": "https://s3-media1.fl.yelpcdn.com/bphoto/cGjbWaxmcdOjijjzYz5Rsw/o.jpg", "is_closed": false, "url": "https://www.yelp.com/biz/goten-of-japan-sunderland?adjust_creative=wVJJqwOt_3apsoGmwgRWnw&utm_campaign=yelp_api_v3&utm_medium=api_v3_business_search&utm_source=wVJJqwOt_3apsoGmwgRWnw", "review_count": 105, "categories": [{"alias": "sushi", "title": "Sushi Bars"}, {"alias": "teppanyaki", "title": "Teppanyaki"}], "rating": 4.0, "coordinates": {"latitude": 42.45876, "longitude": -72.5722}, "transactions": ["delivery"], "price": "$$", "location": {"address1": "104 Old Amherst Rd", "address2": "", "address3": "", "city": "Sunderland", "zip_code": "01375", "country": "US", "state": "MA", "display_address": ["104 Old Amherst Rd", "Sunderland, MA 01375"]}, "phone": "+14136653628", "display_phone": "(413) 665-3628", "distance": 6960.339101769036}, {"id": "GozHnnsLBsvS2fbgyIugXw", "alias": "muffins-general-market-whately", "name": "Muffin's General Market", "image_url": "https://s3-media2.fl.yelpcdn.com/bphoto/I5w5JBJ5aHfLKOP1SWjgaQ/o.jpg", "is_closed": false, "url": "https://www.yelp.com/biz/muffins-general-market-whately?adjust_creative=wVJJqwOt_3apsoGmwgRWnw&utm_campaign=yelp_api_v3&utm_medium=api_v3_business_search&utm_source=wVJJqwOt_3apsoGmwgRWnw", "review_count": 7, "categories": [{"alias": "breakfast_brunch", "title": "Breakfast & Brunch"}, {"alias": "beer_and_wine", "title": "Beer, Wine & Spirits"}, {"alias": "delis", "title": "Delis"}], "rating": 4.0, "coordinates": {"latitude": 42.41856, "longitude": -72.62037}, "transactions": ["pickup", "delivery"], "price": "$", "location": {"address1": "28 State Rd", "address2": "", "address3": null, "city": "Whately", "zip_code": "01373", "country": "US", "state": "MA", "display_address": ["28 State Rd", "Whately, MA 01373"]}, "phone": "+14133973372", "display_phone": "(413) 397-3372", "distance": 2917.1731561201354}, {"id": "pSPnC1hcf-CO-uMQJF0NQQ", "alias": "bba-deli-market-south-deerfield", "name": "BBA Deli Market", "image_url": "https://s3-media3.fl.yelpcdn.com/bphoto/G0HZIKIZczmS5vnYNRPpdw/o.jpg", "is_closed": false, "url": "https://www.yelp.com/biz/bba-deli-market-south-deerfield?adjust_creative=wVJJqwOt_3apsoGmwgRWnw&utm_campaign=yelp_api_v3&utm_medium=api_v3_business_search&utm_source=wVJJqwOt_3apsoGmwgRWnw", "review_count": 21, "categories": [{"alias": "delis", "title": "Delis"}, {"alias": "polish", "title": "Polish"}, {"alias": "gourmet", "title": "Specialty Food"}], "rating": 4.5, "coordinates": {"latitude": 42.472156, "longitude": -72.608634}, "transactions": ["delivery"], "price": "$", "location": {"address1": "39 Thayer St", "address2": "", "address3": "", "city": "South Deerfield", "zip_code": "01373", "country": "US", "state": "MA", "display_address": ["39 Thayer St", "South Deerfield, MA 01373"]}, "phone": "+14136659171", "display_phone": "(413) 665-9171", "distance": 5470.4374768654725}, {"id": "B9mlcSelTLSmYp3UQlMCxw", "alias": "holiday-pizza-south-deerfield", "name": "Holiday Pizza", "image_url": "https://s3-media2.fl.yelpcdn.com/bphoto/5UGIRfPb-Pw3YWCxfalkfw/o.jpg", "is_closed": false, "url": "https://www.yelp.com/biz/holiday-pizza-south-deerfield?adjust_creative=wVJJqwOt_3apsoGmwgRWnw&utm_campaign=yelp_api_v3&utm_medium=api_v3_business_search&utm_source=wVJJqwOt_3apsoGmwgRWnw", "review_count": 33, "categories": [{"alias": "pizza", "title": "Pizza"}, {"alias": "mediterranean", "title": "Mediterranean"}, {"alias": "italian", "title": "Italian"}], "rating": 4.5, "coordinates": {"latitude": 42.4771728515625, "longitude": -72.609130859375}, "transactions": ["delivery"], "price": "$", "location": {"address1": "3 Elm St", "address2": "Ste A", "address3": "", "city": "South Deerfield", "zip_code": "01373", "country": "US", "state": "MA", "display_address": ["3 Elm St", "Ste A", "South Deerfield, MA 01373"]}, "phone": "+14136658195", "display_phone": "(413) 665-8195", "distance": 5902.183912829727}, {"id": "O-cuf9gqctm096VCcM79Lg", "alias": "conway-inn-conway", "name": "Conway Inn", "image_url": "https://s3-media2.fl.yelpcdn.com/bphoto/PkYRlRCqQCTdb2bqT10Y3A/o.jpg", "is_closed": false, "url": "https://www.yelp.com/biz/conway-inn-conway?adjust_creative=wVJJqwOt_3apsoGmwgRWnw&utm_campaign=yelp_api_v3&utm_medium=api_v3_business_search&utm_source=wVJJqwOt_3apsoGmwgRWnw", "review_count": 6, "categories": [{"alias": "bars", "title": "Bars"}, {"alias": "pizza", "title": "Pizza"}], "rating": 4.5, "coordinates": {"latitude": 42.5087199, "longitude": -72.69772}, "transactions": [], "price": "$", "location": {"address1": "43 Main", "address2": "", "address3": "", "city": "Conway", "zip_code": "01341", "country": "US", "state": "MA", "display_address": ["43 Main", "Conway, MA 01341"]}, "phone": "+14133694428", "display_phone": "(413) 369-4428", "distance": 9219.882827859386}, {"id": "h33tLUMqn4OoS_WWpryfOQ", "alias": "whately-diner-whately-2", "name": "Whately Diner", "image_url": "https://s3-media4.fl.yelpcdn.com/bphoto/DBvU4Xihx_181DNp9oyR8w/o.jpg", "is_closed": false, "url": "https://www.yelp.com/biz/whately-diner-whately-2?adjust_creative=wVJJqwOt_3apsoGmwgRWnw&utm_campaign=yelp_api_v3&utm_medium=api_v3_business_search&utm_source=wVJJqwOt_3apsoGmwgRWnw", "review_count": 102, "categories": [{"alias": "diners", "title": "Diners"}, {"alias": "tradamerican", "title": "American (Traditional)"}], "rating": 3.0, "coordinates": {"latitude": 42.4640578, "longitude": -72.618024}, "transactions": ["delivery"], "price": "$$", "location": {"address1": "372 State Rd", "address2": "", "address3": "", "city": "Whately", "zip_code": "01093", "country": "US", "state": "MA", "display_address": ["372 State Rd", "Whately, MA 01093"]}, "phone": "+14136653696", "display_phone": "(413) 665-3696", "distance": 4294.984408018199}, {"id": "ujdYCeulx68Mfdf4pvbxYg", "alias": "grill-n-chill-hatfield", "name": "Grill N Chill", "image_url": "https://s3-media1.fl.yelpcdn.com/bphoto/6_ORnjaKTNiU_12QB0U-5w/o.jpg", "is_closed": false, "url": "https://www.yelp.com/biz/grill-n-chill-hatfield?adjust_creative=wVJJqwOt_3apsoGmwgRWnw&utm_campaign=yelp_api_v3&utm_medium=api_v3_business_search&utm_source=wVJJqwOt_3apsoGmwgRWnw", "review_count": 14, "categories": [{"alias": "newamerican", "title": "American (New)"}, {"alias": "pizza", "title": "Pizza"}], "rating": 3.5, "coordinates": {"latitude": 42.359764, "longitude": -72.625832}, "transactions": ["delivery"], "price": "$$", "location": {"address1": "127 Elm St", "address2": "", "address3": "", "city": "Hatfield", "zip_code": "01038", "country": "US", "state": "MA", "display_address": ["127 Elm St", "Hatfield, MA 01038"]}, "phone": "+14132475044", "display_phone": "(413) 247-5044", "distance": 8448.068694573043}, {"id": "YTfiTaawGtWf9CX5a64UNQ", "alias": "ciesluks-market-south-deerfield", "name": "Ciesluk's Market", "image_url": "https://s3-media4.fl.yelpcdn.com/bphoto/kMtgDkcjeQBIp-1SVychMw/o.jpg", "is_closed": false, "url": "https://www.yelp.com/biz/ciesluks-market-south-deerfield?adjust_creative=wVJJqwOt_3apsoGmwgRWnw&utm_campaign=yelp_api_v3&utm_medium=api_v3_business_search&utm_source=wVJJqwOt_3apsoGmwgRWnw", "review_count": 5, "categories": [{"alias": "grocery", "title": "Grocery"}, {"alias": "bakeries", "title": "Bakeries"}, {"alias": "delis", "title": "Delis"}], "rating": 4.5, "coordinates": {"latitude": 42.47767, "longitude": -72.60843}, "transactions": [], "location": {"address1": "55C N Main St", "address2": null, "address3": "", "city": "South Deerfield", "zip_code": "01373", "country": "US", "state": "MA", "display_address": ["55C N Main St", "South Deerfield, MA 01373"]}, "phone": "+14133973574", "display_phone": "(413) 397-3574", "distance": 5984.578451341341}, {"id": "RkqQC9cvFa12pCWn2leGig", "alias": "fishtales-bar-and-grill-hatfield-4", "name": "Fishtales Bar & Grill", "image_url": "https://s3-media4.fl.yelpcdn.com/bphoto/vcdupOaCugnkyzCp8XqV6Q/o.jpg", "is_closed": false, "url": "https://www.yelp.com/biz/fishtales-bar-and-grill-hatfield-4?adjust_creative=wVJJqwOt_3apsoGmwgRWnw&utm_campaign=yelp_api_v3&utm_medium=api_v3_business_search&utm_source=wVJJqwOt_3apsoGmwgRWnw", "review_count": 45, "categories": [{"alias": "bars", "title": "Bars"}, {"alias": "seafood", "title": "Seafood"}, {"alias": "sandwiches", "title": "Sandwiches"}], "rating": 3.0, "coordinates": {"latitude": 42.3731853, "longitude": -72.5982296}, "transactions": ["delivery"], "price": "$$", "location": {"address1": "5 School St", "address2": "", "address3": "", "city": "Hatfield", "zip_code": "01038", "country": "US", "state": "MA", "display_address": ["5 School St", "Hatfield, MA 01038"]}, "phone": "+14133494100", "display_phone": "(413) 349-4100", "distance": 7956.087553556807}, {"id": "z8ibbohpxOO6gaJHb0krUA", "alias": "bridgeside-grille-sunderland-3", "name": "BridgeSide Grille", "image_url": "https://s3-media1.fl.yelpcdn.com/bphoto/KqszBqT0JeFVOheneOgKVQ/o.jpg", "is_closed": false, "url": "https://www.yelp.com/biz/bridgeside-grille-sunderland-3?adjust_creative=wVJJqwOt_3apsoGmwgRWnw&utm_campaign=yelp_api_v3&utm_medium=api_v3_business_search&utm_source=wVJJqwOt_3apsoGmwgRWnw", "review_count": 52, "categories": [{"alias": "tradamerican", "title": "American (Traditional)"}], "rating": 3.0, "coordinates": {"latitude": 42.465655, "longitude": -72.57859}, "transactions": ["pickup", "delivery"], "price": "$$", "location": {"address1": "9 Amherst Rd", "address2": "", "address3": "", "city": "Sunderland", "zip_code": "01375", "country": "US", "state": "MA", "display_address": ["9 Amherst Rd", "Sunderland, MA 01375"]}, "phone": "+14133978101", "display_phone": "(413) 397-8101", "distance": 6896.814926866701}, {"id": "_19rex6zqPyQgsSAgqsFYg", "alias": "williamsburg-snack-bar-haydenville", "name": "Williamsburg Snack Bar", "image_url": "https://s3-media2.fl.yelpcdn.com/bphoto/2sme__nhtRSb_ViggNHK9g/o.jpg", "is_closed": false, "url": "https://www.yelp.com/biz/williamsburg-snack-bar-haydenville?adjust_creative=wVJJqwOt_3apsoGmwgRWnw&utm_campaign=yelp_api_v3&utm_medium=api_v3_business_search&utm_source=wVJJqwOt_3apsoGmwgRWnw", "review_count": 59, "categories": [{"alias": "sandwiches", "title": "Sandwiches"}], "rating": 4.5, "coordinates": {"latitude": 42.380499, "longitude": -72.707228}, "transactions": [], "price": "$", "location": {"address1": "109 Main St", "address2": "", "address3": "", "city": "Haydenville", "zip_code": "01039", "country": "US", "state": "MA", "display_address": ["109 Main St", "Haydenville, MA 01039"]}, "phone": "+14132687556", "display_phone": "(413) 268-7556", "distance": 7534.861428425434}, {"id": "TdZplOy0Nm7kMNpnEgo_kA", "alias": "dimos-restaurant-sunderland", "name": "Dimo's Restaurant", "image_url": "", "is_closed": false, "url": "https://www.yelp.com/biz/dimos-restaurant-sunderland?adjust_creative=wVJJqwOt_3apsoGmwgRWnw&utm_campaign=yelp_api_v3&utm_medium=api_v3_business_search&utm_source=wVJJqwOt_3apsoGmwgRWnw", "review_count": 11, "categories": [{"alias": "tradamerican", "title": "American (Traditional)"}], "rating": 3.0, "coordinates": {"latitude": 42.467481, "longitude": -72.578504}, "transactions": [], "price": "$$", "location": {"address1": "118 N Main St", "address2": "", "address3": "", "city": "Sunderland", "zip_code": "01375", "country": "US", "state": "MA", "display_address": ["118 N Main St", "Sunderland, MA 01375"]}, "phone": "+14136654444", "display_phone": "(413) 665-4444", "distance": 6985.439182788221}, {"id": "zKiHmDHXaZVVYVe4Qm1nTg", "alias": "hillside-pizza-south-deerfield", "name": "Hillside Pizza", "image_url": "https://s3-media3.fl.yelpcdn.com/bphoto/qkuJnc_RVLnY4uz3HXBbcg/o.jpg", "is_closed": false, "url": "https://www.yelp.com/biz/hillside-pizza-south-deerfield?adjust_creative=wVJJqwOt_3apsoGmwgRWnw&utm_campaign=yelp_api_v3&utm_medium=api_v3_business_search&utm_source=wVJJqwOt_3apsoGmwgRWnw", "review_count": 23, "categories": [{"alias": "pizza", "title": "Pizza"}], "rating": 4.5, "coordinates": {"latitude": 42.50779, "longitude": -72.606161}, "transactions": ["delivery"], "price": "$$", "location": {"address1": "265 Greenfield Rd", "address2": "", "address3": "", "city": "South Deerfield", "zip_code": "01373", "country": "US", "state": "MA", "display_address": ["265 Greenfield Rd", "South Deerfield, MA 01373"]}, "phone": "+14136655533", "display_phone": "(413) 665-5533", "distance": 9007.041896054161}, {"id": "YbZg252i3vJ9wmf-gsgUog", "alias": "panda-garden-williamsburg", "name": "Panda Garden", "image_url": "https://s3-media1.fl.yelpcdn.com/bphoto/GR__trIJi5zuhynUKh7owA/o.jpg", "is_closed": false, "url": "https://www.yelp.com/biz/panda-garden-williamsburg?adjust_creative=wVJJqwOt_3apsoGmwgRWnw&utm_campaign=yelp_api_v3&utm_medium=api_v3_business_search&utm_source=wVJJqwOt_3apsoGmwgRWnw", "review_count": 29, "categories": [{"alias": "chinese", "title": "Chinese"}], "rating": 3.0, "coordinates": {"latitude": 42.4294774979353, "longitude": -72.7925515919924}, "transactions": ["pickup", "delivery"], "price": "$$", "location": {"address1": "49 Main St", "address2": "", "address3": "", "city": "Williamsburg", "zip_code": "01096", "country": "US", "state": "MA", "display_address": ["49 Main St", "Williamsburg, MA 01096"]}, "phone": "+14132688811", "display_phone": "(413) 268-8811", "distance": 7565.5647106320175}, {"id": "NZHMfENo3z9WKmlntJzoQA", "alias": "primo-restaurant-and-pizzeria-south-deerfield", "name": "Primo Restaurant and Pizzeria", "image_url": "https://s3-media2.fl.yelpcdn.com/bphoto/6IziWJ7o2qxR7as40bhJ2Q/o.jpg", "is_closed": false, "url": "https://www.yelp.com/biz/primo-restaurant-and-pizzeria-south-deerfield?adjust_creative=wVJJqwOt_3apsoGmwgRWnw&utm_campaign=yelp_api_v3&utm_medium=api_v3_business_search&utm_source=wVJJqwOt_3apsoGmwgRWnw", "review_count": 32, "categories": [{"alias": "pizza", "title": "Pizza"}, {"alias": "italian", "title": "Italian"}, {"alias": "burgers", "title": "Burgers"}], "rating": 2.5, "coordinates": {"latitude": 42.47667, "longitude": -72.60749}, "transactions": ["delivery"], "price": "$", "location": {"address1": "4 Sugarloaf St", "address2": "", "address3": "", "city": "South Deerfield", "zip_code": "01373", "country": "US", "state": "MA", "display_address": ["4 Sugarloaf St", "South Deerfield, MA 01373"]}, "phone": "+14136653300", "display_phone": "(413) 665-3300", "distance": 5939.321124637139}, {"id": "e8ZEjMpyR0yUdEdBdlYiJQ", "alias": "new-golden-china-restaurant-south-deerfield", "name": "New Golden China Restaurant", "image_url": "https://s3-media3.fl.yelpcdn.com/bphoto/8wVKYBzZqtc0BHauql8UvA/o.jpg", "is_closed": false, "url": "https://www.yelp.com/biz/new-golden-china-restaurant-south-deerfield?adjust_creative=wVJJqwOt_3apsoGmwgRWnw&utm_campaign=yelp_api_v3&utm_medium=api_v3_business_search&utm_source=wVJJqwOt_3apsoGmwgRWnw", "review_count": 17, "categories": [{"alias": "chinese", "title": "Chinese"}], "rating": 3.5, "coordinates": {"latitude": 42.4765968322754, "longitude": -72.6094131469727}, "transactions": ["delivery"], "price": "$$", "location": {"address1": "45 S Main St", "address2": "", "address3": "", "city": "South Deerfield", "zip_code": "01373", "country": "US", "state": "MA", "display_address": ["45 S Main St", "South Deerfield, MA 01373"]}, "phone": "+14136653365", "display_phone": "(413) 665-3365", "distance": 5836.5557602797635}, {"id": "TIm9N1EDtxj_WR95fwR5Ow", "alias": "a-1-hilltown-pizza-williamsburg", "name": "A-1 Hilltown Pizza", "image_url": "https://s3-media3.fl.yelpcdn.com/bphoto/SjPcoIjB8ZpuMJKMc9pyhw/o.jpg", "is_closed": false, "url": "https://www.yelp.com/biz/a-1-hilltown-pizza-williamsburg?adjust_creative=wVJJqwOt_3apsoGmwgRWnw&utm_campaign=yelp_api_v3&utm_medium=api_v3_business_search&utm_source=wVJJqwOt_3apsoGmwgRWnw", "review_count": 13, "categories": [{"alias": "pizza", "title": "Pizza"}], "rating": 3.5, "coordinates": {"latitude": 42.391134, "longitude": -72.724329}, "transactions": [], "price": "$$", "location": {"address1": "35 Main St", "address2": "", "address3": "", "city": "Williamsburg", "zip_code": "01096", "country": "US", "state": "MA", "display_address": ["35 Main St", "Williamsburg, MA 01096"]}, "phone": "+14132680202", "display_phone": "(413) 268-0202", "distance": 7702.538349693666}, {"id": "epqJjZou4WhvNHm3YI0yaw", "alias": "doves-nest-restaurant-sunderland", "name": "Dove's Nest Restaurant", "image_url": "https://s3-media2.fl.yelpcdn.com/bphoto/lZaim-3fpRBkNFOC81btZQ/o.jpg", "is_closed": false, "url": "https://www.yelp.com/biz/doves-nest-restaurant-sunderland?adjust_creative=wVJJqwOt_3apsoGmwgRWnw&utm_campaign=yelp_api_v3&utm_medium=api_v3_business_search&utm_source=wVJJqwOt_3apsoGmwgRWnw", "review_count": 24, "categories": [{"alias": "diners", "title": "Diners"}, {"alias": "breakfast_brunch", "title": "Breakfast & Brunch"}], "rating": 4.0, "coordinates": {"latitude": 42.4512326907386, "longitude": -72.5632996993883}, "transactions": [], "price": "$", "location": {"address1": "285 Amherst Rd", "address2": "", "address3": "", "city": "Sunderland", "zip_code": "01375", "country": "US", "state": "MA", "display_address": ["285 Amherst Rd", "Sunderland, MA 01375"]}, "phone": "+14136657969", "display_phone": "(413) 665-7969", "distance": 7394.735797591794}, {"id": "5kNSVF1ZIFz1yu9U4r2bzw", "alias": "bakers-country-store-conway", "name": "Bakers Country Store", "image_url": "", "is_closed": false, "url": "https://www.yelp.com/biz/bakers-country-store-conway?adjust_creative=wVJJqwOt_3apsoGmwgRWnw&utm_campaign=yelp_api_v3&utm_medium=api_v3_business_search&utm_source=wVJJqwOt_3apsoGmwgRWnw", "review_count": 1, "categories": [{"alias": "breakfast_brunch", "title": "Breakfast & Brunch"}], "rating": 1.0, "coordinates": {"latitude": 42.50851, "longitude": -72.701994}, "transactions": [], "location": {"address1": "101 River St", "address2": "", "address3": "", "city": "Conway", "zip_code": "01341", "country": "US", "state": "MA", "display_address": ["101 River St", "Conway, MA 01341"]}, "phone": "+14133694936", "display_phone": "(413) 369-4936", "distance": 9352.735521916764}, {"id": "Bg_8P9_cODuGHbbHA3U8VQ", "alias": "sugarloaf-frostie-sunderland", "name": "Sugarloaf Frostie", "image_url": "https://s3-media2.fl.yelpcdn.com/bphoto/rqdpJK2QJOhKcxkGlbAiZQ/o.jpg", "is_closed": false, "url": "https://www.yelp.com/biz/sugarloaf-frostie-sunderland?adjust_creative=wVJJqwOt_3apsoGmwgRWnw&utm_campaign=yelp_api_v3&utm_medium=api_v3_business_search&utm_source=wVJJqwOt_3apsoGmwgRWnw", "review_count": 23, "categories": [{"alias": "foodstands", "title": "Food Stands"}], "rating": 3.5, "coordinates": {"latitude": 42.464494, "longitude": -72.574273}, "transactions": [], "price": "$", "location": {"address1": "116 Amherst Rd", "address2": "", "address3": "", "city": "Sunderland", "zip_code": "01375", "country": "US", "state": "MA", "display_address": ["116 Amherst Rd", "Sunderland, MA 01375"]}, "phone": "+14136657585", "display_phone": "(413) 665-7585", "distance": 7113.943514863774}, {"id": "YZvXTxzycSpl0thbZbA62Q", "alias": "frontier-pizza-place-sunderland", "name": "Frontier Pizza Place", "image_url": "https://s3-media2.fl.yelpcdn.com/bphoto/bRpCBgRHsJrY_hojQ5VK7A/o.jpg", "is_closed": false, "url": "https://www.yelp.com/biz/frontier-pizza-place-sunderland?adjust_creative=wVJJqwOt_3apsoGmwgRWnw&utm_campaign=yelp_api_v3&utm_medium=api_v3_business_search&utm_source=wVJJqwOt_3apsoGmwgRWnw", "review_count": 30, "categories": [{"alias": "pizza", "title": "Pizza"}], "rating": 3.0, "coordinates": {"latitude": 42.450953, "longitude": -72.562729}, "transactions": ["delivery"], "price": "$$", "location": {"address1": "283 Amherst Rd", "address2": "Rte 116", "address3": "", "city": "Sunderland", "zip_code": "01375", "country": "US", "state": "MA", "display_address": ["283 Amherst Rd", "Rte 116", "Sunderland, MA 01375"]}, "phone": "+14136657066", "display_phone": "(413) 665-7066", "distance": 7431.767807453882}, {"id": "_bXSHicL1fVAG-RhwxJYPQ", "alias": "subway-south-deerfield-3", "name": "Subway", "image_url": "https://s3-media3.fl.yelpcdn.com/bphoto/X8kbX68KBbQAXsBH5t-8rw/o.jpg", "is_closed": false, "url": "https://www.yelp.com/biz/subway-south-deerfield-3?adjust_creative=wVJJqwOt_3apsoGmwgRWnw&utm_campaign=yelp_api_v3&utm_medium=api_v3_business_search&utm_source=wVJJqwOt_3apsoGmwgRWnw", "review_count": 2, "categories": [{"alias": "sandwiches", "title": "Sandwiches"}], "rating": 3.0, "coordinates": {"latitude": 42.4708609610147, "longitude": -72.6158315565979}, "transactions": [], "price": "$", "location": {"address1": "1 Greenfield Rd", "address2": null, "address3": null, "city": "South Deerfield", "zip_code": "01373", "country": "US", "state": "MA", "display_address": ["1 Greenfield Rd", "South Deerfield, MA 01373"]}, "phone": "+14136659830", "display_phone": "(413) 665-9830", "distance": 5012.692541675178}, {"id": "vhMAnf6-he-QpsXVqMe_WQ", "alias": "hot-table-hadley", "name": "Hot Table", "image_url": "https://s3-media4.fl.yelpcdn.com/bphoto/FbW5EUrHsd9_oLPvQok-YQ/o.jpg", "is_closed": false, "url": "https://www.yelp.com/biz/hot-table-hadley?adjust_creative=wVJJqwOt_3apsoGmwgRWnw&utm_campaign=yelp_api_v3&utm_medium=api_v3_business_search&utm_source=wVJJqwOt_3apsoGmwgRWnw", "review_count": 41, "categories": [{"alias": "sandwiches", "title": "Sandwiches"}, {"alias": "salad", "title": "Salad"}, {"alias": "coffee", "title": "Coffee & Tea"}], "rating": 4.0, "coordinates": {"latitude": 42.35744, "longitude": -72.55198}, "transactions": ["delivery"], "price": "$", "location": {"address1": "344 Russell St", "address2": "", "address3": "", "city": "Hadley", "zip_code": "01035", "country": "US", "state": "MA", "display_address": ["344 Russell St", "Hadley, MA 01035"]}, "phone": "+14133870331", "display_phone": "(413) 387-0331", "distance": 11644.967007981297}, {"id": "NypGgpHGkW_VrZwYlcf7ag", "alias": "subway-sunderland-9", "name": "Subway", "image_url": "https://s3-media1.fl.yelpcdn.com/bphoto/nWFOwe3ieLFVGShR7NazoA/o.jpg", "is_closed": false, "url": "https://www.yelp.com/biz/subway-sunderland-9?adjust_creative=wVJJqwOt_3apsoGmwgRWnw&utm_campaign=yelp_api_v3&utm_medium=api_v3_business_search&utm_source=wVJJqwOt_3apsoGmwgRWnw", "review_count": 1, "categories": [{"alias": "sandwiches", "title": "Sandwiches"}], "rating": 4.0, "coordinates": {"latitude": 42.4507409061699, "longitude": -72.5608282907318}, "transactions": [], "price": "$", "location": {"address1": "5C Clark Mountain Rd", "address2": null, "address3": "", "city": "Sunderland", "zip_code": "01375", "country": "US", "state": "MA", "display_address": ["5C Clark Mountain Rd", "Sunderland, MA 01375"]}, "phone": "+14136650900", "display_phone": "(413) 665-0900", "distance": 7576.520923650254}, {"id": "0pFLeP_Xjxhf2dM-5Orw4w", "alias": "subway-sunderland-4", "name": "Subway", "image_url": "", "is_closed": false, "url": "https://www.yelp.com/biz/subway-sunderland-4?adjust_creative=wVJJqwOt_3apsoGmwgRWnw&utm_campaign=yelp_api_v3&utm_medium=api_v3_business_search&utm_source=wVJJqwOt_3apsoGmwgRWnw", "review_count": 2, "categories": [{"alias": "sandwiches", "title": "Sandwiches"}, {"alias": "hotdogs", "title": "Fast Food"}], "rating": 3.5, "coordinates": {"latitude": 42.464704, "longitude": -72.5758}, "transactions": [], "price": "$", "location": {"address1": "45 Amherst Rd", "address2": "", "address3": "", "city": "Sunderland", "zip_code": "01375", "country": "US", "state": "MA", "display_address": ["45 Amherst Rd", "Sunderland, MA 01375"]}, "phone": "+14136650900", "display_phone": "(413) 665-0900", "distance": 7017.176081042663}, {"id": "aSBjd6oZCu-HvXKxX2qNtA", "alias": "moes-southwest-grill-hadley", "name": "Moe's Southwest Grill", "image_url": "https://s3-media1.fl.yelpcdn.com/bphoto/pqlMptfaORCa90jWasP_bA/o.jpg", "is_closed": false, "url": "https://www.yelp.com/biz/moes-southwest-grill-hadley?adjust_creative=wVJJqwOt_3apsoGmwgRWnw&utm_campaign=yelp_api_v3&utm_medium=api_v3_business_search&utm_source=wVJJqwOt_3apsoGmwgRWnw", "review_count": 29, "categories": [{"alias": "mexican", "title": "Mexican"}, {"alias": "tex-mex", "title": "Tex-Mex"}], "rating": 2.5, "coordinates": {"latitude": 42.3593230862871, "longitude": -72.5475931540132}, "transactions": ["pickup", "delivery"], "price": "$", "location": {"address1": "379 Russell St", "address2": "", "address3": "", "city": "Hadley", "zip_code": "01035", "country": "US", "state": "MA", "display_address": ["379 Russell St", "Hadley, MA 01035"]}, "phone": "+14133870266", "display_phone": "(413) 387-0266", "distance": 11796.306985995634}, {"id": "pdoNdba03NXOdhaDIFkKcg", "alias": "taco-bell-hadley-2", "name": "Taco Bell", "image_url": "https://s3-media3.fl.yelpcdn.com/bphoto/de8hGnyx0GvBnl1uDq9fkQ/o.jpg", "is_closed": false, "url": "https://www.yelp.com/biz/taco-bell-hadley-2?adjust_creative=wVJJqwOt_3apsoGmwgRWnw&utm_campaign=yelp_api_v3&utm_medium=api_v3_business_search&utm_source=wVJJqwOt_3apsoGmwgRWnw", "review_count": 21, "categories": [{"alias": "hotdogs", "title": "Fast Food"}, {"alias": "tacos", "title": "Tacos"}], "rating": 3.0, "coordinates": {"latitude": 42.358228, "longitude": -72.551169}, "transactions": ["delivery"], "price": "$", "location": {"address1": "348 Russell Street", "address2": "", "address3": "", "city": "Hadley", "zip_code": "01035", "country": "US", "state": "MA", "display_address": ["348 Russell Street", "Hadley, MA 01035"]}, "phone": "+14135842391", "display_phone": "(413) 584-2391", "distance": 11675.550007653776}, {"id": "nF8R1_vtuVntHLpUN3UoVg", "alias": "wendys-hadley", "name": "Wendy's", "image_url": "https://s3-media4.fl.yelpcdn.com/bphoto/R-xzUZQ03uv1D78-sVBY9A/o.jpg", "is_closed": false, "url": "https://www.yelp.com/biz/wendys-hadley?adjust_creative=wVJJqwOt_3apsoGmwgRWnw&utm_campaign=yelp_api_v3&utm_medium=api_v3_business_search&utm_source=wVJJqwOt_3apsoGmwgRWnw", "review_count": 18, "categories": [{"alias": "hotdogs", "title": "Fast Food"}, {"alias": "burgers", "title": "Burgers"}], "rating": 1.5, "coordinates": {"latitude": 42.359309, "longitude": -72.548843}, "transactions": ["delivery"], "price": "$", "location": {"address1": "376 Russell Street", "address2": "", "address3": "", "city": "Hadley", "zip_code": "01035", "country": "US", "state": "MA", "display_address": ["376 Russell Street", "Hadley, MA 01035"]}, "phone": "+14135173968", "display_phone": "(413) 517-3968", "distance": 11723.034042853333}, {"id": "0p8H5orIBw7Ba-a4czpzhA", "alias": "mcdonalds-hadley", "name": "McDonald's", "image_url": "https://s3-media2.fl.yelpcdn.com/bphoto/cvUP4skZ7jwsuynnXX52Yg/o.jpg", "is_closed": false, "url": "https://www.yelp.com/biz/mcdonalds-hadley?adjust_creative=wVJJqwOt_3apsoGmwgRWnw&utm_campaign=yelp_api_v3&utm_medium=api_v3_business_search&utm_source=wVJJqwOt_3apsoGmwgRWnw", "review_count": 21, "categories": [{"alias": "hotdogs", "title": "Fast Food"}, {"alias": "burgers", "title": "Burgers"}, {"alias": "coffee", "title": "Coffee & Tea"}], "rating": 3.0, "coordinates": {"latitude": 42.358855090675, "longitude": -72.549741268158}, "transactions": [], "price": "$", "location": {"address1": "374 Russell St", "address2": "", "address3": "", "city": "Hadley", "zip_code": "01035", "country": "US", "state": "MA", "display_address": ["374 Russell St", "Hadley, MA 01035"]}, "phone": "+14135820176", "display_phone": "(413) 582-0176", "distance": 11707.880331447892}, {"id": "qqA8YX58xnmEXLyanHfdUg", "alias": "stufd-food-truck-brooklyn", "name": "Stuf'd Food Truck", "image_url": "https://s3-media2.fl.yelpcdn.com/bphoto/_Wn0i-tLIOFinw8BPAqxPA/o.jpg", "is_closed": false, "url": "https://www.yelp.com/biz/stufd-food-truck-brooklyn?adjust_creative=wVJJqwOt_3apsoGmwgRWnw&utm_campaign=yelp_api_v3&utm_medium=api_v3_business_search&utm_source=wVJJqwOt_3apsoGmwgRWnw", "review_count": 4, "categories": [{"alias": "sandwiches", "title": "Sandwiches"}, {"alias": "foodtrucks", "title": "Food Trucks"}], "rating": 4.0, "coordinates": {"latitude": 40.7124539, "longitude": -73.9287374}, "transactions": [], "location": {"address1": "178 Varick Ave", "address2": "", "address3": null, "city": "Brooklyn", "zip_code": "11237", "country": "US", "state": "NY", "display_address": ["178 Varick Ave", "Brooklyn, NY 11237"]}, "phone": "+18457091808", "display_phone": "(845) 709-1808", "distance": 218941.48510982282}]