[{"id": "EIWYPSesdDzsGuMFKnrQQg", "alias": "grille-122-northbridge", "name": "Grille 122", "image_url": "https://s3-media2.fl.yelpcdn.com/bphoto/sqXDj8wvul-BVFZUSW7Ghg/o.jpg", "is_closed": false, "url": "https://www.yelp.com/biz/grille-122-northbridge?adjust_creative=HdhkN5EEH6lAqE3kwhsHEQ&utm_campaign=yelp_api_v3&utm_medium=api_v3_business_search&utm_source=HdhkN5EEH6lAqE3kwhsHEQ", "review_count": 31, "categories": [{"alias": "bars", "title": "Bars"}, {"alias": "tradamerican", "title": "American (Traditional)"}], "rating": 3.0, "coordinates": {"latitude": 42.0997, "longitude": -71.644}, "transactions": [], "price": "$$", "location": {"address1": "91 Providence Rd", "address2": "", "address3": null, "city": "Northbridge", "zip_code": "01588", "country": "US", "state": "MA", "display_address": ["91 Providence Rd", "Northbridge, MA 01588"]}, "phone": "+15083729498", "display_phone": "(508) 372-9498", "distance": 1178.153613279839}, {"id": "1tmvUK4yA3z0VprJ9Rn5ng", "alias": "maison-de-manger-whitinsville", "name": "Maison de Manger", "image_url": "https://s3-media4.fl.yelpcdn.com/bphoto/eRF2lN5iopIe_3xK5yQ8cA/o.jpg", "is_closed": false, "url": "https://www.yelp.com/biz/maison-de-manger-whitinsville?adjust_creative=HdhkN5EEH6lAqE3kwhsHEQ&utm_campaign=yelp_api_v3&utm_medium=api_v3_business_search&utm_source=HdhkN5EEH6lAqE3kwhsHEQ", "review_count": 50, "categories": [{"alias": "creperies", "title": "Creperies"}], "rating": 4.5, "coordinates": {"latitude": 42.0981689248088, "longitude": -71.6459773108363}, "transactions": [], "price": "$$", "location": {"address1": "670 Linwood Ave", "address2": "", "address3": "", "city": "Whitinsville", "zip_code": "01588", "country": "US", "state": "MA", "display_address": ["670 Linwood Ave", "Whitinsville, MA 01588"]}, "phone": "+15083729797", "display_phone": "(508) 372-9797", "distance": 1413.1685555866095}, {"id": "gegTB3Oa-3TnNsqHL_o8pA", "alias": "the-burger-grille-uxbridge", "name": "The Burger Grille", "image_url": "https://s3-media4.fl.yelpcdn.com/bphoto/ZmFcv2QgyB2ZhTplgsDgUw/o.jpg", "is_closed": false, "url": "https://www.yelp.com/biz/the-burger-grille-uxbridge?adjust_creative=HdhkN5EEH6lAqE3kwhsHEQ&utm_campaign=yelp_api_v3&utm_medium=api_v3_business_search&utm_source=HdhkN5EEH6lAqE3kwhsHEQ", "review_count": 88, "categories": [{"alias": "burgers", "title": "Burgers"}, {"alias": "chicken_wings", "title": "Chicken Wings"}, {"alias": "salad", "title": "Salad"}], "rating": 4.0, "coordinates": {"latitude": 42.09016, "longitude": -71.64303}, "transactions": [], "price": "$", "location": {"address1": "316 N Main St", "address2": "", "address3": "", "city": "Uxbridge", "zip_code": "01569", "country": "US", "state": "MA", "display_address": ["316 N Main St", "Uxbridge, MA 01569"]}, "phone": "+15083729090", "display_phone": "(508) 372-9090", "distance": 2004.24403759816}, {"id": "-uN7mgH2147YHuwgQb0iUw", "alias": "the-green-plate-whitinsville-3", "name": "The Green Plate", "image_url": "https://s3-media3.fl.yelpcdn.com/bphoto/QMD1DgjIYzSu-GJSRajR-g/o.jpg", "is_closed": false, "url": "https://www.yelp.com/biz/the-green-plate-whitinsville-3?adjust_creative=HdhkN5EEH6lAqE3kwhsHEQ&utm_campaign=yelp_api_v3&utm_medium=api_v3_business_search&utm_source=HdhkN5EEH6lAqE3kwhsHEQ", "review_count": 26, "categories": [{"alias": "catering", "title": "Caterers"}, {"alias": "gluten_free", "title": "Gluten-Free"}, {"alias": "cafes", "title": "Cafes"}], "rating": 4.5, "coordinates": {"latitude": 42.112744, "longitude": -71.6586675}, "transactions": ["delivery"], "location": {"address1": "167 Church St", "address2": null, "address3": "", "city": "Whitinsville", "zip_code": "01588", "country": "US", "state": "MA", "display_address": ["167 Church St", "Whitinsville, MA 01588"]}, "phone": "+17748130200", "display_phone": "(774) 813-0200", "distance": 2192.1935729196193}, {"id": "GpD-gxtsvv0Y-S_SXzchaA", "alias": "new-china-pacific-restaurant-whitinsville", "name": "New China Pacific Restaurant", "image_url": "https://s3-media1.fl.yelpcdn.com/bphoto/ewieQs_lylCwUI3wdI_eCw/o.jpg", "is_closed": false, "url": "https://www.yelp.com/biz/new-china-pacific-restaurant-whitinsville?adjust_creative=HdhkN5EEH6lAqE3kwhsHEQ&utm_campaign=yelp_api_v3&utm_medium=api_v3_business_search&utm_source=HdhkN5EEH6lAqE3kwhsHEQ", "review_count": 37, "categories": [{"alias": "szechuan", "title": "Szechuan"}, {"alias": "cocktailbars", "title": "Cocktail Bars"}], "rating": 3.0, "coordinates": {"latitude": 42.0985303923564, "longitude": -71.6447227075696}, "transactions": [], "price": "$$", "location": {"address1": "683 Linwood Ave", "address2": "", "address3": "", "city": "Whitinsville", "zip_code": "01588", "country": "US", "state": "MA", "display_address": ["683 Linwood Ave", "Whitinsville, MA 01588"]}, "phone": "+15082348100", "display_phone": "(508) 234-8100", "distance": 1310.320204118859}, {"id": "ZlTXh8usbqrn24Zh4RFPKg", "alias": "kapis-pub-uxbridge", "name": "Kapi's Pub", "image_url": "https://s3-media4.fl.yelpcdn.com/bphoto/o8IYhIiJusheXAtJP53Rsw/o.jpg", "is_closed": false, "url": "https://www.yelp.com/biz/kapis-pub-uxbridge?adjust_creative=HdhkN5EEH6lAqE3kwhsHEQ&utm_campaign=yelp_api_v3&utm_medium=api_v3_business_search&utm_source=HdhkN5EEH6lAqE3kwhsHEQ", "review_count": 20, "categories": [{"alias": "pubs", "title": "Pubs"}, {"alias": "tradamerican", "title": "American (Traditional)"}], "rating": 3.0, "coordinates": {"latitude": 42.0878057754441, "longitude": -71.641791}, "transactions": [], "price": "$$", "location": {"address1": "270 North Main St", "address2": null, "address3": null, "city": "Uxbridge", "zip_code": "01569", "country": "US", "state": "MA", "display_address": ["270 North Main St", "Uxbridge, MA 01569"]}, "phone": "+15082785831", "display_phone": "(508) 278-5831", "distance": 2219.215753511089}, {"id": "LoIq8iKvZkWDueFu864Iow", "alias": "kyoto-sushi-bar-and-grill-northbridge", "name": "Kyoto Sushi Bar & Grill", "image_url": "https://s3-media3.fl.yelpcdn.com/bphoto/GUbWSX3gpmmBVZpOxcq7ug/o.jpg", "is_closed": false, "url": "https://www.yelp.com/biz/kyoto-sushi-bar-and-grill-northbridge?adjust_creative=HdhkN5EEH6lAqE3kwhsHEQ&utm_campaign=yelp_api_v3&utm_medium=api_v3_business_search&utm_source=HdhkN5EEH6lAqE3kwhsHEQ", "review_count": 48, "categories": [{"alias": "japanese", "title": "Japanese"}, {"alias": "sushi", "title": "Sushi Bars"}], "rating": 3.5, "coordinates": {"latitude": 42.113716066928, "longitude": -71.6578243467222}, "transactions": ["delivery"], "price": "$$", "location": {"address1": "185 Church St", "address2": "", "address3": "", "city": "Northbridge", "zip_code": "01588", "country": "US", "state": "MA", "display_address": ["185 Church St", "Northbridge, MA 01588"]}, "phone": "+15083729516", "display_phone": "(508) 372-9516", "distance": 2162.3128983703673}, {"id": "dyIMv5PGbPPsLhyohcNudQ", "alias": "pirates-cove-linwood", "name": "Pirate's Cove", "image_url": "https://s3-media2.fl.yelpcdn.com/bphoto/MJ1L__WC7H9j-AP-5cDNAw/o.jpg", "is_closed": false, "url": "https://www.yelp.com/biz/pirates-cove-linwood?adjust_creative=HdhkN5EEH6lAqE3kwhsHEQ&utm_campaign=yelp_api_v3&utm_medium=api_v3_business_search&utm_source=HdhkN5EEH6lAqE3kwhsHEQ", "review_count": 29, "categories": [{"alias": "seafood", "title": "Seafood"}, {"alias": "icecream", "title": "Ice Cream & Frozen Yogurt"}, {"alias": "hotdog", "title": "Hot Dogs"}], "rating": 3.5, "coordinates": {"latitude": 42.09934, "longitude": -71.64351}, "transactions": [], "price": "$$", "location": {"address1": "74 Providence Rd", "address2": "", "address3": "", "city": "Linwood", "zip_code": "01525", "country": "US", "state": "MA", "display_address": ["74 Providence Rd", "Linwood, MA 01525"]}, "phone": "+15082340700", "display_phone": "(508) 234-0700", "distance": 1192.5524519585433}, {"id": "viPH-ro4y-nZQGTuHCSD0g", "alias": "harrys-famous-pizza-whitinsville", "name": "Harry's Famous Pizza", "image_url": "https://s3-media3.fl.yelpcdn.com/bphoto/OkqPCaMOofW2tszWiBcjuA/o.jpg", "is_closed": false, "url": "https://www.yelp.com/biz/harrys-famous-pizza-whitinsville?adjust_creative=HdhkN5EEH6lAqE3kwhsHEQ&utm_campaign=yelp_api_v3&utm_medium=api_v3_business_search&utm_source=HdhkN5EEH6lAqE3kwhsHEQ", "review_count": 41, "categories": [{"alias": "pizza", "title": "Pizza"}, {"alias": "italian", "title": "Italian"}], "rating": 3.5, "coordinates": {"latitude": 42.113355, "longitude": -71.658354}, "transactions": ["delivery"], "price": "$", "location": {"address1": "185 Church St", "address2": "", "address3": "", "city": "Whitinsville", "zip_code": "01588", "country": "US", "state": "MA", "display_address": ["185 Church St", "Whitinsville, MA 01588"]}, "phone": "+15082345155", "display_phone": "(508) 234-5155", "distance": 2189.3875608991866}, {"id": "4lAc8-rUmNd9ekKpCuykIg", "alias": "the-valley-bean-uxbridge", "name": "The Valley Bean", "image_url": "https://s3-media3.fl.yelpcdn.com/bphoto/BVm_m0Cjjv37Gt4aZJGjew/o.jpg", "is_closed": false, "url": "https://www.yelp.com/biz/the-valley-bean-uxbridge?adjust_creative=HdhkN5EEH6lAqE3kwhsHEQ&utm_campaign=yelp_api_v3&utm_medium=api_v3_business_search&utm_source=HdhkN5EEH6lAqE3kwhsHEQ", "review_count": 13, "categories": [{"alias": "breakfast_brunch", "title": "Breakfast & Brunch"}, {"alias": "sandwiches", "title": "Sandwiches"}, {"alias": "bagels", "title": "Bagels"}], "rating": 4.0, "coordinates": {"latitude": 42.091292, "longitude": -71.643261}, "transactions": [], "location": {"address1": "336 North Main St", "address2": null, "address3": "", "city": "Uxbridge", "zip_code": "01569", "country": "US", "state": "MA", "display_address": ["336 North Main St", "Uxbridge, MA 01569"]}, "phone": "+15087797790", "display_phone": "(508) 779-7790", "distance": 1904.6025469930382}, {"id": "va0TjOKngGsjaqtvlsEzlw", "alias": "nikos-pizza-chicken-and-ribs-north-uxbridge", "name": "Niko's Pizza Chicken & Ribs", "image_url": "https://s3-media3.fl.yelpcdn.com/bphoto/SN1LQY0bE9zDKdOU0o2D8g/o.jpg", "is_closed": false, "url": "https://www.yelp.com/biz/nikos-pizza-chicken-and-ribs-north-uxbridge?adjust_creative=HdhkN5EEH6lAqE3kwhsHEQ&utm_campaign=yelp_api_v3&utm_medium=api_v3_business_search&utm_source=HdhkN5EEH6lAqE3kwhsHEQ", "review_count": 26, "categories": [{"alias": "pizza", "title": "Pizza"}], "rating": 3.5, "coordinates": {"latitude": 42.08901, "longitude": -71.64248}, "transactions": [], "price": "$", "location": {"address1": "294 N Main St", "address2": "", "address3": "", "city": "North Uxbridge", "zip_code": "01538", "country": "US", "state": "MA", "display_address": ["294 N Main St", "North Uxbridge, MA 01538"]}, "phone": "+15082785055", "display_phone": "(508) 278-5055", "distance": 2098.2055526654362}, {"id": "MsIxw9V1uehtUYP3AjmR7A", "alias": "new-england-pizza-and-subs-whitinsville", "name": "New England Pizza & Subs", "image_url": "https://s3-media2.fl.yelpcdn.com/bphoto/dclyiNkaj8cRm0cBRFwkmg/o.jpg", "is_closed": false, "url": "https://www.yelp.com/biz/new-england-pizza-and-subs-whitinsville?adjust_creative=HdhkN5EEH6lAqE3kwhsHEQ&utm_campaign=yelp_api_v3&utm_medium=api_v3_business_search&utm_source=HdhkN5EEH6lAqE3kwhsHEQ", "review_count": 9, "categories": [{"alias": "pizza", "title": "Pizza"}], "rating": 3.0, "coordinates": {"latitude": 42.123285, "longitude": -71.645232}, "transactions": ["pickup", "delivery"], "price": "$", "location": {"address1": "1115 Providence Rd", "address2": "", "address3": "", "city": "Whitinsville", "zip_code": "01588", "country": "US", "state": "MA", "display_address": ["1115 Providence Rd", "Whitinsville, MA 01588"]}, "phone": "+15082341888", "display_phone": "(508) 234-1888", "distance": 2083.0768013315073}, {"id": "1SuoCIw7QxUQsxPVSaqvKA", "alias": "burger-king-whitinsville", "name": "Burger King", "image_url": "https://s3-media1.fl.yelpcdn.com/bphoto/LiLzKEDUM_mBq1ejVofkWw/o.jpg", "is_closed": false, "url": "https://www.yelp.com/biz/burger-king-whitinsville?adjust_creative=HdhkN5EEH6lAqE3kwhsHEQ&utm_campaign=yelp_api_v3&utm_medium=api_v3_business_search&utm_source=HdhkN5EEH6lAqE3kwhsHEQ", "review_count": 12, "categories": [{"alias": "burgers", "title": "Burgers"}, {"alias": "hotdogs", "title": "Fast Food"}], "rating": 2.0, "coordinates": {"latitude": 42.1253046, "longitude": -71.6464458}, "transactions": [], "price": "$", "location": {"address1": "1177 Providence Rd", "address2": "", "address3": "", "city": "Whitinsville", "zip_code": "01588", "country": "US", "state": "MA", "display_address": ["1177 Providence Rd", "Whitinsville, MA 01588"]}, "phone": "", "display_phone": "", "distance": 2189.4254265841982}, {"id": "23cyGoXFdHnwvQvXg0-O_g", "alias": "mcdonalds-whitinsville-2", "name": "McDonald's", "image_url": "https://s3-media3.fl.yelpcdn.com/bphoto/n_RAo9mGBU7uE7Buj1E0Xw/o.jpg", "is_closed": false, "url": "https://www.yelp.com/biz/mcdonalds-whitinsville-2?adjust_creative=HdhkN5EEH6lAqE3kwhsHEQ&utm_campaign=yelp_api_v3&utm_medium=api_v3_business_search&utm_source=HdhkN5EEH6lAqE3kwhsHEQ", "review_count": 8, "categories": [{"alias": "coffee", "title": "Coffee & Tea"}, {"alias": "burgers", "title": "Burgers"}, {"alias": "hotdogs", "title": "Fast Food"}], "rating": 2.5, "coordinates": {"latitude": 42.1255259188669, "longitude": -71.6460567712784}, "transactions": [], "price": "$", "location": {"address1": "1190 Providence Rd", "address2": null, "address3": null, "city": "Whitinsville", "zip_code": "01588", "country": "US", "state": "MA", "display_address": ["1190 Providence Rd", "Whitinsville, MA 01588"]}, "phone": "+15082342960", "display_phone": "(508) 234-2960", "distance": 2335.6495106493103}, {"id": "duBbkV1mz80Vi7ysNoAtTQ", "alias": "crystal-catering-whitinsville", "name": "Crystal Catering", "image_url": "", "is_closed": false, "url": "https://www.yelp.com/biz/crystal-catering-whitinsville?adjust_creative=HdhkN5EEH6lAqE3kwhsHEQ&utm_campaign=yelp_api_v3&utm_medium=api_v3_business_search&utm_source=HdhkN5EEH6lAqE3kwhsHEQ", "review_count": 1, "categories": [{"alias": "servicestations", "title": "Gas Stations"}, {"alias": "autorepair", "title": "Auto Repair"}, {"alias": "catering", "title": "Caterers"}, {"alias": "delis", "title": "Delis"}], "rating": 1.0, "coordinates": {"latitude": 42.112919, "longitude": -71.658243}, "transactions": [], "location": {"address1": "175 Church St", "address2": "", "address3": "", "city": "Whitinsville", "zip_code": "01588", "country": "US", "state": "MA", "display_address": ["175 Church St", "Whitinsville, MA 01588"]}, "phone": "+15082341209", "display_phone": "(508) 234-1209", "distance": 2173.6818052060207}]