[{"id": "IRDbtfi_STNrrinh1V3csg", "alias": "the-rabbit-hole-worthington-3", "name": "The Rabbit Hole", "image_url": "https://s3-media1.fl.yelpcdn.com/bphoto/EdhUcHZXdrg_qRpOyqAsSw/o.jpg", "is_closed": false, "url": "https://www.yelp.com/biz/the-rabbit-hole-worthington-3?adjust_creative=HdhkN5EEH6lAqE3kwhsHEQ&utm_campaign=yelp_api_v3&utm_medium=api_v3_business_search&utm_source=HdhkN5EEH6lAqE3kwhsHEQ", "review_count": 5, "categories": [{"alias": "newamerican", "title": "American (New)"}], "rating": 4.0, "coordinates": {"latitude": 42.40078, "longitude": -72.93759}, "transactions": [], "location": {"address1": "144 Huntington Rd", "address2": null, "address3": "", "city": "Worthington", "zip_code": "01098", "country": "US", "state": "MA", "display_address": ["144 Huntington Rd", "Worthington, MA 01098"]}, "phone": "+14132380144", "display_phone": "(413) 238-0144", "distance": 7626.797298975039}, {"id": "L23iQ-ONcUb0edZeJJX_nA", "alias": "chester-common-table-chester", "name": "Chester Common Table", "image_url": "https://s3-media4.fl.yelpcdn.com/bphoto/DAStUuP7cBK4DbiHf3HhTQ/o.jpg", "is_closed": false, "url": "https://www.yelp.com/biz/chester-common-table-chester?adjust_creative=HdhkN5EEH6lAqE3kwhsHEQ&utm_campaign=yelp_api_v3&utm_medium=api_v3_business_search&utm_source=HdhkN5EEH6lAqE3kwhsHEQ", "review_count": 32, "categories": [{"alias": "comfortfood", "title": "Comfort Food"}, {"alias": "tradamerican", "title": "American (Traditional)"}], "rating": 4.5, "coordinates": {"latitude": 42.280002, "longitude": -72.980058}, "transactions": [], "price": "$$", "location": {"address1": "30 Main St", "address2": null, "address3": "", "city": "Chester", "zip_code": "01011", "country": "US", "state": "MA", "display_address": ["30 Main St", "Chester, MA 01011"]}, "phone": "+14133541076", "display_phone": "(413) 354-1076", "distance": 16321.096137471122}, {"id": "rCi5XRAlbjFJBD05OWfR1A", "alias": "velvet-restaurant-worthington-2", "name": "Velvet Restaurant", "image_url": "https://s3-media3.fl.yelpcdn.com/bphoto/UlVYHq_A04HTAXFdC6ALBA/o.jpg", "is_closed": false, "url": "https://www.yelp.com/biz/velvet-restaurant-worthington-2?adjust_creative=HdhkN5EEH6lAqE3kwhsHEQ&utm_campaign=yelp_api_v3&utm_medium=api_v3_business_search&utm_source=HdhkN5EEH6lAqE3kwhsHEQ", "review_count": 6, "categories": [{"alias": "bars", "title": "Bars"}, {"alias": "newamerican", "title": "American (New)"}], "rating": 4.0, "coordinates": {"latitude": 42.40855, "longitude": -72.94236}, "transactions": [], "location": {"address1": "113 Ridge Rd", "address2": null, "address3": "", "city": "Worthington", "zip_code": "01098", "country": "US", "state": "MA", "display_address": ["113 Ridge Rd", "Worthington, MA 01098"]}, "phone": "+14132384492", "display_phone": "(413) 238-4492", "distance": 8205.715443963123}, {"id": "aw0FDqkiYDIE33KmHW7YHQ", "alias": "listons-bar-and-grill-worthington", "name": "Listons Bar & Grill", "image_url": "https://s3-media2.fl.yelpcdn.com/bphoto/Zw2va6P_vOdum1skN8J6cQ/o.jpg", "is_closed": false, "url": "https://www.yelp.com/biz/listons-bar-and-grill-worthington?adjust_creative=HdhkN5EEH6lAqE3kwhsHEQ&utm_campaign=yelp_api_v3&utm_medium=api_v3_business_search&utm_source=HdhkN5EEH6lAqE3kwhsHEQ", "review_count": 7, "categories": [{"alias": "sportsbars", "title": "Sports Bars"}, {"alias": "tradamerican", "title": "American (Traditional)"}], "rating": 4.5, "coordinates": {"latitude": 42.42713, "longitude": -72.95322}, "transactions": [], "location": {"address1": "324 Old North Rd Rte 143", "address2": "", "address3": null, "city": "Worthington", "zip_code": "01098", "country": "US", "state": "MA", "display_address": ["324 Old North Rd Rte 143", "Worthington, MA 01098"]}, "phone": "+14132385353", "display_phone": "(413) 238-5353", "distance": 9810.233986036563}, {"id": "E0BNgyLQy3WUwFSnMLaQpA", "alias": "high-hopes-farm-worthington", "name": "High Hopes Farm", "image_url": "https://s3-media2.fl.yelpcdn.com/bphoto/VlgVhYdSvdonXZaV59JGtQ/o.jpg", "is_closed": false, "url": "https://www.yelp.com/biz/high-hopes-farm-worthington?adjust_creative=HdhkN5EEH6lAqE3kwhsHEQ&utm_campaign=yelp_api_v3&utm_medium=api_v3_business_search&utm_source=HdhkN5EEH6lAqE3kwhsHEQ", "review_count": 4, "categories": [{"alias": "breakfast_brunch", "title": "Breakfast & Brunch"}], "rating": 5.0, "coordinates": {"latitude": 42.3418042, "longitude": -72.8882095}, "transactions": [], "price": "$$", "location": {"address1": "1132 Huntington Rd", "address2": "", "address3": "", "city": "Worthington", "zip_code": "01098", "country": "US", "state": "MA", "display_address": ["1132 Huntington Rd", "Worthington, MA 01098"]}, "phone": "+14132385919", "display_phone": "(413) 238-5919", "distance": 6235.028214500365}, {"id": "Hz8ENDohZ-ZY2MooPz8-Eg", "alias": "spruce-corner-restaurant-goshen", "name": "Spruce Corner Restaurant", "image_url": "https://s3-media3.fl.yelpcdn.com/bphoto/Vf9B0rulKSpqtTS-E_lQrA/o.jpg", "is_closed": false, "url": "https://www.yelp.com/biz/spruce-corner-restaurant-goshen?adjust_creative=HdhkN5EEH6lAqE3kwhsHEQ&utm_campaign=yelp_api_v3&utm_medium=api_v3_business_search&utm_source=HdhkN5EEH6lAqE3kwhsHEQ", "review_count": 11, "categories": [{"alias": "tradamerican", "title": "American (Traditional)"}], "rating": 4.0, "coordinates": {"latitude": 42.45618, "longitude": -72.832747}, "transactions": [], "price": "$$", "location": {"address1": "188 Berkshire Trl W", "address2": "", "address3": "", "city": "Goshen", "zip_code": "01032", "country": "US", "state": "MA", "display_address": ["188 Berkshire Trl W", "Goshen, MA 01032"]}, "phone": "+14132683188", "display_phone": "(413) 268-3188", "distance": 7614.561996346925}, {"id": "wrtX2ZzygWcN6PPLIJAZwA", "alias": "the-rapids-bar-and-grill-huntington-2", "name": "The Rapids Bar & Grill", "image_url": "https://s3-media3.fl.yelpcdn.com/bphoto/mlUj7X36KYNNjEEXZuNv-Q/o.jpg", "is_closed": false, "url": "https://www.yelp.com/biz/the-rapids-bar-and-grill-huntington-2?adjust_creative=HdhkN5EEH6lAqE3kwhsHEQ&utm_campaign=yelp_api_v3&utm_medium=api_v3_business_search&utm_source=HdhkN5EEH6lAqE3kwhsHEQ", "review_count": 15, "categories": [{"alias": "tradamerican", "title": "American (Traditional)"}, {"alias": "bars", "title": "Bars"}], "rating": 3.5, "coordinates": {"latitude": 42.27658, "longitude": -72.86391}, "transactions": [], "price": "$$", "location": {"address1": "200 Worthington Rd", "address2": null, "address3": "", "city": "Huntington", "zip_code": "01050", "country": "US", "state": "MA", "display_address": ["200 Worthington Rd", "Huntington, MA 01050"]}, "phone": "+14136673300", "display_phone": "(413) 667-3300", "distance": 12477.415764990408}, {"id": "wqQ-cLMbLmxzc_p4jjDSxw", "alias": "the-old-creamery-cummington-2", "name": "The Old Creamery", "image_url": "https://s3-media3.fl.yelpcdn.com/bphoto/suPv8fzXhQdsR8elaUVfzg/o.jpg", "is_closed": false, "url": "https://www.yelp.com/biz/the-old-creamery-cummington-2?adjust_creative=HdhkN5EEH6lAqE3kwhsHEQ&utm_campaign=yelp_api_v3&utm_medium=api_v3_business_search&utm_source=HdhkN5EEH6lAqE3kwhsHEQ", "review_count": 31, "categories": [{"alias": "grocery", "title": "Grocery"}, {"alias": "bakeries", "title": "Bakeries"}, {"alias": "sandwiches", "title": "Sandwiches"}], "rating": 4.5, "coordinates": {"latitude": 42.464115, "longitude": -72.90535}, "transactions": [], "price": "$$", "location": {"address1": "445 Berkshire Trl", "address2": "", "address3": "", "city": "Cummington", "zip_code": "01026", "country": "US", "state": "MA", "display_address": ["445 Berkshire Trl", "Cummington, MA 01026"]}, "phone": "+14136345560", "display_phone": "(413) 634-5560", "distance": 9715.143008422467}, {"id": "1FDg-B7ddSPoZirUJXsdtQ", "alias": "the-ashfield-lake-house-ashfield", "name": "The Ashfield Lake House", "image_url": "https://s3-media4.fl.yelpcdn.com/bphoto/YK6BItbmmR7rbQZzniZojQ/o.jpg", "is_closed": false, "url": "https://www.yelp.com/biz/the-ashfield-lake-house-ashfield?adjust_creative=HdhkN5EEH6lAqE3kwhsHEQ&utm_campaign=yelp_api_v3&utm_medium=api_v3_business_search&utm_source=HdhkN5EEH6lAqE3kwhsHEQ", "review_count": 38, "categories": [{"alias": "bars", "title": "Bars"}, {"alias": "tradamerican", "title": "American (Traditional)"}, {"alias": "comfortfood", "title": "Comfort Food"}], "rating": 3.0, "coordinates": {"latitude": 42.53083, "longitude": -72.8026299}, "transactions": [], "price": "$$", "location": {"address1": "141 Buckland Rd", "address2": "", "address3": "", "city": "Ashfield", "zip_code": "01330", "country": "US", "state": "MA", "display_address": ["141 Buckland Rd", "Ashfield, MA 01330"]}, "phone": "+14136280158", "display_phone": "(413) 628-0158", "distance": 16269.204212044535}, {"id": "_9sO066L6e1kjQRf2jzd7g", "alias": "countrypie-pizza-company-ashfield", "name": "Countrypie Pizza Company", "image_url": "https://s3-media2.fl.yelpcdn.com/bphoto/YIZ24sof1VTPO1xtqCK6cg/o.jpg", "is_closed": false, "url": "https://www.yelp.com/biz/countrypie-pizza-company-ashfield?adjust_creative=HdhkN5EEH6lAqE3kwhsHEQ&utm_campaign=yelp_api_v3&utm_medium=api_v3_business_search&utm_source=HdhkN5EEH6lAqE3kwhsHEQ", "review_count": 30, "categories": [{"alias": "pizza", "title": "Pizza"}], "rating": 4.5, "coordinates": {"latitude": 42.526902, "longitude": -72.794253}, "transactions": [], "price": "$", "location": {"address1": "343 Main St", "address2": "", "address3": "", "city": "Ashfield", "zip_code": "01330", "country": "US", "state": "MA", "display_address": ["343 Main St", "Ashfield, MA 01330"]}, "phone": "+14136284488", "display_phone": "(413) 628-4488", "distance": 15981.327648718468}, {"id": "_19rex6zqPyQgsSAgqsFYg", "alias": "williamsburg-snack-bar-haydenville", "name": "Williamsburg Snack Bar", "image_url": "https://s3-media2.fl.yelpcdn.com/bphoto/2sme__nhtRSb_ViggNHK9g/o.jpg", "is_closed": false, "url": "https://www.yelp.com/biz/williamsburg-snack-bar-haydenville?adjust_creative=HdhkN5EEH6lAqE3kwhsHEQ&utm_campaign=yelp_api_v3&utm_medium=api_v3_business_search&utm_source=HdhkN5EEH6lAqE3kwhsHEQ", "review_count": 59, "categories": [{"alias": "sandwiches", "title": "Sandwiches"}], "rating": 4.5, "coordinates": {"latitude": 42.380499, "longitude": -72.707228}, "transactions": [], "price": "$", "location": {"address1": "109 Main St", "address2": "", "address3": "", "city": "Haydenville", "zip_code": "01039", "country": "US", "state": "MA", "display_address": ["109 Main St", "Haydenville, MA 01039"]}, "phone": "+14132687556", "display_phone": "(413) 268-7556", "distance": 11449.93355827572}, {"id": "rHXDd-R9ztUJxKRMj2Ziqw", "alias": "goshen-snack-bar-williamsburg", "name": "Goshen Snack Bar", "image_url": "", "is_closed": false, "url": "https://www.yelp.com/biz/goshen-snack-bar-williamsburg?adjust_creative=HdhkN5EEH6lAqE3kwhsHEQ&utm_campaign=yelp_api_v3&utm_medium=api_v3_business_search&utm_source=HdhkN5EEH6lAqE3kwhsHEQ", "review_count": 1, "categories": [{"alias": "hotdogs", "title": "Fast Food"}], "rating": 5.0, "coordinates": {"latitude": 42.443226, "longitude": -72.815647}, "transactions": [], "location": {"address1": "47 Ball Rd", "address2": null, "address3": null, "city": "Williamsburg", "zip_code": "01096", "country": "US", "state": "MA", "display_address": ["47 Ball Rd", "Williamsburg, MA 01096"]}, "phone": "+14132689240", "display_phone": "(413) 268-9240", "distance": 6590.081103890034}, {"id": "CcYuuW_19VKLig_kgDyWjQ", "alias": "poh-keh-bowl-easthampton", "name": "POH-keh Bowl", "image_url": "https://s3-media4.fl.yelpcdn.com/bphoto/HAcH5s7HDPPmAhxrcyntIg/o.jpg", "is_closed": false, "url": "https://www.yelp.com/biz/poh-keh-bowl-easthampton?adjust_creative=HdhkN5EEH6lAqE3kwhsHEQ&utm_campaign=yelp_api_v3&utm_medium=api_v3_business_search&utm_source=HdhkN5EEH6lAqE3kwhsHEQ", "review_count": 1, "categories": [{"alias": "hawaiian", "title": "Hawaiian"}, {"alias": "bubbletea", "title": "Bubble Tea"}], "rating": 5.0, "coordinates": {"latitude": 42.26854, "longitude": -72.6709034}, "transactions": [], "location": {"address1": "49 Union St", "address2": null, "address3": "", "city": "Easthampton", "zip_code": "01027", "country": "US", "state": "MA", "display_address": ["49 Union St", "Easthampton, MA 01027"]}, "phone": "+14132032553", "display_phone": "(413) 203-2553", "distance": 19611.664993785056}, {"id": "yyJUlX-SO79I00b9-UvhrA", "alias": "the-hideaway-lounge-easthampton", "name": "The Hideaway Lounge", "image_url": "https://s3-media4.fl.yelpcdn.com/bphoto/0r1rQ515bTOZHeXFG_wsKA/o.jpg", "is_closed": false, "url": "https://www.yelp.com/biz/the-hideaway-lounge-easthampton?adjust_creative=HdhkN5EEH6lAqE3kwhsHEQ&utm_campaign=yelp_api_v3&utm_medium=api_v3_business_search&utm_source=HdhkN5EEH6lAqE3kwhsHEQ", "review_count": 59, "categories": [{"alias": "lounges", "title": "Lounges"}, {"alias": "tradamerican", "title": "American (Traditional)"}], "rating": 4.0, "coordinates": {"latitude": 42.272495, "longitude": -72.663742}, "transactions": ["delivery"], "price": "$$", "location": {"address1": "116 Pleasant St", "address2": "", "address3": "", "city": "Easthampton", "zip_code": "01027", "country": "US", "state": "MA", "display_address": ["116 Pleasant St", "Easthampton, MA 01027"]}, "phone": "+14135278811", "display_phone": "(413) 527-8811", "distance": 19744.579311117664}, {"id": "wkIOjcec-3uGidfIXcOpJA", "alias": "elmers-store-restaurant-ashfield", "name": "Elmer's Store Restaurant", "image_url": "https://s3-media3.fl.yelpcdn.com/bphoto/2AgISV-Z2E7y_ISdmkzroA/o.jpg", "is_closed": false, "url": "https://www.yelp.com/biz/elmers-store-restaurant-ashfield?adjust_creative=HdhkN5EEH6lAqE3kwhsHEQ&utm_campaign=yelp_api_v3&utm_medium=api_v3_business_search&utm_source=HdhkN5EEH6lAqE3kwhsHEQ", "review_count": 45, "categories": [{"alias": "breakfast_brunch", "title": "Breakfast & Brunch"}, {"alias": "bars", "title": "Bars"}], "rating": 4.0, "coordinates": {"latitude": 42.5261756, "longitude": -72.7924932}, "transactions": [], "price": "$$", "location": {"address1": "396 Main St", "address2": null, "address3": "", "city": "Ashfield", "zip_code": "01330", "country": "US", "state": "MA", "display_address": ["396 Main St", "Ashfield, MA 01330"]}, "phone": "+14136284003", "display_phone": "(413) 628-4003", "distance": 15938.546797448642}, {"id": "RB6vzkkZZlDvwfFjneuKLA", "alias": "daily-operation-easthampton", "name": "Daily Operation", "image_url": "https://s3-media3.fl.yelpcdn.com/bphoto/9FSVkuklZiev4-72MAh9_g/o.jpg", "is_closed": false, "url": "https://www.yelp.com/biz/daily-operation-easthampton?adjust_creative=HdhkN5EEH6lAqE3kwhsHEQ&utm_campaign=yelp_api_v3&utm_medium=api_v3_business_search&utm_source=HdhkN5EEH6lAqE3kwhsHEQ", "review_count": 70, "categories": [{"alias": "newamerican", "title": "American (New)"}, {"alias": "asianfusion", "title": "Asian Fusion"}], "rating": 4.5, "coordinates": {"latitude": 42.26461, "longitude": -72.66719}, "transactions": ["delivery"], "price": "$$", "location": {"address1": "42 Cottage St", "address2": null, "address3": "", "city": "Easthampton", "zip_code": "01027", "country": "US", "state": "MA", "display_address": ["42 Cottage St", "Easthampton, MA 01027"]}, "phone": "+14132031541", "display_phone": "(413) 203-1541", "distance": 20151.94180404297}, {"id": "jilRIDbiEEtDhi4hnV6Oug", "alias": "local-burgy-williamsburg", "name": "Local Burgy", "image_url": "https://s3-media2.fl.yelpcdn.com/bphoto/V9kmP6sTF9MSAXbNKLptZw/o.jpg", "is_closed": false, "url": "https://www.yelp.com/biz/local-burgy-williamsburg?adjust_creative=HdhkN5EEH6lAqE3kwhsHEQ&utm_campaign=yelp_api_v3&utm_medium=api_v3_business_search&utm_source=HdhkN5EEH6lAqE3kwhsHEQ", "review_count": 23, "categories": [{"alias": "bbq", "title": "Barbeque"}, {"alias": "foodstands", "title": "Food Stands"}, {"alias": "burgers", "title": "Burgers"}], "rating": 4.5, "coordinates": {"latitude": 42.3818416889538, "longitude": -72.7114339380672}, "transactions": [], "price": "$$", "location": {"address1": "93 Main St", "address2": "", "address3": null, "city": "Williamsburg", "zip_code": "01039", "country": "US", "state": "MA", "display_address": ["93 Main St", "Williamsburg, MA 01039"]}, "phone": "+14132688300", "display_phone": "(413) 268-8300", "distance": 11094.574767849877}, {"id": "sVmGXhFYNg0RMBTMNHm8uA", "alias": "pho-boston-florence", "name": "Pho Boston", "image_url": "https://s3-media2.fl.yelpcdn.com/bphoto/LmBrswGF2GaX6dGy34fG0Q/o.jpg", "is_closed": false, "url": "https://www.yelp.com/biz/pho-boston-florence?adjust_creative=HdhkN5EEH6lAqE3kwhsHEQ&utm_campaign=yelp_api_v3&utm_medium=api_v3_business_search&utm_source=HdhkN5EEH6lAqE3kwhsHEQ", "review_count": 25, "categories": [{"alias": "vietnamese", "title": "Vietnamese"}], "rating": 4.0, "coordinates": {"latitude": 42.320845, "longitude": -72.66416}, "transactions": ["delivery"], "location": {"address1": "311 Riverside Dr", "address2": "", "address3": null, "city": "Florence", "zip_code": "01062", "country": "US", "state": "MA", "display_address": ["311 Riverside Dr", "Florence, MA 01062"]}, "phone": "+14135704702", "display_phone": "(413) 570-4702", "distance": 16741.658778618184}, {"id": "FrfYCK8yxan_GTwCSG5S6A", "alias": "uya-restaurant-florence", "name": "UYA Restaurant", "image_url": "https://s3-media1.fl.yelpcdn.com/bphoto/kCFagPg2NUMet3r0kaLkcA/o.jpg", "is_closed": false, "url": "https://www.yelp.com/biz/uya-restaurant-florence?adjust_creative=HdhkN5EEH6lAqE3kwhsHEQ&utm_campaign=yelp_api_v3&utm_medium=api_v3_business_search&utm_source=HdhkN5EEH6lAqE3kwhsHEQ", "review_count": 40, "categories": [{"alias": "japanese", "title": "Japanese"}, {"alias": "poke", "title": "Poke"}, {"alias": "bubbletea", "title": "Bubble Tea"}], "rating": 4.5, "coordinates": {"latitude": 42.3351863, "longitude": -72.6705223}, "transactions": ["delivery"], "location": {"address1": "89 Main St", "address2": "Fl 1", "address3": "", "city": "Florence", "zip_code": "01062", "country": "US", "state": "MA", "display_address": ["89 Main St", "Fl 1", "Florence, MA 01062"]}, "phone": "+14135704734", "display_phone": "(413) 570-4734", "distance": 15602.633307060583}, {"id": "LevKAQ3UmcMwkowaVt2keQ", "alias": "ray-rays-cafe-easthampton-2", "name": "Ray Ray's Cafe", "image_url": "https://s3-media4.fl.yelpcdn.com/bphoto/_d_mTfvtArbprRzCBTRDdg/o.jpg", "is_closed": false, "url": "https://www.yelp.com/biz/ray-rays-cafe-easthampton-2?adjust_creative=HdhkN5EEH6lAqE3kwhsHEQ&utm_campaign=yelp_api_v3&utm_medium=api_v3_business_search&utm_source=HdhkN5EEH6lAqE3kwhsHEQ", "review_count": 1, "categories": [{"alias": "sandwiches", "title": "Sandwiches"}, {"alias": "cafes", "title": "Cafes"}, {"alias": "salad", "title": "Salad"}], "rating": 5.0, "coordinates": {"latitude": 42.264428, "longitude": -72.665666}, "transactions": ["delivery"], "location": {"address1": "82 Cottage St", "address2": null, "address3": "", "city": "Easthampton", "zip_code": "01027", "country": "US", "state": "MA", "display_address": ["82 Cottage St", "Easthampton, MA 01027"]}, "phone": "", "display_phone": "", "distance": 20259.104633109637}, {"id": "aBiCOJoljrSfA6gZZ8Qg2w", "alias": "oliver-smith-restaurant-northampton", "name": "Oliver Smith Restaurant", "image_url": "https://s3-media4.fl.yelpcdn.com/bphoto/RkGDHtzrQFak8S9j8Jr3Fg/o.jpg", "is_closed": false, "url": "https://www.yelp.com/biz/oliver-smith-restaurant-northampton?adjust_creative=HdhkN5EEH6lAqE3kwhsHEQ&utm_campaign=yelp_api_v3&utm_medium=api_v3_business_search&utm_source=HdhkN5EEH6lAqE3kwhsHEQ", "review_count": 1, "categories": [{"alias": "tradamerican", "title": "American (Traditional)"}, {"alias": "buffets", "title": "Buffets"}], "rating": 5.0, "coordinates": {"latitude": 42.331199, "longitude": -72.659231}, "transactions": [], "location": {"address1": "80 Locust St", "address2": "", "address3": "", "city": "Northampton", "zip_code": "01060", "country": "US", "state": "MA", "display_address": ["80 Locust St", "Northampton, MA 01060"]}, "phone": "+14135871432", "display_phone": "(413) 587-1432", "distance": 16629.756668274847}, {"id": "PLFZ7fQzDzYrze-oe-pkEQ", "alias": "la-veracruzana-easthampton", "name": "La Veracruzana", "image_url": "https://s3-media2.fl.yelpcdn.com/bphoto/Gcf6FJh0ivRzeVhUtJK-xA/o.jpg", "is_closed": false, "url": "https://www.yelp.com/biz/la-veracruzana-easthampton?adjust_creative=HdhkN5EEH6lAqE3kwhsHEQ&utm_campaign=yelp_api_v3&utm_medium=api_v3_business_search&utm_source=HdhkN5EEH6lAqE3kwhsHEQ", "review_count": 26, "categories": [{"alias": "mexican", "title": "Mexican"}], "rating": 4.5, "coordinates": {"latitude": 42.26934, "longitude": -72.67123}, "transactions": ["delivery"], "price": "$$", "location": {"address1": "31 Union St", "address2": "", "address3": null, "city": "Easthampton", "zip_code": "01027", "country": "US", "state": "MA", "display_address": ["31 Union St", "Easthampton, MA 01027"]}, "phone": "+14132035415", "display_phone": "(413) 203-5415", "distance": 19552.013557233706}, {"id": "9LrxgQh9i7vmsFqGmz5B9Q", "alias": "norwich-lake-farm-and-sugar-barn-restaurant-huntington", "name": "Norwich Lake Farm and Sugar Barn Restaurant", "image_url": "https://s3-media1.fl.yelpcdn.com/bphoto/sWWUQk2ZbqD_GBJa2JjCTQ/o.jpg", "is_closed": false, "url": "https://www.yelp.com/biz/norwich-lake-farm-and-sugar-barn-restaurant-huntington?adjust_creative=HdhkN5EEH6lAqE3kwhsHEQ&utm_campaign=yelp_api_v3&utm_medium=api_v3_business_search&utm_source=HdhkN5EEH6lAqE3kwhsHEQ", "review_count": 2, "categories": [{"alias": "breakfast_brunch", "title": "Breakfast & Brunch"}], "rating": 5.0, "coordinates": {"latitude": 42.3006329582653, "longitude": -72.8408531472087}, "transactions": [], "location": {"address1": "87 Searle Rd", "address2": "", "address3": null, "city": "Huntington", "zip_code": "01050", "country": "US", "state": "MA", "display_address": ["87 Searle Rd", "Huntington, MA 01050"]}, "phone": "+14136678830", "display_phone": "(413) 667-8830", "distance": 9772.186847924888}, {"id": "fzabRje-Jg3lWBOSiaUvww", "alias": "coco-and-the-cellar-bar-easthampton", "name": "Coco & The Cellar Bar", "image_url": "https://s3-media1.fl.yelpcdn.com/bphoto/sg2LpP1aREsIfsIyfja_AA/o.jpg", "is_closed": false, "url": "https://www.yelp.com/biz/coco-and-the-cellar-bar-easthampton?adjust_creative=HdhkN5EEH6lAqE3kwhsHEQ&utm_campaign=yelp_api_v3&utm_medium=api_v3_business_search&utm_source=HdhkN5EEH6lAqE3kwhsHEQ", "review_count": 196, "categories": [{"alias": "newamerican", "title": "American (New)"}, {"alias": "bars", "title": "Bars"}], "rating": 4.5, "coordinates": {"latitude": 42.2704507067608, "longitude": -72.6726743214659}, "transactions": ["delivery"], "price": "$$", "location": {"address1": "95 Main St", "address2": "", "address3": "", "city": "Easthampton", "zip_code": "01027", "country": "US", "state": "MA", "display_address": ["95 Main St", "Easthampton, MA 01027"]}, "phone": "+14132035321", "display_phone": "(413) 203-5321", "distance": 19380.947103122817}, {"id": "ARnHCxfth45qbu5AU2g3Og", "alias": "classic-pizza-chester", "name": "Classic Pizza", "image_url": "https://s3-media3.fl.yelpcdn.com/bphoto/eAl51P7XAPmveVMWETkH2g/o.jpg", "is_closed": false, "url": "https://www.yelp.com/biz/classic-pizza-chester?adjust_creative=HdhkN5EEH6lAqE3kwhsHEQ&utm_campaign=yelp_api_v3&utm_medium=api_v3_business_search&utm_source=HdhkN5EEH6lAqE3kwhsHEQ", "review_count": 8, "categories": [{"alias": "pizza", "title": "Pizza"}], "rating": 3.5, "coordinates": {"latitude": 42.2799491882324, "longitude": -72.9793853759766}, "transactions": [], "price": "$$", "location": {"address1": "29 Main St", "address2": "", "address3": "", "city": "Chester", "zip_code": "01011", "country": "US", "state": "MA", "display_address": ["29 Main St", "Chester, MA 01011"]}, "phone": "+14133546554", "display_phone": "(413) 354-6554", "distance": 16283.32377436529}, {"id": "gf47Yv8PnATBDgkZ6rBI-w", "alias": "strawbale-cafe-westhampton-4", "name": "Strawbale Cafe", "image_url": "https://s3-media4.fl.yelpcdn.com/bphoto/Nvl_epjAp9rcnQwhjocLXg/o.jpg", "is_closed": false, "url": "https://www.yelp.com/biz/strawbale-cafe-westhampton-4?adjust_creative=HdhkN5EEH6lAqE3kwhsHEQ&utm_campaign=yelp_api_v3&utm_medium=api_v3_business_search&utm_source=HdhkN5EEH6lAqE3kwhsHEQ", "review_count": 30, "categories": [{"alias": "breakfast_brunch", "title": "Breakfast & Brunch"}, {"alias": "cafes", "title": "Cafes"}, {"alias": "bakeries", "title": "Bakeries"}], "rating": 4.5, "coordinates": {"latitude": 42.323103, "longitude": -72.754566}, "transactions": [], "price": "$$", "location": {"address1": "188 N Rd", "address2": "", "address3": "Hanging Mountain Farm", "city": "Westhampton", "zip_code": "01027", "country": "US", "state": "MA", "display_address": ["188 N Rd", "Hanging Mountain Farm", "Westhampton, MA 01027"]}, "phone": "+14135273210", "display_phone": "(413) 527-3210", "distance": 10463.398402219114}, {"id": "YbZg252i3vJ9wmf-gsgUog", "alias": "panda-garden-williamsburg", "name": "Panda Garden", "image_url": "https://s3-media1.fl.yelpcdn.com/bphoto/GR__trIJi5zuhynUKh7owA/o.jpg", "is_closed": false, "url": "https://www.yelp.com/biz/panda-garden-williamsburg?adjust_creative=HdhkN5EEH6lAqE3kwhsHEQ&utm_campaign=yelp_api_v3&utm_medium=api_v3_business_search&utm_source=HdhkN5EEH6lAqE3kwhsHEQ", "review_count": 29, "categories": [{"alias": "chinese", "title": "Chinese"}], "rating": 3.0, "coordinates": {"latitude": 42.4294774979353, "longitude": -72.7925515919924}, "transactions": ["delivery", "pickup"], "price": "$$", "location": {"address1": "49 Main St", "address2": "", "address3": "", "city": "Williamsburg", "zip_code": "01096", "country": "US", "state": "MA", "display_address": ["49 Main St", "Williamsburg, MA 01096"]}, "phone": "+14132688811", "display_phone": "(413) 268-8811", "distance": 10276.68697557731}, {"id": "5kNSVF1ZIFz1yu9U4r2bzw", "alias": "bakers-country-store-conway", "name": "Bakers Country Store", "image_url": "", "is_closed": false, "url": "https://www.yelp.com/biz/bakers-country-store-conway?adjust_creative=HdhkN5EEH6lAqE3kwhsHEQ&utm_campaign=yelp_api_v3&utm_medium=api_v3_business_search&utm_source=HdhkN5EEH6lAqE3kwhsHEQ", "review_count": 1, "categories": [{"alias": "breakfast_brunch", "title": "Breakfast & Brunch"}], "rating": 1.0, "coordinates": {"latitude": 42.50851, "longitude": -72.701994}, "transactions": [], "location": {"address1": "101 River St", "address2": "", "address3": "", "city": "Conway", "zip_code": "01341", "country": "US", "state": "MA", "display_address": ["101 River St", "Conway, MA 01341"]}, "phone": "+14133694936", "display_phone": "(413) 369-4936", "distance": 17841.805159647916}, {"id": "TIm9N1EDtxj_WR95fwR5Ow", "alias": "a-1-hilltown-pizza-williamsburg", "name": "A-1 Hilltown Pizza", "image_url": "https://s3-media3.fl.yelpcdn.com/bphoto/SjPcoIjB8ZpuMJKMc9pyhw/o.jpg", "is_closed": false, "url": "https://www.yelp.com/biz/a-1-hilltown-pizza-williamsburg?adjust_creative=HdhkN5EEH6lAqE3kwhsHEQ&utm_campaign=yelp_api_v3&utm_medium=api_v3_business_search&utm_source=HdhkN5EEH6lAqE3kwhsHEQ", "review_count": 12, "categories": [{"alias": "pizza", "title": "Pizza"}], "rating": 3.5, "coordinates": {"latitude": 42.391134, "longitude": -72.724329}, "transactions": [], "price": "$$", "location": {"address1": "35 Main St", "address2": "", "address3": "", "city": "Williamsburg", "zip_code": "01096", "country": "US", "state": "MA", "display_address": ["35 Main St", "Williamsburg, MA 01096"]}, "phone": "+14132680202", "display_phone": "(413) 268-0202", "distance": 10015.07421380267}, {"id": "iDO-jAnFDtnFN91GGBgEgA", "alias": "florence-pie-bar-florence", "name": "Florence Pie Bar", "image_url": "https://s3-media2.fl.yelpcdn.com/bphoto/iIk06LczykXi56RayaV0RA/o.jpg", "is_closed": false, "url": "https://www.yelp.com/biz/florence-pie-bar-florence?adjust_creative=HdhkN5EEH6lAqE3kwhsHEQ&utm_campaign=yelp_api_v3&utm_medium=api_v3_business_search&utm_source=HdhkN5EEH6lAqE3kwhsHEQ", "review_count": 82, "categories": [{"alias": "cafes", "title": "Cafes"}, {"alias": "bakeries", "title": "Bakeries"}, {"alias": "desserts", "title": "Desserts"}], "rating": 4.0, "coordinates": {"latitude": 42.334936, "longitude": -72.667399}, "transactions": ["delivery"], "price": "$", "location": {"address1": "17 Main St", "address2": "", "address3": "", "city": "Florence", "zip_code": "01062", "country": "US", "state": "MA", "display_address": ["17 Main St", "Florence, MA 01062"]}, "phone": "+14133413283", "display_phone": "(413) 341-3283", "distance": 15850.810499085848}, {"id": "7V3RX-SPaYFt5aytErDK0g", "alias": "the-red-bucket-sugar-shack-worthington", "name": "The Red Bucket Sugar Shack", "image_url": "https://s3-media4.fl.yelpcdn.com/bphoto/dbHPKnAevuDhxLkRQIYEDw/o.jpg", "is_closed": false, "url": "https://www.yelp.com/biz/the-red-bucket-sugar-shack-worthington?adjust_creative=HdhkN5EEH6lAqE3kwhsHEQ&utm_campaign=yelp_api_v3&utm_medium=api_v3_business_search&utm_source=HdhkN5EEH6lAqE3kwhsHEQ", "review_count": 9, "categories": [{"alias": "breakfast_brunch", "title": "Breakfast & Brunch"}, {"alias": "tradamerican", "title": "American (Traditional)"}], "rating": 4.0, "coordinates": {"latitude": 42.344486, "longitude": -72.919398}, "transactions": [], "price": "$", "location": {"address1": "584 Kinnebrook Rd", "address2": "", "address3": "", "city": "Worthington", "zip_code": "01098", "country": "US", "state": "MA", "display_address": ["584 Kinnebrook Rd", "Worthington, MA 01098"]}, "phone": "+14132387710", "display_phone": "(413) 238-7710", "distance": 7746.934103533795}, {"id": "QHDPhHU0ORgudmbLGBrnBQ", "alias": "el-comalito-easthampton", "name": "El Comalito", "image_url": "https://s3-media4.fl.yelpcdn.com/bphoto/qNKieMy7XCTnLVDiC8M-HA/o.jpg", "is_closed": false, "url": "https://www.yelp.com/biz/el-comalito-easthampton?adjust_creative=HdhkN5EEH6lAqE3kwhsHEQ&utm_campaign=yelp_api_v3&utm_medium=api_v3_business_search&utm_source=HdhkN5EEH6lAqE3kwhsHEQ", "review_count": 40, "categories": [{"alias": "salvadoran", "title": "Salvadoran"}, {"alias": "tacos", "title": "Tacos"}, {"alias": "salad", "title": "Salad"}], "rating": 3.5, "coordinates": {"latitude": 42.28109, "longitude": -72.6711468}, "transactions": ["delivery"], "location": {"address1": "126 Northampton St", "address2": "", "address3": null, "city": "Easthampton", "zip_code": "01027", "country": "US", "state": "MA", "display_address": ["126 Northampton St", "Easthampton, MA 01027"]}, "phone": "+14132035186", "display_phone": "(413) 203-5186", "distance": 18696.134342994712}, {"id": "WmWAHNNParZLErd98SEbJw", "alias": "scottis-leeds", "name": "Scotti's", "image_url": "https://s3-media3.fl.yelpcdn.com/bphoto/mwt8mVvPDZ04OQgj4owpZw/o.jpg", "is_closed": false, "url": "https://www.yelp.com/biz/scottis-leeds?adjust_creative=HdhkN5EEH6lAqE3kwhsHEQ&utm_campaign=yelp_api_v3&utm_medium=api_v3_business_search&utm_source=HdhkN5EEH6lAqE3kwhsHEQ", "review_count": 27, "categories": [{"alias": "tradamerican", "title": "American (Traditional)"}, {"alias": "icecream", "title": "Ice Cream & Frozen Yogurt"}], "rating": 4.5, "coordinates": {"latitude": 42.352636, "longitude": -72.691094}, "transactions": ["delivery"], "price": "$", "location": {"address1": "90 Haydenville Rd", "address2": "", "address3": "", "city": "Leeds", "zip_code": "01053", "country": "US", "state": "MA", "display_address": ["90 Haydenville Rd", "Leeds, MA 01053"]}, "phone": "+14135865567", "display_phone": "(413) 586-5567", "distance": 13350.861796547913}, {"id": "NE3t2ECJh8NDDsUbrlhwYQ", "alias": "mollisons-windy-hill-sugar-shack-worthington", "name": "Mollison's Windy Hill Sugar Shack", "image_url": "https://s3-media4.fl.yelpcdn.com/bphoto/4qQPuYhpx4YYjIR2a6o29A/o.jpg", "is_closed": false, "url": "https://www.yelp.com/biz/mollisons-windy-hill-sugar-shack-worthington?adjust_creative=HdhkN5EEH6lAqE3kwhsHEQ&utm_campaign=yelp_api_v3&utm_medium=api_v3_business_search&utm_source=HdhkN5EEH6lAqE3kwhsHEQ", "review_count": 2, "categories": [{"alias": "breakfast_brunch", "title": "Breakfast & Brunch"}], "rating": 4.5, "coordinates": {"latitude": 42.394454581771, "longitude": -72.9491633361976}, "transactions": [], "price": "$", "location": {"address1": "1 W Sam Hill Rd", "address2": "", "address3": "", "city": "Worthington", "zip_code": "01098", "country": "US", "state": "MA", "display_address": ["1 W Sam Hill Rd", "Worthington, MA 01098"]}, "phone": "+14132385869", "display_phone": "(413) 238-5869", "distance": 8480.446993955726}, {"id": "2QYXfo90aHXZ1yVe3Bm4DQ", "alias": "little-truc-easthampton", "name": "Little Truc", "image_url": "https://s3-media3.fl.yelpcdn.com/bphoto/HlA6NLrH4WJqvylBAS-gVg/o.jpg", "is_closed": false, "url": "https://www.yelp.com/biz/little-truc-easthampton?adjust_creative=HdhkN5EEH6lAqE3kwhsHEQ&utm_campaign=yelp_api_v3&utm_medium=api_v3_business_search&utm_source=HdhkN5EEH6lAqE3kwhsHEQ", "review_count": 3, "categories": [{"alias": "foodtrucks", "title": "Food Trucks"}, {"alias": "asianfusion", "title": "Asian Fusion"}], "rating": 5.0, "coordinates": {"latitude": 42.2744661849982, "longitude": -72.6592728561672}, "transactions": [], "location": {"address1": "180 Pleasant St", "address2": "", "address3": null, "city": "Easthampton", "zip_code": "01027", "country": "US", "state": "MA", "display_address": ["180 Pleasant St", "Easthampton, MA 01027"]}, "phone": "+14132827520", "display_phone": "(413) 282-7520", "distance": 19918.281051160935}, {"id": "YzzLI9_BrwEZnRHP7iuQVQ", "alias": "ninis-itialian-ristorante-easthampton", "name": "Nini's Itialian Ristorante", "image_url": "https://s3-media4.fl.yelpcdn.com/bphoto/h2ktKo5b652dhx7yKD0R5Q/o.jpg", "is_closed": false, "url": "https://www.yelp.com/biz/ninis-itialian-ristorante-easthampton?adjust_creative=HdhkN5EEH6lAqE3kwhsHEQ&utm_campaign=yelp_api_v3&utm_medium=api_v3_business_search&utm_source=HdhkN5EEH6lAqE3kwhsHEQ", "review_count": 46, "categories": [{"alias": "italian", "title": "Italian"}, {"alias": "seafood", "title": "Seafood"}], "rating": 4.0, "coordinates": {"latitude": 42.2638958037146, "longitude": -72.6638027036164}, "transactions": [], "price": "$$", "location": {"address1": "124 Cottage St", "address2": "", "address3": "", "city": "Easthampton", "zip_code": "01027", "country": "US", "state": "MA", "display_address": ["124 Cottage St", "Easthampton, MA 01027"]}, "phone": "+14135270149", "display_phone": "(413) 527-0149", "distance": 20411.74676026762}, {"id": "uhI0q5g8AYGOFGVio7Cj_g", "alias": "glendale-grill-easthampton", "name": "Glendale Grill", "image_url": "https://s3-media3.fl.yelpcdn.com/bphoto/cw_oipGC8ot7einHDkO5Qg/o.jpg", "is_closed": false, "url": "https://www.yelp.com/biz/glendale-grill-easthampton?adjust_creative=HdhkN5EEH6lAqE3kwhsHEQ&utm_campaign=yelp_api_v3&utm_medium=api_v3_business_search&utm_source=HdhkN5EEH6lAqE3kwhsHEQ", "review_count": 26, "categories": [{"alias": "tradamerican", "title": "American (Traditional)"}], "rating": 3.5, "coordinates": {"latitude": 42.2649067, "longitude": -72.6880527}, "transactions": ["delivery"], "price": "$$", "location": {"address1": "65 Glendale S", "address2": "", "address3": "", "city": "Easthampton", "zip_code": "01027", "country": "US", "state": "MA", "display_address": ["65 Glendale S", "Easthampton, MA 01027"]}, "phone": "+14132032300", "display_phone": "(413) 203-2300", "distance": 18913.426360901307}, {"id": "O-cuf9gqctm096VCcM79Lg", "alias": "conway-inn-conway", "name": "Conway Inn", "image_url": "https://s3-media2.fl.yelpcdn.com/bphoto/PkYRlRCqQCTdb2bqT10Y3A/o.jpg", "is_closed": false, "url": "https://www.yelp.com/biz/conway-inn-conway?adjust_creative=HdhkN5EEH6lAqE3kwhsHEQ&utm_campaign=yelp_api_v3&utm_medium=api_v3_business_search&utm_source=HdhkN5EEH6lAqE3kwhsHEQ", "review_count": 6, "categories": [{"alias": "bars", "title": "Bars"}, {"alias": "pizza", "title": "Pizza"}], "rating": 4.5, "coordinates": {"latitude": 42.5087199, "longitude": -72.69772}, "transactions": [], "price": "$", "location": {"address1": "43 Main", "address2": "", "address3": "", "city": "Conway", "zip_code": "01341", "country": "US", "state": "MA", "display_address": ["43 Main", "Conway, MA 01341"]}, "phone": "+14133694428", "display_phone": "(413) 369-4428", "distance": 18093.45399094319}, {"id": "6Ew_pVMJhG2IMBk-l8bBGA", "alias": "starrs-pizza-florence", "name": "Starr's Pizza", "image_url": "https://s3-media3.fl.yelpcdn.com/bphoto/J5qiW4jkcB8LSB0fvwNEPg/o.jpg", "is_closed": false, "url": "https://www.yelp.com/biz/starrs-pizza-florence?adjust_creative=HdhkN5EEH6lAqE3kwhsHEQ&utm_campaign=yelp_api_v3&utm_medium=api_v3_business_search&utm_source=HdhkN5EEH6lAqE3kwhsHEQ", "review_count": 9, "categories": [{"alias": "pizza", "title": "Pizza"}], "rating": 4.0, "coordinates": {"latitude": 42.3350912332535, "longitude": -72.669425457716}, "transactions": [], "price": "$", "location": {"address1": "59 Main St", "address2": null, "address3": "", "city": "Florence", "zip_code": "01062", "country": "US", "state": "MA", "display_address": ["59 Main St", "Florence, MA 01062"]}, "phone": "+14135849946", "display_phone": "(413) 584-9946", "distance": 15683.523377917069}, {"id": "b9TX7xue5tmqZq7wTtVxxg", "alias": "tavern-on-the-hill-easthampton", "name": "Tavern on the Hill", "image_url": "https://s3-media4.fl.yelpcdn.com/bphoto/2U9nKkyaCKtV6PC60fiuBg/o.jpg", "is_closed": false, "url": "https://www.yelp.com/biz/tavern-on-the-hill-easthampton?adjust_creative=HdhkN5EEH6lAqE3kwhsHEQ&utm_campaign=yelp_api_v3&utm_medium=api_v3_business_search&utm_source=HdhkN5EEH6lAqE3kwhsHEQ", "review_count": 109, "categories": [{"alias": "tradamerican", "title": "American (Traditional)"}, {"alias": "bars", "title": "Bars"}, {"alias": "bbq", "title": "Barbeque"}], "rating": 3.0, "coordinates": {"latitude": 42.237602, "longitude": -72.652183}, "transactions": [], "price": "$$", "location": {"address1": "100 Mountain Rd", "address2": "", "address3": "", "city": "Easthampton", "zip_code": "01027", "country": "US", "state": "MA", "display_address": ["100 Mountain Rd", "Easthampton, MA 01027"]}, "phone": "+14134931700", "display_phone": "(413) 493-1700", "distance": 23147.95735463942}, {"id": "ST2IKt3aNPnw5cfvMbfspQ", "alias": "paisanos-southampton-2", "name": "Paisanos", "image_url": "https://s3-media3.fl.yelpcdn.com/bphoto/BP4-no5DSUgpkqNaaQpRfw/o.jpg", "is_closed": false, "url": "https://www.yelp.com/biz/paisanos-southampton-2?adjust_creative=HdhkN5EEH6lAqE3kwhsHEQ&utm_campaign=yelp_api_v3&utm_medium=api_v3_business_search&utm_source=HdhkN5EEH6lAqE3kwhsHEQ", "review_count": 45, "categories": [{"alias": "pizza", "title": "Pizza"}, {"alias": "italian", "title": "Italian"}], "rating": 3.5, "coordinates": {"latitude": 42.2382105429036, "longitude": -72.7205873717075}, "transactions": ["delivery"], "price": "$$", "location": {"address1": "136 College Hwy", "address2": "", "address3": "", "city": "Southampton", "zip_code": "01073", "country": "US", "state": "MA", "display_address": ["136 College Hwy", "Southampton, MA 01073"]}, "phone": "+14135278900", "display_phone": "(413) 527-8900", "distance": 19639.653358997213}, {"id": "NLXXr9wHtj7dQGVIF1pDrQ", "alias": "log-cabin-holyoke", "name": "Log Cabin", "image_url": "https://s3-media1.fl.yelpcdn.com/bphoto/6lb4qvbaXklFQXA-4THKaQ/o.jpg", "is_closed": false, "url": "https://www.yelp.com/biz/log-cabin-holyoke?adjust_creative=HdhkN5EEH6lAqE3kwhsHEQ&utm_campaign=yelp_api_v3&utm_medium=api_v3_business_search&utm_source=HdhkN5EEH6lAqE3kwhsHEQ", "review_count": 37, "categories": [{"alias": "tradamerican", "title": "American (Traditional)"}], "rating": 4.0, "coordinates": {"latitude": 42.23617, "longitude": -72.65188}, "transactions": [], "price": "$$$", "location": {"address1": "500 Easthampton Rd", "address2": "", "address3": "", "city": "Holyoke", "zip_code": "01040", "country": "US", "state": "MA", "display_address": ["500 Easthampton Rd", "Holyoke, MA 01040"]}, "phone": "+14135355077", "display_phone": "(413) 535-5077", "distance": 23220.663405475425}, {"id": "fl5p-AmuNg1OqMAq0_8x6A", "alias": "buns-on-wheels-easthampton", "name": "Buns On Wheels", "image_url": "https://s3-media1.fl.yelpcdn.com/bphoto/WatvNt3_cotolRsu80jsDQ/o.jpg", "is_closed": false, "url": "https://www.yelp.com/biz/buns-on-wheels-easthampton?adjust_creative=HdhkN5EEH6lAqE3kwhsHEQ&utm_campaign=yelp_api_v3&utm_medium=api_v3_business_search&utm_source=HdhkN5EEH6lAqE3kwhsHEQ", "review_count": 2, "categories": [{"alias": "foodtrucks", "title": "Food Trucks"}, {"alias": "tradamerican", "title": "American (Traditional)"}], "rating": 4.0, "coordinates": {"latitude": 42.2724233425073, "longitude": -72.6713797822595}, "transactions": [], "price": "$", "location": {"address1": "82-98 Lyman Ave", "address2": "", "address3": "", "city": "Easthampton", "zip_code": "01027", "country": "US", "state": "MA", "display_address": ["82-98 Lyman Ave", "Easthampton, MA 01027"]}, "phone": "", "display_phone": "", "distance": 19312.0565657154}, {"id": "mHA-Vrq7cgnsFODSvZqHuA", "alias": "steves-sugar-shack-westhampton", "name": "Steve's Sugar Shack", "image_url": "", "is_closed": false, "url": "https://www.yelp.com/biz/steves-sugar-shack-westhampton?adjust_creative=HdhkN5EEH6lAqE3kwhsHEQ&utm_campaign=yelp_api_v3&utm_medium=api_v3_business_search&utm_source=HdhkN5EEH6lAqE3kwhsHEQ", "review_count": 2, "categories": [{"alias": "breakfast_brunch", "title": "Breakfast & Brunch"}], "rating": 5.0, "coordinates": {"latitude": 42.307695, "longitude": -72.77132}, "transactions": [], "location": {"address1": "34 N Rd", "address2": "", "address3": null, "city": "Westhampton", "zip_code": "01027", "country": "US", "state": "MA", "display_address": ["34 N Rd", "Westhampton, MA 01027"]}, "phone": "+14135270294", "display_phone": "(413) 527-0294", "distance": 10884.645267765974}, {"id": "MqtuEay7-hmWJAdPsh_b_A", "alias": "the-waters-fine-goods-coffee-easthampton", "name": "The Water's Fine Goods + Coffee", "image_url": "https://s3-media1.fl.yelpcdn.com/bphoto/s--bIRFRNx9Q-cgtcS4WKw/o.jpg", "is_closed": false, "url": "https://www.yelp.com/biz/the-waters-fine-goods-coffee-easthampton?adjust_creative=HdhkN5EEH6lAqE3kwhsHEQ&utm_campaign=yelp_api_v3&utm_medium=api_v3_business_search&utm_source=HdhkN5EEH6lAqE3kwhsHEQ", "review_count": 4, "categories": [{"alias": "cafes", "title": "Cafes"}, {"alias": "giftshops", "title": "Gift Shops"}], "rating": 5.0, "coordinates": {"latitude": 42.2649118272765, "longitude": -72.6679227871144}, "transactions": [], "location": {"address1": "20 Cottage St", "address2": "", "address3": null, "city": "Easthampton", "zip_code": "01027", "country": "US", "state": "MA", "display_address": ["20 Cottage St", "Easthampton, MA 01027"]}, "phone": "+14132035447", "display_phone": "(413) 203-5447", "distance": 20086.70638253489}, {"id": "2Hxb37Ezwblm7x8czP40Vg", "alias": "outlook-farm-country-store-westhampton", "name": "Outlook Farm Country Store", "image_url": "https://s3-media3.fl.yelpcdn.com/bphoto/SzYQtgjZ-aGwS34mPU9vxQ/o.jpg", "is_closed": false, "url": "https://www.yelp.com/biz/outlook-farm-country-store-westhampton?adjust_creative=HdhkN5EEH6lAqE3kwhsHEQ&utm_campaign=yelp_api_v3&utm_medium=api_v3_business_search&utm_source=HdhkN5EEH6lAqE3kwhsHEQ", "review_count": 33, "categories": [{"alias": "bedbreakfast", "title": "Bed & Breakfast"}, {"alias": "meats", "title": "Meat Shops"}, {"alias": "sandwiches", "title": "Sandwiches"}], "rating": 3.5, "coordinates": {"latitude": 42.287347, "longitude": -72.7613498}, "transactions": [], "price": "$", "location": {"address1": "136 Main Rd", "address2": "", "address3": "", "city": "Westhampton", "zip_code": "01027", "country": "US", "state": "MA", "display_address": ["136 Main Rd", "Westhampton, MA 01027"]}, "phone": "+14135299388", "display_phone": "(413) 529-9388", "distance": 13286.300179869348}, {"id": "041FcnVkbuqjklvZ6enXVA", "alias": "mission-cantina-easthampton", "name": "Mission Cantina", "image_url": "https://s3-media1.fl.yelpcdn.com/bphoto/RUcIkpNHR0LcuzdYuMuOAA/o.jpg", "is_closed": false, "url": "https://www.yelp.com/biz/mission-cantina-easthampton?adjust_creative=HdhkN5EEH6lAqE3kwhsHEQ&utm_campaign=yelp_api_v3&utm_medium=api_v3_business_search&utm_source=HdhkN5EEH6lAqE3kwhsHEQ", "review_count": 3, "categories": [{"alias": "cocktailbars", "title": "Cocktail Bars"}, {"alias": "mexican", "title": "Mexican"}, {"alias": "beerbar", "title": "Beer Bar"}], "rating": 5.0, "coordinates": {"latitude": 42.264485, "longitude": -72.666748}, "transactions": ["delivery", "pickup"], "location": {"address1": "58 Cottage St", "address2": "", "address3": null, "city": "Easthampton", "zip_code": "01027", "country": "US", "state": "MA", "display_address": ["58 Cottage St", "Easthampton, MA 01027"]}, "phone": "+14132035121", "display_phone": "(413) 203-5121", "distance": 20192.784867867915}, {"id": "d9qvLBCLy24LQNzQLvZ_kA", "alias": "small-oven-easthampton", "name": "Small Oven", "image_url": "https://s3-media3.fl.yelpcdn.com/bphoto/sNGGFarpN9RwCxpggJ35bw/o.jpg", "is_closed": false, "url": "https://www.yelp.com/biz/small-oven-easthampton?adjust_creative=HdhkN5EEH6lAqE3kwhsHEQ&utm_campaign=yelp_api_v3&utm_medium=api_v3_business_search&utm_source=HdhkN5EEH6lAqE3kwhsHEQ", "review_count": 106, "categories": [{"alias": "bakeries", "title": "Bakeries"}, {"alias": "cafes", "title": "Cafes"}], "rating": 4.5, "coordinates": {"latitude": 42.2690437804995, "longitude": -72.6715128868818}, "transactions": ["delivery"], "price": "$$", "location": {"address1": "36 Union St", "address2": "", "address3": "", "city": "Easthampton", "zip_code": "01027", "country": "US", "state": "MA", "display_address": ["36 Union St", "Easthampton, MA 01027"]}, "phone": "+14135271785", "display_phone": "(413) 527-1785", "distance": 19557.301070008616}, {"id": "9AF-q3Ff8RYC2X378KojGA", "alias": "captain-jacks-roadside-shack-easthampton", "name": "Captain Jack's Roadside Shack", "image_url": "https://s3-media2.fl.yelpcdn.com/bphoto/rBNFE6ArFTpytI00V8EmqQ/o.jpg", "is_closed": false, "url": "https://www.yelp.com/biz/captain-jacks-roadside-shack-easthampton?adjust_creative=HdhkN5EEH6lAqE3kwhsHEQ&utm_campaign=yelp_api_v3&utm_medium=api_v3_business_search&utm_source=HdhkN5EEH6lAqE3kwhsHEQ", "review_count": 150, "categories": [{"alias": "seafood", "title": "Seafood"}, {"alias": "sandwiches", "title": "Sandwiches"}, {"alias": "burgers", "title": "Burgers"}], "rating": 4.0, "coordinates": {"latitude": 42.287661, "longitude": -72.663165}, "transactions": ["delivery"], "price": "$$", "location": {"address1": "228 Northampton St", "address2": "", "address3": "", "city": "Easthampton", "zip_code": "01027", "country": "US", "state": "MA", "display_address": ["228 Northampton St", "Easthampton, MA 01027"]}, "phone": "+14132035367", "display_phone": "(413) 203-5367", "distance": 18759.742688233153}, {"id": "wqCC8QJ_nNUoiz3Y89kBTw", "alias": "amys-place-easthampton", "name": "Amy's Place", "image_url": "https://s3-media3.fl.yelpcdn.com/bphoto/omuMN7CDuNmuaNsR1vSv_w/o.jpg", "is_closed": false, "url": "https://www.yelp.com/biz/amys-place-easthampton?adjust_creative=HdhkN5EEH6lAqE3kwhsHEQ&utm_campaign=yelp_api_v3&utm_medium=api_v3_business_search&utm_source=HdhkN5EEH6lAqE3kwhsHEQ", "review_count": 36, "categories": [{"alias": "pubs", "title": "Pubs"}, {"alias": "newamerican", "title": "American (New)"}], "rating": 4.0, "coordinates": {"latitude": 42.26421, "longitude": -72.66587}, "transactions": ["delivery"], "price": "$$", "location": {"address1": "80 Cottage St", "address2": "", "address3": "", "city": "Easthampton", "zip_code": "01027", "country": "US", "state": "MA", "display_address": ["80 Cottage St", "Easthampton, MA 01027"]}, "phone": "+14135279333", "display_phone": "(413) 527-9333", "distance": 20256.035337850513}, {"id": "91PW7jAXOm8YJV449Qr-yQ", "alias": "kisara-japanese-and-korean-restaurant-easthampton", "name": "Kisara Japanese & Korean Restaurant", "image_url": "https://s3-media3.fl.yelpcdn.com/bphoto/0BiDE2eIVW7YNYOiIcch6Q/o.jpg", "is_closed": false, "url": "https://www.yelp.com/biz/kisara-japanese-and-korean-restaurant-easthampton?adjust_creative=HdhkN5EEH6lAqE3kwhsHEQ&utm_campaign=yelp_api_v3&utm_medium=api_v3_business_search&utm_source=HdhkN5EEH6lAqE3kwhsHEQ", "review_count": 120, "categories": [{"alias": "sushi", "title": "Sushi Bars"}, {"alias": "korean", "title": "Korean"}, {"alias": "japanese", "title": "Japanese"}], "rating": 4.0, "coordinates": {"latitude": 42.2646721669469, "longitude": -72.6659128365786}, "transactions": ["delivery"], "price": "$$", "location": {"address1": "88 Cottage St", "address2": "", "address3": null, "city": "Easthampton", "zip_code": "01027", "country": "US", "state": "MA", "display_address": ["88 Cottage St", "Easthampton, MA 01027"]}, "phone": "+14132032095", "display_phone": "(413) 203-2095", "distance": 20225.73918395}, {"id": "5AyoYkXx5oL20ln10LKS5Q", "alias": "se7ens-sports-bar-and-grill-easthampton", "name": "Se7ens Sports Bar & Grill", "image_url": "https://s3-media4.fl.yelpcdn.com/bphoto/hvkdQfYlanVGYbAINnuTiQ/o.jpg", "is_closed": false, "url": "https://www.yelp.com/biz/se7ens-sports-bar-and-grill-easthampton?adjust_creative=HdhkN5EEH6lAqE3kwhsHEQ&utm_campaign=yelp_api_v3&utm_medium=api_v3_business_search&utm_source=HdhkN5EEH6lAqE3kwhsHEQ", "review_count": 6, "categories": [{"alias": "sportsbars", "title": "Sports Bars"}, {"alias": "tradamerican", "title": "American (Traditional)"}], "rating": 4.5, "coordinates": {"latitude": 42.26476, "longitude": -72.66583}, "transactions": [], "location": {"address1": "75 Cottage St", "address2": null, "address3": "", "city": "Easthampton", "zip_code": "01027", "country": "US", "state": "MA", "display_address": ["75 Cottage St", "Easthampton, MA 01027"]}, "phone": "+14135271477", "display_phone": "(413) 527-1477", "distance": 20229.307484922916}, {"id": "1H2TXqhBFvTHgT0bm4czxg", "alias": "miss-florence-diner-florence", "name": "Miss Florence Diner", "image_url": "https://s3-media2.fl.yelpcdn.com/bphoto/NxYE_ZYXLX4HyMH9NsepEw/o.jpg", "is_closed": false, "url": "https://www.yelp.com/biz/miss-florence-diner-florence?adjust_creative=HdhkN5EEH6lAqE3kwhsHEQ&utm_campaign=yelp_api_v3&utm_medium=api_v3_business_search&utm_source=HdhkN5EEH6lAqE3kwhsHEQ", "review_count": 74, "categories": [{"alias": "diners", "title": "Diners"}], "rating": 4.0, "coordinates": {"latitude": 42.3356481, "longitude": -72.671405}, "transactions": ["pickup", "delivery"], "price": "$", "location": {"address1": "99 Main St", "address2": null, "address3": "", "city": "Florence", "zip_code": "01062", "country": "US", "state": "MA", "display_address": ["99 Main St", "Florence, MA 01062"]}, "phone": "+14135843137", "display_phone": "(413) 584-3137", "distance": 15516.012461710663}, {"id": "3nJ4YUaH4VjJo9WJWWMnhA", "alias": "mill-180-park-easthampton-2", "name": "Mill 180 Park", "image_url": "https://s3-media3.fl.yelpcdn.com/bphoto/Kg5xSGhCSFukePrVPJ8mHQ/o.jpg", "is_closed": false, "url": "https://www.yelp.com/biz/mill-180-park-easthampton-2?adjust_creative=HdhkN5EEH6lAqE3kwhsHEQ&utm_campaign=yelp_api_v3&utm_medium=api_v3_business_search&utm_source=HdhkN5EEH6lAqE3kwhsHEQ", "review_count": 52, "categories": [{"alias": "newamerican", "title": "American (New)"}, {"alias": "venues", "title": "Venues & Event Spaces"}, {"alias": "bars", "title": "Bars"}], "rating": 3.0, "coordinates": {"latitude": 42.2747649, "longitude": -72.6600492}, "transactions": [], "price": "$", "location": {"address1": "180 Pleasant St", "address2": "Ste 217", "address3": null, "city": "Easthampton", "zip_code": "01027", "country": "US", "state": "MA", "display_address": ["180 Pleasant St", "Ste 217", "Easthampton, MA 01027"]}, "phone": "+14132031687", "display_phone": "(413) 203-1687", "distance": 19867.16126599181}, {"id": "NZ-KxOMeY2CqaQb4mrOH4Q", "alias": "coopers-corner-florence", "name": "Cooper's Corner", "image_url": "https://s3-media3.fl.yelpcdn.com/bphoto/aDGH10IvfHs0a1myylZkXg/o.jpg", "is_closed": false, "url": "https://www.yelp.com/biz/coopers-corner-florence?adjust_creative=HdhkN5EEH6lAqE3kwhsHEQ&utm_campaign=yelp_api_v3&utm_medium=api_v3_business_search&utm_source=HdhkN5EEH6lAqE3kwhsHEQ", "review_count": 13, "categories": [{"alias": "delis", "title": "Delis"}, {"alias": "sandwiches", "title": "Sandwiches"}], "rating": 3.5, "coordinates": {"latitude": 42.3349699, "longitude": -72.6681617}, "transactions": ["delivery"], "location": {"address1": "31 Main St", "address2": "", "address3": "", "city": "Florence", "zip_code": "01062", "country": "US", "state": "MA", "display_address": ["31 Main St", "Florence, MA 01062"]}, "phone": "+14135861684", "display_phone": "(413) 586-1684", "distance": 15799.681189654193}, {"id": "8G2C6pDPclfoGHk9gVmu_Q", "alias": "west-lake-gourmet-chinese-restaurant-southampton", "name": "West Lake Gourmet Chinese Restaurant", "image_url": "https://s3-media2.fl.yelpcdn.com/bphoto/nKCivoq17DpEBQu72Du6hw/o.jpg", "is_closed": false, "url": "https://www.yelp.com/biz/west-lake-gourmet-chinese-restaurant-southampton?adjust_creative=HdhkN5EEH6lAqE3kwhsHEQ&utm_campaign=yelp_api_v3&utm_medium=api_v3_business_search&utm_source=HdhkN5EEH6lAqE3kwhsHEQ", "review_count": 15, "categories": [{"alias": "chinese", "title": "Chinese"}], "rating": 3.5, "coordinates": {"latitude": 42.252496, "longitude": -72.697897}, "transactions": [], "price": "$$", "location": {"address1": "15 College Hwy", "address2": "", "address3": "", "city": "Southampton", "zip_code": "01073", "country": "US", "state": "MA", "display_address": ["15 College Hwy", "Southampton, MA 01073"]}, "phone": "+14135275207", "display_phone": "(413) 527-5207", "distance": 19420.829805321824}, {"id": "pUPqX_XUmDoTEa8XO5sfpw", "alias": "florence-pizza-and-family-restaurant-florence", "name": "Florence Pizza & Family Restaurant", "image_url": "https://s3-media3.fl.yelpcdn.com/bphoto/7Qkhxtqtxx9Ij2hhgwoY3g/o.jpg", "is_closed": false, "url": "https://www.yelp.com/biz/florence-pizza-and-family-restaurant-florence?adjust_creative=HdhkN5EEH6lAqE3kwhsHEQ&utm_campaign=yelp_api_v3&utm_medium=api_v3_business_search&utm_source=HdhkN5EEH6lAqE3kwhsHEQ", "review_count": 23, "categories": [{"alias": "pizza", "title": "Pizza"}], "rating": 3.0, "coordinates": {"latitude": 42.334924, "longitude": -72.670016}, "transactions": [], "price": "$$", "location": {"address1": "60 Main St", "address2": "", "address3": "", "city": "Florence", "zip_code": "01062", "country": "US", "state": "MA", "display_address": ["60 Main St", "Florence, MA 01062"]}, "phone": "+14135845759", "display_phone": "(413) 584-5759", "distance": 15652.219863397719}, {"id": "PpYOxFZq2tiveGDysCIloQ", "alias": "great-wall-restaurant-florence", "name": "Great Wall Restaurant", "image_url": "https://s3-media1.fl.yelpcdn.com/bphoto/Eigw8QxWmxXQ-7kuMyQRKQ/o.jpg", "is_closed": false, "url": "https://www.yelp.com/biz/great-wall-restaurant-florence?adjust_creative=HdhkN5EEH6lAqE3kwhsHEQ&utm_campaign=yelp_api_v3&utm_medium=api_v3_business_search&utm_source=HdhkN5EEH6lAqE3kwhsHEQ", "review_count": 92, "categories": [{"alias": "chinese", "title": "Chinese"}], "rating": 3.0, "coordinates": {"latitude": 42.3308018, "longitude": -72.6770207}, "transactions": ["delivery"], "price": "$$", "location": {"address1": "178 Pine St", "address2": "", "address3": "", "city": "Florence", "zip_code": "01062", "country": "US", "state": "MA", "display_address": ["178 Pine St", "Florence, MA 01062"]}, "phone": "+14135820399", "display_phone": "(413) 582-0399", "distance": 15360.287307029359}, {"id": "jW38JcbztI3CzGRwLwfzeQ", "alias": "dynasty-gourmet-easthampton", "name": "Dynasty Gourmet", "image_url": "https://s3-media2.fl.yelpcdn.com/bphoto/YHhOWtG_nJl69AAkaY28vQ/o.jpg", "is_closed": false, "url": "https://www.yelp.com/biz/dynasty-gourmet-easthampton?adjust_creative=HdhkN5EEH6lAqE3kwhsHEQ&utm_campaign=yelp_api_v3&utm_medium=api_v3_business_search&utm_source=HdhkN5EEH6lAqE3kwhsHEQ", "review_count": 13, "categories": [{"alias": "chinese", "title": "Chinese"}], "rating": 3.5, "coordinates": {"latitude": 42.26906, "longitude": -72.672}, "transactions": ["delivery"], "location": {"address1": "32 Union St", "address2": "", "address3": "", "city": "Easthampton", "zip_code": "01027", "country": "US", "state": "MA", "display_address": ["32 Union St", "Easthampton, MA 01027"]}, "phone": "+14135290171", "display_phone": "(413) 529-0171", "distance": 19527.208995723297}, {"id": "Os3U8olEG3F4BIDCjXLpCQ", "alias": "tong-sing-chinese-restaurant-easthampton", "name": "Tong Sing Chinese Restaurant", "image_url": "https://s3-media3.fl.yelpcdn.com/bphoto/7qaW2Gp8gwffF-pbWV808A/o.jpg", "is_closed": false, "url": "https://www.yelp.com/biz/tong-sing-chinese-restaurant-easthampton?adjust_creative=HdhkN5EEH6lAqE3kwhsHEQ&utm_campaign=yelp_api_v3&utm_medium=api_v3_business_search&utm_source=HdhkN5EEH6lAqE3kwhsHEQ", "review_count": 19, "categories": [{"alias": "chinese", "title": "Chinese"}], "rating": 3.0, "coordinates": {"latitude": 42.281145, "longitude": -72.670897}, "transactions": ["delivery"], "price": "$", "location": {"address1": "126 Northampton St", "address2": "Ste I", "address3": "", "city": "Easthampton", "zip_code": "01027", "country": "US", "state": "MA", "display_address": ["126 Northampton St", "Ste I", "Easthampton, MA 01027"]}, "phone": "+14135273080", "display_phone": "(413) 527-3080", "distance": 18708.038421001824}, {"id": "1ARTh9M8gPmHgZxWsUJgew", "alias": "golden-china-pan-easthampton", "name": "Golden China Pan", "image_url": "https://s3-media2.fl.yelpcdn.com/bphoto/B_SggkPcRRokHdgOkX1FnA/o.jpg", "is_closed": false, "url": "https://www.yelp.com/biz/golden-china-pan-easthampton?adjust_creative=HdhkN5EEH6lAqE3kwhsHEQ&utm_campaign=yelp_api_v3&utm_medium=api_v3_business_search&utm_source=HdhkN5EEH6lAqE3kwhsHEQ", "review_count": 35, "categories": [{"alias": "chinese", "title": "Chinese"}], "rating": 3.5, "coordinates": {"latitude": 42.2664455041139, "longitude": -72.6701871880798}, "transactions": ["delivery"], "price": "$", "location": {"address1": "98 Union St", "address2": "", "address3": "", "city": "Easthampton", "zip_code": "01027", "country": "US", "state": "MA", "display_address": ["98 Union St", "Easthampton, MA 01027"]}, "phone": "+14135275888", "display_phone": "(413) 527-5888", "distance": 19834.135057681782}, {"id": "GhaYwhg5B1ZDGygGNVazmg", "alias": "a-1-pizza-house-florence", "name": "A-1 Pizza House", "image_url": "https://s3-media3.fl.yelpcdn.com/bphoto/2ktOLTeFExV9zRBbNz4VaQ/o.jpg", "is_closed": false, "url": "https://www.yelp.com/biz/a-1-pizza-house-florence?adjust_creative=HdhkN5EEH6lAqE3kwhsHEQ&utm_campaign=yelp_api_v3&utm_medium=api_v3_business_search&utm_source=HdhkN5EEH6lAqE3kwhsHEQ", "review_count": 10, "categories": [{"alias": "pizza", "title": "Pizza"}, {"alias": "italian", "title": "Italian"}], "rating": 3.5, "coordinates": {"latitude": 42.335307, "longitude": -72.672278}, "transactions": [], "price": "$", "location": {"address1": "92 Maple St", "address2": "", "address3": "", "city": "Florence", "zip_code": "01062", "country": "US", "state": "MA", "display_address": ["92 Maple St", "Florence, MA 01062"]}, "phone": "+14135864196", "display_phone": "(413) 586-4196", "distance": 15464.12076736791}, {"id": "Sv0ItBszllG1Ochdh3H99g", "alias": "glory-of-india-easthampton", "name": "Glory of India", "image_url": "https://s3-media2.fl.yelpcdn.com/bphoto/s3iyt5vq2cHPpOb7ONAi1w/o.jpg", "is_closed": false, "url": "https://www.yelp.com/biz/glory-of-india-easthampton?adjust_creative=HdhkN5EEH6lAqE3kwhsHEQ&utm_campaign=yelp_api_v3&utm_medium=api_v3_business_search&utm_source=HdhkN5EEH6lAqE3kwhsHEQ", "review_count": 72, "categories": [{"alias": "indpak", "title": "Indian"}], "rating": 4.0, "coordinates": {"latitude": 42.2694, "longitude": -72.67131}, "transactions": ["delivery"], "price": "$$", "location": {"address1": "29 Union St", "address2": "", "address3": "", "city": "Easthampton", "zip_code": "01027", "country": "US", "state": "MA", "display_address": ["29 Union St", "Easthampton, MA 01027"]}, "phone": "+14135279100", "display_phone": "(413) 527-9100", "distance": 19543.051369169378}, {"id": "lgmse49W68w4gJS-qNPWQw", "alias": "galaxy-easthampton", "name": "Galaxy", "image_url": "https://s3-media3.fl.yelpcdn.com/bphoto/BPBdQPvZBbFUpoiAvEP4JA/o.jpg", "is_closed": false, "url": "https://www.yelp.com/biz/galaxy-easthampton?adjust_creative=HdhkN5EEH6lAqE3kwhsHEQ&utm_campaign=yelp_api_v3&utm_medium=api_v3_business_search&utm_source=HdhkN5EEH6lAqE3kwhsHEQ", "review_count": 84, "categories": [{"alias": "cocktailbars", "title": "Cocktail Bars"}, {"alias": "newamerican", "title": "American (New)"}, {"alias": "salad", "title": "Salad"}], "rating": 3.5, "coordinates": {"latitude": 42.2707822, "longitude": -72.6721996}, "transactions": ["delivery"], "price": "$$", "location": {"address1": "60 Main St", "address2": "", "address3": "", "city": "Easthampton", "zip_code": "01027", "country": "US", "state": "MA", "display_address": ["60 Main St", "Easthampton, MA 01027"]}, "phone": "+14132032011", "display_phone": "(413) 203-2011", "distance": 19384.769696937306}, {"id": "FRZsoIol_jO7-XZjado4mA", "alias": "riffs-joint-easthampton", "name": "Riff's Joint", "image_url": "https://s3-media3.fl.yelpcdn.com/bphoto/s9ggJGtS2XIuG5Y4_RO0Kg/o.jpg", "is_closed": false, "url": "https://www.yelp.com/biz/riffs-joint-easthampton?adjust_creative=HdhkN5EEH6lAqE3kwhsHEQ&utm_campaign=yelp_api_v3&utm_medium=api_v3_business_search&utm_source=HdhkN5EEH6lAqE3kwhsHEQ", "review_count": 199, "categories": [{"alias": "burgers", "title": "Burgers"}, {"alias": "cheesesteaks", "title": "Cheesesteaks"}, {"alias": "pizza", "title": "Pizza"}], "rating": 4.0, "coordinates": {"latitude": 42.272241, "longitude": -72.664456}, "transactions": ["delivery"], "price": "$$", "location": {"address1": "116 Pleasant St", "address2": "Ste 158", "address3": "", "city": "Easthampton", "zip_code": "01027", "country": "US", "state": "MA", "display_address": ["116 Pleasant St", "Ste 158", "Easthampton, MA 01027"]}, "phone": "+14135278811", "display_phone": "(413) 527-8811", "distance": 19752.57327088242}, {"id": "8MWkw8ZzxPSyOvRoFJbu5w", "alias": "papa-george-easthampton", "name": "Papa George", "image_url": "https://s3-media3.fl.yelpcdn.com/bphoto/W_k87v1uZ79sYdTp-YwbNw/o.jpg", "is_closed": false, "url": "https://www.yelp.com/biz/papa-george-easthampton?adjust_creative=HdhkN5EEH6lAqE3kwhsHEQ&utm_campaign=yelp_api_v3&utm_medium=api_v3_business_search&utm_source=HdhkN5EEH6lAqE3kwhsHEQ", "review_count": 16, "categories": [{"alias": "pizza", "title": "Pizza"}], "rating": 3.5, "coordinates": {"latitude": 42.28091, "longitude": -72.66924}, "transactions": ["delivery"], "price": "$", "location": {"address1": "135 Northampton St", "address2": "Ste D", "address3": null, "city": "Easthampton", "zip_code": "01027", "country": "US", "state": "MA", "display_address": ["135 Northampton St", "Ste D", "Easthampton, MA 01027"]}, "phone": "+14135278222", "display_phone": "(413) 527-8222", "distance": 18832.614697019017}, {"id": "0rVn2K7cuT6T967aalrrjA", "alias": "easthampton-village-pizza-easthampton", "name": "Easthampton Village Pizza", "image_url": "https://s3-media4.fl.yelpcdn.com/bphoto/jmX6LGU6BAu5l9gdHK0OtQ/o.jpg", "is_closed": false, "url": "https://www.yelp.com/biz/easthampton-village-pizza-easthampton?adjust_creative=HdhkN5EEH6lAqE3kwhsHEQ&utm_campaign=yelp_api_v3&utm_medium=api_v3_business_search&utm_source=HdhkN5EEH6lAqE3kwhsHEQ", "review_count": 19, "categories": [{"alias": "pizza", "title": "Pizza"}], "rating": 3.5, "coordinates": {"latitude": 42.2663566, "longitude": -72.6698095}, "transactions": ["delivery"], "price": "$", "location": {"address1": "100 Union St", "address2": "", "address3": "", "city": "Easthampton", "zip_code": "01027", "country": "US", "state": "MA", "display_address": ["100 Union St", "Easthampton, MA 01027"]}, "phone": "+14135273340", "display_phone": "(413) 527-3340", "distance": 19830.35497837886}, {"id": "dQV3LpK8w42ZrvMogf-Yfg", "alias": "silver-spoon-restaurant-easthampton", "name": "Silver Spoon Restaurant", "image_url": "https://s3-media3.fl.yelpcdn.com/bphoto/IT12dKxOjtUP8MiTYlxkBA/o.jpg", "is_closed": false, "url": "https://www.yelp.com/biz/silver-spoon-restaurant-easthampton?adjust_creative=HdhkN5EEH6lAqE3kwhsHEQ&utm_campaign=yelp_api_v3&utm_medium=api_v3_business_search&utm_source=HdhkN5EEH6lAqE3kwhsHEQ", "review_count": 74, "categories": [{"alias": "diners", "title": "Diners"}, {"alias": "breakfast_brunch", "title": "Breakfast & Brunch"}, {"alias": "tradamerican", "title": "American (Traditional)"}], "rating": 4.0, "coordinates": {"latitude": 42.270737312599, "longitude": -72.6724829875412}, "transactions": ["delivery"], "price": "$", "location": {"address1": "73 Main St", "address2": "", "address3": "", "city": "Easthampton", "zip_code": "01027", "country": "US", "state": "MA", "display_address": ["73 Main St", "Easthampton, MA 01027"]}, "phone": "+14135273363", "display_phone": "(413) 527-3363", "distance": 19370.95987508947}, {"id": "VocCpICIlPD_WO9y98Vgtw", "alias": "easthampton-diner-easthampton", "name": "Easthampton Diner", "image_url": "https://s3-media2.fl.yelpcdn.com/bphoto/Vx_aMi1xTGXxqD8L3rBKag/o.jpg", "is_closed": false, "url": "https://www.yelp.com/biz/easthampton-diner-easthampton?adjust_creative=HdhkN5EEH6lAqE3kwhsHEQ&utm_campaign=yelp_api_v3&utm_medium=api_v3_business_search&utm_source=HdhkN5EEH6lAqE3kwhsHEQ", "review_count": 32, "categories": [{"alias": "diners", "title": "Diners"}, {"alias": "breakfast_brunch", "title": "Breakfast & Brunch"}, {"alias": "pizza", "title": "Pizza"}], "rating": 3.0, "coordinates": {"latitude": 42.26656, "longitude": -72.66925}, "transactions": ["delivery"], "price": "$$", "location": {"address1": "117 Union St", "address2": "", "address3": "", "city": "Easthampton", "zip_code": "01027", "country": "US", "state": "MA", "display_address": ["117 Union St", "Easthampton, MA 01027"]}, "phone": "+14135270855", "display_phone": "(413) 527-0855", "distance": 19890.105757892106}, {"id": "9Ui5x2OFuyWat5SC3f6CwA", "alias": "jjs-tavern-florence", "name": "JJ's Tavern", "image_url": "https://s3-media3.fl.yelpcdn.com/bphoto/DLn7-B5J_60C70Lhh6efQQ/o.jpg", "is_closed": false, "url": "https://www.yelp.com/biz/jjs-tavern-florence?adjust_creative=HdhkN5EEH6lAqE3kwhsHEQ&utm_campaign=yelp_api_v3&utm_medium=api_v3_business_search&utm_source=HdhkN5EEH6lAqE3kwhsHEQ", "review_count": 11, "categories": [{"alias": "tradamerican", "title": "American (Traditional)"}, {"alias": "pubs", "title": "Pubs"}, {"alias": "burgers", "title": "Burgers"}], "rating": 3.5, "coordinates": {"latitude": 42.335644, "longitude": -72.671405}, "transactions": ["pickup", "delivery"], "price": "$$", "location": {"address1": "99 Main St", "address2": "Unit B", "address3": "", "city": "Florence", "zip_code": "01062", "country": "US", "state": "MA", "display_address": ["99 Main St", "Unit B", "Florence, MA 01062"]}, "phone": "+14135865705", "display_phone": "(413) 586-5705", "distance": 15516.185338436753}, {"id": "kSF3nWZmVYlXM8AWBDY6GA", "alias": "cafe-evolution-florence-2", "name": "Cafe Evolution", "image_url": "https://s3-media2.fl.yelpcdn.com/bphoto/EYVJUESeRQQdxUqzLDKyvQ/o.jpg", "is_closed": false, "url": "https://www.yelp.com/biz/cafe-evolution-florence-2?adjust_creative=HdhkN5EEH6lAqE3kwhsHEQ&utm_campaign=yelp_api_v3&utm_medium=api_v3_business_search&utm_source=HdhkN5EEH6lAqE3kwhsHEQ", "review_count": 111, "categories": [{"alias": "bakeries", "title": "Bakeries"}, {"alias": "burgers", "title": "Burgers"}, {"alias": "sandwiches", "title": "Sandwiches"}], "rating": 4.5, "coordinates": {"latitude": 42.3341957928981, "longitude": -72.6679041537607}, "transactions": ["delivery"], "price": "$$", "location": {"address1": "22 Chestnut St", "address2": "", "address3": "", "city": "Florence", "zip_code": "01062", "country": "US", "state": "MA", "display_address": ["22 Chestnut St", "Florence, MA 01062"]}, "phone": "+14135860200", "display_phone": "(413) 586-0200", "distance": 15840.109276442854}, {"id": "0FTnQVUd21aKC0zUMasMOA", "alias": "pizza-house-easthampton", "name": "Pizza House", "image_url": "", "is_closed": false, "url": "https://www.yelp.com/biz/pizza-house-easthampton?adjust_creative=HdhkN5EEH6lAqE3kwhsHEQ&utm_campaign=yelp_api_v3&utm_medium=api_v3_business_search&utm_source=HdhkN5EEH6lAqE3kwhsHEQ", "review_count": 6, "categories": [{"alias": "pizza", "title": "Pizza"}, {"alias": "italian", "title": "Italian"}], "rating": 2.0, "coordinates": {"latitude": 42.2680795937777, "longitude": -72.6708557456732}, "transactions": ["delivery"], "price": "$$", "location": {"address1": "66 Union St", "address2": "", "address3": "", "city": "Easthampton", "zip_code": "01027", "country": "US", "state": "MA", "display_address": ["66 Union St", "Easthampton, MA 01027"]}, "phone": "+14135271320", "display_phone": "(413) 527-1320", "distance": 19671.763087298546}, {"id": "w8Ei4KseWaa6O9ox73Oyfw", "alias": "mikel-coffee-southampton", "name": "Mikel Coffee", "image_url": "https://s3-media1.fl.yelpcdn.com/bphoto/M9qrqmeBR1hum_AcoYdMEg/o.jpg", "is_closed": false, "url": "https://www.yelp.com/biz/mikel-coffee-southampton?adjust_creative=HdhkN5EEH6lAqE3kwhsHEQ&utm_campaign=yelp_api_v3&utm_medium=api_v3_business_search&utm_source=HdhkN5EEH6lAqE3kwhsHEQ", "review_count": 11, "categories": [{"alias": "cafes", "title": "Cafes"}], "rating": 4.5, "coordinates": {"latitude": 42.252372, "longitude": -72.69815}, "transactions": [], "location": {"address1": "15 College Hwy", "address2": null, "address3": null, "city": "Southampton", "zip_code": "01073", "country": "US", "state": "MA", "display_address": ["15 College Hwy", "Southampton, MA 01073"]}, "phone": "+14132032442", "display_phone": "(413) 203-2442", "distance": 19418.52303081436}, {"id": "94V7YzpmGIwYa4h7w9peCA", "alias": "pizza-factory-florence", "name": "Pizza Factory", "image_url": "https://s3-media2.fl.yelpcdn.com/bphoto/P0Dnb3MpWh8ZC1v0XoZuSQ/o.jpg", "is_closed": false, "url": "https://www.yelp.com/biz/pizza-factory-florence?adjust_creative=HdhkN5EEH6lAqE3kwhsHEQ&utm_campaign=yelp_api_v3&utm_medium=api_v3_business_search&utm_source=HdhkN5EEH6lAqE3kwhsHEQ", "review_count": 24, "categories": [{"alias": "pizza", "title": "Pizza"}, {"alias": "italian", "title": "Italian"}], "rating": 3.5, "coordinates": {"latitude": 42.3356271137677, "longitude": -72.6718680313525}, "transactions": ["delivery"], "price": "$$", "location": {"address1": "143 Main St", "address2": "", "address3": "", "city": "Florence", "zip_code": "01062", "country": "US", "state": "MA", "display_address": ["143 Main St", "Florence, MA 01062"]}, "phone": "+14135847777", "display_phone": "(413) 584-7777", "distance": 15481.688865488946}, {"id": "a5MSc3hCiNECKbn5wfb4bw", "alias": "antonios-pizza-and-wings-easthampton", "name": "Antonio's Pizza and Wings", "image_url": "https://s3-media4.fl.yelpcdn.com/bphoto/TFvWK8veMoU5FRCSr-yBhg/o.jpg", "is_closed": false, "url": "https://www.yelp.com/biz/antonios-pizza-and-wings-easthampton?adjust_creative=HdhkN5EEH6lAqE3kwhsHEQ&utm_campaign=yelp_api_v3&utm_medium=api_v3_business_search&utm_source=HdhkN5EEH6lAqE3kwhsHEQ", "review_count": 77, "categories": [{"alias": "chicken_wings", "title": "Chicken Wings"}, {"alias": "pizza", "title": "Pizza"}], "rating": 3.5, "coordinates": {"latitude": 42.2709022, "longitude": -72.6723462}, "transactions": ["delivery"], "price": "$", "location": {"address1": "71 Main St", "address2": "", "address3": "", "city": "Easthampton", "zip_code": "01027", "country": "US", "state": "MA", "display_address": ["71 Main St", "Easthampton, MA 01027"]}, "phone": "+14135278383", "display_phone": "(413) 527-8383", "distance": 19366.535403063957}, {"id": "L_0XOOAjfPhNGdKAfPAuFw", "alias": "river-valley-co-op-northampton", "name": "River Valley Co-op", "image_url": "https://s3-media3.fl.yelpcdn.com/bphoto/byo6COSgU4heIcZfTxMKYw/o.jpg", "is_closed": false, "url": "https://www.yelp.com/biz/river-valley-co-op-northampton?adjust_creative=HdhkN5EEH6lAqE3kwhsHEQ&utm_campaign=yelp_api_v3&utm_medium=api_v3_business_search&utm_source=HdhkN5EEH6lAqE3kwhsHEQ", "review_count": 49, "categories": [{"alias": "grocery", "title": "Grocery"}, {"alias": "delis", "title": "Delis"}], "rating": 4.0, "coordinates": {"latitude": 42.347127, "longitude": -72.643039}, "transactions": [], "price": "$$", "location": {"address1": "330 N King St", "address2": "", "address3": "", "city": "Northampton", "zip_code": "01060", "country": "US", "state": "MA", "display_address": ["330 N King St", "Northampton, MA 01060"]}, "phone": "+14135842665", "display_phone": "(413) 584-2665", "distance": 17312.583715505883}, {"id": "WXMV2M3JjMhIifScR5umUA", "alias": "freckled-fox-cafe-florence", "name": "Freckled Fox Cafe", "image_url": "https://s3-media2.fl.yelpcdn.com/bphoto/6Wv4DSm6bKUnz6Avur7yxA/o.jpg", "is_closed": false, "url": "https://www.yelp.com/biz/freckled-fox-cafe-florence?adjust_creative=HdhkN5EEH6lAqE3kwhsHEQ&utm_campaign=yelp_api_v3&utm_medium=api_v3_business_search&utm_source=HdhkN5EEH6lAqE3kwhsHEQ", "review_count": 18, "categories": [{"alias": "coffee", "title": "Coffee & Tea"}, {"alias": "breakfast_brunch", "title": "Breakfast & Brunch"}, {"alias": "sandwiches", "title": "Sandwiches"}], "rating": 4.0, "coordinates": {"latitude": 42.33568, "longitude": -72.6720859}, "transactions": ["pickup", "delivery"], "price": "$$", "location": {"address1": "1 N Main St", "address2": "", "address3": null, "city": "Florence", "zip_code": "01062", "country": "US", "state": "MA", "display_address": ["1 N Main St", "Florence, MA 01062"]}, "phone": "+14135850445", "display_phone": "(413) 585-0445", "distance": 15446.935735510266}, {"id": "T5K5NDHfw6sBhvDSv2fYrg", "alias": "friendlys-florence", "name": "Friendly's", "image_url": "https://s3-media4.fl.yelpcdn.com/bphoto/0FJhZw1t158HfkLGLYXrFw/o.jpg", "is_closed": false, "url": "https://www.yelp.com/biz/friendlys-florence?adjust_creative=HdhkN5EEH6lAqE3kwhsHEQ&utm_campaign=yelp_api_v3&utm_medium=api_v3_business_search&utm_source=HdhkN5EEH6lAqE3kwhsHEQ", "review_count": 10, "categories": [{"alias": "icecream", "title": "Ice Cream & Frozen Yogurt"}, {"alias": "burgers", "title": "Burgers"}, {"alias": "tradamerican", "title": "American (Traditional)"}], "rating": 3.5, "coordinates": {"latitude": 42.3349100747765, "longitude": -72.6694301515818}, "transactions": [], "price": "$", "location": {"address1": "54 Main St", "address2": null, "address3": null, "city": "Florence", "zip_code": "01062", "country": "US", "state": "MA", "display_address": ["54 Main St", "Florence, MA 01062"]}, "phone": "+14135841772", "display_phone": "(413) 584-1772", "distance": 15697.341185666324}, {"id": "1ktEPo1WxTPUk5WdNGdzaA", "alias": "subway-southampton-7", "name": "Subway", "image_url": "https://s3-media2.fl.yelpcdn.com/bphoto/uYuTee3lvW_R1fsLhyYKJQ/o.jpg", "is_closed": false, "url": "https://www.yelp.com/biz/subway-southampton-7?adjust_creative=HdhkN5EEH6lAqE3kwhsHEQ&utm_campaign=yelp_api_v3&utm_medium=api_v3_business_search&utm_source=HdhkN5EEH6lAqE3kwhsHEQ", "review_count": 2, "categories": [{"alias": "sandwiches", "title": "Sandwiches"}], "rating": 3.0, "coordinates": {"latitude": 42.23645, "longitude": -72.7241}, "transactions": [], "price": "$", "location": {"address1": "161 College Hwy", "address2": "", "address3": "", "city": "Southampton", "zip_code": "01073", "country": "US", "state": "MA", "display_address": ["161 College Hwy", "Southampton, MA 01073"]}, "phone": "+14135271199", "display_phone": "(413) 527-1199", "distance": 19665.37930906893}, {"id": "Rn2-QMw-eJrhzYEgON_Odg", "alias": "tandem-bagel-company-easthampton", "name": "Tandem Bagel Company", "image_url": "https://s3-media1.fl.yelpcdn.com/bphoto/u4MWAnyZzK5AGZxEe8Ua7g/o.jpg", "is_closed": false, "url": "https://www.yelp.com/biz/tandem-bagel-company-easthampton?adjust_creative=HdhkN5EEH6lAqE3kwhsHEQ&utm_campaign=yelp_api_v3&utm_medium=api_v3_business_search&utm_source=HdhkN5EEH6lAqE3kwhsHEQ", "review_count": 86, "categories": [{"alias": "bagels", "title": "Bagels"}, {"alias": "breakfast_brunch", "title": "Breakfast & Brunch"}], "rating": 4.5, "coordinates": {"latitude": 42.2668239458347, "longitude": -72.6711308354225}, "transactions": ["delivery"], "price": "$", "location": {"address1": "9 Railroad St", "address2": "", "address3": "", "city": "Easthampton", "zip_code": "01027", "country": "US", "state": "MA", "display_address": ["9 Railroad St", "Easthampton, MA 01027"]}, "phone": "+14132035591", "display_phone": "(413) 203-5591", "distance": 19748.739260164446}, {"id": "Lkem9fPW8K4OiaB2imk2vA", "alias": "mcdonalds-easthampton", "name": "McDonald's", "image_url": "https://s3-media2.fl.yelpcdn.com/bphoto/ioiLRI272eK9TtFkrGeJ9Q/o.jpg", "is_closed": false, "url": "https://www.yelp.com/biz/mcdonalds-easthampton?adjust_creative=HdhkN5EEH6lAqE3kwhsHEQ&utm_campaign=yelp_api_v3&utm_medium=api_v3_business_search&utm_source=HdhkN5EEH6lAqE3kwhsHEQ", "review_count": 4, "categories": [{"alias": "hotdogs", "title": "Fast Food"}, {"alias": "burgers", "title": "Burgers"}, {"alias": "coffee", "title": "Coffee & Tea"}], "rating": 1.5, "coordinates": {"latitude": 42.27989, "longitude": -72.670322}, "transactions": [], "price": "$", "location": {"address1": "121 N Hampton St", "address2": "", "address3": "", "city": "Easthampton", "zip_code": "01027", "country": "US", "state": "MA", "display_address": ["121 N Hampton St", "Easthampton, MA 01027"]}, "phone": "+14135275526", "display_phone": "(413) 527-5526", "distance": 18833.700049991894}, {"id": "E-GBzX-_puSiAIQBHf5XTA", "alias": "holyoke-hummus-company-holyoke", "name": "Holyoke Hummus Company", "image_url": "https://s3-media2.fl.yelpcdn.com/bphoto/K-RvwwHMrU-8EFC9r_j1bw/o.jpg", "is_closed": false, "url": "https://www.yelp.com/biz/holyoke-hummus-company-holyoke?adjust_creative=HdhkN5EEH6lAqE3kwhsHEQ&utm_campaign=yelp_api_v3&utm_medium=api_v3_business_search&utm_source=HdhkN5EEH6lAqE3kwhsHEQ", "review_count": 65, "categories": [{"alias": "mideastern", "title": "Middle Eastern"}, {"alias": "foodtrucks", "title": "Food Trucks"}, {"alias": "breakfast_brunch", "title": "Breakfast & Brunch"}], "rating": 4.5, "coordinates": {"latitude": 42.206426, "longitude": -72.6086119}, "transactions": ["pickup", "delivery"], "price": "$", "location": {"address1": "285 High St", "address2": null, "address3": "", "city": "Holyoke", "zip_code": "01040", "country": "US", "state": "MA", "display_address": ["285 High St", "Holyoke, MA 01040"]}, "phone": "+14132251755", "display_phone": "(413) 225-1755", "distance": 28133.072039969393}, {"id": "tlejB4CRtoIulBjW3VIE4w", "alias": "subway-north-hampton-4", "name": "Subway", "image_url": "https://s3-media4.fl.yelpcdn.com/bphoto/maogQyKNhFeQpyOyLNhFhw/o.jpg", "is_closed": false, "url": "https://www.yelp.com/biz/subway-north-hampton-4?adjust_creative=HdhkN5EEH6lAqE3kwhsHEQ&utm_campaign=yelp_api_v3&utm_medium=api_v3_business_search&utm_source=HdhkN5EEH6lAqE3kwhsHEQ", "review_count": 3, "categories": [{"alias": "sandwiches", "title": "Sandwiches"}], "rating": 4.5, "coordinates": {"latitude": 42.341656, "longitude": -72.643856}, "transactions": ["pickup", "delivery"], "price": "$", "location": {"address1": "180 N King St", "address2": null, "address3": null, "city": "North Hampton", "zip_code": "01060", "country": "US", "state": "MA", "display_address": ["180 N King St", "North Hampton, MA 01060"]}, "phone": "+14135862800", "display_phone": "(413) 586-2800", "distance": 17426.739343561483}, {"id": "uYFlgK3FYZVvJp7fLlW8pg", "alias": "dominos-pizza-easthampton", "name": "Domino's Pizza", "image_url": "https://s3-media1.fl.yelpcdn.com/bphoto/A0qLun2Pk1I1cjLFtB6q9w/o.jpg", "is_closed": false, "url": "https://www.yelp.com/biz/dominos-pizza-easthampton?adjust_creative=HdhkN5EEH6lAqE3kwhsHEQ&utm_campaign=yelp_api_v3&utm_medium=api_v3_business_search&utm_source=HdhkN5EEH6lAqE3kwhsHEQ", "review_count": 11, "categories": [{"alias": "pizza", "title": "Pizza"}, {"alias": "chicken_wings", "title": "Chicken Wings"}, {"alias": "sandwiches", "title": "Sandwiches"}], "rating": 3.0, "coordinates": {"latitude": 42.2701416015625, "longitude": -72.6714477539062}, "transactions": [], "price": "$", "location": {"address1": "11 Union St", "address2": "", "address3": "", "city": "Easthampton", "zip_code": "01027", "country": "US", "state": "MA", "display_address": ["11 Union St", "Easthampton, MA 01027"]}, "phone": "+14135270821", "display_phone": "(413) 527-0821", "distance": 19474.04862015183}, {"id": "x3QhrUHTm2fFYOz2im2DBw", "alias": "subway-easthampton-4", "name": "Subway", "image_url": "https://s3-media4.fl.yelpcdn.com/bphoto/sFwdfv9MO7_ObJtd_nZvMw/o.jpg", "is_closed": false, "url": "https://www.yelp.com/biz/subway-easthampton-4?adjust_creative=HdhkN5EEH6lAqE3kwhsHEQ&utm_campaign=yelp_api_v3&utm_medium=api_v3_business_search&utm_source=HdhkN5EEH6lAqE3kwhsHEQ", "review_count": 6, "categories": [{"alias": "sandwiches", "title": "Sandwiches"}], "rating": 3.0, "coordinates": {"latitude": 42.2689640757231, "longitude": -72.672240811946}, "transactions": ["pickup", "delivery"], "price": "$", "location": {"address1": "32 Union St", "address2": "", "address3": "", "city": "Easthampton", "zip_code": "01027", "country": "US", "state": "MA", "display_address": ["32 Union St", "Easthampton, MA 01027"]}, "phone": "+14135276110", "display_phone": "(413) 527-6110", "distance": 19519.436763811867}, {"id": "4hpk-dP4FvxAYbOQBFGx6A", "alias": "mt-joe-to-go-holyoke", "name": "Mt. Joe To Go", "image_url": "https://s3-media2.fl.yelpcdn.com/bphoto/A_LljHsYoAFD9ap_iaC65Q/o.jpg", "is_closed": false, "url": "https://www.yelp.com/biz/mt-joe-to-go-holyoke?adjust_creative=HdhkN5EEH6lAqE3kwhsHEQ&utm_campaign=yelp_api_v3&utm_medium=api_v3_business_search&utm_source=HdhkN5EEH6lAqE3kwhsHEQ", "review_count": 15, "categories": [{"alias": "coffee", "title": "Coffee & Tea"}, {"alias": "sandwiches", "title": "Sandwiches"}, {"alias": "hotdogs", "title": "Fast Food"}], "rating": 3.5, "coordinates": {"latitude": 42.2361640930176, "longitude": -72.6518630981445}, "transactions": ["delivery"], "price": "$", "location": {"address1": "500 Easthampton Rd", "address2": "", "address3": "", "city": "Holyoke", "zip_code": "01040", "country": "US", "state": "MA", "display_address": ["500 Easthampton Rd", "Holyoke, MA 01040"]}, "phone": "+14134270538", "display_phone": "(413) 427-0538", "distance": 23282.231800080714}, {"id": "qqA8YX58xnmEXLyanHfdUg", "alias": "stufd-food-truck-brooklyn", "name": "Stuf'd Food Truck", "image_url": "https://s3-media2.fl.yelpcdn.com/bphoto/_Wn0i-tLIOFinw8BPAqxPA/o.jpg", "is_closed": false, "url": "https://www.yelp.com/biz/stufd-food-truck-brooklyn?adjust_creative=HdhkN5EEH6lAqE3kwhsHEQ&utm_campaign=yelp_api_v3&utm_medium=api_v3_business_search&utm_source=HdhkN5EEH6lAqE3kwhsHEQ", "review_count": 4, "categories": [{"alias": "sandwiches", "title": "Sandwiches"}, {"alias": "foodtrucks", "title": "Food Trucks"}], "rating": 4.0, "coordinates": {"latitude": 40.7124539, "longitude": -73.9287374}, "transactions": [], "location": {"address1": "178 Varick Ave", "address2": "", "address3": null, "city": "Brooklyn", "zip_code": "11237", "country": "US", "state": "NY", "display_address": ["178 Varick Ave", "Brooklyn, NY 11237"]}, "phone": "+18457091808", "display_phone": "(845) 709-1808", "distance": 206984.31133539818}]