[{"id": "S3Tkq0oSytqNpe98y9wTdQ", "alias": "bistro-les-gras-northampton", "name": "Bistro Les Gras", "image_url": "https://s3-media2.fl.yelpcdn.com/bphoto/Jbw8cv8PEJ7ze0-L5BUUoQ/o.jpg", "is_closed": false, "url": "https://www.yelp.com/biz/bistro-les-gras-northampton?adjust_creative=asslzE1UV0XuKI953B1vtw&utm_campaign=yelp_api_v3&utm_medium=api_v3_business_search&utm_source=asslzE1UV0XuKI953B1vtw", "review_count": 112, "categories": [{"alias": "french", "title": "French"}, {"alias": "seafood", "title": "Seafood"}, {"alias": "burgers", "title": "Burgers"}], "rating": 4.0, "coordinates": {"latitude": 42.3166369430338, "longitude": -72.6366354072254}, "transactions": ["delivery"], "price": "$$$", "location": {"address1": "25 W St", "address2": "", "address3": "", "city": "Northampton", "zip_code": "01060", "country": "US", "state": "MA", "display_address": ["25 W St", "Northampton, MA 01060"]}, "phone": "+14133204666", "display_phone": "(413) 320-4666", "distance": 310.3910290591109}, {"id": "TA3Dqs1bVBnD7Y0qYXpQyQ", "alias": "filos-greek-taverna-northampton", "name": "Filos Greek Taverna", "image_url": "https://s3-media4.fl.yelpcdn.com/bphoto/ZFUFSlX6_aXV-9alRvsmqQ/o.jpg", "is_closed": false, "url": "https://www.yelp.com/biz/filos-greek-taverna-northampton?adjust_creative=asslzE1UV0XuKI953B1vtw&utm_campaign=yelp_api_v3&utm_medium=api_v3_business_search&utm_source=asslzE1UV0XuKI953B1vtw", "review_count": 212, "categories": [{"alias": "greek", "title": "Greek"}, {"alias": "salad", "title": "Salad"}], "rating": 4.0, "coordinates": {"latitude": 42.3178238, "longitude": -72.6337045}, "transactions": ["delivery"], "price": "$$", "location": {"address1": "279 Main St", "address2": "", "address3": "", "city": "Northampton", "zip_code": "01060", "country": "US", "state": "MA", "display_address": ["279 Main St", "Northampton, MA 01060"]}, "phone": "+14135863456", "display_phone": "(413) 586-3456", "distance": 419.7665226698151}, {"id": "WTwLgWLCHmTZSQ3_HleTUA", "alias": "india-house-restaurant-northampton", "name": "India House Restaurant", "image_url": "https://s3-media3.fl.yelpcdn.com/bphoto/0EkefXNb3k6az1ayCvVUiA/o.jpg", "is_closed": false, "url": "https://www.yelp.com/biz/india-house-restaurant-northampton?adjust_creative=asslzE1UV0XuKI953B1vtw&utm_campaign=yelp_api_v3&utm_medium=api_v3_business_search&utm_source=asslzE1UV0XuKI953B1vtw", "review_count": 209, "categories": [{"alias": "indpak", "title": "Indian"}], "rating": 4.0, "coordinates": {"latitude": 42.31911, "longitude": -72.63403}, "transactions": ["delivery"], "price": "$$", "location": {"address1": "45 State St", "address2": "", "address3": "", "city": "Northampton", "zip_code": "01060", "country": "US", "state": "MA", "display_address": ["45 State St", "Northampton, MA 01060"]}, "phone": "+14135866344", "display_phone": "(413) 586-6344", "distance": 373.735489767826}, {"id": "eSjDTVJ9E2kkcqA826C6rQ", "alias": "mosaic-cafe-northampton", "name": "Mosaic Cafe", "image_url": "https://s3-media4.fl.yelpcdn.com/bphoto/mXMjvewtcJjOB9fxinAaVA/o.jpg", "is_closed": false, "url": "https://www.yelp.com/biz/mosaic-cafe-northampton?adjust_creative=asslzE1UV0XuKI953B1vtw&utm_campaign=yelp_api_v3&utm_medium=api_v3_business_search&utm_source=asslzE1UV0XuKI953B1vtw", "review_count": 127, "categories": [{"alias": "moroccan", "title": "Moroccan"}], "rating": 4.0, "coordinates": {"latitude": 42.3190536499023, "longitude": -72.6332626342773}, "transactions": ["delivery"], "price": "$$", "location": {"address1": "78 Masonic St", "address2": "", "address3": "", "city": "Northampton", "zip_code": "01060", "country": "US", "state": "MA", "display_address": ["78 Masonic St", "Northampton, MA 01060"]}, "phone": "+14135851155", "display_phone": "(413) 585-1155", "distance": 434.8658219883974}, {"id": "_SXfH8nXDNA3tY-CG2kytQ", "alias": "bela-vegetarian-restaurant-northampton", "name": "Bela Vegetarian Restaurant", "image_url": "https://s3-media1.fl.yelpcdn.com/bphoto/CvcyvCbyfH9XX2Qm7Q3_Kg/o.jpg", "is_closed": false, "url": "https://www.yelp.com/biz/bela-vegetarian-restaurant-northampton?adjust_creative=asslzE1UV0XuKI953B1vtw&utm_campaign=yelp_api_v3&utm_medium=api_v3_business_search&utm_source=asslzE1UV0XuKI953B1vtw", "review_count": 102, "categories": [{"alias": "vegetarian", "title": "Vegetarian"}], "rating": 4.0, "coordinates": {"latitude": 42.31897, "longitude": -72.63328}, "transactions": [], "price": "$$", "location": {"address1": "68 Masonic St", "address2": "", "address3": "", "city": "Northampton", "zip_code": "01060", "country": "US", "state": "MA", "display_address": ["68 Masonic St", "Northampton, MA 01060"]}, "phone": "+14135868011", "display_phone": "(413) 586-8011", "distance": 433.55095745641194}, {"id": "j_toNLVsQPugmRbfuEHHYA", "alias": "hungry-ghost-bread-northampton", "name": "Hungry Ghost Bread", "image_url": "https://s3-media4.fl.yelpcdn.com/bphoto/yS_1AR3Ouje_Bn70MGzYpg/o.jpg", "is_closed": false, "url": "https://www.yelp.com/biz/hungry-ghost-bread-northampton?adjust_creative=asslzE1UV0XuKI953B1vtw&utm_campaign=yelp_api_v3&utm_medium=api_v3_business_search&utm_source=asslzE1UV0XuKI953B1vtw", "review_count": 163, "categories": [{"alias": "bakeries", "title": "Bakeries"}, {"alias": "pizza", "title": "Pizza"}], "rating": 4.5, "coordinates": {"latitude": 42.31992, "longitude": -72.6346}, "transactions": [], "price": "$", "location": {"address1": "62 State St", "address2": null, "address3": "", "city": "Northampton", "zip_code": "01060", "country": "US", "state": "MA", "display_address": ["62 State St", "Northampton, MA 01060"]}, "phone": "+14135829009", "display_phone": "(413) 582-9009", "distance": 335.07784453611924}, {"id": "Gpj6r73EQ2yl2Z-lUMLKfg", "alias": "noodles-northampton", "name": "Noodles", "image_url": "https://s3-media1.fl.yelpcdn.com/bphoto/rbgp8CHGz5mXJ5V676fGxA/o.jpg", "is_closed": false, "url": "https://www.yelp.com/biz/noodles-northampton?adjust_creative=asslzE1UV0XuKI953B1vtw&utm_campaign=yelp_api_v3&utm_medium=api_v3_business_search&utm_source=asslzE1UV0XuKI953B1vtw", "review_count": 114, "categories": [{"alias": "noodles", "title": "Noodles"}], "rating": 3.5, "coordinates": {"latitude": 42.3178947, "longitude": -72.6332189}, "transactions": ["delivery", "pickup"], "price": "$$", "location": {"address1": "257 Main St", "address2": "", "address3": "", "city": "Northampton", "zip_code": "01060", "country": "US", "state": "MA", "display_address": ["257 Main St", "Northampton, MA 01060"]}, "phone": "+14135874070", "display_phone": "(413) 587-4070", "distance": 458.10238658260266}, {"id": "PhX9OVoiUHTHSQIlZOJnOw", "alias": "iconica-social-club-northampton", "name": "Iconica Social Club", "image_url": "https://s3-media1.fl.yelpcdn.com/bphoto/UxdQphV_56gVW_Xhi9WboA/o.jpg", "is_closed": false, "url": "https://www.yelp.com/biz/iconica-social-club-northampton?adjust_creative=asslzE1UV0XuKI953B1vtw&utm_campaign=yelp_api_v3&utm_medium=api_v3_business_search&utm_source=asslzE1UV0XuKI953B1vtw", "review_count": 27, "categories": [{"alias": "coffee", "title": "Coffee & Tea"}, {"alias": "juicebars", "title": "Juice Bars & Smoothies"}, {"alias": "breakfast_brunch", "title": "Breakfast & Brunch"}], "rating": 4.0, "coordinates": {"latitude": 42.3183623879961, "longitude": -72.6321603086328}, "transactions": [], "price": "$$", "location": {"address1": "1 Amber Ln", "address2": "", "address3": null, "city": "Northampton", "zip_code": "01060", "country": "US", "state": "MA", "display_address": ["1 Amber Ln", "Northampton, MA 01060"]}, "phone": "+14133410258", "display_phone": "(413) 341-0258", "distance": 529.5136584624581}, {"id": "vgDQ2JDGVFnW_H9Cl9BMJQ", "alias": "the-green-bean-northampton", "name": "The Green Bean", "image_url": "https://s3-media2.fl.yelpcdn.com/bphoto/zBW0YIvmXWDY4nFYVQVy9Q/o.jpg", "is_closed": false, "url": "https://www.yelp.com/biz/the-green-bean-northampton?adjust_creative=asslzE1UV0XuKI953B1vtw&utm_campaign=yelp_api_v3&utm_medium=api_v3_business_search&utm_source=asslzE1UV0XuKI953B1vtw", "review_count": 213, "categories": [{"alias": "breakfast_brunch", "title": "Breakfast & Brunch"}], "rating": 4.0, "coordinates": {"latitude": 42.31802, "longitude": -72.63279}, "transactions": ["delivery"], "price": "$$", "location": {"address1": "241 Main St", "address2": "", "address3": "", "city": "Northampton", "zip_code": "01060", "country": "US", "state": "MA", "display_address": ["241 Main St", "Northampton, MA 01060"]}, "phone": "+14135842326", "display_phone": "(413) 584-2326", "distance": 489.30995480673795}, {"id": "eiCmbuqsp7TaKYKnU56B1Q", "alias": "woodstar-cafe-northampton", "name": "Woodstar Cafe", "image_url": "https://s3-media2.fl.yelpcdn.com/bphoto/fgnNy9WXd2GCVtGKDhwwJQ/o.jpg", "is_closed": false, "url": "https://www.yelp.com/biz/woodstar-cafe-northampton?adjust_creative=asslzE1UV0XuKI953B1vtw&utm_campaign=yelp_api_v3&utm_medium=api_v3_business_search&utm_source=asslzE1UV0XuKI953B1vtw", "review_count": 184, "categories": [{"alias": "sandwiches", "title": "Sandwiches"}, {"alias": "coffee", "title": "Coffee & Tea"}, {"alias": "bakeries", "title": "Bakeries"}], "rating": 4.0, "coordinates": {"latitude": 42.3188, "longitude": -72.63345}, "transactions": ["delivery"], "price": "$", "location": {"address1": "60 Masonic St", "address2": "", "address3": "", "city": "Northampton", "zip_code": "01060", "country": "US", "state": "MA", "display_address": ["60 Masonic St", "Northampton, MA 01060"]}, "phone": "+14135859777", "display_phone": "(413) 585-9777", "distance": 425.9193635013148}, {"id": "AQ8ipYC-DU-XMFNYTQrksQ", "alias": "mama-iguanas-northampton-2", "name": "Mama Iguanas", "image_url": "https://s3-media1.fl.yelpcdn.com/bphoto/BmJyuPOdJdlPx-hDJWlHiA/o.jpg", "is_closed": false, "url": "https://www.yelp.com/biz/mama-iguanas-northampton-2?adjust_creative=asslzE1UV0XuKI953B1vtw&utm_campaign=yelp_api_v3&utm_medium=api_v3_business_search&utm_source=asslzE1UV0XuKI953B1vtw", "review_count": 121, "categories": [{"alias": "mexican", "title": "Mexican"}], "rating": 3.0, "coordinates": {"latitude": 42.3179955255448, "longitude": -72.6334192065829}, "transactions": ["delivery"], "price": "$$", "location": {"address1": "274 Main St", "address2": "", "address3": "", "city": "Northampton", "zip_code": "01060", "country": "US", "state": "MA", "display_address": ["274 Main St", "Northampton, MA 01060"]}, "phone": "+14135860400", "display_phone": "(413) 586-0400", "distance": 436.5039890891489}, {"id": "71pmMLyYDBspzR8Y1dRzeg", "alias": "shelburne-falls-coffee-roasters-northampton-3", "name": "Shelburne Falls Coffee Roasters", "image_url": "https://s3-media4.fl.yelpcdn.com/bphoto/rftOog1b65advlEQ3uipeQ/o.jpg", "is_closed": false, "url": "https://www.yelp.com/biz/shelburne-falls-coffee-roasters-northampton-3?adjust_creative=asslzE1UV0XuKI953B1vtw&utm_campaign=yelp_api_v3&utm_medium=api_v3_business_search&utm_source=asslzE1UV0XuKI953B1vtw", "review_count": 14, "categories": [{"alias": "breakfast_brunch", "title": "Breakfast & Brunch"}, {"alias": "coffeeroasteries", "title": "Coffee Roasteries"}], "rating": 4.5, "coordinates": {"latitude": 42.31797, "longitude": -72.63357}, "transactions": ["delivery"], "price": "$", "location": {"address1": "273 Main St", "address2": "", "address3": null, "city": "Northampton", "zip_code": "01060", "country": "US", "state": "MA", "display_address": ["273 Main St", "Northampton, MA 01060"]}, "phone": "", "display_phone": "", "distance": 429.85238875393685}, {"id": "TDmkjt1EK41Hz118WZC8QQ", "alias": "pizza-amore-northampton", "name": "Pizza Amore", "image_url": "https://s3-media1.fl.yelpcdn.com/bphoto/8WnrnH8Q1LQNRMiSGEd-cQ/o.jpg", "is_closed": false, "url": "https://www.yelp.com/biz/pizza-amore-northampton?adjust_creative=asslzE1UV0XuKI953B1vtw&utm_campaign=yelp_api_v3&utm_medium=api_v3_business_search&utm_source=asslzE1UV0XuKI953B1vtw", "review_count": 45, "categories": [{"alias": "pizza", "title": "Pizza"}, {"alias": "sandwiches", "title": "Sandwiches"}], "rating": 3.0, "coordinates": {"latitude": 42.3167932033539, "longitude": -72.6367682218552}, "transactions": ["delivery"], "price": "$$", "location": {"address1": "18 Green St", "address2": "", "address3": "", "city": "Northampton", "zip_code": "01060", "country": "US", "state": "MA", "display_address": ["18 Green St", "Northampton, MA 01060"]}, "phone": "+14135865443", "display_phone": "(413) 586-5443", "distance": 294.42823389762026}, {"id": "D63WNohxBnrlSi95gutmqg", "alias": "shelburne-falls-coffee-roasters-northampton-2", "name": "Shelburne Falls Coffee Roasters", "image_url": "https://s3-media4.fl.yelpcdn.com/bphoto/Y5OMXYZiaFYYTmOfK7SMBA/o.jpg", "is_closed": false, "url": "https://www.yelp.com/biz/shelburne-falls-coffee-roasters-northampton-2?adjust_creative=asslzE1UV0XuKI953B1vtw&utm_campaign=yelp_api_v3&utm_medium=api_v3_business_search&utm_source=asslzE1UV0XuKI953B1vtw", "review_count": 34, "categories": [{"alias": "coffeeroasteries", "title": "Coffee Roasteries"}, {"alias": "breakfast_brunch", "title": "Breakfast & Brunch"}], "rating": 3.5, "coordinates": {"latitude": 42.3233, "longitude": -72.6326799}, "transactions": ["delivery"], "price": "$$", "location": {"address1": "124 King St", "address2": "", "address3": "", "city": "Northampton", "zip_code": "01060", "country": "US", "state": "MA", "display_address": ["124 King St", "Northampton, MA 01060"]}, "phone": "+14135826799", "display_phone": "(413) 582-6799", "distance": 679.3732707552596}, {"id": "0IR0wkVdQpNwpIR6Om0t4g", "alias": "riffs-cafe-northampton", "name": "Riff's Cafe", "image_url": "", "is_closed": false, "url": "https://www.yelp.com/biz/riffs-cafe-northampton?adjust_creative=asslzE1UV0XuKI953B1vtw&utm_campaign=yelp_api_v3&utm_medium=api_v3_business_search&utm_source=asslzE1UV0XuKI953B1vtw", "review_count": 1, "categories": [{"alias": "sandwiches", "title": "Sandwiches"}, {"alias": "coffee", "title": "Coffee & Tea"}], "rating": 1.0, "coordinates": {"latitude": 42.3175163269043, "longitude": -72.6303482055664}, "transactions": [], "location": {"address1": "Smith College Museum Of Art", "address2": "", "address3": "Elm St at Bedford Ter  N", "city": "Northampton", "zip_code": "01060", "country": "US", "state": "MA", "display_address": ["Smith College Museum Of Art", "Elm St at Bedford Ter  N", "Northampton, MA 01060"]}, "phone": "+14135853115", "display_phone": "(413) 585-3115", "distance": 185.79921978989603}]