[{"id": "cHRcqEfOxKAWTPK5JxFmRA", "alias": "the-rustic-table-winchester", "name": "The Rustic Table", "image_url": "https://s3-media3.fl.yelpcdn.com/bphoto/UXgEYMn0JYMb49BI3iKWGQ/o.jpg", "is_closed": false, "url": "https://www.yelp.com/biz/the-rustic-table-winchester?adjust_creative=h5HwbyQ0TYvQjBo6Ys5Bgw&utm_campaign=yelp_api_v3&utm_medium=api_v3_business_search&utm_source=h5HwbyQ0TYvQjBo6Ys5Bgw", "review_count": 45, "categories": [{"alias": "tradamerican", "title": "American (Traditional)"}, {"alias": "seafood", "title": "Seafood"}, {"alias": "italian", "title": "Italian"}], "rating": 4.5, "coordinates": {"latitude": 42.793927, "longitude": -72.373842}, "transactions": [], "price": "$$", "location": {"address1": "320 Keene Rd", "address2": "", "address3": "", "city": "Winchester", "zip_code": "03470", "country": "US", "state": "NH", "display_address": ["320 Keene Rd", "Winchester, NH 03470"]}, "phone": "+16033920296", "display_phone": "(603) 392-0296", "distance": 14273.31966025773}, {"id": "e4NQleebi2maK-FwHhOPcw", "alias": "the-gill-tavern-gill", "name": "The Gill Tavern", "image_url": "https://s3-media4.fl.yelpcdn.com/bphoto/RcLFtAnwpIt0AK7Lrn0ptQ/o.jpg", "is_closed": false, "url": "https://www.yelp.com/biz/the-gill-tavern-gill?adjust_creative=h5HwbyQ0TYvQjBo6Ys5Bgw&utm_campaign=yelp_api_v3&utm_medium=api_v3_business_search&utm_source=h5HwbyQ0TYvQjBo6Ys5Bgw", "review_count": 64, "categories": [{"alias": "newamerican", "title": "American (New)"}], "rating": 4.0, "coordinates": {"latitude": 42.640793, "longitude": -72.499757}, "transactions": [], "price": "$$", "location": {"address1": "326 Main Rd", "address2": "", "address3": "", "city": "Gill", "zip_code": "01354", "country": "US", "state": "MA", "display_address": ["326 Main Rd", "Gill, MA 01354"]}, "phone": "+14138639006", "display_phone": "(413) 863-9006", "distance": 12940.823413267275}, {"id": "lUxVsuNo5syFd_cxEplvaA", "alias": "herricks-tavern-orange", "name": "Herrick's Tavern", "image_url": "https://s3-media1.fl.yelpcdn.com/bphoto/mAHqpOXGI32xph2DHpHtHg/o.jpg", "is_closed": false, "url": "https://www.yelp.com/biz/herricks-tavern-orange?adjust_creative=h5HwbyQ0TYvQjBo6Ys5Bgw&utm_campaign=yelp_api_v3&utm_medium=api_v3_business_search&utm_source=h5HwbyQ0TYvQjBo6Ys5Bgw", "review_count": 49, "categories": [{"alias": "tradamerican", "title": "American (Traditional)"}, {"alias": "sportsbars", "title": "Sports Bars"}], "rating": 4.0, "coordinates": {"latitude": 42.5542299, "longitude": -72.28915}, "transactions": [], "price": "$$", "location": {"address1": "207 Daniel Shays Hwy", "address2": null, "address3": null, "city": "Orange", "zip_code": "01364", "country": "US", "state": "MA", "display_address": ["207 Daniel Shays Hwy", "Orange, MA 01364"]}, "phone": "+19785443902", "display_phone": "(978) 544-3902", "distance": 13397.489038198124}, {"id": "XNhx5nEGbXKE4k0xXLijbw", "alias": "110-grill-athol", "name": "110 Grill", "image_url": "https://s3-media3.fl.yelpcdn.com/bphoto/_HxS-NfOJAqo0PFSUoOUxQ/o.jpg", "is_closed": false, "url": "https://www.yelp.com/biz/110-grill-athol?adjust_creative=h5HwbyQ0TYvQjBo6Ys5Bgw&utm_campaign=yelp_api_v3&utm_medium=api_v3_business_search&utm_source=h5HwbyQ0TYvQjBo6Ys5Bgw", "review_count": 57, "categories": [{"alias": "newamerican", "title": "American (New)"}, {"alias": "tradamerican", "title": "American (Traditional)"}, {"alias": "bars", "title": "Bars"}], "rating": 4.0, "coordinates": {"latitude": 42.580767, "longitude": -72.187031}, "transactions": [], "price": "$$", "location": {"address1": "307 Market Dr", "address2": null, "address3": "", "city": "Athol", "zip_code": "01331", "country": "US", "state": "MA", "display_address": ["307 Market Dr", "Athol, MA 01331"]}, "phone": "+19788304601", "display_phone": "(978) 830-4601", "distance": 16152.643655743539}, {"id": "q0qhifHcJgTSAWMVAy4O-w", "alias": "old-time-new-england-seafood-company-athol-2", "name": "Old Time New England Seafood Company", "image_url": "https://s3-media1.fl.yelpcdn.com/bphoto/Sp6PDSBoupOkUCeEtuHD-g/o.jpg", "is_closed": false, "url": "https://www.yelp.com/biz/old-time-new-england-seafood-company-athol-2?adjust_creative=h5HwbyQ0TYvQjBo6Ys5Bgw&utm_campaign=yelp_api_v3&utm_medium=api_v3_business_search&utm_source=h5HwbyQ0TYvQjBo6Ys5Bgw", "review_count": 20, "categories": [{"alias": "seafood", "title": "Seafood"}], "rating": 4.0, "coordinates": {"latitude": 42.5840096, "longitude": -72.204467}, "transactions": [], "price": "$$", "location": {"address1": "2294 Main St", "address2": "", "address3": "", "city": "Athol", "zip_code": "01331", "country": "US", "state": "MA", "display_address": ["2294 Main St", "Athol, MA 01331"]}, "phone": "+19782495373", "display_phone": "(978) 249-5373", "distance": 14785.229008985047}, {"id": "mxWNNxba4bmQ5ke5wQsQdw", "alias": "boiler-bar-and-grille-orange-2", "name": "Boiler Bar & Grille", "image_url": "https://s3-media2.fl.yelpcdn.com/bphoto/SxpP3zjHjOUTLdGZ_FWCXw/o.jpg", "is_closed": false, "url": "https://www.yelp.com/biz/boiler-bar-and-grille-orange-2?adjust_creative=h5HwbyQ0TYvQjBo6Ys5Bgw&utm_campaign=yelp_api_v3&utm_medium=api_v3_business_search&utm_source=h5HwbyQ0TYvQjBo6Ys5Bgw", "review_count": 33, "categories": [{"alias": "bars", "title": "Bars"}, {"alias": "tradamerican", "title": "American (Traditional)"}, {"alias": "bbq", "title": "Barbeque"}], "rating": 3.0, "coordinates": {"latitude": 42.636516, "longitude": -72.247943}, "transactions": [], "price": "$$", "location": {"address1": "245 Tully Rd", "address2": "", "address3": "", "city": "Orange", "zip_code": "01364", "country": "US", "state": "MA", "display_address": ["245 Tully Rd", "Orange, MA 01364"]}, "phone": "+19782489700", "display_phone": "(978) 248-9700", "distance": 8691.098674152407}, {"id": "SV4vcr74r6LG-LbTAKh1MA", "alias": "whistle-stop-cafe-millers-falls-2", "name": "Whistle Stop Cafe", "image_url": "https://s3-media3.fl.yelpcdn.com/bphoto/1SC0WPCzKgFjDuCI44q57Q/o.jpg", "is_closed": false, "url": "https://www.yelp.com/biz/whistle-stop-cafe-millers-falls-2?adjust_creative=h5HwbyQ0TYvQjBo6Ys5Bgw&utm_campaign=yelp_api_v3&utm_medium=api_v3_business_search&utm_source=h5HwbyQ0TYvQjBo6Ys5Bgw", "review_count": 7, "categories": [{"alias": "cafes", "title": "Cafes"}], "rating": 4.0, "coordinates": {"latitude": 42.5781478, "longitude": -72.4940642}, "transactions": ["pickup", "delivery"], "location": {"address1": "29 E Main St", "address2": "", "address3": null, "city": "Millers Falls", "zip_code": "01349", "country": "US", "state": "MA", "display_address": ["29 E Main St", "Millers Falls, MA 01349"]}, "phone": "+14138348174", "display_phone": "(413) 834-8174", "distance": 15659.505226618669}, {"id": "rM26yhJCf8spmob1iCkpTA", "alias": "french-king-restaurant-and-motel-erving", "name": "French King Restaurant and Motel", "image_url": "https://s3-media3.fl.yelpcdn.com/bphoto/0JOjCjjQ6AgsODrtn77g0A/o.jpg", "is_closed": false, "url": "https://www.yelp.com/biz/french-king-restaurant-and-motel-erving?adjust_creative=h5HwbyQ0TYvQjBo6Ys5Bgw&utm_campaign=yelp_api_v3&utm_medium=api_v3_business_search&utm_source=h5HwbyQ0TYvQjBo6Ys5Bgw", "review_count": 25, "categories": [{"alias": "tradamerican", "title": "American (Traditional)"}, {"alias": "italian", "title": "Italian"}, {"alias": "lounges", "title": "Lounges"}], "rating": 3.5, "coordinates": {"latitude": 42.596912, "longitude": -72.493921}, "transactions": [], "price": "$$", "location": {"address1": "129 French King Hwy", "address2": "", "address3": "", "city": "Erving", "zip_code": "01344", "country": "US", "state": "MA", "display_address": ["129 French King Hwy", "Erving, MA 01344"]}, "phone": "+14134233328", "display_phone": "(413) 423-3328", "distance": 14431.839540509616}, {"id": "C7ThqIKJfCAMEvReN7_MYg", "alias": "main-street-grill-athol", "name": "Main Street Grill", "image_url": "https://s3-media4.fl.yelpcdn.com/bphoto/qwvmLJSTR3M4l7j2Bg9Z6g/o.jpg", "is_closed": false, "url": "https://www.yelp.com/biz/main-street-grill-athol?adjust_creative=h5HwbyQ0TYvQjBo6Ys5Bgw&utm_campaign=yelp_api_v3&utm_medium=api_v3_business_search&utm_source=h5HwbyQ0TYvQjBo6Ys5Bgw", "review_count": 5, "categories": [{"alias": "tradamerican", "title": "American (Traditional)"}], "rating": 4.0, "coordinates": {"latitude": 42.5938164, "longitude": -72.2300407}, "transactions": [], "location": {"address1": "491 Main St", "address2": "", "address3": "", "city": "Athol", "zip_code": "01331", "country": "US", "state": "MA", "display_address": ["491 Main St", "Athol, MA 01331"]}, "phone": "+19788304374", "display_phone": "(978) 830-4374", "distance": 12495.168046771794}, {"id": "Gfjq1BF0s1vocvs5GDBtiQ", "alias": "soup-on-the-fly-athol", "name": "Soup On The Fly", "image_url": "https://s3-media3.fl.yelpcdn.com/bphoto/pLSSAJEqXccZVoYjC3fxTg/o.jpg", "is_closed": false, "url": "https://www.yelp.com/biz/soup-on-the-fly-athol?adjust_creative=h5HwbyQ0TYvQjBo6Ys5Bgw&utm_campaign=yelp_api_v3&utm_medium=api_v3_business_search&utm_source=h5HwbyQ0TYvQjBo6Ys5Bgw", "review_count": 60, "categories": [{"alias": "soup", "title": "Soup"}, {"alias": "sandwiches", "title": "Sandwiches"}, {"alias": "burgers", "title": "Burgers"}], "rating": 5.0, "coordinates": {"latitude": 42.5901547959732, "longitude": -72.216189316008}, "transactions": [], "price": "$$", "location": {"address1": "1493 Main St", "address2": "", "address3": "", "city": "Athol", "zip_code": "01331", "country": "US", "state": "MA", "display_address": ["1493 Main St", "Athol, MA 01331"]}, "phone": "+19788304633", "display_phone": "(978) 830-4633", "distance": 13626.112737983336}, {"id": "QvbRLA7kxFgs89Y1UnghsA", "alias": "mt-pisgah-diner-winchester", "name": "Mt Pisgah Diner", "image_url": "https://s3-media2.fl.yelpcdn.com/bphoto/WKFI92oGtCabaaKKwigPEA/o.jpg", "is_closed": false, "url": "https://www.yelp.com/biz/mt-pisgah-diner-winchester?adjust_creative=h5HwbyQ0TYvQjBo6Ys5Bgw&utm_campaign=yelp_api_v3&utm_medium=api_v3_business_search&utm_source=h5HwbyQ0TYvQjBo6Ys5Bgw", "review_count": 8, "categories": [{"alias": "diners", "title": "Diners"}], "rating": 4.0, "coordinates": {"latitude": 42.7729, "longitude": -72.38411}, "transactions": [], "price": "$", "location": {"address1": "118 Main St", "address2": "", "address3": "", "city": "Winchester", "zip_code": "03470", "country": "US", "state": "NH", "display_address": ["118 Main St", "Winchester, NH 03470"]}, "phone": "+16032394101", "display_phone": "(603) 239-4101", "distance": 12162.908929572499}, {"id": "yiV75hVHG23qJ3ESA1MzRg", "alias": "202-grill-nos-age-orange", "name": "202 Grill Nos/Age", "image_url": "https://s3-media3.fl.yelpcdn.com/bphoto/opbKFoo58C8lRuy_kJ53VQ/o.jpg", "is_closed": false, "url": "https://www.yelp.com/biz/202-grill-nos-age-orange?adjust_creative=h5HwbyQ0TYvQjBo6Ys5Bgw&utm_campaign=yelp_api_v3&utm_medium=api_v3_business_search&utm_source=h5HwbyQ0TYvQjBo6Ys5Bgw", "review_count": 8, "categories": [{"alias": "tradamerican", "title": "American (Traditional)"}], "rating": 3.5, "coordinates": {"latitude": 42.55423, "longitude": -72.28915}, "transactions": [], "price": "$$$", "location": {"address1": "207 Daniel Shay Hwy", "address2": "Route 202", "address3": "", "city": "Orange", "zip_code": "01364", "country": "US", "state": "MA", "display_address": ["207 Daniel Shay Hwy", "Route 202", "Orange, MA 01364"]}, "phone": "+19785443902", "display_phone": "(978) 544-3902", "distance": 13397.489038198124}, {"id": "8sKIaGoMceZ14IWg2h2M7g", "alias": "the-notch-northfield", "name": "The Notch", "image_url": "https://s3-media1.fl.yelpcdn.com/bphoto/7qOmPQ4q-y91S2pfvc2zXQ/o.jpg", "is_closed": false, "url": "https://www.yelp.com/biz/the-notch-northfield?adjust_creative=h5HwbyQ0TYvQjBo6Ys5Bgw&utm_campaign=yelp_api_v3&utm_medium=api_v3_business_search&utm_source=h5HwbyQ0TYvQjBo6Ys5Bgw", "review_count": 8, "categories": [{"alias": "diners", "title": "Diners"}], "rating": 3.0, "coordinates": {"latitude": 42.69466, "longitude": -72.45556}, "transactions": [], "price": "$", "location": {"address1": "77 Main St", "address2": "", "address3": "", "city": "Northfield", "zip_code": "01360", "country": "US", "state": "MA", "display_address": ["77 Main St", "Northfield, MA 01360"]}, "phone": "+14134980100", "display_phone": "(413) 498-0100", "distance": 9495.734704840208}, {"id": "421ECUnYmdE2Ct1Wm4O4gQ", "alias": "tea-house-orange", "name": "Tea House", "image_url": "https://s3-media2.fl.yelpcdn.com/bphoto/dzrVuZit0R1UqpPMJ33f8Q/o.jpg", "is_closed": false, "url": "https://www.yelp.com/biz/tea-house-orange?adjust_creative=h5HwbyQ0TYvQjBo6Ys5Bgw&utm_campaign=yelp_api_v3&utm_medium=api_v3_business_search&utm_source=h5HwbyQ0TYvQjBo6Ys5Bgw", "review_count": 24, "categories": [{"alias": "chinese", "title": "Chinese"}], "rating": 3.0, "coordinates": {"latitude": 42.58773, "longitude": -72.2954}, "transactions": [], "price": "$$", "location": {"address1": "326 E Main St", "address2": "", "address3": "", "city": "Orange", "zip_code": "01364", "country": "US", "state": "MA", "display_address": ["326 E Main St", "Orange, MA 01364"]}, "phone": "+19785443802", "display_phone": "(978) 544-3802", "distance": 9743.477916133525}, {"id": "hCMxwnucaO1NBv_U5rT8tw", "alias": "win-win-express-winchester", "name": "Win Win Express", "image_url": "https://s3-media2.fl.yelpcdn.com/bphoto/5eVCXa_8sXOkGk9Wggyj_A/o.jpg", "is_closed": false, "url": "https://www.yelp.com/biz/win-win-express-winchester?adjust_creative=h5HwbyQ0TYvQjBo6Ys5Bgw&utm_campaign=yelp_api_v3&utm_medium=api_v3_business_search&utm_source=h5HwbyQ0TYvQjBo6Ys5Bgw", "review_count": 14, "categories": [{"alias": "chinese", "title": "Chinese"}], "rating": 4.0, "coordinates": {"latitude": 42.77272, "longitude": -72.38429}, "transactions": [], "location": {"address1": "112 Main St", "address2": "", "address3": "", "city": "Winchester", "zip_code": "03470", "country": "US", "state": "NH", "display_address": ["112 Main St", "Winchester, NH 03470"]}, "phone": "+16032396886", "display_phone": "(603) 239-6886", "distance": 12148.672990988996}, {"id": "2MVvyKZRr98i4egs3LMHHw", "alias": "white-cloud-diner-orange", "name": "White Cloud Diner", "image_url": "https://s3-media3.fl.yelpcdn.com/bphoto/VLhBY2lGr9Xf6KzBoWteoA/o.jpg", "is_closed": false, "url": "https://www.yelp.com/biz/white-cloud-diner-orange?adjust_creative=h5HwbyQ0TYvQjBo6Ys5Bgw&utm_campaign=yelp_api_v3&utm_medium=api_v3_business_search&utm_source=h5HwbyQ0TYvQjBo6Ys5Bgw", "review_count": 13, "categories": [{"alias": "diners", "title": "Diners"}], "rating": 4.0, "coordinates": {"latitude": 42.5746688842773, "longitude": -72.2816772460938}, "transactions": [], "price": "$", "location": {"address1": "627 E River St", "address2": null, "address3": "", "city": "Orange", "zip_code": "01364", "country": "US", "state": "MA", "display_address": ["627 E River St", "Orange, MA 01364"]}, "phone": "+19785446821", "display_phone": "(978) 544-6821", "distance": 11532.727797386302}, {"id": "cU2qJ6cyv3U0Gj0xyFCVJw", "alias": "historic-catering-erving", "name": "Historic Catering", "image_url": "https://s3-media1.fl.yelpcdn.com/bphoto/BAolcB6t409QxK-E7OWmNg/o.jpg", "is_closed": false, "url": "https://www.yelp.com/biz/historic-catering-erving?adjust_creative=h5HwbyQ0TYvQjBo6Ys5Bgw&utm_campaign=yelp_api_v3&utm_medium=api_v3_business_search&utm_source=h5HwbyQ0TYvQjBo6Ys5Bgw", "review_count": 1, "categories": [{"alias": "catering", "title": "Caterers"}, {"alias": "salad", "title": "Salad"}, {"alias": "wraps", "title": "Wraps"}], "rating": 5.0, "coordinates": {"latitude": 42.6010286, "longitude": -72.4389351}, "transactions": [], "location": {"address1": "", "address2": "", "address3": null, "city": "Erving", "zip_code": "01344", "country": "US", "state": "MA", "display_address": ["Erving, MA 01344"]}, "phone": "+14134221130", "display_phone": "(413) 422-1130", "distance": 10603.669582151188}, {"id": "PkUQS1Egv8vhxxJtDVjBaA", "alias": "asia-gourmet-athol", "name": "Asia Gourmet", "image_url": "https://s3-media1.fl.yelpcdn.com/bphoto/GjsJgR7BC4fSlGm2Eopppw/o.jpg", "is_closed": false, "url": "https://www.yelp.com/biz/asia-gourmet-athol?adjust_creative=h5HwbyQ0TYvQjBo6Ys5Bgw&utm_campaign=yelp_api_v3&utm_medium=api_v3_business_search&utm_source=h5HwbyQ0TYvQjBo6Ys5Bgw", "review_count": 7, "categories": [{"alias": "chinese", "title": "Chinese"}, {"alias": "sushi", "title": "Sushi Bars"}, {"alias": "thai", "title": "Thai"}], "rating": 3.5, "coordinates": {"latitude": 42.58012, "longitude": -72.18376}, "transactions": [], "location": {"address1": "144 Market Dr", "address2": "", "address3": null, "city": "Athol", "zip_code": "01331", "country": "US", "state": "MA", "display_address": ["144 Market Dr", "Athol, MA 01331"]}, "phone": "+19782493918", "display_phone": "(978) 249-3918", "distance": 16443.135234704143}, {"id": "_JUzxtxuvLxHiG_XJNLR0g", "alias": "hillside-pizza-bernardston", "name": "Hillside Pizza", "image_url": "https://s3-media1.fl.yelpcdn.com/bphoto/ArMiQNIjj8WPqrNp-qcYiw/o.jpg", "is_closed": false, "url": "https://www.yelp.com/biz/hillside-pizza-bernardston?adjust_creative=h5HwbyQ0TYvQjBo6Ys5Bgw&utm_campaign=yelp_api_v3&utm_medium=api_v3_business_search&utm_source=h5HwbyQ0TYvQjBo6Ys5Bgw", "review_count": 37, "categories": [{"alias": "pizza", "title": "Pizza"}], "rating": 4.5, "coordinates": {"latitude": 42.6702842712402, "longitude": -72.547119140625}, "transactions": [], "price": "$", "location": {"address1": "77 Church St", "address2": "", "address3": "", "city": "Bernardston", "zip_code": "01337", "country": "US", "state": "MA", "display_address": ["77 Church St", "Bernardston, MA 01337"]}, "phone": "+14136480500", "display_phone": "(413) 648-0500", "distance": 16493.069190273596}, {"id": "8UGk7xXWl2S1sukzncygOA", "alias": "friendly-town-pizza-athol", "name": "Friendly Town Pizza", "image_url": "https://s3-media2.fl.yelpcdn.com/bphoto/p3xHl6JjujdkBj7l85xrnw/o.jpg", "is_closed": false, "url": "https://www.yelp.com/biz/friendly-town-pizza-athol?adjust_creative=h5HwbyQ0TYvQjBo6Ys5Bgw&utm_campaign=yelp_api_v3&utm_medium=api_v3_business_search&utm_source=h5HwbyQ0TYvQjBo6Ys5Bgw", "review_count": 30, "categories": [{"alias": "pizza", "title": "Pizza"}], "rating": 4.5, "coordinates": {"latitude": 42.581438, "longitude": -72.261868}, "transactions": [], "price": "$$", "location": {"address1": "1604 S Main St", "address2": null, "address3": null, "city": "Athol", "zip_code": "01331", "country": "US", "state": "MA", "display_address": ["1604 S Main St", "Athol, MA 01331"]}, "phone": "+19782493651", "display_phone": "(978) 249-3651", "distance": 11748.729947656793}, {"id": "KIzGy3Vh5zYbB0AD3aV_6w", "alias": "village-grill-and-pizzeria-athol", "name": "Village Grill & Pizzeria", "image_url": "https://s3-media3.fl.yelpcdn.com/bphoto/mcattaeuVmzdUjgB3xs8_g/o.jpg", "is_closed": false, "url": "https://www.yelp.com/biz/village-grill-and-pizzeria-athol?adjust_creative=h5HwbyQ0TYvQjBo6Ys5Bgw&utm_campaign=yelp_api_v3&utm_medium=api_v3_business_search&utm_source=h5HwbyQ0TYvQjBo6Ys5Bgw", "review_count": 5, "categories": [{"alias": "pizza", "title": "Pizza"}, {"alias": "tradamerican", "title": "American (Traditional)"}, {"alias": "chicken_wings", "title": "Chicken Wings"}], "rating": 4.5, "coordinates": {"latitude": 42.5919225, "longitude": -72.2411213}, "transactions": [], "price": "$", "location": {"address1": "131 S Main St", "address2": "", "address3": "", "city": "Athol", "zip_code": "01331", "country": "US", "state": "MA", "display_address": ["131 S Main St", "Athol, MA 01331"]}, "phone": "+19785750058", "display_phone": "(978) 575-0058", "distance": 11970.292789434556}, {"id": "O54cKWsDae66i8x19Q0soQ", "alias": "zekes-bar-and-grill-bernardston", "name": "Zeke's Bar & Grill", "image_url": "https://s3-media1.fl.yelpcdn.com/bphoto/0X-tuRBN04LhHH1guk5-FQ/o.jpg", "is_closed": false, "url": "https://www.yelp.com/biz/zekes-bar-and-grill-bernardston?adjust_creative=h5HwbyQ0TYvQjBo6Ys5Bgw&utm_campaign=yelp_api_v3&utm_medium=api_v3_business_search&utm_source=h5HwbyQ0TYvQjBo6Ys5Bgw", "review_count": 8, "categories": [{"alias": "bars", "title": "Bars"}, {"alias": "tradamerican", "title": "American (Traditional)"}], "rating": 2.5, "coordinates": {"latitude": 42.6798121733333, "longitude": -72.5231491774321}, "transactions": [], "location": {"address1": "87 Parameter Rd", "address2": "", "address3": "Crumpin-Fox Club", "city": "Bernardston", "zip_code": "01337", "country": "US", "state": "MA", "display_address": ["87 Parameter Rd", "Crumpin-Fox Club", "Bernardston, MA 01337"]}, "phone": "+14136485356", "display_phone": "(413) 648-5356", "distance": 14577.716360060886}, {"id": "IdJQcFjuiOtkiZKGvTcqpQ", "alias": "windmill-restaurant-bernardston", "name": "Windmill Restaurant", "image_url": "https://s3-media4.fl.yelpcdn.com/bphoto/cFWJPCvE4wQtv8_4Lg1X7Q/o.jpg", "is_closed": false, "url": "https://www.yelp.com/biz/windmill-restaurant-bernardston?adjust_creative=h5HwbyQ0TYvQjBo6Ys5Bgw&utm_campaign=yelp_api_v3&utm_medium=api_v3_business_search&utm_source=h5HwbyQ0TYvQjBo6Ys5Bgw", "review_count": 1, "categories": [{"alias": "restaurants", "title": "Restaurants"}], "rating": 3.0, "coordinates": {"latitude": 42.6760040223598, "longitude": -72.4974147230387}, "transactions": [], "price": "$", "location": {"address1": "497 Northfield Rd", "address2": "", "address3": "", "city": "Bernardston", "zip_code": "01337", "country": "US", "state": "MA", "display_address": ["497 Northfield Rd", "Bernardston, MA 01337"]}, "phone": "+14136489859", "display_phone": "(413) 648-9859", "distance": 12705.211235415847}, {"id": "OCz5muYPUncuu6_eTwY_aQ", "alias": "royalston-general-store-royalston", "name": "Royalston General Store", "image_url": "https://s3-media2.fl.yelpcdn.com/bphoto/dwJ29OIt0IIcgVpQOvnGPw/o.jpg", "is_closed": false, "url": "https://www.yelp.com/biz/royalston-general-store-royalston?adjust_creative=h5HwbyQ0TYvQjBo6Ys5Bgw&utm_campaign=yelp_api_v3&utm_medium=api_v3_business_search&utm_source=h5HwbyQ0TYvQjBo6Ys5Bgw", "review_count": 2, "categories": [{"alias": "breakfast_brunch", "title": "Breakfast & Brunch"}], "rating": 4.0, "coordinates": {"latitude": 42.63058, "longitude": -72.14802}, "transactions": [], "location": {"address1": "21 Main St", "address2": "", "address3": "", "city": "Royalston", "zip_code": "01368", "country": "US", "state": "MA", "display_address": ["21 Main St", "Royalston, MA 01368"]}, "phone": "+19782499798", "display_phone": "(978) 249-9798", "distance": 16651.23981894904}, {"id": "P3gCKTfiKvq8JhCiqI-XVg", "alias": "tea-garden-restaurant-athol", "name": "Tea Garden Restaurant", "image_url": "https://s3-media3.fl.yelpcdn.com/bphoto/YikdjBs7rlNRUh78y0HYEQ/o.jpg", "is_closed": false, "url": "https://www.yelp.com/biz/tea-garden-restaurant-athol?adjust_creative=h5HwbyQ0TYvQjBo6Ys5Bgw&utm_campaign=yelp_api_v3&utm_medium=api_v3_business_search&utm_source=h5HwbyQ0TYvQjBo6Ys5Bgw", "review_count": 12, "categories": [{"alias": "chinese", "title": "Chinese"}], "rating": 2.5, "coordinates": {"latitude": 42.5936470031738, "longitude": -72.2273483276367}, "transactions": [], "price": "$$", "location": {"address1": "631 Main St", "address2": null, "address3": null, "city": "Athol", "zip_code": "01331", "country": "US", "state": "MA", "display_address": ["631 Main St", "Athol, MA 01331"]}, "phone": "+19782498388", "display_phone": "(978) 249-8388", "distance": 12657.778455390284}, {"id": "VIUwZgCQnwpbB2w2Xbr5CA", "alias": "annes-dairy-drive-in-orange", "name": "Anne's Dairy Drive-In", "image_url": "https://s3-media2.fl.yelpcdn.com/bphoto/6cI9fGMYQN8lNC5ewrG1ww/o.jpg", "is_closed": false, "url": "https://www.yelp.com/biz/annes-dairy-drive-in-orange?adjust_creative=h5HwbyQ0TYvQjBo6Ys5Bgw&utm_campaign=yelp_api_v3&utm_medium=api_v3_business_search&utm_source=h5HwbyQ0TYvQjBo6Ys5Bgw", "review_count": 31, "categories": [{"alias": "seafood", "title": "Seafood"}, {"alias": "icecream", "title": "Ice Cream & Frozen Yogurt"}], "rating": 4.0, "coordinates": {"latitude": 42.587263, "longitude": -72.292644}, "transactions": [], "price": "$", "location": {"address1": "360 E Main St", "address2": "", "address3": "", "city": "Orange", "zip_code": "01364", "country": "US", "state": "MA", "display_address": ["360 E Main St", "Orange, MA 01364"]}, "phone": "+19785442093", "display_phone": "(978) 544-2093", "distance": 9840.686468407155}, {"id": "I3UE0kzvpVOnfIGUYMzZyg", "alias": "the-lady-killigrew-cafe-montague", "name": "The Lady Killigrew Cafe", "image_url": "https://s3-media3.fl.yelpcdn.com/bphoto/3u0HBieTFTsTE-QN8Ng14w/o.jpg", "is_closed": false, "url": "https://www.yelp.com/biz/the-lady-killigrew-cafe-montague?adjust_creative=h5HwbyQ0TYvQjBo6Ys5Bgw&utm_campaign=yelp_api_v3&utm_medium=api_v3_business_search&utm_source=h5HwbyQ0TYvQjBo6Ys5Bgw", "review_count": 117, "categories": [{"alias": "coffee", "title": "Coffee & Tea"}, {"alias": "sandwiches", "title": "Sandwiches"}, {"alias": "desserts", "title": "Desserts"}], "rating": 4.5, "coordinates": {"latitude": 42.5377464294434, "longitude": -72.5371627807617}, "transactions": ["delivery"], "price": "$$", "location": {"address1": "440 Greenfield Rd", "address2": "", "address3": "", "city": "Montague", "zip_code": "01351", "country": "US", "state": "MA", "display_address": ["440 Greenfield Rd", "Montague, MA 01351"]}, "phone": "+14133679666", "display_phone": "(413) 367-9666", "distance": 21280.052864525747}, {"id": "7ccuuvYz9PAUMZ-2VVBZZw", "alias": "pizza-factory-orange", "name": "Pizza Factory", "image_url": "https://s3-media3.fl.yelpcdn.com/bphoto/bb8FyfINlCRnHsfbwKu_jA/o.jpg", "is_closed": false, "url": "https://www.yelp.com/biz/pizza-factory-orange?adjust_creative=h5HwbyQ0TYvQjBo6Ys5Bgw&utm_campaign=yelp_api_v3&utm_medium=api_v3_business_search&utm_source=h5HwbyQ0TYvQjBo6Ys5Bgw", "review_count": 5, "categories": [{"alias": "pizza", "title": "Pizza"}], "rating": 3.0, "coordinates": {"latitude": 42.59063, "longitude": -72.31046}, "transactions": [], "price": "$", "location": {"address1": "11 W Main St", "address2": "", "address3": "", "city": "Orange", "zip_code": "01364", "country": "US", "state": "MA", "display_address": ["11 W Main St", "Orange, MA 01364"]}, "phone": "+19785445818", "display_phone": "(978) 544-5818", "distance": 8988.675445256775}, {"id": "x29F4HcyieBpyaqo7WqVxg", "alias": "a-1-pizza-winchester", "name": "A-1 Pizza", "image_url": "https://s3-media4.fl.yelpcdn.com/bphoto/On4KzHKIYkdr_NiV5W1JNg/o.jpg", "is_closed": false, "url": "https://www.yelp.com/biz/a-1-pizza-winchester?adjust_creative=h5HwbyQ0TYvQjBo6Ys5Bgw&utm_campaign=yelp_api_v3&utm_medium=api_v3_business_search&utm_source=h5HwbyQ0TYvQjBo6Ys5Bgw", "review_count": 12, "categories": [{"alias": "pizza", "title": "Pizza"}], "rating": 2.5, "coordinates": {"latitude": 42.7662579109911, "longitude": -72.3884633613147}, "transactions": [], "price": "$$", "location": {"address1": "15 Warwick Rd", "address2": "", "address3": "", "city": "Winchester", "zip_code": "03470", "country": "US", "state": "NH", "display_address": ["15 Warwick Rd", "Winchester, NH 03470"]}, "phone": "+16032398118", "display_phone": "(603) 239-8118", "distance": 11537.882121498493}, {"id": "efnGUoB4SVkhsF9a2wjebg", "alias": "the-wagon-wheel-restaurant-gill", "name": "The Wagon Wheel Restaurant", "image_url": "https://s3-media1.fl.yelpcdn.com/bphoto/_ifEFpgX3i8RfdhHYMX1uQ/o.jpg", "is_closed": false, "url": "https://www.yelp.com/biz/the-wagon-wheel-restaurant-gill?adjust_creative=h5HwbyQ0TYvQjBo6Ys5Bgw&utm_campaign=yelp_api_v3&utm_medium=api_v3_business_search&utm_source=h5HwbyQ0TYvQjBo6Ys5Bgw", "review_count": 136, "categories": [{"alias": "burgers", "title": "Burgers"}, {"alias": "tradamerican", "title": "American (Traditional)"}], "rating": 4.0, "coordinates": {"latitude": 42.61201, "longitude": -72.54543}, "transactions": ["delivery"], "price": "$", "location": {"address1": "39 French King Hwy", "address2": "", "address3": "", "city": "Gill", "zip_code": "01354", "country": "US", "state": "MA", "display_address": ["39 French King Hwy", "Gill, MA 01354"]}, "phone": "+14138638210", "display_phone": "(413) 863-8210", "distance": 17470.79269564448}, {"id": "I77MoYXuGN2b2pHiY_8bCA", "alias": "raynettes-diner-and-coffee-shop-hinsdale", "name": "Raynette's Diner & Coffee Shop", "image_url": "https://s3-media2.fl.yelpcdn.com/bphoto/G3FKv7i5-Ic--f7kVBNY2Q/o.jpg", "is_closed": false, "url": "https://www.yelp.com/biz/raynettes-diner-and-coffee-shop-hinsdale?adjust_creative=h5HwbyQ0TYvQjBo6Ys5Bgw&utm_campaign=yelp_api_v3&utm_medium=api_v3_business_search&utm_source=h5HwbyQ0TYvQjBo6Ys5Bgw", "review_count": 11, "categories": [{"alias": "tradamerican", "title": "American (Traditional)"}, {"alias": "diners", "title": "Diners"}, {"alias": "cafes", "title": "Cafes"}], "rating": 4.0, "coordinates": {"latitude": 42.7865448, "longitude": -72.4842758}, "transactions": [], "price": "$", "location": {"address1": "50 Main St", "address2": "", "address3": "", "city": "Hinsdale", "zip_code": "03451", "country": "US", "state": "NH", "display_address": ["50 Main St", "Hinsdale, NH 03451"]}, "phone": "+16033368600", "display_phone": "(603) 336-8600", "distance": 17443.861254133535}, {"id": "y_J6bCd3m6B2gmwdTcqh0A", "alias": "northfield-pizza-house-northfield", "name": "Northfield Pizza House", "image_url": "", "is_closed": false, "url": "https://www.yelp.com/biz/northfield-pizza-house-northfield?adjust_creative=h5HwbyQ0TYvQjBo6Ys5Bgw&utm_campaign=yelp_api_v3&utm_medium=api_v3_business_search&utm_source=h5HwbyQ0TYvQjBo6Ys5Bgw", "review_count": 8, "categories": [{"alias": "pizza", "title": "Pizza"}], "rating": 3.5, "coordinates": {"latitude": 42.70967, "longitude": -72.44878}, "transactions": [], "price": "$", "location": {"address1": "198 Main St", "address2": "", "address3": "", "city": "Northfield", "zip_code": "01360", "country": "US", "state": "MA", "display_address": ["198 Main St", "Northfield, MA 01360"]}, "phone": "+14134985000", "display_phone": "(413) 498-5000", "distance": 9647.362841879463}, {"id": "RiVxyVtL8fxMb2kYP0zutA", "alias": "moms-country-kitchen-orange", "name": "Moms Country Kitchen", "image_url": "https://s3-media2.fl.yelpcdn.com/bphoto/3_oYhJcGjKqGj3iuDH_r1Q/o.jpg", "is_closed": false, "url": "https://www.yelp.com/biz/moms-country-kitchen-orange?adjust_creative=h5HwbyQ0TYvQjBo6Ys5Bgw&utm_campaign=yelp_api_v3&utm_medium=api_v3_business_search&utm_source=h5HwbyQ0TYvQjBo6Ys5Bgw", "review_count": 2, "categories": [{"alias": "breakfast_brunch", "title": "Breakfast & Brunch"}], "rating": 1.0, "coordinates": {"latitude": 42.58912, "longitude": -72.29988}, "transactions": [], "location": {"address1": "217 E Main St", "address2": "", "address3": null, "city": "Orange", "zip_code": "01364", "country": "US", "state": "MA", "display_address": ["217 E Main St", "Orange, MA 01364"]}, "phone": "+19789393233", "display_phone": "(978) 939-3233", "distance": 9478.93462464288}, {"id": "o1Xpz68xeOYNEvl132r79g", "alias": "domino-s-athol", "name": "Domino\u2019s", "image_url": "", "is_closed": false, "url": "https://www.yelp.com/biz/domino-s-athol?adjust_creative=h5HwbyQ0TYvQjBo6Ys5Bgw&utm_campaign=yelp_api_v3&utm_medium=api_v3_business_search&utm_source=h5HwbyQ0TYvQjBo6Ys5Bgw", "review_count": 1, "categories": [{"alias": "pizza", "title": "Pizza"}], "rating": 2.0, "coordinates": {"latitude": 42.593632, "longitude": -72.23293}, "transactions": [], "location": {"address1": "321 Main St", "address2": "", "address3": null, "city": "Athol", "zip_code": "01331", "country": "US", "state": "MA", "display_address": ["321 Main St", "Athol, MA 01331"]}, "phone": "+19783307676", "display_phone": "(978) 330-7676", "distance": 12330.81782430245}, {"id": "eAcs6r0L0QkH3qjzH5ytFQ", "alias": "guilford-country-store-guilford", "name": "Guilford Country Store", "image_url": "https://s3-media3.fl.yelpcdn.com/bphoto/JZpjiubztBIUuDKcizEgiA/o.jpg", "is_closed": false, "url": "https://www.yelp.com/biz/guilford-country-store-guilford?adjust_creative=h5HwbyQ0TYvQjBo6Ys5Bgw&utm_campaign=yelp_api_v3&utm_medium=api_v3_business_search&utm_source=h5HwbyQ0TYvQjBo6Ys5Bgw", "review_count": 9, "categories": [{"alias": "delis", "title": "Delis"}, {"alias": "convenience", "title": "Convenience Stores"}], "rating": 5.0, "coordinates": {"latitude": 42.8178902, "longitude": -72.5751495}, "transactions": [], "price": "$$", "location": {"address1": "475 Coolidge Hwy", "address2": null, "address3": "", "city": "Guilford", "zip_code": "05301", "country": "US", "state": "VT", "display_address": ["475 Coolidge Hwy", "Guilford, VT 05301"]}, "phone": "+18024902233", "display_phone": "(802) 490-2233", "distance": 18916.45711419861}, {"id": "jRkRfmnAWeioG1YSB0-V6A", "alias": "the-alvah-stone-montague", "name": "The Alvah Stone", "image_url": "https://s3-media2.fl.yelpcdn.com/bphoto/WZarGmnHvPAsgoIF5mKRqw/o.jpg", "is_closed": false, "url": "https://www.yelp.com/biz/the-alvah-stone-montague?adjust_creative=h5HwbyQ0TYvQjBo6Ys5Bgw&utm_campaign=yelp_api_v3&utm_medium=api_v3_business_search&utm_source=h5HwbyQ0TYvQjBo6Ys5Bgw", "review_count": 195, "categories": [{"alias": "bars", "title": "Bars"}, {"alias": "tradamerican", "title": "American (Traditional)"}, {"alias": "newamerican", "title": "American (New)"}], "rating": 4.0, "coordinates": {"latitude": 42.537929, "longitude": -72.5372039}, "transactions": ["delivery"], "price": "$$", "location": {"address1": "440 Greenfield Rd", "address2": null, "address3": "", "city": "Montague", "zip_code": "01351", "country": "US", "state": "MA", "display_address": ["440 Greenfield Rd", "Montague, MA 01351"]}, "phone": "+14133675345", "display_phone": "(413) 367-5345", "distance": 21273.076571837046}, {"id": "qhFqS8F57n7vmKKfrFZu-w", "alias": "friendly-town-pizza-orange", "name": "Friendly Town Pizza", "image_url": "", "is_closed": false, "url": "https://www.yelp.com/biz/friendly-town-pizza-orange?adjust_creative=h5HwbyQ0TYvQjBo6Ys5Bgw&utm_campaign=yelp_api_v3&utm_medium=api_v3_business_search&utm_source=h5HwbyQ0TYvQjBo6Ys5Bgw", "review_count": 1, "categories": [{"alias": "pizza", "title": "Pizza"}], "rating": 4.0, "coordinates": {"latitude": 42.5891990661621, "longitude": -72.3095703125}, "transactions": [], "location": {"address1": "", "address2": "", "address3": "", "city": "Orange", "zip_code": "", "country": "US", "state": "MA", "display_address": ["Orange, MA"]}, "phone": "+19782493651", "display_phone": "(978) 249-3651", "distance": 8952.226807501424}, {"id": "MoT-keudhxbWp9bX2go0fg", "alias": "bacon-me-crazy-hinsdale", "name": "Bacon Me Crazy", "image_url": "https://s3-media2.fl.yelpcdn.com/bphoto/ZDtZ0CfdtBVjYzj42uwMag/o.jpg", "is_closed": false, "url": "https://www.yelp.com/biz/bacon-me-crazy-hinsdale?adjust_creative=h5HwbyQ0TYvQjBo6Ys5Bgw&utm_campaign=yelp_api_v3&utm_medium=api_v3_business_search&utm_source=h5HwbyQ0TYvQjBo6Ys5Bgw", "review_count": 1, "categories": [{"alias": "tradamerican", "title": "American (Traditional)"}, {"alias": "breakfast_brunch", "title": "Breakfast & Brunch"}, {"alias": "sandwiches", "title": "Sandwiches"}], "rating": 4.0, "coordinates": {"latitude": 42.7869227016973, "longitude": -72.4812406674027}, "transactions": [], "location": {"address1": "6 Main St", "address2": "", "address3": null, "city": "Hinsdale", "zip_code": "03451", "country": "US", "state": "NH", "display_address": ["6 Main St", "Hinsdale, NH 03451"]}, "phone": "+16033366249", "display_phone": "(603) 336-6249", "distance": 17313.137292871324}, {"id": "yeqwDdLvP_9693lzRpAPug", "alias": "zedas-athol", "name": "Zedas", "image_url": "https://s3-media2.fl.yelpcdn.com/bphoto/Vn1AWiq6c0ATtDW7Za8U8w/o.jpg", "is_closed": false, "url": "https://www.yelp.com/biz/zedas-athol?adjust_creative=h5HwbyQ0TYvQjBo6Ys5Bgw&utm_campaign=yelp_api_v3&utm_medium=api_v3_business_search&utm_source=h5HwbyQ0TYvQjBo6Ys5Bgw", "review_count": 11, "categories": [{"alias": "pizza", "title": "Pizza"}], "rating": 3.0, "coordinates": {"latitude": 42.5920096, "longitude": -72.2316385}, "transactions": [], "price": "$$", "location": {"address1": "11 Tunnel St", "address2": "", "address3": "", "city": "Athol", "zip_code": "01331", "country": "US", "state": "MA", "display_address": ["11 Tunnel St", "Athol, MA 01331"]}, "phone": "+19782499876", "display_phone": "(978) 249-9876", "distance": 12544.685334833095}, {"id": "gLypgJyGFwhiq_yQnFAuSw", "alias": "prondecki-s-pizza-erving", "name": "Prondecki\u2019s Pizza", "image_url": "https://s3-media1.fl.yelpcdn.com/bphoto/5Ll_Ubt1KtRGQ9lh_84hpA/o.jpg", "is_closed": false, "url": "https://www.yelp.com/biz/prondecki-s-pizza-erving?adjust_creative=h5HwbyQ0TYvQjBo6Ys5Bgw&utm_campaign=yelp_api_v3&utm_medium=api_v3_business_search&utm_source=h5HwbyQ0TYvQjBo6Ys5Bgw", "review_count": 2, "categories": [{"alias": "pizza", "title": "Pizza"}, {"alias": "sandwiches", "title": "Sandwiches"}], "rating": 3.0, "coordinates": {"latitude": 42.582573438486, "longitude": -72.4938782869538}, "transactions": [], "location": {"address1": "1 W High St", "address2": "", "address3": "", "city": "Erving", "zip_code": "01344", "country": "US", "state": "MA", "display_address": ["1 W High St", "Erving, MA 01344"]}, "phone": "+14134233907", "display_phone": "(413) 423-3907", "distance": 15352.752319436708}, {"id": "BTJ-cXSsKXrXtSrhPFqD8A", "alias": "eight-dragons-take-out-restaurant-athol", "name": "Eight Dragons Take-Out Restaurant", "image_url": "https://s3-media3.fl.yelpcdn.com/bphoto/zJLO1P1o6vR28A5g2tRc0w/o.jpg", "is_closed": false, "url": "https://www.yelp.com/biz/eight-dragons-take-out-restaurant-athol?adjust_creative=h5HwbyQ0TYvQjBo6Ys5Bgw&utm_campaign=yelp_api_v3&utm_medium=api_v3_business_search&utm_source=h5HwbyQ0TYvQjBo6Ys5Bgw", "review_count": 17, "categories": [{"alias": "chinese", "title": "Chinese"}, {"alias": "seafood", "title": "Seafood"}], "rating": 2.5, "coordinates": {"latitude": 42.593049, "longitude": -72.234464}, "transactions": [], "price": "$$", "location": {"address1": "32 Freedom St", "address2": "", "address3": "", "city": "Athol", "zip_code": "01331", "country": "US", "state": "MA", "display_address": ["32 Freedom St", "Athol, MA 01331"]}, "phone": "+19782492777", "display_phone": "(978) 249-2777", "distance": 12280.223567119216}, {"id": "MUs396IkY6SHf4pI0l9gnA", "alias": "tool-town-pizza-athol", "name": "Tool Town Pizza", "image_url": "https://s3-media3.fl.yelpcdn.com/bphoto/UGHTbZneNVMJgB1e2ziCow/o.jpg", "is_closed": false, "url": "https://www.yelp.com/biz/tool-town-pizza-athol?adjust_creative=h5HwbyQ0TYvQjBo6Ys5Bgw&utm_campaign=yelp_api_v3&utm_medium=api_v3_business_search&utm_source=h5HwbyQ0TYvQjBo6Ys5Bgw", "review_count": 11, "categories": [{"alias": "pizza", "title": "Pizza"}, {"alias": "italian", "title": "Italian"}], "rating": 3.5, "coordinates": {"latitude": 42.595664, "longitude": -72.232418}, "transactions": [], "price": "$", "location": {"address1": "246 Exchange St", "address2": "", "address3": "", "city": "Athol", "zip_code": "01331", "country": "US", "state": "MA", "display_address": ["246 Exchange St", "Athol, MA 01331"]}, "phone": "+19782493366", "display_phone": "(978) 249-3366", "distance": 12213.62961962934}, {"id": "OOfG7vHmJhU1ii-XvDu1oA", "alias": "nicks-breakfast-and-lunch-athol", "name": "Nicks Breakfast and Lunch", "image_url": "https://s3-media3.fl.yelpcdn.com/bphoto/DkQ81_0J-azZTYh2pL_hfg/o.jpg", "is_closed": false, "url": "https://www.yelp.com/biz/nicks-breakfast-and-lunch-athol?adjust_creative=h5HwbyQ0TYvQjBo6Ys5Bgw&utm_campaign=yelp_api_v3&utm_medium=api_v3_business_search&utm_source=h5HwbyQ0TYvQjBo6Ys5Bgw", "review_count": 16, "categories": [{"alias": "breakfast_brunch", "title": "Breakfast & Brunch"}], "rating": 3.5, "coordinates": {"latitude": 42.5937958, "longitude": -72.228775}, "transactions": [], "price": "$$", "location": {"address1": "567 Main St", "address2": "", "address3": "", "city": "Athol", "zip_code": "01331", "country": "US", "state": "MA", "display_address": ["567 Main St", "Athol, MA 01331"]}, "phone": "+19782498400", "display_phone": "(978) 249-8400", "distance": 12597.801409842303}, {"id": "R-vkZRm9n6wLsApICyGAaw", "alias": "athol-house-of-pizza-restaurant-and-bakery-athol", "name": "Athol House of Pizza Restaurant & Bakery", "image_url": "https://s3-media4.fl.yelpcdn.com/bphoto/3FRiTWJglhE7qOR6gZdMTw/o.jpg", "is_closed": false, "url": "https://www.yelp.com/biz/athol-house-of-pizza-restaurant-and-bakery-athol?adjust_creative=h5HwbyQ0TYvQjBo6Ys5Bgw&utm_campaign=yelp_api_v3&utm_medium=api_v3_business_search&utm_source=h5HwbyQ0TYvQjBo6Ys5Bgw", "review_count": 25, "categories": [{"alias": "bakeries", "title": "Bakeries"}, {"alias": "pizza", "title": "Pizza"}], "rating": 3.0, "coordinates": {"latitude": 42.594047, "longitude": -72.229459}, "transactions": [], "price": "$$", "location": {"address1": "522 Main St", "address2": null, "address3": "", "city": "Athol", "zip_code": "01331", "country": "US", "state": "MA", "display_address": ["522 Main St", "Athol, MA 01331"]}, "phone": "+19782493762", "display_phone": "(978) 249-3762", "distance": 12514.525343183564}, {"id": "hce2WyKR6p9j0zGa3cl1lg", "alias": "wendys-athol", "name": "Wendy's", "image_url": "https://s3-media1.fl.yelpcdn.com/bphoto/eVXgbWFKJOuB6TAuoTftyw/o.jpg", "is_closed": false, "url": "https://www.yelp.com/biz/wendys-athol?adjust_creative=h5HwbyQ0TYvQjBo6Ys5Bgw&utm_campaign=yelp_api_v3&utm_medium=api_v3_business_search&utm_source=h5HwbyQ0TYvQjBo6Ys5Bgw", "review_count": 1, "categories": [{"alias": "burgers", "title": "Burgers"}, {"alias": "hotdogs", "title": "Fast Food"}], "rating": 1.0, "coordinates": {"latitude": 42.58012, "longitude": -72.18376}, "transactions": [], "location": {"address1": "56 Market Dr", "address2": null, "address3": null, "city": "Athol", "zip_code": "01331", "country": "US", "state": "MA", "display_address": ["56 Market Dr", "Athol, MA 01331"]}, "phone": "", "display_phone": "", "distance": 16434.961682187797}, {"id": "F4yelOONhwZOpJIDLvnHMQ", "alias": "nikis-pizza-athol", "name": "Niki's Pizza", "image_url": "https://s3-media3.fl.yelpcdn.com/bphoto/9wYpf3PUarCCpmLsrm2dNg/o.jpg", "is_closed": false, "url": "https://www.yelp.com/biz/nikis-pizza-athol?adjust_creative=h5HwbyQ0TYvQjBo6Ys5Bgw&utm_campaign=yelp_api_v3&utm_medium=api_v3_business_search&utm_source=h5HwbyQ0TYvQjBo6Ys5Bgw", "review_count": 5, "categories": [{"alias": "pizza", "title": "Pizza"}], "rating": 2.5, "coordinates": {"latitude": 42.58874, "longitude": -72.215375}, "transactions": [], "price": "$", "location": {"address1": "1261 Chestnut St", "address2": null, "address3": null, "city": "Athol", "zip_code": "01331", "country": "US", "state": "MA", "display_address": ["1261 Chestnut St", "Athol, MA 01331"]}, "phone": "+19782492500", "display_phone": "(978) 249-2500", "distance": 13777.194093872053}, {"id": "Z6I1yY7uBkBmaLe1L_3VJQ", "alias": "taco-bell-athol-2", "name": "Taco Bell", "image_url": "https://s3-media3.fl.yelpcdn.com/bphoto/BlCGgvYn63MYBYfFFhnDrg/o.jpg", "is_closed": false, "url": "https://www.yelp.com/biz/taco-bell-athol-2?adjust_creative=h5HwbyQ0TYvQjBo6Ys5Bgw&utm_campaign=yelp_api_v3&utm_medium=api_v3_business_search&utm_source=h5HwbyQ0TYvQjBo6Ys5Bgw", "review_count": 1, "categories": [{"alias": "tacos", "title": "Tacos"}, {"alias": "breakfast_brunch", "title": "Breakfast & Brunch"}], "rating": 4.0, "coordinates": {"latitude": 42.58012, "longitude": -72.18376}, "transactions": [], "location": {"address1": "79 Market Dr", "address2": null, "address3": null, "city": "Athol", "zip_code": "01331", "country": "US", "state": "MA", "display_address": ["79 Market Dr", "Athol, MA 01331"]}, "phone": "", "display_phone": "", "distance": 16371.301106335819}, {"id": "LyHOEwOxC1AhaI3WcWvHHw", "alias": "subway-athol-4", "name": "Subway", "image_url": "https://s3-media2.fl.yelpcdn.com/bphoto/Nx4UlEcn3DY-iWlOIEh7Pw/o.jpg", "is_closed": false, "url": "https://www.yelp.com/biz/subway-athol-4?adjust_creative=h5HwbyQ0TYvQjBo6Ys5Bgw&utm_campaign=yelp_api_v3&utm_medium=api_v3_business_search&utm_source=h5HwbyQ0TYvQjBo6Ys5Bgw", "review_count": 1, "categories": [{"alias": "sandwiches", "title": "Sandwiches"}], "rating": 1.0, "coordinates": {"latitude": 42.5844830027347, "longitude": -72.2049929815626}, "transactions": [], "price": "$", "location": {"address1": "2250 Main St", "address2": "", "address3": "", "city": "Athol", "zip_code": "01331", "country": "US", "state": "MA", "display_address": ["2250 Main St", "Athol, MA 01331"]}, "phone": "+19782495001", "display_phone": "(978) 249-5001", "distance": 14735.560047206347}, {"id": "U4ZdIbDtIlwXYbEzzDtiCQ", "alias": "mcdonalds-athol", "name": "McDonald's", "image_url": "https://s3-media1.fl.yelpcdn.com/bphoto/FSBdlAPNx4Un2ivWTJTteA/o.jpg", "is_closed": false, "url": "https://www.yelp.com/biz/mcdonalds-athol?adjust_creative=h5HwbyQ0TYvQjBo6Ys5Bgw&utm_campaign=yelp_api_v3&utm_medium=api_v3_business_search&utm_source=h5HwbyQ0TYvQjBo6Ys5Bgw", "review_count": 16, "categories": [{"alias": "burgers", "title": "Burgers"}, {"alias": "hotdogs", "title": "Fast Food"}, {"alias": "coffee", "title": "Coffee & Tea"}], "rating": 2.5, "coordinates": {"latitude": 42.5814984273631, "longitude": -72.2548806667328}, "transactions": [], "price": "$", "location": {"address1": "100 Brookside Rd", "address2": "", "address3": "", "city": "Athol", "zip_code": "01331", "country": "US", "state": "MA", "display_address": ["100 Brookside Rd", "Athol, MA 01331"]}, "phone": "+19782499866", "display_phone": "(978) 249-9866", "distance": 12085.92975582515}]