[{"id": "4ugszUqRn8RXvG1i_Wi9XA", "alias": "forge-and-vine-groton", "name": "Forge & Vine", "image_url": "https://s3-media4.fl.yelpcdn.com/bphoto/WkemGOeGrSyOS6uDc1SVCg/o.jpg", "is_closed": false, "url": "https://www.yelp.com/biz/forge-and-vine-groton?adjust_creative=ywY5UnLZrNrRl2b93Ruy_g&utm_campaign=yelp_api_v3&utm_medium=api_v3_business_search&utm_source=ywY5UnLZrNrRl2b93Ruy_g", "review_count": 102, "categories": [{"alias": "restaurants", "title": "Restaurants"}], "rating": 4.0, "coordinates": {"latitude": 42.6067366025506, "longitude": -71.5678865874319}, "transactions": ["delivery", "pickup"], "location": {"address1": "126 Main St", "address2": "", "address3": null, "city": "Groton", "zip_code": "01450", "country": "US", "state": "MA", "display_address": ["126 Main St", "Groton, MA 01450"]}, "phone": "+19784489200", "display_phone": "(978) 448-9200", "distance": 2303.896290189065}, {"id": "34dX3t-zr-rGRcbq_0mwWg", "alias": "gibbet-hill-grill-groton", "name": "Gibbet Hill Grill", "image_url": "https://s3-media1.fl.yelpcdn.com/bphoto/2fchZJZfGimDc_Nt3-uYJQ/o.jpg", "is_closed": false, "url": "https://www.yelp.com/biz/gibbet-hill-grill-groton?adjust_creative=ywY5UnLZrNrRl2b93Ruy_g&utm_campaign=yelp_api_v3&utm_medium=api_v3_business_search&utm_source=ywY5UnLZrNrRl2b93Ruy_g", "review_count": 501, "categories": [{"alias": "newamerican", "title": "American (New)"}], "rating": 4.0, "coordinates": {"latitude": 42.6055, "longitude": -71.5641333}, "transactions": ["delivery"], "price": "$$$", "location": {"address1": "61 Lowell Rd", "address2": null, "address3": "", "city": "Groton", "zip_code": "01450", "country": "US", "state": "MA", "display_address": ["61 Lowell Rd", "Groton, MA 01450"]}, "phone": "+19784482900", "display_phone": "(978) 448-2900", "distance": 2581.166085686951}, {"id": "UbKqwX9PFjdFQPVYAHsORg", "alias": "groton-station-house-restaurant-groton", "name": "Groton Station House Restaurant", "image_url": "https://s3-media3.fl.yelpcdn.com/bphoto/R18ur0wiSPV7my2SlvXj7A/o.jpg", "is_closed": false, "url": "https://www.yelp.com/biz/groton-station-house-restaurant-groton?adjust_creative=ywY5UnLZrNrRl2b93Ruy_g&utm_campaign=yelp_api_v3&utm_medium=api_v3_business_search&utm_source=ywY5UnLZrNrRl2b93Ruy_g", "review_count": 58, "categories": [{"alias": "salad", "title": "Salad"}, {"alias": "soup", "title": "Soup"}, {"alias": "cocktailbars", "title": "Cocktail Bars"}], "rating": 4.0, "coordinates": {"latitude": 42.60745, "longitude": -71.57235}, "transactions": ["delivery"], "price": "$$$", "location": {"address1": "20 Station Ave", "address2": null, "address3": "", "city": "Groton", "zip_code": "01450", "country": "US", "state": "MA", "display_address": ["20 Station Ave", "Groton, MA 01450"]}, "phone": "+19784484000", "display_phone": "(978) 448-4000", "distance": 2040.3671482283514}, {"id": "y4caiKopfWsUw50wCGcQvw", "alias": "filhos-cucina-groton-2", "name": "Filho's Cucina", "image_url": "https://s3-media3.fl.yelpcdn.com/bphoto/iCBKeml6Mv7ii18mrN6Pdg/o.jpg", "is_closed": false, "url": "https://www.yelp.com/biz/filhos-cucina-groton-2?adjust_creative=ywY5UnLZrNrRl2b93Ruy_g&utm_campaign=yelp_api_v3&utm_medium=api_v3_business_search&utm_source=ywY5UnLZrNrRl2b93Ruy_g", "review_count": 220, "categories": [{"alias": "italian", "title": "Italian"}], "rating": 4.0, "coordinates": {"latitude": 42.6105, "longitude": -71.57446}, "transactions": ["delivery", "pickup"], "price": "$$", "location": {"address1": "235 Main St", "address2": "", "address3": "", "city": "Groton", "zip_code": "01450", "country": "US", "state": "MA", "display_address": ["235 Main St", "Groton, MA 01450"]}, "phone": "+19784485664", "display_phone": "(978) 448-5664", "distance": 1649.773180964314}, {"id": "DeUbynbRLwMS4PrKHt6OtQ", "alias": "groton-publick-house-groton", "name": "Groton Publick House", "image_url": "https://s3-media4.fl.yelpcdn.com/bphoto/HK25aGuAW60be0EvxqV2PQ/o.jpg", "is_closed": false, "url": "https://www.yelp.com/biz/groton-publick-house-groton?adjust_creative=ywY5UnLZrNrRl2b93Ruy_g&utm_campaign=yelp_api_v3&utm_medium=api_v3_business_search&utm_source=ywY5UnLZrNrRl2b93Ruy_g", "review_count": 40, "categories": [{"alias": "pubs", "title": "Pubs"}, {"alias": "newamerican", "title": "American (New)"}], "rating": 3.5, "coordinates": {"latitude": 42.6014087, "longitude": -71.5577606}, "transactions": [], "location": {"address1": "94 Lovers Ln", "address2": "", "address3": null, "city": "Groton", "zip_code": "01450", "country": "US", "state": "MA", "display_address": ["94 Lovers Ln", "Groton, MA 01450"]}, "phone": "+19788428058", "display_phone": "(978) 842-8058", "distance": 3296.897578077448}, {"id": "kTmJV1Z1rHKCZSHlVTUEtg", "alias": "the-herb-lyceum-at-gilsons-groton", "name": "The Herb Lyceum at Gilson's", "image_url": "https://s3-media2.fl.yelpcdn.com/bphoto/BrRJFxqGqHrQrJpp2SxsKw/o.jpg", "is_closed": false, "url": "https://www.yelp.com/biz/the-herb-lyceum-at-gilsons-groton?adjust_creative=ywY5UnLZrNrRl2b93Ruy_g&utm_campaign=yelp_api_v3&utm_medium=api_v3_business_search&utm_source=ywY5UnLZrNrRl2b93Ruy_g", "review_count": 39, "categories": [{"alias": "newamerican", "title": "American (New)"}, {"alias": "venues", "title": "Venues & Event Spaces"}], "rating": 4.0, "coordinates": {"latitude": 42.61612, "longitude": -71.58086}, "transactions": [], "price": "$$$", "location": {"address1": "368 Main St", "address2": "", "address3": "", "city": "Groton", "zip_code": "01450", "country": "US", "state": "MA", "display_address": ["368 Main St", "Groton, MA 01450"]}, "phone": "+16176156195", "display_phone": "(617) 615-6195", "distance": 897.9779603337837}, {"id": "kZtvVE7ffIOGN_DXnjYIAQ", "alias": "blackbird-cafe-groton", "name": "Blackbird Cafe", "image_url": "https://s3-media3.fl.yelpcdn.com/bphoto/GaHJCCXU6tgMo_BufPaOoQ/o.jpg", "is_closed": false, "url": "https://www.yelp.com/biz/blackbird-cafe-groton?adjust_creative=ywY5UnLZrNrRl2b93Ruy_g&utm_campaign=yelp_api_v3&utm_medium=api_v3_business_search&utm_source=ywY5UnLZrNrRl2b93Ruy_g", "review_count": 80, "categories": [{"alias": "cafes", "title": "Cafes"}], "rating": 4.0, "coordinates": {"latitude": 42.6211231221288, "longitude": -71.5864634513855}, "transactions": ["delivery", "pickup"], "price": "$", "location": {"address1": "491 Main St", "address2": "", "address3": "", "city": "Groton", "zip_code": "01450", "country": "US", "state": "MA", "display_address": ["491 Main St", "Groton, MA 01450"]}, "phone": "+19782721175", "display_phone": "(978) 272-1175", "distance": 318.99769591819484}, {"id": "hfSzMFBltglRnxUXnyzmfw", "alias": "salt-and-light-cafe-bistro-groton", "name": "Salt & Light Cafe Bistro", "image_url": "https://s3-media2.fl.yelpcdn.com/bphoto/MZXIQ7v7IQW5Y5enRS8bmA/o.jpg", "is_closed": false, "url": "https://www.yelp.com/biz/salt-and-light-cafe-bistro-groton?adjust_creative=ywY5UnLZrNrRl2b93Ruy_g&utm_campaign=yelp_api_v3&utm_medium=api_v3_business_search&utm_source=ywY5UnLZrNrRl2b93Ruy_g", "review_count": 145, "categories": [{"alias": "cafes", "title": "Cafes"}, {"alias": "newamerican", "title": "American (New)"}, {"alias": "breakfast_brunch", "title": "Breakfast & Brunch"}], "rating": 4.5, "coordinates": {"latitude": 42.607523, "longitude": -71.57056}, "transactions": ["delivery", "pickup"], "price": "$$", "location": {"address1": "159 Main St", "address2": null, "address3": "", "city": "Groton", "zip_code": "01450", "country": "US", "state": "MA", "display_address": ["159 Main St", "Groton, MA 01450"]}, "phone": "+19784489634", "display_phone": "(978) 448-9634", "distance": 2108.7571200398406}, {"id": "-R35bZqkKfTJtAsWZl8C3Q", "alias": "main-house-groton", "name": "Main House", "image_url": "https://s3-media1.fl.yelpcdn.com/bphoto/uBKTox8FDzDCQFa_Dp4YZg/o.jpg", "is_closed": false, "url": "https://www.yelp.com/biz/main-house-groton?adjust_creative=ywY5UnLZrNrRl2b93Ruy_g&utm_campaign=yelp_api_v3&utm_medium=api_v3_business_search&utm_source=ywY5UnLZrNrRl2b93Ruy_g", "review_count": 24, "categories": [{"alias": "chinese", "title": "Chinese"}, {"alias": "thai", "title": "Thai"}, {"alias": "seafood", "title": "Seafood"}], "rating": 3.5, "coordinates": {"latitude": 42.620250174699, "longitude": -71.586549311614}, "transactions": [], "price": "$$", "location": {"address1": "495 Main St", "address2": "Unit 3C", "address3": null, "city": "Groton", "zip_code": "01450", "country": "US", "state": "MA", "display_address": ["495 Main St", "Unit 3C", "Groton, MA 01450"]}, "phone": "+19784486088", "display_phone": "(978) 448-6088", "distance": 407.1816919051873}, {"id": "0TW5h1N39ykfvzDozzTnPQ", "alias": "country-butcher-and-deli-groton", "name": "Country Butcher and Deli", "image_url": "https://s3-media3.fl.yelpcdn.com/bphoto/hGlOBj6oVh1RCE_RR4c83A/o.jpg", "is_closed": false, "url": "https://www.yelp.com/biz/country-butcher-and-deli-groton?adjust_creative=ywY5UnLZrNrRl2b93Ruy_g&utm_campaign=yelp_api_v3&utm_medium=api_v3_business_search&utm_source=ywY5UnLZrNrRl2b93Ruy_g", "review_count": 35, "categories": [{"alias": "delis", "title": "Delis"}, {"alias": "butcher", "title": "Butcher"}], "rating": 4.5, "coordinates": {"latitude": 42.597508, "longitude": -71.5628559}, "transactions": ["delivery"], "price": "$$", "location": {"address1": "68 Boston Rd", "address2": "", "address3": "", "city": "Groton", "zip_code": "01450", "country": "US", "state": "MA", "display_address": ["68 Boston Rd", "Groton, MA 01450"]}, "phone": "+19784489300", "display_phone": "(978) 448-9300", "distance": 3400.1723957793674}, {"id": "UdUCmlSwRBHTQRHdkRVQdw", "alias": "cafe-at-groton-wellness-groton", "name": "Cafe at Groton Wellness", "image_url": "https://s3-media2.fl.yelpcdn.com/bphoto/xEqWF7B6oxtK9YjjryOy4w/o.jpg", "is_closed": false, "url": "https://www.yelp.com/biz/cafe-at-groton-wellness-groton?adjust_creative=ywY5UnLZrNrRl2b93Ruy_g&utm_campaign=yelp_api_v3&utm_medium=api_v3_business_search&utm_source=ywY5UnLZrNrRl2b93Ruy_g", "review_count": 9, "categories": [{"alias": "breakfast_brunch", "title": "Breakfast & Brunch"}, {"alias": "sandwiches", "title": "Sandwiches"}, {"alias": "cafes", "title": "Cafes"}], "rating": 5.0, "coordinates": {"latitude": 42.6197043139679, "longitude": -71.5865323539673}, "transactions": [], "price": "$", "location": {"address1": "493 Main St", "address2": "", "address3": "Mill Run Plz", "city": "Groton", "zip_code": "01450", "country": "US", "state": "MA", "display_address": ["493 Main St", "Mill Run Plz", "Groton, MA 01450"]}, "phone": "+19784499919", "display_phone": "(978) 449-9919", "distance": 461.92883284474175}, {"id": "J3Jk5A1TnFeKf2SGNrZLrw", "alias": "brunos-pizza-groton", "name": "Bruno's Pizza", "image_url": "https://s3-media1.fl.yelpcdn.com/bphoto/XbF1z2l09ESUySya1K6rmg/o.jpg", "is_closed": false, "url": "https://www.yelp.com/biz/brunos-pizza-groton?adjust_creative=ywY5UnLZrNrRl2b93Ruy_g&utm_campaign=yelp_api_v3&utm_medium=api_v3_business_search&utm_source=ywY5UnLZrNrRl2b93Ruy_g", "review_count": 45, "categories": [{"alias": "pizza", "title": "Pizza"}, {"alias": "salad", "title": "Salad"}, {"alias": "sandwiches", "title": "Sandwiches"}], "rating": 3.5, "coordinates": {"latitude": 42.608847, "longitude": -71.57251}, "transactions": ["delivery"], "price": "$$", "location": {"address1": "195 Main St", "address2": "", "address3": "", "city": "Groton", "zip_code": "01450", "country": "US", "state": "MA", "display_address": ["195 Main St", "Groton, MA 01450"]}, "phone": "+19784485959", "display_phone": "(978) 448-5959", "distance": 1897.2281835403483}, {"id": "zqxHL7OtsV0oigMSIEMLzA", "alias": "groton-house-of-pizza-groton", "name": "Groton House of Pizza", "image_url": "https://s3-media2.fl.yelpcdn.com/bphoto/Ksn61NM08qksXL-cxS32pA/o.jpg", "is_closed": false, "url": "https://www.yelp.com/biz/groton-house-of-pizza-groton?adjust_creative=ywY5UnLZrNrRl2b93Ruy_g&utm_campaign=yelp_api_v3&utm_medium=api_v3_business_search&utm_source=ywY5UnLZrNrRl2b93Ruy_g", "review_count": 17, "categories": [{"alias": "pizza", "title": "Pizza"}], "rating": 3.0, "coordinates": {"latitude": 42.606374252512, "longitude": -71.56921261825}, "transactions": [], "price": "$", "location": {"address1": "129 Main St", "address2": "", "address3": "", "city": "Groton", "zip_code": "01450", "country": "US", "state": "MA", "display_address": ["129 Main St", "Groton, MA 01450"]}, "phone": "+19784482411", "display_phone": "(978) 448-2411", "distance": 2275.816854194638}, {"id": "0O7q2_MJXMKCGsP76P2-UA", "alias": "johnsons-restaurant-and-dairy-bar-groton", "name": "Johnson's Restaurant and Dairy Bar", "image_url": "https://s3-media3.fl.yelpcdn.com/bphoto/rGwnRAmbL4jGIeLPbXDb7A/o.jpg", "is_closed": false, "url": "https://www.yelp.com/biz/johnsons-restaurant-and-dairy-bar-groton?adjust_creative=ywY5UnLZrNrRl2b93Ruy_g&utm_campaign=yelp_api_v3&utm_medium=api_v3_business_search&utm_source=ywY5UnLZrNrRl2b93Ruy_g", "review_count": 62, "categories": [{"alias": "tradamerican", "title": "American (Traditional)"}, {"alias": "icecream", "title": "Ice Cream & Frozen Yogurt"}, {"alias": "breakfast_brunch", "title": "Breakfast & Brunch"}], "rating": 3.5, "coordinates": {"latitude": 42.596174, "longitude": -71.556005}, "transactions": ["delivery"], "price": "$", "location": {"address1": "164 Boston Rd", "address2": null, "address3": "", "city": "Groton", "zip_code": "01450", "country": "US", "state": "MA", "display_address": ["164 Boston Rd", "Groton, MA 01450"]}, "phone": "+19784486840", "display_phone": "(978) 448-6840", "distance": 3826.5757606271777}]