[{"id": "T2y6Cue1SkDt55lSNkmrIg", "alias": "district-kitchen-and-bar-pittsfield", "name": "District Kitchen & Bar", "image_url": "https://s3-media4.fl.yelpcdn.com/bphoto/1S7pKPfaGwGh6wWd9MorYQ/o.jpg", "is_closed": false, "url": "https://www.yelp.com/biz/district-kitchen-and-bar-pittsfield?adjust_creative=h5HwbyQ0TYvQjBo6Ys5Bgw&utm_campaign=yelp_api_v3&utm_medium=api_v3_business_search&utm_source=h5HwbyQ0TYvQjBo6Ys5Bgw", "review_count": 202, "categories": [{"alias": "newamerican", "title": "American (New)"}, {"alias": "gastropubs", "title": "Gastropubs"}], "rating": 4.5, "coordinates": {"latitude": 42.4487065, "longitude": -73.2547291}, "transactions": ["delivery"], "price": "$$", "location": {"address1": "40 West St", "address2": null, "address3": "", "city": "Pittsfield", "zip_code": "01201", "country": "US", "state": "MA", "display_address": ["40 West St", "Pittsfield, MA 01201"]}, "phone": "+14134420303", "display_phone": "(413) 442-0303", "distance": 10062.094183387737}, {"id": "x3-jvYZX8SyNa0szugmiEQ", "alias": "powder-hounds-hancock", "name": "Powder Hounds", "image_url": "https://s3-media1.fl.yelpcdn.com/bphoto/v3ighIHFRideJ3wRho8ArA/o.jpg", "is_closed": false, "url": "https://www.yelp.com/biz/powder-hounds-hancock?adjust_creative=h5HwbyQ0TYvQjBo6Ys5Bgw&utm_campaign=yelp_api_v3&utm_medium=api_v3_business_search&utm_source=h5HwbyQ0TYvQjBo6Ys5Bgw", "review_count": 93, "categories": [{"alias": "tradamerican", "title": "American (Traditional)"}, {"alias": "italian", "title": "Italian"}, {"alias": "cocktailbars", "title": "Cocktail Bars"}], "rating": 4.0, "coordinates": {"latitude": 42.5695066053232, "longitude": -73.251499}, "transactions": [], "price": "$$", "location": {"address1": "137 Brodie Mountain Rd", "address2": "", "address3": "", "city": "Hancock", "zip_code": "01237", "country": "US", "state": "MA", "display_address": ["137 Brodie Mountain Rd", "Hancock, MA 01237"]}, "phone": "+14137385660", "display_phone": "(413) 738-5660", "distance": 3673.9815110462973}, {"id": "stiXPmdazYbPuvk7-DZoXQ", "alias": "old-forge-restaurant-lanesborough", "name": "Old Forge Restaurant", "image_url": "https://s3-media3.fl.yelpcdn.com/bphoto/7KF1ed-S_RqxHV5qnj2qJQ/o.jpg", "is_closed": false, "url": "https://www.yelp.com/biz/old-forge-restaurant-lanesborough?adjust_creative=h5HwbyQ0TYvQjBo6Ys5Bgw&utm_campaign=yelp_api_v3&utm_medium=api_v3_business_search&utm_source=h5HwbyQ0TYvQjBo6Ys5Bgw", "review_count": 257, "categories": [{"alias": "tradamerican", "title": "American (Traditional)"}, {"alias": "chicken_wings", "title": "Chicken Wings"}], "rating": 3.5, "coordinates": {"latitude": 42.5254754817585, "longitude": -73.228554725647}, "transactions": [], "price": "$$", "location": {"address1": "125 N Main St", "address2": "", "address3": "", "city": "Lanesborough", "zip_code": "01237", "country": "US", "state": "MA", "display_address": ["125 N Main St", "Lanesborough, MA 01237"]}, "phone": "+14134426797", "display_phone": "(413) 442-6797", "distance": 3539.1061451009136}, {"id": "p00CE0nPV3M4WrermlsBgQ", "alias": "john-harvards-brew-house-hancock", "name": "John Harvard's Brew House", "image_url": "https://s3-media3.fl.yelpcdn.com/bphoto/cNeyK9CtJaZ4nl5S9_S3Dg/o.jpg", "is_closed": false, "url": "https://www.yelp.com/biz/john-harvards-brew-house-hancock?adjust_creative=h5HwbyQ0TYvQjBo6Ys5Bgw&utm_campaign=yelp_api_v3&utm_medium=api_v3_business_search&utm_source=h5HwbyQ0TYvQjBo6Ys5Bgw", "review_count": 74, "categories": [{"alias": "tradamerican", "title": "American (Traditional)"}, {"alias": "pubs", "title": "Pubs"}], "rating": 2.5, "coordinates": {"latitude": 42.55585, "longitude": -73.29097}, "transactions": [], "price": "$$", "location": {"address1": "37 Corey Rd", "address2": "", "address3": "Country Inn", "city": "Hancock", "zip_code": "01237", "country": "US", "state": "MA", "display_address": ["37 Corey Rd", "Country Inn", "Hancock, MA 01237"]}, "phone": "+14137385500", "display_phone": "(413) 738-5500", "distance": 2703.525906886889}, {"id": "C4skTr66kKHctEQH7U-T7Q", "alias": "elizabeths-pittsfield", "name": "Elizabeth's", "image_url": "https://s3-media1.fl.yelpcdn.com/bphoto/H8Vn6lhIqFVPIqEuOkGohA/o.jpg", "is_closed": false, "url": "https://www.yelp.com/biz/elizabeths-pittsfield?adjust_creative=h5HwbyQ0TYvQjBo6Ys5Bgw&utm_campaign=yelp_api_v3&utm_medium=api_v3_business_search&utm_source=h5HwbyQ0TYvQjBo6Ys5Bgw", "review_count": 111, "categories": [{"alias": "italian", "title": "Italian"}, {"alias": "newamerican", "title": "American (New)"}], "rating": 4.5, "coordinates": {"latitude": 42.453037, "longitude": -73.224449}, "transactions": ["delivery"], "price": "$$", "location": {"address1": "1264 East St", "address2": "", "address3": "", "city": "Pittsfield", "zip_code": "01201", "country": "US", "state": "MA", "display_address": ["1264 East St", "Pittsfield, MA 01201"]}, "phone": "+14134488244", "display_phone": "(413) 448-8244", "distance": 10165.489251880175}, {"id": "RtMPXedJocZX0VyTB3o6dQ", "alias": "smokey-divas-pittsfield", "name": "Smokey Divas", "image_url": "https://s3-media2.fl.yelpcdn.com/bphoto/eR_ibLv6mWTkZxRqHrL_FQ/o.jpg", "is_closed": false, "url": "https://www.yelp.com/biz/smokey-divas-pittsfield?adjust_creative=h5HwbyQ0TYvQjBo6Ys5Bgw&utm_campaign=yelp_api_v3&utm_medium=api_v3_business_search&utm_source=h5HwbyQ0TYvQjBo6Ys5Bgw", "review_count": 22, "categories": [{"alias": "bbq", "title": "Barbeque"}], "rating": 4.5, "coordinates": {"latitude": 42.4589165630306, "longitude": -73.2636564597487}, "transactions": ["delivery"], "location": {"address1": "239 Onota St", "address2": "", "address3": null, "city": "Pittsfield", "zip_code": "01201", "country": "US", "state": "MA", "display_address": ["239 Onota St", "Pittsfield, MA 01201"]}, "phone": "+14133444206", "display_phone": "(413) 344-4206", "distance": 8881.553371916638}, {"id": "-wEHUZya-95Am6VEefkTTQ", "alias": "mill-on-the-floss-new-ashford-2", "name": "Mill On The Floss", "image_url": "https://s3-media1.fl.yelpcdn.com/bphoto/FWB9hebv5YeViPGxHm16BQ/o.jpg", "is_closed": false, "url": "https://www.yelp.com/biz/mill-on-the-floss-new-ashford-2?adjust_creative=h5HwbyQ0TYvQjBo6Ys5Bgw&utm_campaign=yelp_api_v3&utm_medium=api_v3_business_search&utm_source=h5HwbyQ0TYvQjBo6Ys5Bgw", "review_count": 33, "categories": [{"alias": "french", "title": "French"}], "rating": 4.0, "coordinates": {"latitude": 42.6063261876284, "longitude": -73.2351315705922}, "transactions": [], "price": "$$$", "location": {"address1": "342 New Ashford Rd", "address2": "", "address3": "", "city": "New Ashford", "zip_code": "01237", "country": "US", "state": "MA", "display_address": ["342 New Ashford Rd", "New Ashford, MA 01237"]}, "phone": "+14134589123", "display_phone": "(413) 458-9123", "distance": 7978.668192894678}, {"id": "0eMkyB2D0Cw3gszNyAaUdQ", "alias": "mission-restaurant-pittsfield", "name": "Mission Restaurant", "image_url": "https://s3-media3.fl.yelpcdn.com/bphoto/p81W3A_1VlHAeJlbkuw96Q/o.jpg", "is_closed": false, "url": "https://www.yelp.com/biz/mission-restaurant-pittsfield?adjust_creative=h5HwbyQ0TYvQjBo6Ys5Bgw&utm_campaign=yelp_api_v3&utm_medium=api_v3_business_search&utm_source=h5HwbyQ0TYvQjBo6Ys5Bgw", "review_count": 125, "categories": [{"alias": "spanish", "title": "Spanish"}, {"alias": "tapasmallplates", "title": "Tapas/Small Plates"}, {"alias": "musicvenues", "title": "Music Venues"}], "rating": 4.0, "coordinates": {"latitude": 42.4548334, "longitude": -73.2518942}, "transactions": ["delivery"], "price": "$$", "location": {"address1": "438 N St", "address2": "", "address3": "", "city": "Pittsfield", "zip_code": "01201", "country": "US", "state": "MA", "display_address": ["438 N St", "Pittsfield, MA 01201"]}, "phone": "+14134991736", "display_phone": "(413) 499-1736", "distance": 9418.932444595373}, {"id": "CLThO7siCcmtdCNIdOxMnQ", "alias": "norte-azul-cantina-stephentown-4", "name": "Norte Azul Cantina", "image_url": "https://s3-media4.fl.yelpcdn.com/bphoto/11fND2G5Vfbh3FaOYx5Ifw/o.jpg", "is_closed": false, "url": "https://www.yelp.com/biz/norte-azul-cantina-stephentown-4?adjust_creative=h5HwbyQ0TYvQjBo6Ys5Bgw&utm_campaign=yelp_api_v3&utm_medium=api_v3_business_search&utm_source=h5HwbyQ0TYvQjBo6Ys5Bgw", "review_count": 19, "categories": [{"alias": "mexican", "title": "Mexican"}, {"alias": "bars", "title": "Bars"}], "rating": 4.0, "coordinates": {"latitude": 42.54859, "longitude": -73.36885}, "transactions": [], "price": "$$", "location": {"address1": "15952 State Route 22", "address2": "", "address3": null, "city": "Stephentown", "zip_code": "12168", "country": "US", "state": "NY", "display_address": ["15952 State Route 22", "Stephentown, NY 12168"]}, "phone": "+15187330011", "display_phone": "(518) 733-0011", "distance": 8348.89220461366}, {"id": "zjc3l6BggbOGOy9j0g5_lg", "alias": "christiansens-hancock", "name": "Christiansen's", "image_url": "https://s3-media2.fl.yelpcdn.com/bphoto/c51RDNLSPm5b916fnXVCfA/o.jpg", "is_closed": false, "url": "https://www.yelp.com/biz/christiansens-hancock?adjust_creative=h5HwbyQ0TYvQjBo6Ys5Bgw&utm_campaign=yelp_api_v3&utm_medium=api_v3_business_search&utm_source=h5HwbyQ0TYvQjBo6Ys5Bgw", "review_count": 36, "categories": [{"alias": "tradamerican", "title": "American (Traditional)"}], "rating": 3.0, "coordinates": {"latitude": 42.55585, "longitude": -73.29097}, "transactions": [], "price": "$$", "location": {"address1": "37 Corey Rd", "address2": "", "address3": "", "city": "Hancock", "zip_code": "01237", "country": "US", "state": "MA", "display_address": ["37 Corey Rd", "Hancock, MA 01237"]}, "phone": "+14137385500", "display_phone": "(413) 738-5500", "distance": 2703.525906886889}, {"id": "cCrInUewlA89sDza70MvCA", "alias": "vongs-pittsfield-2", "name": "Vongs", "image_url": "https://s3-media3.fl.yelpcdn.com/bphoto/ldVZ4TDrHmFZhoBD_uSEqg/o.jpg", "is_closed": false, "url": "https://www.yelp.com/biz/vongs-pittsfield-2?adjust_creative=h5HwbyQ0TYvQjBo6Ys5Bgw&utm_campaign=yelp_api_v3&utm_medium=api_v3_business_search&utm_source=h5HwbyQ0TYvQjBo6Ys5Bgw", "review_count": 63, "categories": [{"alias": "vietnamese", "title": "Vietnamese"}, {"alias": "thai", "title": "Thai"}], "rating": 4.0, "coordinates": {"latitude": 42.4608192996704, "longitude": -73.2507721752335}, "transactions": ["delivery"], "price": "$$", "location": {"address1": "157 Seymour St", "address2": "", "address3": "", "city": "Pittsfield", "zip_code": "01201", "country": "US", "state": "MA", "display_address": ["157 Seymour St", "Pittsfield, MA 01201"]}, "phone": "+14134426000", "display_phone": "(413) 442-6000", "distance": 8775.44906250819}, {"id": "nvn2Tly1BvlmglJ9p-4uDA", "alias": "mad-jacks-lanesborough", "name": "Mad Jack's", "image_url": "https://s3-media2.fl.yelpcdn.com/bphoto/BLw3pU5R6injfiUL6pCbwA/o.jpg", "is_closed": false, "url": "https://www.yelp.com/biz/mad-jacks-lanesborough?adjust_creative=h5HwbyQ0TYvQjBo6Ys5Bgw&utm_campaign=yelp_api_v3&utm_medium=api_v3_business_search&utm_source=h5HwbyQ0TYvQjBo6Ys5Bgw", "review_count": 11, "categories": [{"alias": "bbq", "title": "Barbeque"}, {"alias": "tradamerican", "title": "American (Traditional)"}, {"alias": "soulfood", "title": "Soul Food"}], "rating": 4.0, "coordinates": {"latitude": 42.51325, "longitude": -73.22938}, "transactions": ["delivery"], "location": {"address1": "126 S Main St", "address2": "", "address3": null, "city": "Lanesborough", "zip_code": "01237", "country": "US", "state": "MA", "display_address": ["126 S Main St", "Lanesborough, MA 01237"]}, "phone": "+14134422290", "display_phone": "(413) 442-2290", "distance": 4258.573519796981}, {"id": "f1SCA_ua5SrnH4o-GC_frg", "alias": "la-fogata-pittsfield-3", "name": "La Fogata", "image_url": "https://s3-media3.fl.yelpcdn.com/bphoto/fO86g0LI2WiwS-HWZPKjIA/o.jpg", "is_closed": false, "url": "https://www.yelp.com/biz/la-fogata-pittsfield-3?adjust_creative=h5HwbyQ0TYvQjBo6Ys5Bgw&utm_campaign=yelp_api_v3&utm_medium=api_v3_business_search&utm_source=h5HwbyQ0TYvQjBo6Ys5Bgw", "review_count": 84, "categories": [{"alias": "colombian", "title": "Colombian"}], "rating": 4.5, "coordinates": {"latitude": 42.4564261392309, "longitude": -73.2350534294449}, "transactions": ["delivery"], "price": "$$", "location": {"address1": "770 Tyler St", "address2": null, "address3": null, "city": "Pittsfield", "zip_code": "01201", "country": "US", "state": "MA", "display_address": ["770 Tyler St", "Pittsfield, MA 01201"]}, "phone": "+14134436969", "display_phone": "(413) 443-6969", "distance": 9547.665502656919}, {"id": "qdEOFaDMWYcGqGFUTZa7IQ", "alias": "biggins-diggins-lanesborough", "name": "Biggins Diggins", "image_url": "https://s3-media2.fl.yelpcdn.com/bphoto/mIZVB-5aQcMT1KlXaK56Pg/o.jpg", "is_closed": false, "url": "https://www.yelp.com/biz/biggins-diggins-lanesborough?adjust_creative=h5HwbyQ0TYvQjBo6Ys5Bgw&utm_campaign=yelp_api_v3&utm_medium=api_v3_business_search&utm_source=h5HwbyQ0TYvQjBo6Ys5Bgw", "review_count": 16, "categories": [{"alias": "breakfast_brunch", "title": "Breakfast & Brunch"}], "rating": 4.0, "coordinates": {"latitude": 42.5008113, "longitude": -73.236971}, "transactions": ["delivery"], "location": {"address1": "543 S Main St", "address2": "", "address3": null, "city": "Lanesborough", "zip_code": "01237", "country": "US", "state": "MA", "display_address": ["543 S Main St", "Lanesborough, MA 01237"]}, "phone": "+14134963141", "display_phone": "(413) 496-3141", "distance": 4916.492108636736}, {"id": "eblzT9dPUY68f-yTC8DWFg", "alias": "lanesboro-restaurant-and-pizzeria-lanesboro", "name": "Lanesboro Restaurant & Pizzeria", "image_url": "https://s3-media3.fl.yelpcdn.com/bphoto/kwWtdSZvleEEwHEowueLRw/o.jpg", "is_closed": false, "url": "https://www.yelp.com/biz/lanesboro-restaurant-and-pizzeria-lanesboro?adjust_creative=h5HwbyQ0TYvQjBo6Ys5Bgw&utm_campaign=yelp_api_v3&utm_medium=api_v3_business_search&utm_source=h5HwbyQ0TYvQjBo6Ys5Bgw", "review_count": 10, "categories": [{"alias": "pizza", "title": "Pizza"}], "rating": 4.0, "coordinates": {"latitude": 42.494332, "longitude": -73.237745}, "transactions": ["delivery"], "price": "$$", "location": {"address1": "739 S Main St", "address2": "", "address3": "", "city": "Lanesboro", "zip_code": "01237", "country": "US", "state": "MA", "display_address": ["739 S Main St", "Lanesboro, MA 01237"]}, "phone": "+14134420600", "display_phone": "(413) 442-0600", "distance": 5515.507274813699}, {"id": "5SEv6lCoqsHuIvd5bseAPw", "alias": "thrive-diner-pittsfield", "name": "Thrive Diner", "image_url": "https://s3-media3.fl.yelpcdn.com/bphoto/tXURYKnF1UmV5Mlw6XyiTg/o.jpg", "is_closed": false, "url": "https://www.yelp.com/biz/thrive-diner-pittsfield?adjust_creative=h5HwbyQ0TYvQjBo6Ys5Bgw&utm_campaign=yelp_api_v3&utm_medium=api_v3_business_search&utm_source=h5HwbyQ0TYvQjBo6Ys5Bgw", "review_count": 43, "categories": [{"alias": "vegan", "title": "Vegan"}], "rating": 4.5, "coordinates": {"latitude": 42.4625, "longitude": -73.25181}, "transactions": ["delivery"], "price": "$$", "location": {"address1": "145 Wahconah St", "address2": null, "address3": "", "city": "Pittsfield", "zip_code": "01201", "country": "US", "state": "MA", "display_address": ["145 Wahconah St", "Pittsfield, MA 01201"]}, "phone": "+14133449353", "display_phone": "(413) 344-9353", "distance": 8570.598823493936}, {"id": "oCsKQ2Ns4NZtIjvu4PODBg", "alias": "the-roasted-garlic-pittsfield", "name": "The Roasted Garlic", "image_url": "https://s3-media3.fl.yelpcdn.com/bphoto/9u5QaUpT90u9r2vCPL_oGA/o.jpg", "is_closed": false, "url": "https://www.yelp.com/biz/the-roasted-garlic-pittsfield?adjust_creative=h5HwbyQ0TYvQjBo6Ys5Bgw&utm_campaign=yelp_api_v3&utm_medium=api_v3_business_search&utm_source=h5HwbyQ0TYvQjBo6Ys5Bgw", "review_count": 116, "categories": [{"alias": "tradamerican", "title": "American (Traditional)"}, {"alias": "sportsbars", "title": "Sports Bars"}], "rating": 3.5, "coordinates": {"latitude": 42.44215, "longitude": -73.27677}, "transactions": ["delivery"], "price": "$$", "location": {"address1": "483 W Housatonic St", "address2": "", "address3": "", "city": "Pittsfield", "zip_code": "01201", "country": "US", "state": "MA", "display_address": ["483 W Housatonic St", "Pittsfield, MA 01201"]}, "phone": "+14134999910", "display_phone": "(413) 499-9910", "distance": 10756.584990621395}, {"id": "LS4JligFdmDxsmR3p-vFmQ", "alias": "m-and-ms-tap-and-tavern-new-lebanon-2", "name": "M&M'S Tap and Tavern", "image_url": "https://s3-media3.fl.yelpcdn.com/bphoto/yrfy8n7EIKhXeG5yDnlTTA/o.jpg", "is_closed": false, "url": "https://www.yelp.com/biz/m-and-ms-tap-and-tavern-new-lebanon-2?adjust_creative=h5HwbyQ0TYvQjBo6Ys5Bgw&utm_campaign=yelp_api_v3&utm_medium=api_v3_business_search&utm_source=h5HwbyQ0TYvQjBo6Ys5Bgw", "review_count": 55, "categories": [{"alias": "newamerican", "title": "American (New)"}, {"alias": "pizza", "title": "Pizza"}, {"alias": "bars", "title": "Bars"}], "rating": 4.5, "coordinates": {"latitude": 42.46705, "longitude": -73.3906248}, "transactions": [], "price": "$$", "location": {"address1": "501 State Route 20", "address2": null, "address3": null, "city": "New Lebanon", "zip_code": "12125", "country": "US", "state": "NY", "display_address": ["501 State Route 20", "New Lebanon, NY 12125"]}, "phone": "+15187946102", "display_phone": "(518) 794-6102", "distance": 12840.40115603013}, {"id": "yNlU70vPBtl2sSfOANzi4A", "alias": "the-k-shack-new-lebanon", "name": "The K Shack", "image_url": "https://s3-media3.fl.yelpcdn.com/bphoto/6czLeIErphiHn--RCBGHsw/o.jpg", "is_closed": false, "url": "https://www.yelp.com/biz/the-k-shack-new-lebanon?adjust_creative=h5HwbyQ0TYvQjBo6Ys5Bgw&utm_campaign=yelp_api_v3&utm_medium=api_v3_business_search&utm_source=h5HwbyQ0TYvQjBo6Ys5Bgw", "review_count": 10, "categories": [{"alias": "salad", "title": "Salad"}, {"alias": "burgers", "title": "Burgers"}], "rating": 5.0, "coordinates": {"latitude": 42.46606, "longitude": -73.39445}, "transactions": [], "location": {"address1": "9 Tilden Rd", "address2": "", "address3": null, "city": "New Lebanon", "zip_code": "12125", "country": "US", "state": "NY", "display_address": ["9 Tilden Rd", "New Lebanon, NY 12125"]}, "phone": "+15182679330", "display_phone": "(518) 267-9330", "distance": 13165.434404232834}, {"id": "fffJgJEdkV01ods74qDKzA", "alias": "zucchinis-restaurant-and-wood-fired-pizza-pittsfield", "name": "Zucchini's Restaurant & Wood Fired Pizza", "image_url": "https://s3-media1.fl.yelpcdn.com/bphoto/RlF3NAEuS6E976AXD2lJcA/o.jpg", "is_closed": false, "url": "https://www.yelp.com/biz/zucchinis-restaurant-and-wood-fired-pizza-pittsfield?adjust_creative=h5HwbyQ0TYvQjBo6Ys5Bgw&utm_campaign=yelp_api_v3&utm_medium=api_v3_business_search&utm_source=h5HwbyQ0TYvQjBo6Ys5Bgw", "review_count": 64, "categories": [{"alias": "pizza", "title": "Pizza"}, {"alias": "italian", "title": "Italian"}, {"alias": "newamerican", "title": "American (New)"}], "rating": 3.5, "coordinates": {"latitude": 42.48183, "longitude": -73.24674}, "transactions": ["delivery"], "price": "$$", "location": {"address1": "1331 North St", "address2": "", "address3": "", "city": "Pittsfield", "zip_code": "01201", "country": "US", "state": "MA", "display_address": ["1331 North St", "Pittsfield, MA 01201"]}, "phone": "+14134422777", "display_phone": "(413) 442-2777", "distance": 6601.326335926367}, {"id": "xkKYVwDYXzUV62udwUaboQ", "alias": "bass-water-grill-cheshire", "name": "Bass Water Grill", "image_url": "https://s3-media2.fl.yelpcdn.com/bphoto/eq2hPkZOGZ8t5uzrOQQuPQ/o.jpg", "is_closed": false, "url": "https://www.yelp.com/biz/bass-water-grill-cheshire?adjust_creative=h5HwbyQ0TYvQjBo6Ys5Bgw&utm_campaign=yelp_api_v3&utm_medium=api_v3_business_search&utm_source=h5HwbyQ0TYvQjBo6Ys5Bgw", "review_count": 23, "categories": [{"alias": "newamerican", "title": "American (New)"}, {"alias": "salad", "title": "Salad"}, {"alias": "burgers", "title": "Burgers"}], "rating": 4.0, "coordinates": {"latitude": 42.554713, "longitude": -73.165292}, "transactions": [], "price": "$$", "location": {"address1": "287 S State Rd", "address2": null, "address3": null, "city": "Cheshire", "zip_code": "01225", "country": "US", "state": "MA", "display_address": ["287 S State Rd", "Cheshire, MA 01225"]}, "phone": "+14137431911", "display_phone": "(413) 743-1911", "distance": 8585.226426687774}, {"id": "2HNQ52VIATkFhvYvXIVkxg", "alias": "bascom-lodge-cheshire", "name": "Bascom Lodge", "image_url": "https://s3-media2.fl.yelpcdn.com/bphoto/OqAT0Zo-aER3M6sHxFMhWQ/o.jpg", "is_closed": false, "url": "https://www.yelp.com/biz/bascom-lodge-cheshire?adjust_creative=h5HwbyQ0TYvQjBo6Ys5Bgw&utm_campaign=yelp_api_v3&utm_medium=api_v3_business_search&utm_source=h5HwbyQ0TYvQjBo6Ys5Bgw", "review_count": 4, "categories": [{"alias": "bedbreakfast", "title": "Bed & Breakfast"}, {"alias": "tradamerican", "title": "American (Traditional)"}], "rating": 3.0, "coordinates": {"latitude": 42.5524235867851, "longitude": -73.2149627026462}, "transactions": [], "price": "$$", "location": {"address1": "30 Rockwell Rd", "address2": "", "address3": "", "city": "Cheshire", "zip_code": "01225", "country": "US", "state": "MA", "display_address": ["30 Rockwell Rd", "Cheshire, MA 01225"]}, "phone": "+14137431591", "display_phone": "(413) 743-1591", "distance": 4744.407427965722}, {"id": "LsBWcjUV9pWHx18TFHmgxw", "alias": "deweys-public-house-dalton", "name": "Dewey's Public House", "image_url": "https://s3-media1.fl.yelpcdn.com/bphoto/IexiQnkl0NHDCGObVhW8QQ/o.jpg", "is_closed": false, "url": "https://www.yelp.com/biz/deweys-public-house-dalton?adjust_creative=h5HwbyQ0TYvQjBo6Ys5Bgw&utm_campaign=yelp_api_v3&utm_medium=api_v3_business_search&utm_source=h5HwbyQ0TYvQjBo6Ys5Bgw", "review_count": 17, "categories": [{"alias": "bars", "title": "Bars"}, {"alias": "tradamerican", "title": "American (Traditional)"}], "rating": 4.0, "coordinates": {"latitude": 42.4734917, "longitude": -73.156044}, "transactions": [], "price": "$$", "location": {"address1": "16 Depot St", "address2": "", "address3": "", "city": "Dalton", "zip_code": "01226", "country": "US", "state": "MA", "display_address": ["16 Depot St", "Dalton, MA 01226"]}, "phone": "+14136840900", "display_phone": "(413) 684-0900", "distance": 11683.294877285434}, {"id": "UtloTG5msKniX74Gll1GEw", "alias": "brooklyns-best-pittsfield", "name": "Brooklyn's Best", "image_url": "https://s3-media2.fl.yelpcdn.com/bphoto/D7moExjZjNntQ_t-RBRUaQ/o.jpg", "is_closed": false, "url": "https://www.yelp.com/biz/brooklyns-best-pittsfield?adjust_creative=h5HwbyQ0TYvQjBo6Ys5Bgw&utm_campaign=yelp_api_v3&utm_medium=api_v3_business_search&utm_source=h5HwbyQ0TYvQjBo6Ys5Bgw", "review_count": 20, "categories": [{"alias": "pizza", "title": "Pizza"}, {"alias": "italian", "title": "Italian"}], "rating": 4.0, "coordinates": {"latitude": 42.4491, "longitude": -73.2534}, "transactions": [], "price": "$$", "location": {"address1": "48 North St", "address2": "Unit A", "address3": null, "city": "Pittsfield", "zip_code": "01201", "country": "US", "state": "MA", "display_address": ["48 North St", "Unit A", "Pittsfield, MA 01201"]}, "phone": "+14132429050", "display_phone": "(413) 242-9050", "distance": 10040.044539678702}, {"id": "VPDBd1fuy7kp2tQ9cFlkgQ", "alias": "trattoria-rustica-pittsfield", "name": "Trattoria Rustica", "image_url": "https://s3-media1.fl.yelpcdn.com/bphoto/pGGZRqKuxQa3ODa3gWDIxQ/o.jpg", "is_closed": false, "url": "https://www.yelp.com/biz/trattoria-rustica-pittsfield?adjust_creative=h5HwbyQ0TYvQjBo6Ys5Bgw&utm_campaign=yelp_api_v3&utm_medium=api_v3_business_search&utm_source=h5HwbyQ0TYvQjBo6Ys5Bgw", "review_count": 77, "categories": [{"alias": "italian", "title": "Italian"}], "rating": 4.0, "coordinates": {"latitude": 42.449648597523, "longitude": -73.254720133583}, "transactions": ["delivery"], "price": "$$$", "location": {"address1": "27 McKay St", "address2": null, "address3": "", "city": "Pittsfield", "zip_code": "01201", "country": "US", "state": "MA", "display_address": ["27 McKay St", "Pittsfield, MA 01201"]}, "phone": "+14134991192", "display_phone": "(413) 499-1192", "distance": 9963.61272869931}, {"id": "QbDOsebLf7kr-VDWFmvokg", "alias": "flavours-of-malaysia-pittsfield", "name": "Flavours of Malaysia", "image_url": "https://s3-media1.fl.yelpcdn.com/bphoto/Rfxdg9pbecME0tkZnkLAEA/o.jpg", "is_closed": false, "url": "https://www.yelp.com/biz/flavours-of-malaysia-pittsfield?adjust_creative=h5HwbyQ0TYvQjBo6Ys5Bgw&utm_campaign=yelp_api_v3&utm_medium=api_v3_business_search&utm_source=h5HwbyQ0TYvQjBo6Ys5Bgw", "review_count": 204, "categories": [{"alias": "asianfusion", "title": "Asian Fusion"}, {"alias": "malaysian", "title": "Malaysian"}], "rating": 4.0, "coordinates": {"latitude": 42.449903, "longitude": -73.254548}, "transactions": ["delivery"], "price": "$$", "location": {"address1": "75 North St", "address2": null, "address3": null, "city": "Pittsfield", "zip_code": "01201", "country": "US", "state": "MA", "display_address": ["75 North St", "Pittsfield, MA 01201"]}, "phone": "+14134433188", "display_phone": "(413) 443-3188", "distance": 9937.025431928805}, {"id": "0rSgfMXjBgk03-qrGOQwtQ", "alias": "blueberry-hill-market-cafe-new-lebanon-2", "name": "Blueberry Hill Market Cafe", "image_url": "https://s3-media2.fl.yelpcdn.com/bphoto/fU5r4DylYKZ6hEVJUE3QzA/o.jpg", "is_closed": false, "url": "https://www.yelp.com/biz/blueberry-hill-market-cafe-new-lebanon-2?adjust_creative=h5HwbyQ0TYvQjBo6Ys5Bgw&utm_campaign=yelp_api_v3&utm_medium=api_v3_business_search&utm_source=h5HwbyQ0TYvQjBo6Ys5Bgw", "review_count": 221, "categories": [{"alias": "cafes", "title": "Cafes"}, {"alias": "breakfast_brunch", "title": "Breakfast & Brunch"}], "rating": 4.5, "coordinates": {"latitude": 42.4668169015835, "longitude": -73.3919996244814}, "transactions": [], "price": "$$", "location": {"address1": "515 State Route 20", "address2": "", "address3": "", "city": "New Lebanon", "zip_code": "12125", "country": "US", "state": "NY", "display_address": ["515 State Route 20", "New Lebanon, NY 12125"]}, "phone": "+15187942011", "display_phone": "(518) 794-2011", "distance": 12926.71438922874}, {"id": "EXx30QU0coEL_9svJPJwqw", "alias": "cims-tavern-pittsfield", "name": "Cim's Tavern", "image_url": "https://s3-media3.fl.yelpcdn.com/bphoto/CLgvUalKco1bW9an_6tTxA/o.jpg", "is_closed": false, "url": "https://www.yelp.com/biz/cims-tavern-pittsfield?adjust_creative=h5HwbyQ0TYvQjBo6Ys5Bgw&utm_campaign=yelp_api_v3&utm_medium=api_v3_business_search&utm_source=h5HwbyQ0TYvQjBo6Ys5Bgw", "review_count": 20, "categories": [{"alias": "tradamerican", "title": "American (Traditional)"}, {"alias": "sportsbars", "title": "Sports Bars"}], "rating": 4.0, "coordinates": {"latitude": 42.4491653442383, "longitude": -73.244987487793}, "transactions": ["delivery"], "price": "$", "location": {"address1": "429 Fenn St", "address2": "", "address3": "", "city": "Pittsfield", "zip_code": "01201", "country": "US", "state": "MA", "display_address": ["429 Fenn St", "Pittsfield, MA 01201"]}, "phone": "+14134429430", "display_phone": "(413) 442-9430", "distance": 10137.084506387779}, {"id": "F1IYEjGBvRMUoCPk_CEQqA", "alias": "lakeside-bar-and-grill-lanesborough-2", "name": "Lakeside Bar & Grill", "image_url": "https://s3-media2.fl.yelpcdn.com/bphoto/xIgscHTIQ5ndaboqUOazcA/o.jpg", "is_closed": false, "url": "https://www.yelp.com/biz/lakeside-bar-and-grill-lanesborough-2?adjust_creative=h5HwbyQ0TYvQjBo6Ys5Bgw&utm_campaign=yelp_api_v3&utm_medium=api_v3_business_search&utm_source=h5HwbyQ0TYvQjBo6Ys5Bgw", "review_count": 20, "categories": [{"alias": "seafood", "title": "Seafood"}, {"alias": "tradamerican", "title": "American (Traditional)"}, {"alias": "bars", "title": "Bars"}], "rating": 2.5, "coordinates": {"latitude": 42.49434, "longitude": -73.23849}, "transactions": ["pickup", "delivery"], "location": {"address1": "750 S Main St", "address2": "", "address3": null, "city": "Lanesborough", "zip_code": "01237", "country": "US", "state": "MA", "display_address": ["750 S Main St", "Lanesborough, MA 01237"]}, "phone": "+14134479780", "display_phone": "(413) 447-9780", "distance": 5475.869658262489}, {"id": "wzSu93NPvW0DiSXABoAM8w", "alias": "methuselah-bar-and-lounge-pittsfield", "name": "Methuselah Bar and Lounge", "image_url": "https://s3-media2.fl.yelpcdn.com/bphoto/iZxRn6irr7IdDvV5mkCRtw/o.jpg", "is_closed": false, "url": "https://www.yelp.com/biz/methuselah-bar-and-lounge-pittsfield?adjust_creative=h5HwbyQ0TYvQjBo6Ys5Bgw&utm_campaign=yelp_api_v3&utm_medium=api_v3_business_search&utm_source=h5HwbyQ0TYvQjBo6Ys5Bgw", "review_count": 57, "categories": [{"alias": "lounges", "title": "Lounges"}, {"alias": "tacos", "title": "Tacos"}, {"alias": "tapas", "title": "Tapas Bars"}], "rating": 4.0, "coordinates": {"latitude": 42.4542253216836, "longitude": -73.2525427266955}, "transactions": ["pickup", "delivery"], "price": "$$", "location": {"address1": "391 N St", "address2": "", "address3": "", "city": "Pittsfield", "zip_code": "01201", "country": "US", "state": "MA", "display_address": ["391 N St", "Pittsfield, MA 01201"]}, "phone": "+14133472888", "display_phone": "(413) 347-2888", "distance": 9479.760670549316}, {"id": "5fGDL6__gYOZ3aEqUrnprA", "alias": "dalton-restaurant-dalton", "name": "Dalton Restaurant", "image_url": "https://s3-media3.fl.yelpcdn.com/bphoto/s2zuMPhQulG1TNyWx1EfAg/o.jpg", "is_closed": false, "url": "https://www.yelp.com/biz/dalton-restaurant-dalton?adjust_creative=h5HwbyQ0TYvQjBo6Ys5Bgw&utm_campaign=yelp_api_v3&utm_medium=api_v3_business_search&utm_source=h5HwbyQ0TYvQjBo6Ys5Bgw", "review_count": 12, "categories": [{"alias": "diners", "title": "Diners"}], "rating": 4.0, "coordinates": {"latitude": 42.4734982, "longitude": -73.1721344}, "transactions": ["delivery"], "price": "$", "location": {"address1": "401 Main St", "address2": "", "address3": "", "city": "Dalton", "zip_code": "01226", "country": "US", "state": "MA", "display_address": ["401 Main St", "Dalton, MA 01226"]}, "phone": "+14136840414", "display_phone": "(413) 684-0414", "distance": 10682.899581640253}, {"id": "-hkuDHIQGUQ6Zm0KoVyRVA", "alias": "friends-grille-pittsfield", "name": "Friends Grille", "image_url": "https://s3-media4.fl.yelpcdn.com/bphoto/68BujOlXTppe2jtmefgkDw/o.jpg", "is_closed": false, "url": "https://www.yelp.com/biz/friends-grille-pittsfield?adjust_creative=h5HwbyQ0TYvQjBo6Ys5Bgw&utm_campaign=yelp_api_v3&utm_medium=api_v3_business_search&utm_source=h5HwbyQ0TYvQjBo6Ys5Bgw", "review_count": 5, "categories": [{"alias": "pizza", "title": "Pizza"}, {"alias": "sportsbars", "title": "Sports Bars"}, {"alias": "tradamerican", "title": "American (Traditional)"}], "rating": 4.5, "coordinates": {"latitude": 42.4595794677734, "longitude": -73.2519683837891}, "transactions": ["delivery"], "price": "$", "location": {"address1": "117 Seymour St", "address2": "", "address3": "", "city": "Pittsfield", "zip_code": "01201", "country": "US", "state": "MA", "display_address": ["117 Seymour St", "Pittsfield, MA 01201"]}, "phone": "+14134434477", "display_phone": "(413) 443-4477", "distance": 8896.725940583618}, {"id": "cKpIqb_TbrhsbsmVrCfm2A", "alias": "pizza-plus-stephentown-3", "name": "Pizza Plus", "image_url": "https://s3-media1.fl.yelpcdn.com/bphoto/p42N52HlVdlhLOwCaUcxPw/o.jpg", "is_closed": false, "url": "https://www.yelp.com/biz/pizza-plus-stephentown-3?adjust_creative=h5HwbyQ0TYvQjBo6Ys5Bgw&utm_campaign=yelp_api_v3&utm_medium=api_v3_business_search&utm_source=h5HwbyQ0TYvQjBo6Ys5Bgw", "review_count": 17, "categories": [{"alias": "pizza", "title": "Pizza"}], "rating": 3.0, "coordinates": {"latitude": 42.5555385, "longitude": -73.3744679}, "transactions": [], "price": "$$", "location": {"address1": "16043 Ny 22", "address2": "", "address3": "", "city": "Stephentown", "zip_code": "12168", "country": "US", "state": "NY", "display_address": ["16043 Ny 22", "Stephentown, NY 12168"]}, "phone": "+15187335555", "display_phone": "(518) 733-5555", "distance": 8934.022511145617}, {"id": "z0vWz6V94oaz4v9rKh3zdA", "alias": "bobs-country-kitchen-lanesborough", "name": "Bob's Country Kitchen", "image_url": "https://s3-media4.fl.yelpcdn.com/bphoto/Q6sjTVlnOlV8cLvEYUYeWQ/o.jpg", "is_closed": false, "url": "https://www.yelp.com/biz/bobs-country-kitchen-lanesborough?adjust_creative=h5HwbyQ0TYvQjBo6Ys5Bgw&utm_campaign=yelp_api_v3&utm_medium=api_v3_business_search&utm_source=h5HwbyQ0TYvQjBo6Ys5Bgw", "review_count": 84, "categories": [{"alias": "breakfast_brunch", "title": "Breakfast & Brunch"}, {"alias": "diners", "title": "Diners"}], "rating": 3.5, "coordinates": {"latitude": 42.51619, "longitude": -73.22827}, "transactions": [], "price": "$$", "location": {"address1": "42 S Main St", "address2": "", "address3": "", "city": "Lanesborough", "zip_code": "01237", "country": "US", "state": "MA", "display_address": ["42 S Main St", "Lanesborough, MA 01237"]}, "phone": "+14134993934", "display_phone": "(413) 499-3934", "distance": 4110.86339512595}, {"id": "N__y-HScFV08c6Hqs0U_BA", "alias": "eat-on-north-pittsfield", "name": "Eat on North", "image_url": "https://s3-media3.fl.yelpcdn.com/bphoto/FemTnXD2uVJEHK8gMjT6tg/o.jpg", "is_closed": false, "url": "https://www.yelp.com/biz/eat-on-north-pittsfield?adjust_creative=h5HwbyQ0TYvQjBo6Ys5Bgw&utm_campaign=yelp_api_v3&utm_medium=api_v3_business_search&utm_source=h5HwbyQ0TYvQjBo6Ys5Bgw", "review_count": 97, "categories": [{"alias": "newamerican", "title": "American (New)"}, {"alias": "bars", "title": "Bars"}, {"alias": "breakfast_brunch", "title": "Breakfast & Brunch"}], "rating": 3.5, "coordinates": {"latitude": 42.452699, "longitude": -73.253238}, "transactions": ["delivery"], "price": "$$", "location": {"address1": "297 North St", "address2": "", "address3": "", "city": "Pittsfield", "zip_code": "01201", "country": "US", "state": "MA", "display_address": ["297 North St", "Pittsfield, MA 01201"]}, "phone": "+14135534210", "display_phone": "(413) 553-4210", "distance": 9649.245555357664}, {"id": "S_NIgGNygGNQHUE0X4IkVw", "alias": "highland-restaurant-pittsfield", "name": "Highland Restaurant", "image_url": "https://s3-media2.fl.yelpcdn.com/bphoto/ZGfcnSA20to4zy-6Xwgiew/o.jpg", "is_closed": false, "url": "https://www.yelp.com/biz/highland-restaurant-pittsfield?adjust_creative=h5HwbyQ0TYvQjBo6Ys5Bgw&utm_campaign=yelp_api_v3&utm_medium=api_v3_business_search&utm_source=h5HwbyQ0TYvQjBo6Ys5Bgw", "review_count": 34, "categories": [{"alias": "italian", "title": "Italian"}], "rating": 3.5, "coordinates": {"latitude": 42.4497, "longitude": -73.25133}, "transactions": ["delivery"], "price": "$$", "location": {"address1": "100 Fenn St", "address2": "", "address3": "", "city": "Pittsfield", "zip_code": "01201", "country": "US", "state": "MA", "display_address": ["100 Fenn St", "Pittsfield, MA 01201"]}, "phone": "+14134422457", "display_phone": "(413) 442-2457", "distance": 9988.86713978227}, {"id": "tfn2l3JmYsqoUyvCM6a2SQ", "alias": "marios-restaurant-new-lebanon-3", "name": "Mario's Restaurant", "image_url": "https://s3-media3.fl.yelpcdn.com/bphoto/1OdTIGaAAh_-JGcwXjZDdw/o.jpg", "is_closed": false, "url": "https://www.yelp.com/biz/marios-restaurant-new-lebanon-3?adjust_creative=h5HwbyQ0TYvQjBo6Ys5Bgw&utm_campaign=yelp_api_v3&utm_medium=api_v3_business_search&utm_source=h5HwbyQ0TYvQjBo6Ys5Bgw", "review_count": 41, "categories": [{"alias": "italian", "title": "Italian"}, {"alias": "newamerican", "title": "American (New)"}, {"alias": "vegetarian", "title": "Vegetarian"}], "rating": 4.5, "coordinates": {"latitude": 42.464149, "longitude": -73.396662}, "transactions": [], "price": "$$$", "location": {"address1": "22 State Rte 20", "address2": "", "address3": "", "city": "New Lebanon", "zip_code": "12125", "country": "US", "state": "NY", "display_address": ["22 State Rte 20", "New Lebanon, NY 12125"]}, "phone": "+15187949495", "display_phone": "(518) 794-9495", "distance": 13428.960791615416}, {"id": "WpF2gHsX2rjlTGj-ohGkNA", "alias": "the-garden-grill-and-tavern-lanesborough", "name": "The Garden Grill & Tavern", "image_url": "https://s3-media2.fl.yelpcdn.com/bphoto/hqhdVQJQNlR6bAOyEy9dKg/o.jpg", "is_closed": false, "url": "https://www.yelp.com/biz/the-garden-grill-and-tavern-lanesborough?adjust_creative=h5HwbyQ0TYvQjBo6Ys5Bgw&utm_campaign=yelp_api_v3&utm_medium=api_v3_business_search&utm_source=h5HwbyQ0TYvQjBo6Ys5Bgw", "review_count": 12, "categories": [{"alias": "tradamerican", "title": "American (Traditional)"}], "rating": 2.0, "coordinates": {"latitude": 42.4936729, "longitude": -73.2017712}, "transactions": [], "price": "$$", "location": {"address1": "655 Cheshire Rd", "address2": "", "address3": "Berkshire Mal", "city": "Lanesborough", "zip_code": "01237", "country": "US", "state": "MA", "display_address": ["655 Cheshire Rd", "Berkshire Mal", "Lanesborough, MA 01237"]}, "phone": "+14134455300", "display_phone": "(413) 445-5300", "distance": 7376.265495890878}, {"id": "1vSpetXLeZnGEI-16WVUog", "alias": "the-brookhouse-sports-pub-and-restaurant-lanesborough", "name": "The Brookhouse Sports Pub & Restaurant", "image_url": "https://s3-media2.fl.yelpcdn.com/bphoto/U2Xz6KkR-gdwLE7XheFJAg/o.jpg", "is_closed": false, "url": "https://www.yelp.com/biz/the-brookhouse-sports-pub-and-restaurant-lanesborough?adjust_creative=h5HwbyQ0TYvQjBo6Ys5Bgw&utm_campaign=yelp_api_v3&utm_medium=api_v3_business_search&utm_source=h5HwbyQ0TYvQjBo6Ys5Bgw", "review_count": 18, "categories": [{"alias": "sportsbars", "title": "Sports Bars"}, {"alias": "tradamerican", "title": "American (Traditional)"}], "rating": 3.0, "coordinates": {"latitude": 42.492263, "longitude": -73.202163}, "transactions": ["delivery"], "price": "$$", "location": {"address1": "650 Chesire Rd", "address2": "", "address3": "", "city": "Lanesborough", "zip_code": "01237", "country": "US", "state": "MA", "display_address": ["650 Chesire Rd", "Lanesborough, MA 01237"]}, "phone": "+14134993331", "display_phone": "(413) 499-3331", "distance": 7440.23309694866}, {"id": "5drtlSos0Ek4-IvUn3vtVg", "alias": "marias-european-delights-pittsfield", "name": "Maria's European Delights", "image_url": "https://s3-media1.fl.yelpcdn.com/bphoto/T-OcmgD59df0jO7GerM3Cw/o.jpg", "is_closed": false, "url": "https://www.yelp.com/biz/marias-european-delights-pittsfield?adjust_creative=h5HwbyQ0TYvQjBo6Ys5Bgw&utm_campaign=yelp_api_v3&utm_medium=api_v3_business_search&utm_source=h5HwbyQ0TYvQjBo6Ys5Bgw", "review_count": 8, "categories": [{"alias": "delis", "title": "Delis"}, {"alias": "grocery", "title": "Grocery"}], "rating": 5.0, "coordinates": {"latitude": 42.450717, "longitude": -73.2527099}, "transactions": ["delivery"], "location": {"address1": "146 North St", "address2": "", "address3": "", "city": "Pittsfield", "zip_code": "01201", "country": "US", "state": "MA", "display_address": ["146 North St", "Pittsfield, MA 01201"]}, "phone": "+14134425100", "display_phone": "(413) 442-5100", "distance": 9864.854934686145}, {"id": "5CXWAMF6RsmDg5MFMpMkCg", "alias": "romans-restaurant-and-ccuchifritos-pittsfield", "name": "Romans Restaurant and Ccuchifritos", "image_url": "https://s3-media1.fl.yelpcdn.com/bphoto/EE3xiWqHbUl5Ou_W3H1SBg/o.jpg", "is_closed": false, "url": "https://www.yelp.com/biz/romans-restaurant-and-ccuchifritos-pittsfield?adjust_creative=h5HwbyQ0TYvQjBo6Ys5Bgw&utm_campaign=yelp_api_v3&utm_medium=api_v3_business_search&utm_source=h5HwbyQ0TYvQjBo6Ys5Bgw", "review_count": 7, "categories": [{"alias": "puertorican", "title": "Puerto Rican"}, {"alias": "salad", "title": "Salad"}], "rating": 3.5, "coordinates": {"latitude": 42.4570997226981, "longitude": -73.2401690259576}, "transactions": ["pickup", "delivery"], "location": {"address1": "496 Tyler St", "address2": "", "address3": null, "city": "Pittsfield", "zip_code": "01201", "country": "US", "state": "MA", "display_address": ["496 Tyler St", "Pittsfield, MA 01201"]}, "phone": "+14133449166", "display_phone": "(413) 344-9166", "distance": 9355.8501610384}, {"id": "O7MPn_Uo1M1t6AR3zccRow", "alias": "the-spot-pittsfield", "name": "The Spot", "image_url": "https://s3-media2.fl.yelpcdn.com/bphoto/7FULniBvy4K903dIIwnJCA/o.jpg", "is_closed": false, "url": "https://www.yelp.com/biz/the-spot-pittsfield?adjust_creative=h5HwbyQ0TYvQjBo6Ys5Bgw&utm_campaign=yelp_api_v3&utm_medium=api_v3_business_search&utm_source=h5HwbyQ0TYvQjBo6Ys5Bgw", "review_count": 10, "categories": [{"alias": "acaibowls", "title": "Acai Bowls"}, {"alias": "juicebars", "title": "Juice Bars & Smoothies"}, {"alias": "vegan", "title": "Vegan"}], "rating": 5.0, "coordinates": {"latitude": 42.4577047648292, "longitude": -73.2419114559889}, "transactions": ["delivery"], "location": {"address1": "381 Tyler St", "address2": "", "address3": null, "city": "Pittsfield", "zip_code": "01201", "country": "US", "state": "MA", "display_address": ["381 Tyler St", "Pittsfield, MA 01201"]}, "phone": "+14133444128", "display_phone": "(413) 344-4128", "distance": 9256.76718543694}, {"id": "6nTQ0bwWViNAKMD-mG645w", "alias": "titos-mexican-grill-pittsfield", "name": "Tito's Mexican Grill", "image_url": "https://s3-media3.fl.yelpcdn.com/bphoto/UG6sk3_G3wDB-5l4kqZXFQ/o.jpg", "is_closed": false, "url": "https://www.yelp.com/biz/titos-mexican-grill-pittsfield?adjust_creative=h5HwbyQ0TYvQjBo6Ys5Bgw&utm_campaign=yelp_api_v3&utm_medium=api_v3_business_search&utm_source=h5HwbyQ0TYvQjBo6Ys5Bgw", "review_count": 64, "categories": [{"alias": "mexican", "title": "Mexican"}, {"alias": "salad", "title": "Salad"}, {"alias": "seafood", "title": "Seafood"}], "rating": 3.5, "coordinates": {"latitude": 42.4507595, "longitude": -73.2542174}, "transactions": ["delivery"], "price": "$$", "location": {"address1": "34 Depot St", "address2": "", "address3": null, "city": "Pittsfield", "zip_code": "01201", "country": "US", "state": "MA", "display_address": ["34 Depot St", "Pittsfield, MA 01201"]}, "phone": "+14134649468", "display_phone": "(413) 464-9468", "distance": 9845.398791774915}, {"id": "_4k5a9V9p6oDd0h8kCJbgg", "alias": "zuccos-family-restaurant-pittsfield", "name": "Zucco's Family Restaurant", "image_url": "https://s3-media3.fl.yelpcdn.com/bphoto/8kDDvVuGiEDPXeMZBNEPXA/o.jpg", "is_closed": false, "url": "https://www.yelp.com/biz/zuccos-family-restaurant-pittsfield?adjust_creative=h5HwbyQ0TYvQjBo6Ys5Bgw&utm_campaign=yelp_api_v3&utm_medium=api_v3_business_search&utm_source=h5HwbyQ0TYvQjBo6Ys5Bgw", "review_count": 24, "categories": [{"alias": "mediterranean", "title": "Mediterranean"}, {"alias": "italian", "title": "Italian"}, {"alias": "gluten_free", "title": "Gluten-Free"}], "rating": 3.0, "coordinates": {"latitude": 42.4633698981432, "longitude": -73.2147974686028}, "transactions": ["pickup", "delivery"], "price": "$$", "location": {"address1": "451 Dalton Ave", "address2": "", "address3": "", "city": "Pittsfield", "zip_code": "01201", "country": "US", "state": "MA", "display_address": ["451 Dalton Ave", "Pittsfield, MA 01201"]}, "phone": "+14134438112", "display_phone": "(413) 443-8112", "distance": 9440.189204807773}, {"id": "IaXoc2JQs-4CYd3P2YA6FA", "alias": "o-laughlins-restaurant-pittsfield", "name": "O'laughlin's Restaurant", "image_url": "https://s3-media4.fl.yelpcdn.com/bphoto/kt_rEUI0423gfdSTtKxL_g/o.jpg", "is_closed": false, "url": "https://www.yelp.com/biz/o-laughlins-restaurant-pittsfield?adjust_creative=h5HwbyQ0TYvQjBo6Ys5Bgw&utm_campaign=yelp_api_v3&utm_medium=api_v3_business_search&utm_source=h5HwbyQ0TYvQjBo6Ys5Bgw", "review_count": 2, "categories": [{"alias": "tradamerican", "title": "American (Traditional)"}, {"alias": "irish_pubs", "title": "Irish Pub"}], "rating": 4.0, "coordinates": {"latitude": 42.4568138122559, "longitude": -73.212158203125}, "transactions": ["delivery"], "location": {"address1": "342 Merrill Rd", "address2": "", "address3": "", "city": "Pittsfield", "zip_code": "01201", "country": "US", "state": "MA", "display_address": ["342 Merrill Rd", "Pittsfield, MA 01201"]}, "phone": "+14134479507", "display_phone": "(413) 447-9507", "distance": 10188.243666303288}, {"id": "WA3AjbPkZAy1V5ytokIrAQ", "alias": "hot-dog-ranch-pittsfield", "name": "Hot Dog Ranch", "image_url": "https://s3-media1.fl.yelpcdn.com/bphoto/S_hO2aJxj2YR4ZkjRCycJQ/o.jpg", "is_closed": false, "url": "https://www.yelp.com/biz/hot-dog-ranch-pittsfield?adjust_creative=h5HwbyQ0TYvQjBo6Ys5Bgw&utm_campaign=yelp_api_v3&utm_medium=api_v3_business_search&utm_source=h5HwbyQ0TYvQjBo6Ys5Bgw", "review_count": 43, "categories": [{"alias": "hotdog", "title": "Hot Dogs"}], "rating": 3.5, "coordinates": {"latitude": 42.4441632, "longitude": -73.2606906}, "transactions": ["delivery"], "price": "$", "location": {"address1": "114 W Housatonic St", "address2": "", "address3": "", "city": "Pittsfield", "zip_code": "01201", "country": "US", "state": "MA", "display_address": ["114 W Housatonic St", "Pittsfield, MA 01201"]}, "phone": "+14134990055", "display_phone": "(413) 499-0055", "distance": 10531.727496149451}, {"id": "HtGs8PlVveQGveMNfdLEDA", "alias": "hermanns-restaurant-pittsfield", "name": "Hermann's Restaurant", "image_url": "", "is_closed": false, "url": "https://www.yelp.com/biz/hermanns-restaurant-pittsfield?adjust_creative=h5HwbyQ0TYvQjBo6Ys5Bgw&utm_campaign=yelp_api_v3&utm_medium=api_v3_business_search&utm_source=h5HwbyQ0TYvQjBo6Ys5Bgw", "review_count": 1, "categories": [{"alias": "tradamerican", "title": "American (Traditional)"}], "rating": 5.0, "coordinates": {"latitude": 42.4483213, "longitude": -73.2384886}, "transactions": [], "location": {"address1": "24 Lyman St", "address2": "", "address3": "", "city": "Pittsfield", "zip_code": "01201", "country": "US", "state": "MA", "display_address": ["24 Lyman St", "Pittsfield, MA 01201"]}, "phone": "+14134439859", "display_phone": "(413) 443-9859", "distance": 10383.952652855634}, {"id": "qp_z-BkrY0rQyK-8tCsICg", "alias": "house-of-india-pittsfield", "name": "House of India", "image_url": "https://s3-media1.fl.yelpcdn.com/bphoto/Xon56vXNA329CPdB9s4I3g/o.jpg", "is_closed": false, "url": "https://www.yelp.com/biz/house-of-india-pittsfield?adjust_creative=h5HwbyQ0TYvQjBo6Ys5Bgw&utm_campaign=yelp_api_v3&utm_medium=api_v3_business_search&utm_source=h5HwbyQ0TYvQjBo6Ys5Bgw", "review_count": 49, "categories": [{"alias": "indpak", "title": "Indian"}, {"alias": "salad", "title": "Salad"}, {"alias": "seafood", "title": "Seafood"}], "rating": 3.5, "coordinates": {"latitude": 42.4522856, "longitude": -73.253047}, "transactions": ["delivery"], "price": "$$", "location": {"address1": "261 North St", "address2": "", "address3": "", "city": "Pittsfield", "zip_code": "01201", "country": "US", "state": "MA", "display_address": ["261 North St", "Pittsfield, MA 01201"]}, "phone": "+14134433262", "display_phone": "(413) 443-3262", "distance": 9681.337439482715}, {"id": "zfMgkBaSVR9KucqK1mmkOg", "alias": "jacobs-restaurant-dalton", "name": "Jacob's Restaurant", "image_url": "https://s3-media3.fl.yelpcdn.com/bphoto/70XUhQbB7N2n7moFQ37NaA/o.jpg", "is_closed": false, "url": "https://www.yelp.com/biz/jacobs-restaurant-dalton?adjust_creative=h5HwbyQ0TYvQjBo6Ys5Bgw&utm_campaign=yelp_api_v3&utm_medium=api_v3_business_search&utm_source=h5HwbyQ0TYvQjBo6Ys5Bgw", "review_count": 11, "categories": [{"alias": "restaurants", "title": "Restaurants"}], "rating": 3.0, "coordinates": {"latitude": 42.47424, "longitude": -73.16418}, "transactions": [], "price": "$", "location": {"address1": "51 Daly Ave", "address2": "", "address3": "", "city": "Dalton", "zip_code": "01226", "country": "US", "state": "MA", "display_address": ["51 Daly Ave", "Dalton, MA 01226"]}, "phone": "+14136849766", "display_phone": "(413) 684-9766", "distance": 11111.526077417551}, {"id": "Oj3t1oGqak2dxj6_WaehzA", "alias": "sideline-saloon-pittsfield-2", "name": "Sideline Saloon", "image_url": "https://s3-media3.fl.yelpcdn.com/bphoto/Wun5JrsjfMoLwAFvcTO4nw/o.jpg", "is_closed": false, "url": "https://www.yelp.com/biz/sideline-saloon-pittsfield-2?adjust_creative=h5HwbyQ0TYvQjBo6Ys5Bgw&utm_campaign=yelp_api_v3&utm_medium=api_v3_business_search&utm_source=h5HwbyQ0TYvQjBo6Ys5Bgw", "review_count": 1, "categories": [{"alias": "cocktailbars", "title": "Cocktail Bars"}, {"alias": "diners", "title": "Diners"}], "rating": 5.0, "coordinates": {"latitude": 42.4491628888418, "longitude": -73.2464299723506}, "transactions": [], "location": {"address1": "423 Fenn St", "address2": "", "address3": "", "city": "Pittsfield", "zip_code": "01201", "country": "US", "state": "MA", "display_address": ["423 Fenn St", "Pittsfield, MA 01201"]}, "phone": "+14134997337", "display_phone": "(413) 499-7337", "distance": 10112.803240409392}, {"id": "dTPRhcx8OZw-LhH1wlGuoQ", "alias": "koto-hibachi-steak-house-pittsfield", "name": "Koto Hibachi Steak House", "image_url": "https://s3-media1.fl.yelpcdn.com/bphoto/PC1JPjHBxzdpIZ5uDnjRpQ/o.jpg", "is_closed": false, "url": "https://www.yelp.com/biz/koto-hibachi-steak-house-pittsfield?adjust_creative=ywY5UnLZrNrRl2b93Ruy_g&utm_campaign=yelp_api_v3&utm_medium=api_v3_business_search&utm_source=ywY5UnLZrNrRl2b93Ruy_g", "review_count": 50, "categories": [{"alias": "sushi", "title": "Sushi Bars"}, {"alias": "japanese", "title": "Japanese"}, {"alias": "steak", "title": "Steakhouses"}], "rating": 3.0, "coordinates": {"latitude": 42.4674977, "longitude": -73.2051329}, "transactions": ["delivery"], "price": "$$", "location": {"address1": "795 Dalton Ave", "address2": "", "address3": "", "city": "Pittsfield", "zip_code": "01201", "country": "US", "state": "MA", "display_address": ["795 Dalton Ave", "Pittsfield, MA 01201"]}, "phone": "+14137707128", "display_phone": "(413) 770-7128", "distance": 9441.905608286097}, {"id": "cMHs-6paMHbDormhEF4qCw", "alias": "rainbow-restaurant-pittsfield", "name": "Rainbow Restaurant", "image_url": "https://s3-media2.fl.yelpcdn.com/bphoto/67Rxk3RUyV81M7VtXkAYAw/o.jpg", "is_closed": false, "url": "https://www.yelp.com/biz/rainbow-restaurant-pittsfield?adjust_creative=ywY5UnLZrNrRl2b93Ruy_g&utm_campaign=yelp_api_v3&utm_medium=api_v3_business_search&utm_source=ywY5UnLZrNrRl2b93Ruy_g", "review_count": 26, "categories": [{"alias": "italian", "title": "Italian"}, {"alias": "pizza", "title": "Pizza"}, {"alias": "sandwiches", "title": "Sandwiches"}], "rating": 3.5, "coordinates": {"latitude": 42.4515011161566, "longitude": -73.2502879947424}, "transactions": ["delivery", "pickup"], "price": "$$", "location": {"address1": "109 First St", "address2": null, "address3": null, "city": "Pittsfield", "zip_code": "01201", "country": "US", "state": "MA", "display_address": ["109 First St", "Pittsfield, MA 01201"]}, "phone": "+14134430002", "display_phone": "(413) 443-0002", "distance": 9772.26575061171}, {"id": "b5dwwLNwKstRwY78mxS0nQ", "alias": "hinsdale-trading-company-hinsdale", "name": "Hinsdale Trading Company", "image_url": "https://s3-media1.fl.yelpcdn.com/bphoto/HpL6CkqF7IWTTOzbUp6WWA/o.jpg", "is_closed": false, "url": "https://www.yelp.com/biz/hinsdale-trading-company-hinsdale?adjust_creative=ywY5UnLZrNrRl2b93Ruy_g&utm_campaign=yelp_api_v3&utm_medium=api_v3_business_search&utm_source=ywY5UnLZrNrRl2b93Ruy_g", "review_count": 2, "categories": [{"alias": "pizza", "title": "Pizza"}, {"alias": "sandwiches", "title": "Sandwiches"}], "rating": 4.0, "coordinates": {"latitude": 42.4469440430403, "longitude": -73.1244655698538}, "transactions": [], "location": {"address1": "371 Old Dalton Rd", "address2": "", "address3": "", "city": "Hinsdale", "zip_code": "01235", "country": "US", "state": "MA", "display_address": ["371 Old Dalton Rd", "Hinsdale, MA 01235"]}, "phone": "+14136550161", "display_phone": "(413) 655-0161", "distance": 15214.700810347675}, {"id": "1J02t_gsLt_Rq2x0xPOzzg", "alias": "vivaldis-pizzeria-pittsfield", "name": "Vivaldi's Pizzeria", "image_url": "https://s3-media1.fl.yelpcdn.com/bphoto/4qvGd-y7a3vrDYNcI4-Cmw/o.jpg", "is_closed": false, "url": "https://www.yelp.com/biz/vivaldis-pizzeria-pittsfield?adjust_creative=ywY5UnLZrNrRl2b93Ruy_g&utm_campaign=yelp_api_v3&utm_medium=api_v3_business_search&utm_source=ywY5UnLZrNrRl2b93Ruy_g", "review_count": 32, "categories": [{"alias": "italian", "title": "Italian"}, {"alias": "pizza", "title": "Pizza"}, {"alias": "salad", "title": "Salad"}], "rating": 4.0, "coordinates": {"latitude": 42.46832, "longitude": -73.2038}, "transactions": ["delivery"], "price": "$", "location": {"address1": "5 Cheshire Rd", "address2": "", "address3": null, "city": "Pittsfield", "zip_code": "01201", "country": "US", "state": "MA", "display_address": ["5 Cheshire Rd", "Pittsfield, MA 01201"]}, "phone": "+14132365633", "display_phone": "(413) 236-5633", "distance": 9214.1095640571}, {"id": "Ueg3DJxVNy2eTK4eqTReCQ", "alias": "panchos-mexican-restaurant-pittsfield", "name": "Panchos Mexican Restaurant", "image_url": "https://s3-media2.fl.yelpcdn.com/bphoto/dEgcAH4eH1WgDsVZJRWtVg/o.jpg", "is_closed": false, "url": "https://www.yelp.com/biz/panchos-mexican-restaurant-pittsfield?adjust_creative=ywY5UnLZrNrRl2b93Ruy_g&utm_campaign=yelp_api_v3&utm_medium=api_v3_business_search&utm_source=ywY5UnLZrNrRl2b93Ruy_g", "review_count": 82, "categories": [{"alias": "mexican", "title": "Mexican"}], "rating": 3.5, "coordinates": {"latitude": 42.4508775, "longitude": -73.2530541}, "transactions": ["delivery"], "price": "$$", "location": {"address1": "154 North St", "address2": "", "address3": "", "city": "Pittsfield", "zip_code": "01201", "country": "US", "state": "MA", "display_address": ["154 North St", "Pittsfield, MA 01201"]}, "phone": "+14134992266", "display_phone": "(413) 499-2266", "distance": 9843.638492173515}, {"id": "HdqIODZiSRUzJ7WHfQepjw", "alias": "teos-hot-dogs-pittsfield", "name": "Teo's Hot Dogs", "image_url": "https://s3-media3.fl.yelpcdn.com/bphoto/IO73zBPj6a3UkTo4HDDjFA/o.jpg", "is_closed": false, "url": "https://www.yelp.com/biz/teos-hot-dogs-pittsfield?adjust_creative=ywY5UnLZrNrRl2b93Ruy_g&utm_campaign=yelp_api_v3&utm_medium=api_v3_business_search&utm_source=ywY5UnLZrNrRl2b93Ruy_g", "review_count": 108, "categories": [{"alias": "hotdog", "title": "Hot Dogs"}, {"alias": "bars", "title": "Bars"}], "rating": 4.0, "coordinates": {"latitude": 42.4539231, "longitude": -73.2175222}, "transactions": ["delivery", "pickup"], "price": "$", "location": {"address1": "1410 East St", "address2": "", "address3": "", "city": "Pittsfield", "zip_code": "01201", "country": "US", "state": "MA", "display_address": ["1410 East St", "Pittsfield, MA 01201"]}, "phone": "+14134479592", "display_phone": "(413) 447-9592", "distance": 10292.517298474351}, {"id": "PXjxZjO1oGol0bsaDNmV-Q", "alias": "sen-sushi-pittsfield", "name": "Sen Sushi", "image_url": "https://s3-media3.fl.yelpcdn.com/bphoto/O8cbrAl2zzXQqee_3SGYqw/o.jpg", "is_closed": false, "url": "https://www.yelp.com/biz/sen-sushi-pittsfield?adjust_creative=ywY5UnLZrNrRl2b93Ruy_g&utm_campaign=yelp_api_v3&utm_medium=api_v3_business_search&utm_source=ywY5UnLZrNrRl2b93Ruy_g", "review_count": 8, "categories": [{"alias": "sushi", "title": "Sushi Bars"}, {"alias": "japanese", "title": "Japanese"}], "rating": 4.0, "coordinates": {"latitude": 42.4490299853721, "longitude": -73.2536453621473}, "transactions": ["delivery"], "location": {"address1": "48B N St", "address2": "", "address3": null, "city": "Pittsfield", "zip_code": "01201", "country": "US", "state": "MA", "display_address": ["48B N St", "Pittsfield, MA 01201"]}, "phone": "+14132368111", "display_phone": "(413) 236-8111", "distance": 10041.819703005942}, {"id": "W5mDQx_2NBwOFeFy2N6M8A", "alias": "the-lantern-bar-and-grill-pittsfield", "name": "The Lantern Bar & Grill", "image_url": "https://s3-media3.fl.yelpcdn.com/bphoto/Nqvaw5Ysth6P3e26Endz3A/o.jpg", "is_closed": false, "url": "https://www.yelp.com/biz/the-lantern-bar-and-grill-pittsfield?adjust_creative=ywY5UnLZrNrRl2b93Ruy_g&utm_campaign=yelp_api_v3&utm_medium=api_v3_business_search&utm_source=ywY5UnLZrNrRl2b93Ruy_g", "review_count": 55, "categories": [{"alias": "bars", "title": "Bars"}, {"alias": "newamerican", "title": "American (New)"}, {"alias": "tradamerican", "title": "American (Traditional)"}], "rating": 3.5, "coordinates": {"latitude": 42.4551194, "longitude": -73.2521345}, "transactions": ["delivery"], "price": "$$", "location": {"address1": "455 North St", "address2": "", "address3": "", "city": "Pittsfield", "zip_code": "01201", "country": "US", "state": "MA", "display_address": ["455 North St", "Pittsfield, MA 01201"]}, "phone": "+14133449227", "display_phone": "(413) 344-9227", "distance": 9371.169918837115}, {"id": "egLCj5yl7BlrQjj9X8EwMw", "alias": "tahiti-take-out-restaurant-and-lounge-pittsfield", "name": "Tahiti Take Out Restaurant & Lounge", "image_url": "https://s3-media2.fl.yelpcdn.com/bphoto/VXcWnkJQJIEQpJhalO2rhg/o.jpg", "is_closed": false, "url": "https://www.yelp.com/biz/tahiti-take-out-restaurant-and-lounge-pittsfield?adjust_creative=ywY5UnLZrNrRl2b93Ruy_g&utm_campaign=yelp_api_v3&utm_medium=api_v3_business_search&utm_source=ywY5UnLZrNrRl2b93Ruy_g", "review_count": 21, "categories": [{"alias": "chinese", "title": "Chinese"}, {"alias": "bars", "title": "Bars"}], "rating": 2.0, "coordinates": {"latitude": 42.46156, "longitude": -73.25136}, "transactions": ["delivery"], "price": "$$", "location": {"address1": "101 Wahconah St", "address2": "", "address3": "", "city": "Pittsfield", "zip_code": "01201", "country": "US", "state": "MA", "display_address": ["101 Wahconah St", "Pittsfield, MA 01201"]}, "phone": "+14134994711", "display_phone": "(413) 499-4711", "distance": 8683.814775268067}, {"id": "oLaERtmDsjb6EUhEavOPWA", "alias": "angelinas-submarine-shops-dalton", "name": "Angelina's Submarine Shops", "image_url": "https://s3-media1.fl.yelpcdn.com/bphoto/lxov5wUSXOSsWqD-VHgOVQ/o.jpg", "is_closed": false, "url": "https://www.yelp.com/biz/angelinas-submarine-shops-dalton?adjust_creative=ywY5UnLZrNrRl2b93Ruy_g&utm_campaign=yelp_api_v3&utm_medium=api_v3_business_search&utm_source=ywY5UnLZrNrRl2b93Ruy_g", "review_count": 15, "categories": [{"alias": "sandwiches", "title": "Sandwiches"}], "rating": 3.5, "coordinates": {"latitude": 42.47359, "longitude": -73.16254}, "transactions": ["delivery", "pickup"], "price": "$", "location": {"address1": "657 Main St", "address2": "", "address3": "", "city": "Dalton", "zip_code": "01226", "country": "US", "state": "MA", "display_address": ["657 Main St", "Dalton, MA 01226"]}, "phone": "+14136841178", "display_phone": "(413) 684-1178", "distance": 11266.954284465999}, {"id": "MA2NlasKq1PYg-qeLqC-PA", "alias": "samels-deli-and-catering-pittsfield", "name": "Samel's Deli and Catering", "image_url": "https://s3-media4.fl.yelpcdn.com/bphoto/gBT6E8fKIo-R5m5Ay6VzRA/o.jpg", "is_closed": false, "url": "https://www.yelp.com/biz/samels-deli-and-catering-pittsfield?adjust_creative=ywY5UnLZrNrRl2b93Ruy_g&utm_campaign=yelp_api_v3&utm_medium=api_v3_business_search&utm_source=ywY5UnLZrNrRl2b93Ruy_g", "review_count": 11, "categories": [{"alias": "delis", "title": "Delis"}], "rating": 4.0, "coordinates": {"latitude": 42.4447784, "longitude": -73.2409363}, "transactions": ["delivery"], "price": "$", "location": {"address1": "115 Elm St", "address2": "", "address3": "", "city": "Pittsfield", "zip_code": "01201", "country": "US", "state": "MA", "display_address": ["115 Elm St", "Pittsfield, MA 01201"]}, "phone": "+14134425927", "display_phone": "(413) 442-5927", "distance": 10699.932164838647}, {"id": "6EQf1-9Jcha2gfDWTU2uCA", "alias": "hibachi-burffet-pittsfield", "name": "Hibachi Burffet", "image_url": "https://s3-media3.fl.yelpcdn.com/bphoto/Hw2AA6MhG3Xdq042h4nifA/o.jpg", "is_closed": false, "url": "https://www.yelp.com/biz/hibachi-burffet-pittsfield?adjust_creative=ywY5UnLZrNrRl2b93Ruy_g&utm_campaign=yelp_api_v3&utm_medium=api_v3_business_search&utm_source=ywY5UnLZrNrRl2b93Ruy_g", "review_count": 12, "categories": [{"alias": "chinese", "title": "Chinese"}], "rating": 3.0, "coordinates": {"latitude": 42.470356, "longitude": -73.2040024}, "transactions": [], "location": {"address1": "61 Cheshire Rd", "address2": "", "address3": "", "city": "Pittsfield", "zip_code": "01201", "country": "US", "state": "MA", "display_address": ["61 Cheshire Rd", "Pittsfield, MA 01201"]}, "phone": "", "display_phone": "", "distance": 9396.889936299061}, {"id": "qzb2lo-LNbUz2DaN6m5Qcw", "alias": "hot-harrys-fresh-burritos-dalton", "name": "Hot Harry's Fresh Burritos", "image_url": "https://s3-media1.fl.yelpcdn.com/bphoto/_LeE478T5T33qyGGCA9fgw/o.jpg", "is_closed": false, "url": "https://www.yelp.com/biz/hot-harrys-fresh-burritos-dalton?adjust_creative=ywY5UnLZrNrRl2b93Ruy_g&utm_campaign=yelp_api_v3&utm_medium=api_v3_business_search&utm_source=ywY5UnLZrNrRl2b93Ruy_g", "review_count": 5, "categories": [{"alias": "mexican", "title": "Mexican"}], "rating": 4.0, "coordinates": {"latitude": 42.4734965, "longitude": -73.1720944}, "transactions": ["delivery"], "location": {"address1": "403 Main St", "address2": "", "address3": null, "city": "Dalton", "zip_code": "01226", "country": "US", "state": "MA", "display_address": ["403 Main St", "Dalton, MA 01226"]}, "phone": "+14133000028", "display_phone": "(413) 300-0028", "distance": 10690.281451036966}, {"id": "s8mqADIKE-XBHf6uNjOkzA", "alias": "kendall-house-new-lebanon-2", "name": "Kendall House", "image_url": "https://s3-media2.fl.yelpcdn.com/bphoto/l8MfdIAfqtU6e1iScoMF_w/o.jpg", "is_closed": false, "url": "https://www.yelp.com/biz/kendall-house-new-lebanon-2?adjust_creative=ywY5UnLZrNrRl2b93Ruy_g&utm_campaign=yelp_api_v3&utm_medium=api_v3_business_search&utm_source=ywY5UnLZrNrRl2b93Ruy_g", "review_count": 8, "categories": [{"alias": "sandwiches", "title": "Sandwiches"}, {"alias": "antiques", "title": "Antiques"}], "rating": 3.5, "coordinates": {"latitude": 42.470733, "longitude": -73.385547}, "transactions": [], "location": {"address1": "423 Rte 20", "address2": null, "address3": "", "city": "New Lebanon", "zip_code": "12125", "country": "US", "state": "NY", "display_address": ["423 Rte 20", "New Lebanon, NY 12125"]}, "phone": "+15187943322", "display_phone": "(518) 794-3322", "distance": 12259.766429690259}, {"id": "tGwILqB7e6xVa9GcreUsWQ", "alias": "southern-comfort-pittsfield", "name": "Southern Comfort", "image_url": "https://s3-media2.fl.yelpcdn.com/bphoto/_SyNRL6fJf9qm7jR8Y_55A/o.jpg", "is_closed": false, "url": "https://www.yelp.com/biz/southern-comfort-pittsfield?adjust_creative=ywY5UnLZrNrRl2b93Ruy_g&utm_campaign=yelp_api_v3&utm_medium=api_v3_business_search&utm_source=ywY5UnLZrNrRl2b93Ruy_g", "review_count": 1, "categories": [{"alias": "southern", "title": "Southern"}, {"alias": "soulfood", "title": "Soul Food"}], "rating": 1.0, "coordinates": {"latitude": 42.4527247428891, "longitude": -73.2609913498163}, "transactions": ["delivery", "pickup"], "location": {"address1": "302 Columbus Ave", "address2": "", "address3": null, "city": "Pittsfield", "zip_code": "01201", "country": "US", "state": "MA", "display_address": ["302 Columbus Ave", "Pittsfield, MA 01201"]}, "phone": "+14134648444", "display_phone": "(413) 464-8444", "distance": 9579.867155545648}, {"id": "jDuxiHujWqUpUsDraF7Otg", "alias": "berkshire-mountain-bakery-pizza-cafe-pittsfield-4", "name": "Berkshire Mountain Bakery Pizza Cafe", "image_url": "https://s3-media3.fl.yelpcdn.com/bphoto/ZoSISihxrgNQ0WaPpTgKUA/o.jpg", "is_closed": false, "url": "https://www.yelp.com/biz/berkshire-mountain-bakery-pizza-cafe-pittsfield-4?adjust_creative=ywY5UnLZrNrRl2b93Ruy_g&utm_campaign=yelp_api_v3&utm_medium=api_v3_business_search&utm_source=ywY5UnLZrNrRl2b93Ruy_g", "review_count": 60, "categories": [{"alias": "pizza", "title": "Pizza"}, {"alias": "bakeries", "title": "Bakeries"}, {"alias": "vegan", "title": "Vegan"}], "rating": 4.0, "coordinates": {"latitude": 42.4430597991196, "longitude": -73.2378399823491}, "transactions": ["delivery"], "price": "$", "location": {"address1": "180 Elm St", "address2": "Ste A", "address3": "", "city": "Pittsfield", "zip_code": "01201", "country": "US", "state": "MA", "display_address": ["180 Elm St", "Ste A", "Pittsfield, MA 01201"]}, "phone": "+14134649394", "display_phone": "(413) 464-9394", "distance": 10918.52649977409}, {"id": "61zJkuouSdfgDPGUXnD4xA", "alias": "harrys-supermarket-pittsfield", "name": "Harry's Supermarket", "image_url": "", "is_closed": false, "url": "https://www.yelp.com/biz/harrys-supermarket-pittsfield?adjust_creative=ywY5UnLZrNrRl2b93Ruy_g&utm_campaign=yelp_api_v3&utm_medium=api_v3_business_search&utm_source=ywY5UnLZrNrRl2b93Ruy_g", "review_count": 1, "categories": [{"alias": "delis", "title": "Delis"}], "rating": 4.0, "coordinates": {"latitude": 42.4669830847747, "longitude": -73.2516915403962}, "transactions": ["delivery"], "location": {"address1": "290 Wahconah St", "address2": "", "address3": "", "city": "Pittsfield", "zip_code": "01201", "country": "US", "state": "MA", "display_address": ["290 Wahconah St", "Pittsfield, MA 01201"]}, "phone": "+14134429084", "display_phone": "(413) 442-9084", "distance": 8086.877261509213}, {"id": "sVoxGa8_98EdhBZObbZEBA", "alias": "zens-doghouse-lanesboro", "name": "Zen's Doghouse", "image_url": "", "is_closed": false, "url": "https://www.yelp.com/biz/zens-doghouse-lanesboro?adjust_creative=ywY5UnLZrNrRl2b93Ruy_g&utm_campaign=yelp_api_v3&utm_medium=api_v3_business_search&utm_source=ywY5UnLZrNrRl2b93Ruy_g", "review_count": 1, "categories": [{"alias": "newamerican", "title": "American (New)"}], "rating": 3.0, "coordinates": {"latitude": 42.492415, "longitude": -73.202326}, "transactions": [], "location": {"address1": "650 Cheshire Rd", "address2": null, "address3": null, "city": "Lanesboro", "zip_code": "01237", "country": "US", "state": "MA", "display_address": ["650 Cheshire Rd", "Lanesboro, MA 01237"]}, "phone": "+14134993331", "display_phone": "(413) 499-3331", "distance": 7439.137659006794}, {"id": "afkdEqotY1dwKcwNsjK3xQ", "alias": "portsmitts-pittsfield", "name": "PortSmitt's", "image_url": "", "is_closed": false, "url": "https://www.yelp.com/biz/portsmitts-pittsfield?adjust_creative=ywY5UnLZrNrRl2b93Ruy_g&utm_campaign=yelp_api_v3&utm_medium=api_v3_business_search&utm_source=ywY5UnLZrNrRl2b93Ruy_g", "review_count": 8, "categories": [{"alias": "tradamerican", "title": "American (Traditional)"}, {"alias": "bars", "title": "Bars"}], "rating": 3.5, "coordinates": {"latitude": 42.47639, "longitude": -73.26546}, "transactions": ["delivery"], "price": "$$$", "location": {"address1": "370 Pecks Rd", "address2": "", "address3": "", "city": "Pittsfield", "zip_code": "01201", "country": "US", "state": "MA", "display_address": ["370 Pecks Rd", "Pittsfield, MA 01201"]}, "phone": "+14132365727", "display_phone": "(413) 236-5727", "distance": 6937.441413435812}, {"id": "426aRoowpWia0UcI3Go0SA", "alias": "freddies-place-olde-fashion-soda-shoppe-pittsfield-2", "name": "Freddie's Place Olde Fashion Soda Shoppe", "image_url": "https://s3-media2.fl.yelpcdn.com/bphoto/7zrdAjMwteO_w73oY0zhTA/o.jpg", "is_closed": false, "url": "https://www.yelp.com/biz/freddies-place-olde-fashion-soda-shoppe-pittsfield-2?adjust_creative=ywY5UnLZrNrRl2b93Ruy_g&utm_campaign=yelp_api_v3&utm_medium=api_v3_business_search&utm_source=ywY5UnLZrNrRl2b93Ruy_g", "review_count": 57, "categories": [{"alias": "diners", "title": "Diners"}, {"alias": "breakfast_brunch", "title": "Breakfast & Brunch"}, {"alias": "cafes", "title": "Cafes"}], "rating": 4.5, "coordinates": {"latitude": 42.45002, "longitude": -73.25102}, "transactions": ["delivery"], "price": "$", "location": {"address1": "117 Fenn St", "address2": "", "address3": "", "city": "Pittsfield", "zip_code": "01201", "country": "US", "state": "MA", "display_address": ["117 Fenn St", "Pittsfield, MA 01201"]}, "phone": "+14134992014", "display_phone": "(413) 499-2014", "distance": 9959.514394406464}, {"id": "KXZDBNqwIsntbGrAiVDVuQ", "alias": "pizza-house-pittsfield", "name": "Pizza House", "image_url": "https://s3-media3.fl.yelpcdn.com/bphoto/bjKPkzRWO93QKXT7Pcf12w/o.jpg", "is_closed": false, "url": "https://www.yelp.com/biz/pizza-house-pittsfield?adjust_creative=ywY5UnLZrNrRl2b93Ruy_g&utm_campaign=yelp_api_v3&utm_medium=api_v3_business_search&utm_source=ywY5UnLZrNrRl2b93Ruy_g", "review_count": 13, "categories": [{"alias": "pizza", "title": "Pizza"}], "rating": 4.0, "coordinates": {"latitude": 42.4565597, "longitude": -73.2365501}, "transactions": ["delivery"], "price": "$$", "location": {"address1": "692 Tyler St", "address2": "", "address3": "", "city": "Pittsfield", "zip_code": "01201", "country": "US", "state": "MA", "display_address": ["692 Tyler St", "Pittsfield, MA 01201"]}, "phone": "+14134991842", "display_phone": "(413) 499-1842", "distance": 9492.841744519968}, {"id": "2rez1KJoNcibotK8dE_4nw", "alias": "thats-a-wrap-pittsfield", "name": "That's A Wrap!", "image_url": "https://s3-media3.fl.yelpcdn.com/bphoto/Cp5STveYdxejvoibdbXhmg/o.jpg", "is_closed": false, "url": "https://www.yelp.com/biz/thats-a-wrap-pittsfield?adjust_creative=ywY5UnLZrNrRl2b93Ruy_g&utm_campaign=yelp_api_v3&utm_medium=api_v3_business_search&utm_source=ywY5UnLZrNrRl2b93Ruy_g", "review_count": 1, "categories": [{"alias": "salad", "title": "Salad"}, {"alias": "sandwiches", "title": "Sandwiches"}], "rating": 5.0, "coordinates": {"latitude": 42.4571592360735, "longitude": -73.2398226857185}, "transactions": ["delivery"], "location": {"address1": "496 Tyler St", "address2": null, "address3": null, "city": "Pittsfield", "zip_code": "01201", "country": "US", "state": "MA", "display_address": ["496 Tyler St", "Pittsfield, MA 01201"]}, "phone": "+14134993414", "display_phone": "(413) 499-3414", "distance": 9353.705126657718}, {"id": "CpZElk-i1bCuyEU_jTOazg", "alias": "piece-o-pizza-pittsfield", "name": "Piece O'pizza", "image_url": "", "is_closed": false, "url": "https://www.yelp.com/biz/piece-o-pizza-pittsfield?adjust_creative=ywY5UnLZrNrRl2b93Ruy_g&utm_campaign=yelp_api_v3&utm_medium=api_v3_business_search&utm_source=ywY5UnLZrNrRl2b93Ruy_g", "review_count": 1, "categories": [{"alias": "pizza", "title": "Pizza"}], "rating": 5.0, "coordinates": {"latitude": 42.4760894775391, "longitude": -73.2444534301758}, "transactions": [], "location": {"address1": "1206 North St", "address2": "", "address3": "", "city": "Pittsfield", "zip_code": "01201", "country": "US", "state": "MA", "display_address": ["1206 North St", "Pittsfield, MA 01201"]}, "phone": "+14134996567", "display_phone": "(413) 499-6567", "distance": 7223.900093634072}, {"id": "A7JGLOn_YVRXkbaPpthlzQ", "alias": "east-side-cafe-pittsfield", "name": "East Side Cafe", "image_url": "https://s3-media2.fl.yelpcdn.com/bphoto/YNa8xMKyNtthl8beIWGhfA/o.jpg", "is_closed": false, "url": "https://www.yelp.com/biz/east-side-cafe-pittsfield?adjust_creative=ywY5UnLZrNrRl2b93Ruy_g&utm_campaign=yelp_api_v3&utm_medium=api_v3_business_search&utm_source=ywY5UnLZrNrRl2b93Ruy_g", "review_count": 27, "categories": [{"alias": "italian", "title": "Italian"}, {"alias": "pizza", "title": "Pizza"}], "rating": 3.5, "coordinates": {"latitude": 42.4518555795743, "longitude": -73.2267382570664}, "transactions": ["delivery"], "price": "$", "location": {"address1": "378 Newell St", "address2": "", "address3": "", "city": "Pittsfield", "zip_code": "01201", "country": "US", "state": "MA", "display_address": ["378 Newell St", "Pittsfield, MA 01201"]}, "phone": "+14134479405", "display_phone": "(413) 447-9405", "distance": 10230.545533936463}, {"id": "0VAkYUcPyFvhr62FVzbpZg", "alias": "99-restaurants-pittsfield-2", "name": "99 Restaurants", "image_url": "https://s3-media3.fl.yelpcdn.com/bphoto/mKSEJrY9DvPWBM9rtWzllQ/o.jpg", "is_closed": false, "url": "https://www.yelp.com/biz/99-restaurants-pittsfield-2?adjust_creative=ywY5UnLZrNrRl2b93Ruy_g&utm_campaign=yelp_api_v3&utm_medium=api_v3_business_search&utm_source=ywY5UnLZrNrRl2b93Ruy_g", "review_count": 31, "categories": [{"alias": "tradamerican", "title": "American (Traditional)"}, {"alias": "seafood", "title": "Seafood"}, {"alias": "pubs", "title": "Pubs"}], "rating": 2.5, "coordinates": {"latitude": 42.4663972, "longitude": -73.2058286}, "transactions": [], "price": "$$", "location": {"address1": "609 Merrill Rd", "address2": "", "address3": "", "city": "Pittsfield", "zip_code": "01201", "country": "US", "state": "MA", "display_address": ["609 Merrill Rd", "Pittsfield, MA 01201"]}, "phone": "+14132360980", "display_phone": "(413) 236-0980", "distance": 9514.232299528949}, {"id": "h45SX9FI1QTRc7j7xsa-tg", "alias": "new-asian-garden-pittsfield", "name": "New Asian Garden", "image_url": "https://s3-media1.fl.yelpcdn.com/bphoto/v7lWcE-J_kbRTWZaqDNGcQ/o.jpg", "is_closed": false, "url": "https://www.yelp.com/biz/new-asian-garden-pittsfield?adjust_creative=ywY5UnLZrNrRl2b93Ruy_g&utm_campaign=yelp_api_v3&utm_medium=api_v3_business_search&utm_source=ywY5UnLZrNrRl2b93Ruy_g", "review_count": 14, "categories": [{"alias": "chinese", "title": "Chinese"}, {"alias": "japanese", "title": "Japanese"}, {"alias": "thai", "title": "Thai"}], "rating": 3.5, "coordinates": {"latitude": 42.4443758279085, "longitude": -73.2394176721573}, "transactions": ["delivery"], "price": "$", "location": {"address1": "1-3 Newell St", "address2": "", "address3": null, "city": "Pittsfield", "zip_code": "01201", "country": "US", "state": "MA", "display_address": ["1-3 Newell St", "Pittsfield, MA 01201"]}, "phone": "+14133449428", "display_phone": "(413) 344-9428", "distance": 10747.220342703922}, {"id": "wxQ4WF6IOxObxPXJM6AlYw", "alias": "misty-moonlight-diner-pittsfield", "name": "Misty Moonlight Diner", "image_url": "https://s3-media1.fl.yelpcdn.com/bphoto/HxRE5Va6F7N8hV8WYBNU2A/o.jpg", "is_closed": false, "url": "https://www.yelp.com/biz/misty-moonlight-diner-pittsfield?adjust_creative=ywY5UnLZrNrRl2b93Ruy_g&utm_campaign=yelp_api_v3&utm_medium=api_v3_business_search&utm_source=ywY5UnLZrNrRl2b93Ruy_g", "review_count": 49, "categories": [{"alias": "diners", "title": "Diners"}], "rating": 3.5, "coordinates": {"latitude": 42.4656219482422, "longitude": -73.2095642089844}, "transactions": ["delivery"], "price": "$$", "location": {"address1": "565 Dalton Ave", "address2": "", "address3": "", "city": "Pittsfield", "zip_code": "01201", "country": "US", "state": "MA", "display_address": ["565 Dalton Ave", "Pittsfield, MA 01201"]}, "phone": "+14134992483", "display_phone": "(413) 499-2483", "distance": 9429.292374827131}, {"id": "44ajIWovMHN8UsBPLWw1GQ", "alias": "johnnies-variety-store-pittsfield", "name": "Johnnies Variety Store", "image_url": "", "is_closed": false, "url": "https://www.yelp.com/biz/johnnies-variety-store-pittsfield?adjust_creative=ywY5UnLZrNrRl2b93Ruy_g&utm_campaign=yelp_api_v3&utm_medium=api_v3_business_search&utm_source=ywY5UnLZrNrRl2b93Ruy_g", "review_count": 2, "categories": [{"alias": "delis", "title": "Delis"}], "rating": 4.0, "coordinates": {"latitude": 42.47631, "longitude": -73.26539}, "transactions": [], "location": {"address1": "370 Pecks Rd", "address2": "", "address3": "", "city": "Pittsfield", "zip_code": "01201", "country": "US", "state": "MA", "display_address": ["370 Pecks Rd", "Pittsfield, MA 01201"]}, "phone": "+14134991960", "display_phone": "(413) 499-1960", "distance": 6937.441413435812}, {"id": "KmMT3zDrNWO4geJzJBjB-A", "alias": "soda-chef-pittsfield", "name": "Soda Chef", "image_url": "https://s3-media1.fl.yelpcdn.com/bphoto/4pDNA59y_wrCPL4AMUVILw/o.jpg", "is_closed": false, "url": "https://www.yelp.com/biz/soda-chef-pittsfield?adjust_creative=ywY5UnLZrNrRl2b93Ruy_g&utm_campaign=yelp_api_v3&utm_medium=api_v3_business_search&utm_source=ywY5UnLZrNrRl2b93Ruy_g", "review_count": 6, "categories": [{"alias": "tradamerican", "title": "American (Traditional)"}, {"alias": "breakfast_brunch", "title": "Breakfast & Brunch"}, {"alias": "diners", "title": "Diners"}], "rating": 4.5, "coordinates": {"latitude": 42.4508553, "longitude": -73.2534561}, "transactions": ["delivery"], "price": "$", "location": {"address1": "161 N St", "address2": "", "address3": "", "city": "Pittsfield", "zip_code": "01201", "country": "US", "state": "MA", "display_address": ["161 N St", "Pittsfield, MA 01201"]}, "phone": "+14134479401", "display_phone": "(413) 447-9401", "distance": 9466.814176347085}, {"id": "6rXIezwsJbdUrAqDLgm6PA", "alias": "the-marketplace-caf\u00e9-pittsfield", "name": "The Marketplace Caf\u00e9", "image_url": "https://s3-media1.fl.yelpcdn.com/bphoto/sx2PUcmmvyRxIl3des99rA/o.jpg", "is_closed": false, "url": "https://www.yelp.com/biz/the-marketplace-caf%C3%A9-pittsfield?adjust_creative=ywY5UnLZrNrRl2b93Ruy_g&utm_campaign=yelp_api_v3&utm_medium=api_v3_business_search&utm_source=ywY5UnLZrNrRl2b93Ruy_g", "review_count": 154, "categories": [{"alias": "sandwiches", "title": "Sandwiches"}, {"alias": "coffee", "title": "Coffee & Tea"}, {"alias": "cafes", "title": "Cafes"}], "rating": 4.5, "coordinates": {"latitude": 42.4491299206995, "longitude": -73.2539157755931}, "transactions": [], "price": "$$", "location": {"address1": "53 North St", "address2": "", "address3": "", "city": "Pittsfield", "zip_code": "01201", "country": "US", "state": "MA", "display_address": ["53 North St", "Pittsfield, MA 01201"]}, "phone": "+14133584777", "display_phone": "(413) 358-4777", "distance": 10028.237112009305}, {"id": "WpkbEYbNkC252tMTmhFAKg", "alias": "chilis-pittsfield", "name": "Chili's", "image_url": "https://s3-media2.fl.yelpcdn.com/bphoto/Jm4gEu-XCkmcC5Fql-XDTA/o.jpg", "is_closed": false, "url": "https://www.yelp.com/biz/chilis-pittsfield?adjust_creative=ywY5UnLZrNrRl2b93Ruy_g&utm_campaign=yelp_api_v3&utm_medium=api_v3_business_search&utm_source=ywY5UnLZrNrRl2b93Ruy_g", "review_count": 20, "categories": [{"alias": "tex-mex", "title": "Tex-Mex"}, {"alias": "bars", "title": "Bars"}, {"alias": "tradamerican", "title": "American (Traditional)"}], "rating": 2.5, "coordinates": {"latitude": 42.46652, "longitude": -73.19619}, "transactions": [], "location": {"address1": "555 Hubbard Ave", "address2": "", "address3": null, "city": "Pittsfield", "zip_code": "01201", "country": "US", "state": "MA", "display_address": ["555 Hubbard Ave", "Pittsfield, MA 01201"]}, "phone": "", "display_phone": "", "distance": 9977.925064833687}, {"id": "tqCjnsHI1gowJPtSLf3SOw", "alias": "jimmy-ds-restaurant-new-lebanon", "name": "Jimmy D's Restaurant", "image_url": "https://s3-media4.fl.yelpcdn.com/bphoto/sVdiZZimzgGHvBgnNNJnjQ/o.jpg", "is_closed": false, "url": "https://www.yelp.com/biz/jimmy-ds-restaurant-new-lebanon?adjust_creative=ywY5UnLZrNrRl2b93Ruy_g&utm_campaign=yelp_api_v3&utm_medium=api_v3_business_search&utm_source=ywY5UnLZrNrRl2b93Ruy_g", "review_count": 33, "categories": [{"alias": "pizza", "title": "Pizza"}, {"alias": "breakfast_brunch", "title": "Breakfast & Brunch"}, {"alias": "tradamerican", "title": "American (Traditional)"}], "rating": 3.5, "coordinates": {"latitude": 42.4659974, "longitude": -73.3931052}, "transactions": [], "price": "$$", "location": {"address1": "531 Columbia Pike", "address2": "", "address3": "", "city": "New Lebanon", "zip_code": "12125", "country": "US", "state": "NY", "display_address": ["531 Columbia Pike", "New Lebanon, NY 12125"]}, "phone": "+15187948161", "display_phone": "(518) 794-8161", "distance": 12990.154068194788}, {"id": "2w1cmEosgG3SAZ4kj_-rEg", "alias": "china-city-takeout-new-lebanon", "name": "China City Takeout", "image_url": "https://s3-media1.fl.yelpcdn.com/bphoto/lqKCs0Nop-LW0eNSTUHA9A/o.jpg", "is_closed": false, "url": "https://www.yelp.com/biz/china-city-takeout-new-lebanon?adjust_creative=ywY5UnLZrNrRl2b93Ruy_g&utm_campaign=yelp_api_v3&utm_medium=api_v3_business_search&utm_source=ywY5UnLZrNrRl2b93Ruy_g", "review_count": 7, "categories": [{"alias": "chinese", "title": "Chinese"}], "rating": 2.5, "coordinates": {"latitude": 42.4765586853027, "longitude": -73.4052124023438}, "transactions": [], "price": "$", "location": {"address1": "Midtown Mall", "address2": "", "address3": "", "city": "New Lebanon", "zip_code": "12125", "country": "US", "state": "NY", "display_address": ["Midtown Mall", "New Lebanon, NY 12125"]}, "phone": "+15187949181", "display_phone": "(518) 794-9181", "distance": 12856.519957045148}, {"id": "jkc24FuEbMRC4IMotFup-Q", "alias": "teddys-pizza-and-restaurant-pittsfield", "name": "Teddy's Pizza & Restaurant", "image_url": "https://s3-media2.fl.yelpcdn.com/bphoto/aavh6T-sFHgSGeI-lditeg/o.jpg", "is_closed": false, "url": "https://www.yelp.com/biz/teddys-pizza-and-restaurant-pittsfield?adjust_creative=ywY5UnLZrNrRl2b93Ruy_g&utm_campaign=yelp_api_v3&utm_medium=api_v3_business_search&utm_source=ywY5UnLZrNrRl2b93Ruy_g", "review_count": 10, "categories": [{"alias": "pizza", "title": "Pizza"}], "rating": 3.0, "coordinates": {"latitude": 42.447055, "longitude": -73.243827}, "transactions": ["delivery"], "price": "$$", "location": {"address1": "508 East St", "address2": "", "address3": "", "city": "Pittsfield", "zip_code": "01201", "country": "US", "state": "MA", "display_address": ["508 East St", "Pittsfield, MA 01201"]}, "phone": "+14134439030", "display_phone": "(413) 443-9030", "distance": 10377.69323638636}, {"id": "n09m3HVIMCSFVQnCSC3tdQ", "alias": "thats-a-wrap-cafe-pittsfield", "name": "That's A Wrap! Cafe", "image_url": "https://s3-media1.fl.yelpcdn.com/bphoto/bjJy4IrRmKBdLiGzVtz4gQ/o.jpg", "is_closed": false, "url": "https://www.yelp.com/biz/thats-a-wrap-cafe-pittsfield?adjust_creative=ywY5UnLZrNrRl2b93Ruy_g&utm_campaign=yelp_api_v3&utm_medium=api_v3_business_search&utm_source=ywY5UnLZrNrRl2b93Ruy_g", "review_count": 12, "categories": [{"alias": "juicebars", "title": "Juice Bars & Smoothies"}, {"alias": "wraps", "title": "Wraps"}, {"alias": "sandwiches", "title": "Sandwiches"}, {"alias": "cafes", "title": "Cafes"}], "rating": 4.0, "coordinates": {"latitude": 42.4496797332126, "longitude": -73.2509500428983}, "transactions": ["delivery"], "price": "$$", "location": {"address1": "132 Fenn St", "address2": "", "address3": null, "city": "Pittsfield", "zip_code": "01201", "country": "US", "state": "MA", "display_address": ["132 Fenn St", "Pittsfield, MA 01201"]}, "phone": "+14134993414", "display_phone": "(413) 499-3414", "distance": 9998.232337746156}, {"id": "Yx5C122X54C6fQOmYskICQ", "alias": "ottos-kitchen-and-comfort-pittsfield-2", "name": "Otto's Kitchen & Comfort", "image_url": "https://s3-media1.fl.yelpcdn.com/bphoto/Dj-vPVgcJL12GvZAaryw7w/o.jpg", "is_closed": false, "url": "https://www.yelp.com/biz/ottos-kitchen-and-comfort-pittsfield-2?adjust_creative=ywY5UnLZrNrRl2b93Ruy_g&utm_campaign=yelp_api_v3&utm_medium=api_v3_business_search&utm_source=ywY5UnLZrNrRl2b93Ruy_g", "review_count": 107, "categories": [{"alias": "breakfast_brunch", "title": "Breakfast & Brunch"}, {"alias": "bars", "title": "Bars"}, {"alias": "tradamerican", "title": "American (Traditional)"}], "rating": 3.0, "coordinates": {"latitude": 42.44834, "longitude": -73.25205}, "transactions": [], "price": "$$", "location": {"address1": "95 East St", "address2": "", "address3": "", "city": "Pittsfield", "zip_code": "01201", "country": "US", "state": "MA", "display_address": ["95 East St", "Pittsfield, MA 01201"]}, "phone": "+14133444748", "display_phone": "(413) 344-4748", "distance": 10135.188699565222}, {"id": "u4dQZNZnZ_POC9FF3uL3AQ", "alias": "joannes-elm-street-luncheonette-pittsfield", "name": "Joanne's Elm Street Luncheonette", "image_url": "https://s3-media1.fl.yelpcdn.com/bphoto/rbQzISlzuLPsWIW2CHIdoQ/o.jpg", "is_closed": false, "url": "https://www.yelp.com/biz/joannes-elm-street-luncheonette-pittsfield?adjust_creative=ywY5UnLZrNrRl2b93Ruy_g&utm_campaign=yelp_api_v3&utm_medium=api_v3_business_search&utm_source=ywY5UnLZrNrRl2b93Ruy_g", "review_count": 7, "categories": [{"alias": "diners", "title": "Diners"}, {"alias": "breakfast_brunch", "title": "Breakfast & Brunch"}], "rating": 4.5, "coordinates": {"latitude": 42.4444, "longitude": -73.2403099}, "transactions": [], "location": {"address1": "123 Elm St", "address2": "", "address3": "", "city": "Pittsfield", "zip_code": "01201", "country": "US", "state": "MA", "display_address": ["123 Elm St", "Pittsfield, MA 01201"]}, "phone": "+14134479375", "display_phone": "(413) 447-9375", "distance": 10717.478179521337}, {"id": "K7vJzL3zCvO2n8aXPts8xA", "alias": "golden-phoenix-pittsfield", "name": "Golden Phoenix", "image_url": "https://s3-media2.fl.yelpcdn.com/bphoto/Aew6caOCMiJ39AAAVxjO2Q/o.jpg", "is_closed": false, "url": "https://www.yelp.com/biz/golden-phoenix-pittsfield?adjust_creative=ywY5UnLZrNrRl2b93Ruy_g&utm_campaign=yelp_api_v3&utm_medium=api_v3_business_search&utm_source=ywY5UnLZrNrRl2b93Ruy_g", "review_count": 17, "categories": [{"alias": "chinese", "title": "Chinese"}], "rating": 3.5, "coordinates": {"latitude": 42.4550904, "longitude": -73.2521456}, "transactions": ["delivery"], "price": "$", "location": {"address1": "445 North St", "address2": null, "address3": null, "city": "Pittsfield", "zip_code": "01201", "country": "US", "state": "MA", "display_address": ["445 North St", "Pittsfield, MA 01201"]}, "phone": "+14132368688", "display_phone": "(413) 236-8688", "distance": 9388.821089020952}, {"id": "PCeGA7kPoRSvYo7VNyotPA", "alias": "mannys-pizza-dalton", "name": "Manny's Pizza", "image_url": "https://s3-media2.fl.yelpcdn.com/bphoto/nq6wW8BPgLO2u5nSum8XPw/o.jpg", "is_closed": false, "url": "https://www.yelp.com/biz/mannys-pizza-dalton?adjust_creative=ywY5UnLZrNrRl2b93Ruy_g&utm_campaign=yelp_api_v3&utm_medium=api_v3_business_search&utm_source=ywY5UnLZrNrRl2b93Ruy_g", "review_count": 7, "categories": [{"alias": "pizza", "title": "Pizza"}], "rating": 3.5, "coordinates": {"latitude": 42.4811831058193, "longitude": -73.1548690795898}, "transactions": ["delivery", "pickup"], "price": "$$", "location": {"address1": "302 North St", "address2": "", "address3": "", "city": "Dalton", "zip_code": "01226", "country": "US", "state": "MA", "display_address": ["302 North St", "Dalton, MA 01226"]}, "phone": "+14138425289", "display_phone": "(413) 842-5289", "distance": 11254.748523176053}, {"id": "xtHhYUKdx7NYTTa14VeIRA", "alias": "home-plate-pittsfield", "name": "Home Plate", "image_url": "", "is_closed": false, "url": "https://www.yelp.com/biz/home-plate-pittsfield?adjust_creative=ywY5UnLZrNrRl2b93Ruy_g&utm_campaign=yelp_api_v3&utm_medium=api_v3_business_search&utm_source=ywY5UnLZrNrRl2b93Ruy_g", "review_count": 1, "categories": [{"alias": "restaurants", "title": "Restaurants"}], "rating": 3.0, "coordinates": {"latitude": 42.450077, "longitude": -73.239082}, "transactions": [], "price": "$", "location": {"address1": "751 East St", "address2": "", "address3": "", "city": "Pittsfield", "zip_code": "01201", "country": "US", "state": "MA", "display_address": ["751 East St", "Pittsfield, MA 01201"]}, "phone": "+14134479521", "display_phone": "(413) 447-9521", "distance": 10160.334806455276}, {"id": "hMY9WV4Z8BKgIWwHgnL01g", "alias": "applebees-grill-bar-pittsfield", "name": "Applebee's Grill + Bar", "image_url": "https://s3-media3.fl.yelpcdn.com/bphoto/lcgH8oFDmmaKXUDt_OBFfg/o.jpg", "is_closed": false, "url": "https://www.yelp.com/biz/applebees-grill-bar-pittsfield?adjust_creative=ywY5UnLZrNrRl2b93Ruy_g&utm_campaign=yelp_api_v3&utm_medium=api_v3_business_search&utm_source=ywY5UnLZrNrRl2b93Ruy_g", "review_count": 29, "categories": [{"alias": "tradamerican", "title": "American (Traditional)"}, {"alias": "sportsbars", "title": "Sports Bars"}, {"alias": "burgers", "title": "Burgers"}], "rating": 2.5, "coordinates": {"latitude": 42.468614, "longitude": -73.198755}, "transactions": [], "price": "$$", "location": {"address1": "555 Hubbard Ave", "address2": "Berkshire Crossing Shopping Center", "address3": "", "city": "Pittsfield", "zip_code": "01201", "country": "US", "state": "MA", "display_address": ["555 Hubbard Ave", "Berkshire Crossing Shopping Center", "Pittsfield, MA 01201"]}, "phone": "+14134995157", "display_phone": "(413) 499-5157", "distance": 9635.626825325076}, {"id": "pmy-RkBV3NjQYW2pQl9mQQ", "alias": "grand-buffet-star-chinese-restaurant-pittsfield", "name": "Grand Buffet Star Chinese Restaurant", "image_url": "https://s3-media2.fl.yelpcdn.com/bphoto/vZpisPXNq97CDzq8d_vqbA/o.jpg", "is_closed": false, "url": "https://www.yelp.com/biz/grand-buffet-star-chinese-restaurant-pittsfield?adjust_creative=ywY5UnLZrNrRl2b93Ruy_g&utm_campaign=yelp_api_v3&utm_medium=api_v3_business_search&utm_source=ywY5UnLZrNrRl2b93Ruy_g", "review_count": 11, "categories": [{"alias": "chinese", "title": "Chinese"}], "rating": 2.0, "coordinates": {"latitude": 42.470423, "longitude": -73.204747}, "transactions": [], "price": "$", "location": {"address1": "61 Cheshire Rd", "address2": "", "address3": "", "city": "Pittsfield", "zip_code": "01201", "country": "US", "state": "MA", "display_address": ["61 Cheshire Rd", "Pittsfield, MA 01201"]}, "phone": "+14134427000", "display_phone": "(413) 442-7000", "distance": 9188.436151508946}, {"id": "YbAhWTAlPjBbxFb8Lp84fg", "alias": "daddyos-diner-pittsfield", "name": "Daddyo's Diner", "image_url": "https://s3-media4.fl.yelpcdn.com/bphoto/xU3zkFM1AR3dxOo3kMoIpQ/o.jpg", "is_closed": false, "url": "https://www.yelp.com/biz/daddyos-diner-pittsfield?adjust_creative=ywY5UnLZrNrRl2b93Ruy_g&utm_campaign=yelp_api_v3&utm_medium=api_v3_business_search&utm_source=ywY5UnLZrNrRl2b93Ruy_g", "review_count": 21, "categories": [{"alias": "diners", "title": "Diners"}], "rating": 3.5, "coordinates": {"latitude": 42.447735, "longitude": -73.244076}, "transactions": [], "price": "$", "location": {"address1": "505 East St", "address2": null, "address3": null, "city": "Pittsfield", "zip_code": "01201", "country": "US", "state": "MA", "display_address": ["505 East St", "Pittsfield, MA 01201"]}, "phone": "+14134991180", "display_phone": "(413) 499-1180", "distance": 10297.12129674592}, {"id": "7_vJvMcb3ioDXh4kRE4lOQ", "alias": "angelinas-submarine-shop-pittsfield", "name": "Angelina's Submarine Shop", "image_url": "https://s3-media3.fl.yelpcdn.com/bphoto/6HgEWRIjK9XNHTEnYL8T0g/o.jpg", "is_closed": false, "url": "https://www.yelp.com/biz/angelinas-submarine-shop-pittsfield?adjust_creative=ywY5UnLZrNrRl2b93Ruy_g&utm_campaign=yelp_api_v3&utm_medium=api_v3_business_search&utm_source=ywY5UnLZrNrRl2b93Ruy_g", "review_count": 3, "categories": [{"alias": "sandwiches", "title": "Sandwiches"}], "rating": 3.5, "coordinates": {"latitude": 42.4442558288574, "longitude": -73.2594528198242}, "transactions": ["delivery"], "price": "$", "location": {"address1": "97 W Housatonic St", "address2": "", "address3": "", "city": "Pittsfield", "zip_code": "01201", "country": "US", "state": "MA", "display_address": ["97 W Housatonic St", "Pittsfield, MA 01201"]}, "phone": "+14134437928", "display_phone": "(413) 443-7928", "distance": 10515.519327004356}, {"id": "npvK3ybU9n5GPZzCwJtN5Q", "alias": "costanzos-package-variety-and-deli-pittsfield", "name": "Costanzo's Package Variety & Deli", "image_url": "", "is_closed": false, "url": "https://www.yelp.com/biz/costanzos-package-variety-and-deli-pittsfield?adjust_creative=ywY5UnLZrNrRl2b93Ruy_g&utm_campaign=yelp_api_v3&utm_medium=api_v3_business_search&utm_source=ywY5UnLZrNrRl2b93Ruy_g", "review_count": 1, "categories": [{"alias": "beer_and_wine", "title": "Beer, Wine & Spirits"}, {"alias": "catering", "title": "Caterers"}, {"alias": "delis", "title": "Delis"}], "rating": 4.0, "coordinates": {"latitude": 42.4566612243652, "longitude": -73.2628479003906}, "transactions": ["delivery"], "price": "$", "location": {"address1": "180 Onota St", "address2": "", "address3": "", "city": "Pittsfield", "zip_code": "01201", "country": "US", "state": "MA", "display_address": ["180 Onota St", "Pittsfield, MA 01201"]}, "phone": "+14134477661", "display_phone": "(413) 447-7661", "distance": 9112.032592638036}, {"id": "0qXQzIPFB_jPyNR6qHaHHA", "alias": "buckys-bagels-new-lebanon-3", "name": "Bucky's Bagels", "image_url": "https://s3-media3.fl.yelpcdn.com/bphoto/8Pr5TwF4OmFKOnw44oTeCA/o.jpg", "is_closed": false, "url": "https://www.yelp.com/biz/buckys-bagels-new-lebanon-3?adjust_creative=ywY5UnLZrNrRl2b93Ruy_g&utm_campaign=yelp_api_v3&utm_medium=api_v3_business_search&utm_source=ywY5UnLZrNrRl2b93Ruy_g", "review_count": 16, "categories": [{"alias": "bagels", "title": "Bagels"}, {"alias": "breakfast_brunch", "title": "Breakfast & Brunch"}, {"alias": "sandwiches", "title": "Sandwiches"}], "rating": 4.0, "coordinates": {"latitude": 42.4665705, "longitude": -73.3925372}, "transactions": [], "price": "$", "location": {"address1": "502 State Rt 20", "address2": null, "address3": "", "city": "New Lebanon", "zip_code": "12125", "country": "US", "state": "NY", "display_address": ["502 State Rt 20", "New Lebanon, NY 12125"]}, "phone": "+15187948865", "display_phone": "(518) 794-8865", "distance": 12996.560223344359}, {"id": "fOEP_20-oZ-bihof_jQdJA", "alias": "papa-joes-ristorante-and-pizzeria-pittsfield", "name": "Papa Joe's Ristorante & Pizzeria", "image_url": "https://s3-media2.fl.yelpcdn.com/bphoto/GO3SKfNXtnlcrEf1nQZ75g/o.jpg", "is_closed": false, "url": "https://www.yelp.com/biz/papa-joes-ristorante-and-pizzeria-pittsfield?adjust_creative=ywY5UnLZrNrRl2b93Ruy_g&utm_campaign=yelp_api_v3&utm_medium=api_v3_business_search&utm_source=ywY5UnLZrNrRl2b93Ruy_g", "review_count": 25, "categories": [{"alias": "pizza", "title": "Pizza"}, {"alias": "italian", "title": "Italian"}], "rating": 3.5, "coordinates": {"latitude": 42.4464302062988, "longitude": -73.2355728149414}, "transactions": ["delivery", "pickup"], "price": "$$", "location": {"address1": "107 Newell St", "address2": "", "address3": "", "city": "Pittsfield", "zip_code": "01201", "country": "US", "state": "MA", "display_address": ["107 Newell St", "Pittsfield, MA 01201"]}, "phone": "+14134427272", "display_phone": "(413) 442-7272", "distance": 10606.518973464503}, {"id": "_bbCLnoJCG-QqGd1ShgItA", "alias": "amazing-pavilion-chinese-restaurant-pittsfield", "name": "Amazing Pavilion Chinese Restaurant", "image_url": "https://s3-media1.fl.yelpcdn.com/bphoto/BR_kdPrQ2PB4wyzcW3DJtQ/o.jpg", "is_closed": false, "url": "https://www.yelp.com/biz/amazing-pavilion-chinese-restaurant-pittsfield?adjust_creative=ywY5UnLZrNrRl2b93Ruy_g&utm_campaign=yelp_api_v3&utm_medium=api_v3_business_search&utm_source=ywY5UnLZrNrRl2b93Ruy_g", "review_count": 15, "categories": [{"alias": "chinese", "title": "Chinese"}, {"alias": "sushi", "title": "Sushi Bars"}, {"alias": "asianfusion", "title": "Asian Fusion"}], "rating": 2.5, "coordinates": {"latitude": 42.44973755422, "longitude": -73.2531631959556}, "transactions": ["delivery"], "price": "$$", "location": {"address1": "26 Dunham Mall", "address2": "", "address3": "", "city": "Pittsfield", "zip_code": "01201", "country": "US", "state": "MA", "display_address": ["26 Dunham Mall", "Pittsfield, MA 01201"]}, "phone": "+14134482647", "display_phone": "(413) 448-2647", "distance": 9960.127488565397}, {"id": "-vv3RaiBn7yvefraT7zKKA", "alias": "hot-harrys-fresh-burritos-pittsfield-2", "name": "Hot Harry's Fresh Burritos", "image_url": "https://s3-media1.fl.yelpcdn.com/bphoto/uWrr9feCzlDNa2Wihi1M1w/o.jpg", "is_closed": false, "url": "https://www.yelp.com/biz/hot-harrys-fresh-burritos-pittsfield-2?adjust_creative=ywY5UnLZrNrRl2b93Ruy_g&utm_campaign=yelp_api_v3&utm_medium=api_v3_business_search&utm_source=ywY5UnLZrNrRl2b93Ruy_g", "review_count": 31, "categories": [{"alias": "mexican", "title": "Mexican"}], "rating": 3.0, "coordinates": {"latitude": 42.4491425, "longitude": -73.2539431}, "transactions": ["delivery", "pickup"], "price": "$", "location": {"address1": "37 North St", "address2": null, "address3": null, "city": "Pittsfield", "zip_code": "01201", "country": "US", "state": "MA", "display_address": ["37 North St", "Pittsfield, MA 01201"]}, "phone": "+14134486155", "display_phone": "(413) 448-6155", "distance": 10026.592912215712}, {"id": "xQ_jSCeekj2nmebWiUWVBQ", "alias": "subway-pittsfield-18", "name": "Subway", "image_url": "https://s3-media2.fl.yelpcdn.com/bphoto/Ns0oKq_wodrGXc3l_uQ-lQ/o.jpg", "is_closed": false, "url": "https://www.yelp.com/biz/subway-pittsfield-18?adjust_creative=ywY5UnLZrNrRl2b93Ruy_g&utm_campaign=yelp_api_v3&utm_medium=api_v3_business_search&utm_source=ywY5UnLZrNrRl2b93Ruy_g", "review_count": 1, "categories": [{"alias": "sandwiches", "title": "Sandwiches"}], "rating": 4.0, "coordinates": {"latitude": 42.464833, "longitude": -73.214439}, "transactions": [], "price": "$", "location": {"address1": "457 Dalton Ave", "address2": "", "address3": "", "city": "Pittsfield", "zip_code": "01201", "country": "US", "state": "MA", "display_address": ["457 Dalton Ave", "Pittsfield, MA 01201"]}, "phone": "+14134990067", "display_phone": "(413) 499-0067", "distance": 9309.830296550206}, {"id": "4_6PwHV-yJnMqlnvXVOyxw", "alias": "pizza-works-pittsfield", "name": "Pizza Works", "image_url": "https://s3-media4.fl.yelpcdn.com/bphoto/VWeb8dJGSwemSHFfkxXbTg/o.jpg", "is_closed": false, "url": "https://www.yelp.com/biz/pizza-works-pittsfield?adjust_creative=ywY5UnLZrNrRl2b93Ruy_g&utm_campaign=yelp_api_v3&utm_medium=api_v3_business_search&utm_source=ywY5UnLZrNrRl2b93Ruy_g", "review_count": 13, "categories": [{"alias": "pizza", "title": "Pizza"}], "rating": 3.5, "coordinates": {"latitude": 42.4563250690699, "longitude": -73.2341511547565}, "transactions": ["delivery"], "price": "$$", "location": {"address1": "804 Tyler St", "address2": "", "address3": "", "city": "Pittsfield", "zip_code": "01201", "country": "US", "state": "MA", "display_address": ["804 Tyler St", "Pittsfield, MA 01201"]}, "phone": "+14134434444", "display_phone": "(413) 443-4444", "distance": 9569.310682318683}, {"id": "z0qioLtn44qHtv-fm4rd0w", "alias": "panda-garden-pittsfield", "name": "Panda Garden", "image_url": "https://s3-media1.fl.yelpcdn.com/bphoto/EuxaT94SmiyxMw6bH6_sSA/o.jpg", "is_closed": false, "url": "https://www.yelp.com/biz/panda-garden-pittsfield?adjust_creative=ywY5UnLZrNrRl2b93Ruy_g&utm_campaign=yelp_api_v3&utm_medium=api_v3_business_search&utm_source=ywY5UnLZrNrRl2b93Ruy_g", "review_count": 15, "categories": [{"alias": "chinese", "title": "Chinese"}], "rating": 2.5, "coordinates": {"latitude": 42.4563598632812, "longitude": -73.2361297607422}, "transactions": ["delivery"], "price": "$", "location": {"address1": "724 Tyler St", "address2": "", "address3": "", "city": "Pittsfield", "zip_code": "01201", "country": "US", "state": "MA", "display_address": ["724 Tyler St", "Pittsfield, MA 01201"]}, "phone": "+14134428881", "display_phone": "(413) 442-8881", "distance": 9519.599741550384}, {"id": "BPyXFtPX_6PirL4p4HfIGA", "alias": "five-guys-pittsfield", "name": "Five Guys", "image_url": "https://s3-media1.fl.yelpcdn.com/bphoto/XerdEcgL30G8_SN5W5W1uA/o.jpg", "is_closed": false, "url": "https://www.yelp.com/biz/five-guys-pittsfield?adjust_creative=ywY5UnLZrNrRl2b93Ruy_g&utm_campaign=yelp_api_v3&utm_medium=api_v3_business_search&utm_source=ywY5UnLZrNrRl2b93Ruy_g", "review_count": 12, "categories": [{"alias": "burgers", "title": "Burgers"}, {"alias": "hotdogs", "title": "Fast Food"}], "rating": 4.0, "coordinates": {"latitude": 42.46647, "longitude": -73.2041799}, "transactions": [], "price": "$", "location": {"address1": "660 Merrill Rd", "address2": "", "address3": "", "city": "Pittsfield", "zip_code": "01201", "country": "US", "state": "MA", "display_address": ["660 Merrill Rd", "Pittsfield, MA 01201"]}, "phone": "+14134995900", "display_phone": "(413) 499-5900", "distance": 9733.0263578879}, {"id": "W8wy2-f1tkjZQPFe_xT4vQ", "alias": "subway-pittsfield-13", "name": "Subway", "image_url": "https://s3-media3.fl.yelpcdn.com/bphoto/TKupqtDxQ-vh8HoIQgur5A/o.jpg", "is_closed": false, "url": "https://www.yelp.com/biz/subway-pittsfield-13?adjust_creative=ywY5UnLZrNrRl2b93Ruy_g&utm_campaign=yelp_api_v3&utm_medium=api_v3_business_search&utm_source=ywY5UnLZrNrRl2b93Ruy_g", "review_count": 1, "categories": [{"alias": "sandwiches", "title": "Sandwiches"}], "rating": 4.0, "coordinates": {"latitude": 42.4649194, "longitude": -73.1985031}, "transactions": [], "price": "$", "location": {"address1": "555 Hubbard Ave", "address2": "Ste 12", "address3": null, "city": "Pittsfield", "zip_code": "01201", "country": "US", "state": "MA", "display_address": ["555 Hubbard Ave", "Ste 12", "Pittsfield, MA 01201"]}, "phone": "+14134422539", "display_phone": "(413) 442-2539", "distance": 9982.800966614994}, {"id": "DtvBqKyG3RGwuR2kKlQDIg", "alias": "liberty-pizza-pittsfield", "name": "Liberty Pizza", "image_url": "https://s3-media4.fl.yelpcdn.com/bphoto/WkGRUbLAUhTKPbP8ap_MxQ/o.jpg", "is_closed": false, "url": "https://www.yelp.com/biz/liberty-pizza-pittsfield?adjust_creative=ywY5UnLZrNrRl2b93Ruy_g&utm_campaign=yelp_api_v3&utm_medium=api_v3_business_search&utm_source=ywY5UnLZrNrRl2b93Ruy_g", "review_count": 34, "categories": [{"alias": "pizza", "title": "Pizza"}], "rating": 4.0, "coordinates": {"latitude": 42.4526978, "longitude": -73.2525711}, "transactions": ["delivery", "pickup"], "price": "$", "location": {"address1": "308 North St", "address2": null, "address3": null, "city": "Pittsfield", "zip_code": "01201", "country": "US", "state": "MA", "display_address": ["308 North St", "Pittsfield, MA 01201"]}, "phone": "+14134997779", "display_phone": "(413) 499-7779", "distance": 9621.889017824173}, {"id": "CoFihDflA9ff6k_s6QgMBA", "alias": "hot-tomatoes-neopolitan-pizza-pittsfield", "name": "Hot Tomatoes Neopolitan Pizza", "image_url": "https://s3-media2.fl.yelpcdn.com/bphoto/wJM9Yhn2QIUQRVFv4JOyCg/o.jpg", "is_closed": false, "url": "https://www.yelp.com/biz/hot-tomatoes-neopolitan-pizza-pittsfield?adjust_creative=ywY5UnLZrNrRl2b93Ruy_g&utm_campaign=yelp_api_v3&utm_medium=api_v3_business_search&utm_source=ywY5UnLZrNrRl2b93Ruy_g", "review_count": 30, "categories": [{"alias": "pizza", "title": "Pizza"}], "rating": 3.5, "coordinates": {"latitude": 42.4569893, "longitude": -73.2392578}, "transactions": ["delivery", "pickup"], "price": "$$", "location": {"address1": "542 Tyler St", "address2": null, "address3": null, "city": "Pittsfield", "zip_code": "01201", "country": "US", "state": "MA", "display_address": ["542 Tyler St", "Pittsfield, MA 01201"]}, "phone": "+14134436500", "display_phone": "(413) 443-6500", "distance": 9386.182601835315}, {"id": "_UOV6TpTX9oGunNqFNBT0g", "alias": "kellys-diner-pittsfield", "name": "Kelly's Diner", "image_url": "https://s3-media4.fl.yelpcdn.com/bphoto/dPhDpYeK2lP-PD8Qn1iPRA/o.jpg", "is_closed": false, "url": "https://www.yelp.com/biz/kellys-diner-pittsfield?adjust_creative=ywY5UnLZrNrRl2b93Ruy_g&utm_campaign=yelp_api_v3&utm_medium=api_v3_business_search&utm_source=ywY5UnLZrNrRl2b93Ruy_g", "review_count": 30, "categories": [{"alias": "breakfast_brunch", "title": "Breakfast & Brunch"}], "rating": 3.5, "coordinates": {"latitude": 42.467871, "longitude": -73.202713}, "transactions": ["delivery"], "price": "$", "location": {"address1": "860 Dalton Ave", "address2": "", "address3": "", "city": "Pittsfield", "zip_code": "01201", "country": "US", "state": "MA", "display_address": ["860 Dalton Ave", "Pittsfield, MA 01201"]}, "phone": "+14134421875", "display_phone": "(413) 442-1875", "distance": 9516.925831546596}, {"id": "PtjQ9BHdSh-InDjpYEoLAw", "alias": "pizza-hut-pittsfield-7", "name": "Pizza Hut", "image_url": "https://s3-media2.fl.yelpcdn.com/bphoto/0fWoaDnHsxJ4fqSSKwa4-w/o.jpg", "is_closed": false, "url": "https://www.yelp.com/biz/pizza-hut-pittsfield-7?adjust_creative=ywY5UnLZrNrRl2b93Ruy_g&utm_campaign=yelp_api_v3&utm_medium=api_v3_business_search&utm_source=ywY5UnLZrNrRl2b93Ruy_g", "review_count": 5, "categories": [{"alias": "italian", "title": "Italian"}, {"alias": "pizza", "title": "Pizza"}], "rating": 2.5, "coordinates": {"latitude": 42.465908213687, "longitude": -73.2030403283647}, "transactions": ["delivery", "pickup"], "price": "$", "location": {"address1": "660 Merrill Rd", "address2": null, "address3": null, "city": "Pittsfield", "zip_code": "01201", "country": "US", "state": "MA", "display_address": ["660 Merrill Rd", "Pittsfield, MA 01201"]}, "phone": "+14134999891", "display_phone": "(413) 499-9891", "distance": 9683.698165510488}, {"id": "j0gbnpRxeNXdAUkM7v07tA", "alias": "angelinas-submarine-shops-pittsfield-3", "name": "Angelina's Submarine Shops", "image_url": "https://s3-media2.fl.yelpcdn.com/bphoto/boTt2q-zakPxgJ96TBvKUA/o.jpg", "is_closed": false, "url": "https://www.yelp.com/biz/angelinas-submarine-shops-pittsfield-3?adjust_creative=ywY5UnLZrNrRl2b93Ruy_g&utm_campaign=yelp_api_v3&utm_medium=api_v3_business_search&utm_source=ywY5UnLZrNrRl2b93Ruy_g", "review_count": 8, "categories": [{"alias": "sandwiches", "title": "Sandwiches"}], "rating": 3.0, "coordinates": {"latitude": 42.4446907, "longitude": -73.2400894}, "transactions": ["delivery"], "price": "$", "location": {"address1": "133 Elm St", "address2": null, "address3": null, "city": "Pittsfield", "zip_code": "01201", "country": "US", "state": "MA", "display_address": ["133 Elm St", "Pittsfield, MA 01201"]}, "phone": "+14134998892", "display_phone": "(413) 499-8892", "distance": 10723.32012624153}, {"id": "JE7ddPRkUKhgWO0Jmy7xNg", "alias": "china-wok-pittsfield", "name": "China Wok", "image_url": "https://s3-media1.fl.yelpcdn.com/bphoto/jWYAgXQeOzMzTTvhnHWKXg/o.jpg", "is_closed": false, "url": "https://www.yelp.com/biz/china-wok-pittsfield?adjust_creative=ywY5UnLZrNrRl2b93Ruy_g&utm_campaign=yelp_api_v3&utm_medium=api_v3_business_search&utm_source=ywY5UnLZrNrRl2b93Ruy_g", "review_count": 15, "categories": [{"alias": "chinese", "title": "Chinese"}], "rating": 3.5, "coordinates": {"latitude": 42.4633937, "longitude": -73.2146138}, "transactions": ["delivery"], "price": "$", "location": {"address1": "457 Dalton Ave", "address2": "Ste 6", "address3": "", "city": "Pittsfield", "zip_code": "01201", "country": "US", "state": "MA", "display_address": ["457 Dalton Ave", "Ste 6", "Pittsfield, MA 01201"]}, "phone": "+14134488810", "display_phone": "(413) 448-8810", "distance": 9295.751922125579}, {"id": "ICzaAwlkrhgVYqV_btmzdA", "alias": "hot-harrys-fresh-burritos-pittsfield", "name": "Hot Harry's Fresh Burritos", "image_url": "https://s3-media3.fl.yelpcdn.com/bphoto/5uSvDlT-xZhiwdWLTOiWew/o.jpg", "is_closed": false, "url": "https://www.yelp.com/biz/hot-harrys-fresh-burritos-pittsfield?adjust_creative=ywY5UnLZrNrRl2b93Ruy_g&utm_campaign=yelp_api_v3&utm_medium=api_v3_business_search&utm_source=ywY5UnLZrNrRl2b93Ruy_g", "review_count": 18, "categories": [{"alias": "mexican", "title": "Mexican"}], "rating": 3.0, "coordinates": {"latitude": 42.456347, "longitude": -73.236124}, "transactions": ["delivery"], "price": "$", "location": {"address1": "724 Tyler St", "address2": null, "address3": null, "city": "Pittsfield", "zip_code": "01201", "country": "US", "state": "MA", "display_address": ["724 Tyler St", "Pittsfield, MA 01201"]}, "phone": "+14134482220", "display_phone": "(413) 448-2220", "distance": 9522.192547621153}, {"id": "9KNacuxUSbU6_v10Jn8Npg", "alias": "friendlys-pittsfield", "name": "Friendly's", "image_url": "https://s3-media3.fl.yelpcdn.com/bphoto/DAdk5s3FnedyuVpFxs0jfw/o.jpg", "is_closed": false, "url": "https://www.yelp.com/biz/friendlys-pittsfield?adjust_creative=ywY5UnLZrNrRl2b93Ruy_g&utm_campaign=yelp_api_v3&utm_medium=api_v3_business_search&utm_source=ywY5UnLZrNrRl2b93Ruy_g", "review_count": 22, "categories": [{"alias": "icecream", "title": "Ice Cream & Frozen Yogurt"}, {"alias": "burgers", "title": "Burgers"}, {"alias": "tradamerican", "title": "American (Traditional)"}], "rating": 2.5, "coordinates": {"latitude": 42.4683225899935, "longitude": -73.2024212926626}, "transactions": ["delivery"], "price": "$$", "location": {"address1": "841 Dalton Ave", "address2": "", "address3": "", "city": "Pittsfield", "zip_code": "01201", "country": "US", "state": "MA", "display_address": ["841 Dalton Ave", "Pittsfield, MA 01201"]}, "phone": "+14134430282", "display_phone": "(413) 443-0282", "distance": 9446.16572935439}, {"id": "llMqQ1MjpYDPPFII7aQU3g", "alias": "dotties-coffee-lounge-pittsfield", "name": "Dottie's Coffee Lounge", "image_url": "https://s3-media1.fl.yelpcdn.com/bphoto/Nlx2Ig4HbJ2cCPdThRir9A/o.jpg", "is_closed": false, "url": "https://www.yelp.com/biz/dotties-coffee-lounge-pittsfield?adjust_creative=ywY5UnLZrNrRl2b93Ruy_g&utm_campaign=yelp_api_v3&utm_medium=api_v3_business_search&utm_source=ywY5UnLZrNrRl2b93Ruy_g", "review_count": 121, "categories": [{"alias": "coffee", "title": "Coffee & Tea"}, {"alias": "breakfast_brunch", "title": "Breakfast & Brunch"}], "rating": 4.0, "coordinates": {"latitude": 42.4545999, "longitude": -73.2519895}, "transactions": ["delivery"], "price": "$$", "location": {"address1": "444 North St", "address2": "", "address3": "", "city": "Pittsfield", "zip_code": "01201", "country": "US", "state": "MA", "display_address": ["444 North St", "Pittsfield, MA 01201"]}, "phone": "+14134431792", "display_phone": "(413) 443-1792", "distance": 9414.970124398118}, {"id": "D8xwwhEQSzQu9wOpX-lytA", "alias": "south-street-pizza-house-pittsfield", "name": "South Street Pizza House", "image_url": "https://s3-media1.fl.yelpcdn.com/bphoto/7KZpvjWkZFNQ2RAzzfCQ7A/o.jpg", "is_closed": false, "url": "https://www.yelp.com/biz/south-street-pizza-house-pittsfield?adjust_creative=ywY5UnLZrNrRl2b93Ruy_g&utm_campaign=yelp_api_v3&utm_medium=api_v3_business_search&utm_source=ywY5UnLZrNrRl2b93Ruy_g", "review_count": 12, "categories": [{"alias": "pizza", "title": "Pizza"}], "rating": 3.0, "coordinates": {"latitude": 42.4453999, "longitude": -73.2548167}, "transactions": ["delivery"], "price": "$", "location": {"address1": "148 South St", "address2": "", "address3": "", "city": "Pittsfield", "zip_code": "01201", "country": "US", "state": "MA", "display_address": ["148 South St", "Pittsfield, MA 01201"]}, "phone": "+14134991690", "display_phone": "(413) 499-1690", "distance": 10432.607795880413}, {"id": "dPrW7czCTb9yQkZsiyhKcg", "alias": "papa-ginos-pizzeria-pittsfield", "name": "Papa Gino's Pizzeria", "image_url": "https://s3-media1.fl.yelpcdn.com/bphoto/NKN58oe59RYs8nXmvCD_Qg/o.jpg", "is_closed": false, "url": "https://www.yelp.com/biz/papa-ginos-pizzeria-pittsfield?adjust_creative=ywY5UnLZrNrRl2b93Ruy_g&utm_campaign=yelp_api_v3&utm_medium=api_v3_business_search&utm_source=ywY5UnLZrNrRl2b93Ruy_g", "review_count": 21, "categories": [{"alias": "pizza", "title": "Pizza"}], "rating": 2.5, "coordinates": {"latitude": 42.4659526682081, "longitude": -73.2064502022769}, "transactions": ["delivery"], "price": "$$", "location": {"address1": "685 Merrill Rd", "address2": null, "address3": null, "city": "Pittsfield", "zip_code": "01201", "country": "US", "state": "MA", "display_address": ["685 Merrill Rd", "Pittsfield, MA 01201"]}, "phone": "+14134455307", "display_phone": "(413) 445-5307", "distance": 9529.062498063366}, {"id": "KWeBXXzXh9OFbPqCm4_-nA", "alias": "panera-bread-pittsfield", "name": "Panera Bread", "image_url": "https://s3-media3.fl.yelpcdn.com/bphoto/uamCSTPMYSB1mNZV221n9g/o.jpg", "is_closed": false, "url": "https://www.yelp.com/biz/panera-bread-pittsfield?adjust_creative=ywY5UnLZrNrRl2b93Ruy_g&utm_campaign=yelp_api_v3&utm_medium=api_v3_business_search&utm_source=ywY5UnLZrNrRl2b93Ruy_g", "review_count": 18, "categories": [{"alias": "sandwiches", "title": "Sandwiches"}, {"alias": "salad", "title": "Salad"}, {"alias": "soup", "title": "Soup"}], "rating": 2.5, "coordinates": {"latitude": 42.465182, "longitude": -73.206932}, "transactions": [], "price": "$$", "location": {"address1": "635 Merrill Rd", "address2": null, "address3": null, "city": "Pittsfield", "zip_code": "01201", "country": "US", "state": "MA", "display_address": ["635 Merrill Rd", "Pittsfield, MA 01201"]}, "phone": "+14134433200", "display_phone": "(413) 443-3200", "distance": 9581.325085506503}, {"id": "XvvFFVTRyb9-8OZPUVRSqw", "alias": "ginos-pizza-and-grill-pittsfield", "name": "Ginos Pizza and Grill", "image_url": "https://s3-media3.fl.yelpcdn.com/bphoto/2zq5ieHpYjnGxFee6p7YVw/o.jpg", "is_closed": false, "url": "https://www.yelp.com/biz/ginos-pizza-and-grill-pittsfield?adjust_creative=ywY5UnLZrNrRl2b93Ruy_g&utm_campaign=yelp_api_v3&utm_medium=api_v3_business_search&utm_source=ywY5UnLZrNrRl2b93Ruy_g", "review_count": 7, "categories": [{"alias": "pizza", "title": "Pizza"}, {"alias": "hotdogs", "title": "Fast Food"}, {"alias": "italian", "title": "Italian"}], "rating": 2.5, "coordinates": {"latitude": 42.4760729, "longitude": -73.2444672}, "transactions": ["delivery"], "price": "$$", "location": {"address1": "1206 North St", "address2": "", "address3": "", "city": "Pittsfield", "zip_code": "01201", "country": "US", "state": "MA", "display_address": ["1206 North St", "Pittsfield, MA 01201"]}, "phone": "+14134424466", "display_phone": "(413) 442-4466", "distance": 7225.527758522113}, {"id": "LsJESTdNxIHgnlsYiep9YA", "alias": "parkside-restaurant-pittsfield", "name": "Parkside Restaurant", "image_url": "", "is_closed": false, "url": "https://www.yelp.com/biz/parkside-restaurant-pittsfield?adjust_creative=ywY5UnLZrNrRl2b93Ruy_g&utm_campaign=yelp_api_v3&utm_medium=api_v3_business_search&utm_source=ywY5UnLZrNrRl2b93Ruy_g", "review_count": 1, "categories": [{"alias": "restaurants", "title": "Restaurants"}], "rating": 1.0, "coordinates": {"latitude": 42.4428520202637, "longitude": -73.2650604248047}, "transactions": [], "location": {"address1": "220 W Housatonic St", "address2": "", "address3": "", "city": "Pittsfield", "zip_code": "01201", "country": "US", "state": "MA", "display_address": ["220 W Housatonic St", "Pittsfield, MA 01201"]}, "phone": "+14134479536", "display_phone": "(413) 447-9536", "distance": 10665.442292434034}, {"id": "zf-nxO_RnpkuZwVPU0JknQ", "alias": "court-square-breakfast-and-deli-pittsfield", "name": "Court Square Breakfast & Deli", "image_url": "https://s3-media2.fl.yelpcdn.com/bphoto/ZPpPVGSxyEDjfJJ9edXxTg/o.jpg", "is_closed": false, "url": "https://www.yelp.com/biz/court-square-breakfast-and-deli-pittsfield?adjust_creative=ywY5UnLZrNrRl2b93Ruy_g&utm_campaign=yelp_api_v3&utm_medium=api_v3_business_search&utm_source=ywY5UnLZrNrRl2b93Ruy_g", "review_count": 1, "categories": [{"alias": "breakfast_brunch", "title": "Breakfast & Brunch"}], "rating": 3.0, "coordinates": {"latitude": 42.4482234567404, "longitude": -73.2521011680365}, "transactions": [], "price": "$", "location": {"address1": "95 East St", "address2": "", "address3": "", "city": "Pittsfield", "zip_code": "01201", "country": "US", "state": "MA", "display_address": ["95 East St", "Pittsfield, MA 01201"]}, "phone": "+14134429896", "display_phone": "(413) 442-9896", "distance": 10135.188699565222}, {"id": "eJuEEKGzbvtlLHXSblxR7Q", "alias": "dominos-pizza-pittsfield", "name": "Domino's Pizza", "image_url": "https://s3-media2.fl.yelpcdn.com/bphoto/LPePHVq_IXpXsw-ApM5XVw/o.jpg", "is_closed": false, "url": "https://www.yelp.com/biz/dominos-pizza-pittsfield?adjust_creative=ywY5UnLZrNrRl2b93Ruy_g&utm_campaign=yelp_api_v3&utm_medium=api_v3_business_search&utm_source=ywY5UnLZrNrRl2b93Ruy_g", "review_count": 7, "categories": [{"alias": "pizza", "title": "Pizza"}, {"alias": "chicken_wings", "title": "Chicken Wings"}, {"alias": "sandwiches", "title": "Sandwiches"}], "rating": 3.5, "coordinates": {"latitude": 42.44263, "longitude": -73.23051}, "transactions": [], "price": "$", "location": {"address1": "321 1/2 Elm St", "address2": "", "address3": "", "city": "Pittsfield", "zip_code": "01201", "country": "US", "state": "MA", "display_address": ["321 1/2 Elm St", "Pittsfield, MA 01201"]}, "phone": "+14134993994", "display_phone": "(413) 499-3994", "distance": 11107.580541281935}, {"id": "JzFcNSTefetIDqcxnMRq8A", "alias": "angelinas-submarine-shops-pittsfield", "name": "Angelina's Submarine Shops", "image_url": "", "is_closed": false, "url": "https://www.yelp.com/biz/angelinas-submarine-shops-pittsfield?adjust_creative=ywY5UnLZrNrRl2b93Ruy_g&utm_campaign=yelp_api_v3&utm_medium=api_v3_business_search&utm_source=ywY5UnLZrNrRl2b93Ruy_g", "review_count": 7, "categories": [{"alias": "sandwiches", "title": "Sandwiches"}, {"alias": "salad", "title": "Salad"}, {"alias": "burgers", "title": "Burgers"}], "rating": 3.0, "coordinates": {"latitude": 42.457275390625, "longitude": -73.2288513183594}, "transactions": ["delivery", "pickup"], "price": "$", "location": {"address1": "100 Dalton Ave", "address2": "", "address3": "", "city": "Pittsfield", "zip_code": "01201", "country": "US", "state": "MA", "display_address": ["100 Dalton Ave", "Pittsfield, MA 01201"]}, "phone": "+14134439875", "display_phone": "(413) 443-9875", "distance": 9593.800541192326}, {"id": "5MUciMsGKM5fvGpkxadGuw", "alias": "dominos-pizza-pittsfield-2", "name": "Domino's Pizza", "image_url": "", "is_closed": false, "url": "https://www.yelp.com/biz/dominos-pizza-pittsfield-2?adjust_creative=ywY5UnLZrNrRl2b93Ruy_g&utm_campaign=yelp_api_v3&utm_medium=api_v3_business_search&utm_source=ywY5UnLZrNrRl2b93Ruy_g", "review_count": 4, "categories": [{"alias": "pizza", "title": "Pizza"}, {"alias": "chicken_wings", "title": "Chicken Wings"}, {"alias": "sandwiches", "title": "Sandwiches"}], "rating": 4.0, "coordinates": {"latitude": 42.47718, "longitude": -73.245323}, "transactions": [], "price": "$", "location": {"address1": "1229 North St", "address2": null, "address3": null, "city": "Pittsfield", "zip_code": "01201", "country": "US", "state": "MA", "display_address": ["1229 North St", "Pittsfield, MA 01201"]}, "phone": "+14134997979", "display_phone": "(413) 499-7979", "distance": 7096.048879277262}, {"id": "xeVfQxBzL4VmaH3gVLwwgA", "alias": "subway-pittsfield-15", "name": "Subway", "image_url": "https://s3-media3.fl.yelpcdn.com/bphoto/RlP8wlwgOMB0sWaAUZymsw/o.jpg", "is_closed": false, "url": "https://www.yelp.com/biz/subway-pittsfield-15?adjust_creative=ywY5UnLZrNrRl2b93Ruy_g&utm_campaign=yelp_api_v3&utm_medium=api_v3_business_search&utm_source=ywY5UnLZrNrRl2b93Ruy_g", "review_count": 2, "categories": [{"alias": "sandwiches", "title": "Sandwiches"}], "rating": 1.5, "coordinates": {"latitude": 42.4761589512098, "longitude": -73.2646737913772}, "transactions": [], "price": "$", "location": {"address1": "370 Pecks Rd", "address2": null, "address3": null, "city": "Pittsfield", "zip_code": "01201", "country": "US", "state": "MA", "display_address": ["370 Pecks Rd", "Pittsfield, MA 01201"]}, "phone": "+14134488001", "display_phone": "(413) 448-8001", "distance": 6962.50559245568}, {"id": "xa_98hTmK47xF4Mx72HNJA", "alias": "empire-pizza-restaurant-pittsfield", "name": "Empire Pizza Restaurant", "image_url": "https://s3-media2.fl.yelpcdn.com/bphoto/8Hlva0OuLY_7QnVhI0StUQ/o.jpg", "is_closed": false, "url": "https://www.yelp.com/biz/empire-pizza-restaurant-pittsfield?adjust_creative=ywY5UnLZrNrRl2b93Ruy_g&utm_campaign=yelp_api_v3&utm_medium=api_v3_business_search&utm_source=ywY5UnLZrNrRl2b93Ruy_g", "review_count": 16, "categories": [{"alias": "pizza", "title": "Pizza"}, {"alias": "salad", "title": "Salad"}, {"alias": "sandwiches", "title": "Sandwiches"}], "rating": 2.5, "coordinates": {"latitude": 42.45471, "longitude": -73.2527099}, "transactions": ["delivery"], "price": "$", "location": {"address1": "413 North St", "address2": null, "address3": null, "city": "Pittsfield", "zip_code": "01201", "country": "US", "state": "MA", "display_address": ["413 North St", "Pittsfield, MA 01201"]}, "phone": "+14134430043", "display_phone": "(413) 443-0043", "distance": 9430.71062895729}, {"id": "G2TCWZQrMbz70Er_JimNJA", "alias": "subway-pittsfield-16", "name": "Subway", "image_url": "https://s3-media1.fl.yelpcdn.com/bphoto/Oha4-dP6Od1x5pfF5Fj7vA/o.jpg", "is_closed": false, "url": "https://www.yelp.com/biz/subway-pittsfield-16?adjust_creative=ywY5UnLZrNrRl2b93Ruy_g&utm_campaign=yelp_api_v3&utm_medium=api_v3_business_search&utm_source=ywY5UnLZrNrRl2b93Ruy_g", "review_count": 4, "categories": [{"alias": "sandwiches", "title": "Sandwiches"}], "rating": 3.0, "coordinates": {"latitude": 42.4439050543705, "longitude": -73.2547261}, "transactions": [], "price": "$", "location": {"address1": "179 South St", "address2": "", "address3": "", "city": "Pittsfield", "zip_code": "01201", "country": "US", "state": "MA", "display_address": ["179 South St", "Pittsfield, MA 01201"]}, "phone": "+14134990048", "display_phone": "(413) 499-0048", "distance": 10598.72122525647}, {"id": "j3iGXa2h_E9-JDTYhcBMEg", "alias": "hold-the-anchovies-pittsfield", "name": "Hold the Anchovies", "image_url": "", "is_closed": false, "url": "https://www.yelp.com/biz/hold-the-anchovies-pittsfield?adjust_creative=ywY5UnLZrNrRl2b93Ruy_g&utm_campaign=yelp_api_v3&utm_medium=api_v3_business_search&utm_source=ywY5UnLZrNrRl2b93Ruy_g", "review_count": 1, "categories": [{"alias": "pizza", "title": "Pizza"}], "rating": 1.0, "coordinates": {"latitude": 42.46429, "longitude": -73.21442}, "transactions": [], "price": "$$", "location": {"address1": "455 Dalton Ave", "address2": "", "address3": "", "city": "Pittsfield", "zip_code": "01201", "country": "US", "state": "MA", "display_address": ["455 Dalton Ave", "Pittsfield, MA 01201"]}, "phone": "+14134432400", "display_phone": "(413) 443-2400", "distance": 9363.573984794968}, {"id": "RSZ2RNa8ckSPTlLmpff1hw", "alias": "burger-king-pittsfield-2", "name": "Burger King", "image_url": "https://s3-media1.fl.yelpcdn.com/bphoto/YJuSy1BcNBWa1iw33Gc5QQ/o.jpg", "is_closed": false, "url": "https://www.yelp.com/biz/burger-king-pittsfield-2?adjust_creative=ywY5UnLZrNrRl2b93Ruy_g&utm_campaign=yelp_api_v3&utm_medium=api_v3_business_search&utm_source=ywY5UnLZrNrRl2b93Ruy_g", "review_count": 4, "categories": [{"alias": "burgers", "title": "Burgers"}, {"alias": "hotdogs", "title": "Fast Food"}], "rating": 2.5, "coordinates": {"latitude": 42.44886, "longitude": -73.25139}, "transactions": [], "price": "$", "location": {"address1": "29 First Street", "address2": "", "address3": "", "city": "Pittsfield", "zip_code": "01201", "country": "US", "state": "MA", "display_address": ["29 First Street", "Pittsfield, MA 01201"]}, "phone": "", "display_phone": "", "distance": 10094.134533511495}, {"id": "j9UeZCXnFfeMlwqFnIXfCw", "alias": "wendys-pittsfield-2", "name": "Wendy's", "image_url": "https://s3-media1.fl.yelpcdn.com/bphoto/PXtaHMk789N-we_ZBFnlhQ/o.jpg", "is_closed": false, "url": "https://www.yelp.com/biz/wendys-pittsfield-2?adjust_creative=ywY5UnLZrNrRl2b93Ruy_g&utm_campaign=yelp_api_v3&utm_medium=api_v3_business_search&utm_source=ywY5UnLZrNrRl2b93Ruy_g", "review_count": 17, "categories": [{"alias": "hotdogs", "title": "Fast Food"}, {"alias": "burgers", "title": "Burgers"}], "rating": 2.5, "coordinates": {"latitude": 42.468646, "longitude": -73.195668}, "transactions": ["delivery"], "price": "$", "location": {"address1": "556 Hubbard Avenue", "address2": "", "address3": "", "city": "Pittsfield", "zip_code": "01201", "country": "US", "state": "MA", "display_address": ["556 Hubbard Avenue", "Pittsfield, MA 01201"]}, "phone": "+14134422053", "display_phone": "(413) 442-2053", "distance": 9782.706108439259}, {"id": "_yuFi7fMtXH-3DK_XgAa7Q", "alias": "elm-st-java-pittsfield", "name": "Elm St Java", "image_url": "https://s3-media2.fl.yelpcdn.com/bphoto/ULd2Lo8LZRQ_3dlVR28OMQ/o.jpg", "is_closed": false, "url": "https://www.yelp.com/biz/elm-st-java-pittsfield?adjust_creative=ywY5UnLZrNrRl2b93Ruy_g&utm_campaign=yelp_api_v3&utm_medium=api_v3_business_search&utm_source=ywY5UnLZrNrRl2b93Ruy_g", "review_count": 4, "categories": [{"alias": "coffee", "title": "Coffee & Tea"}, {"alias": "breakfast_brunch", "title": "Breakfast & Brunch"}, {"alias": "sandwiches", "title": "Sandwiches"}], "rating": 4.5, "coordinates": {"latitude": 42.443323, "longitude": -73.2355684}, "transactions": [], "price": "$", "location": {"address1": "216 Elm St", "address2": "", "address3": "", "city": "Pittsfield", "zip_code": "01201", "country": "US", "state": "MA", "display_address": ["216 Elm St", "Pittsfield, MA 01201"]}, "phone": "+14134995282", "display_phone": "(413) 499-5282", "distance": 10934.85082079507}, {"id": "3TyINqqzEADspKjjStQOsQ", "alias": "mcdonalds-pittsfield", "name": "McDonald's", "image_url": "https://s3-media3.fl.yelpcdn.com/bphoto/JeCD1DpJ1rrasg9aYG7Eew/o.jpg", "is_closed": false, "url": "https://www.yelp.com/biz/mcdonalds-pittsfield?adjust_creative=ywY5UnLZrNrRl2b93Ruy_g&utm_campaign=yelp_api_v3&utm_medium=api_v3_business_search&utm_source=ywY5UnLZrNrRl2b93Ruy_g", "review_count": 5, "categories": [{"alias": "coffee", "title": "Coffee & Tea"}, {"alias": "burgers", "title": "Burgers"}, {"alias": "hotdogs", "title": "Fast Food"}], "rating": 3.0, "coordinates": {"latitude": 42.468519, "longitude": -73.2040031329598}, "transactions": [], "price": "$", "location": {"address1": "61 Cheshire Rd", "address2": "", "address3": "", "city": "Pittsfield", "zip_code": "01201", "country": "US", "state": "MA", "display_address": ["61 Cheshire Rd", "Pittsfield, MA 01201"]}, "phone": "+14134424602", "display_phone": "(413) 442-4602", "distance": 9398.058461692634}, {"id": "JdgwEC4QOezifl1_1dtCXA", "alias": "taco-bell-pittsfield-2", "name": "Taco Bell", "image_url": "https://s3-media1.fl.yelpcdn.com/bphoto/SDdSHQO3GYmXloHlSlEiKQ/o.jpg", "is_closed": false, "url": "https://www.yelp.com/biz/taco-bell-pittsfield-2?adjust_creative=ywY5UnLZrNrRl2b93Ruy_g&utm_campaign=yelp_api_v3&utm_medium=api_v3_business_search&utm_source=ywY5UnLZrNrRl2b93Ruy_g", "review_count": 15, "categories": [{"alias": "hotdogs", "title": "Fast Food"}, {"alias": "tacos", "title": "Tacos"}], "rating": 2.5, "coordinates": {"latitude": 42.4690315746512, "longitude": -73.1969030708575}, "transactions": ["delivery"], "price": "$", "location": {"address1": "555 Hubbard Ave", "address2": "", "address3": "", "city": "Pittsfield", "zip_code": "01201", "country": "US", "state": "MA", "display_address": ["555 Hubbard Ave", "Pittsfield, MA 01201"]}, "phone": "+14134421007", "display_phone": "(413) 442-1007", "distance": 9688.414172120663}, {"id": "F5RjLFPDJzWnN3fbL0-gDg", "alias": "mcdonalds-pittsfield-2", "name": "McDonald's", "image_url": "https://s3-media1.fl.yelpcdn.com/bphoto/GSTZvTKKW65XCBu70oor-w/o.jpg", "is_closed": false, "url": "https://www.yelp.com/biz/mcdonalds-pittsfield-2?adjust_creative=ywY5UnLZrNrRl2b93Ruy_g&utm_campaign=yelp_api_v3&utm_medium=api_v3_business_search&utm_source=ywY5UnLZrNrRl2b93Ruy_g", "review_count": 9, "categories": [{"alias": "burgers", "title": "Burgers"}, {"alias": "hotdogs", "title": "Fast Food"}, {"alias": "coffee", "title": "Coffee & Tea"}], "rating": 2.0, "coordinates": {"latitude": 42.442670060133, "longitude": -73.2749373774732}, "transactions": [], "price": "$", "location": {"address1": "445 W Housatonic St", "address2": "", "address3": "", "city": "Pittsfield", "zip_code": "01201", "country": "US", "state": "MA", "display_address": ["445 W Housatonic St", "Pittsfield, MA 01201"]}, "phone": "+14134424629", "display_phone": "(413) 442-4629", "distance": 10697.431028081914}, {"id": "C4OiIXuNN6PbCq8gaMyc1Q", "alias": "papas-best-batch-red-hook", "name": "Papa's Best Batch", "image_url": "https://s3-media2.fl.yelpcdn.com/bphoto/TP_X6t_lwfuT-1MI915hhA/o.jpg", "is_closed": false, "url": "https://www.yelp.com/biz/papas-best-batch-red-hook?adjust_creative=ywY5UnLZrNrRl2b93Ruy_g&utm_campaign=yelp_api_v3&utm_medium=api_v3_business_search&utm_source=ywY5UnLZrNrRl2b93Ruy_g", "review_count": 44, "categories": [{"alias": "bbq", "title": "Barbeque"}, {"alias": "foodtrucks", "title": "Food Trucks"}], "rating": 5.0, "coordinates": {"latitude": 42.028686, "longitude": -73.852675}, "transactions": [], "price": "$$", "location": {"address1": "243 Pitcher Ln", "address2": "", "address3": "Greig Farm", "city": "Red Hook", "zip_code": "12571", "country": "US", "state": "NY", "display_address": ["243 Pitcher Ln", "Greig Farm", "Red Hook, NY 12571"]}, "phone": "+19143885202", "display_phone": "(914) 388-5202", "distance": 74372.56425223478}, {"id": "qqA8YX58xnmEXLyanHfdUg", "alias": "stufd-food-truck-brooklyn", "name": "Stuf'd Food Truck", "image_url": "https://s3-media2.fl.yelpcdn.com/bphoto/_Wn0i-tLIOFinw8BPAqxPA/o.jpg", "is_closed": false, "url": "https://www.yelp.com/biz/stufd-food-truck-brooklyn?adjust_creative=ywY5UnLZrNrRl2b93Ruy_g&utm_campaign=yelp_api_v3&utm_medium=api_v3_business_search&utm_source=ywY5UnLZrNrRl2b93Ruy_g", "review_count": 4, "categories": [{"alias": "sandwiches", "title": "Sandwiches"}, {"alias": "foodtrucks", "title": "Food Trucks"}], "rating": 4.0, "coordinates": {"latitude": 40.7124539, "longitude": -73.9287374}, "transactions": [], "location": {"address1": "178 Varick Ave", "address2": "", "address3": null, "city": "Brooklyn", "zip_code": "11237", "country": "US", "state": "NY", "display_address": ["178 Varick Ave", "Brooklyn, NY 11237"]}, "phone": "+18457091808", "display_phone": "(845) 709-1808", "distance": 210369.5465374423}]