[{"id": "GOSPUVUnUCo-msm0Udb1Vw", "alias": "public-eat-drink-north-adams-3", "name": "PUBLIC eat+drink", "image_url": "https://s3-media1.fl.yelpcdn.com/bphoto/4S3BwlzeE8UEAAtNp9x7Sg/o.jpg", "is_closed": false, "url": "https://www.yelp.com/biz/public-eat-drink-north-adams-3?adjust_creative=ywY5UnLZrNrRl2b93Ruy_g&utm_campaign=yelp_api_v3&utm_medium=api_v3_business_search&utm_source=ywY5UnLZrNrRl2b93Ruy_g", "review_count": 384, "categories": [{"alias": "newamerican", "title": "American (New)"}, {"alias": "gastropubs", "title": "Gastropubs"}], "rating": 4.0, "coordinates": {"latitude": 42.700058, "longitude": -73.1118079}, "transactions": ["delivery"], "price": "$$", "location": {"address1": "34 Holden St", "address2": "", "address3": "", "city": "North Adams", "zip_code": "01247", "country": "US", "state": "MA", "display_address": ["34 Holden St", "North Adams, MA 01247"]}, "phone": "+14136644444", "display_phone": "(413) 664-4444", "distance": 13691.577184024254}, {"id": "3NAIHF4RIidr2oBsr2j5CA", "alias": "a-ok-berkshire-bbq-north-adams", "name": "A-ok Berkshire BBQ", "image_url": "https://s3-media1.fl.yelpcdn.com/bphoto/R9kPAb8K-iQz4aANB80wdw/o.jpg", "is_closed": false, "url": "https://www.yelp.com/biz/a-ok-berkshire-bbq-north-adams?adjust_creative=ywY5UnLZrNrRl2b93Ruy_g&utm_campaign=yelp_api_v3&utm_medium=api_v3_business_search&utm_source=ywY5UnLZrNrRl2b93Ruy_g", "review_count": 43, "categories": [{"alias": "bbq", "title": "Barbeque"}], "rating": 5.0, "coordinates": {"latitude": 42.7017006126745, "longitude": -73.1138479803765}, "transactions": [], "location": {"address1": "2601 Mass MoCA Way", "address2": "", "address3": null, "city": "North Adams", "zip_code": "01247", "country": "US", "state": "MA", "display_address": ["2601 Mass MoCA Way", "North Adams, MA 01247"]}, "phone": "+14133985079", "display_phone": "(413) 398-5079", "distance": 13934.824518403533}, {"id": "nZztWkUMy5g6dYdVaOe-0Q", "alias": "grazie-italian-ristorante-north-adams", "name": "Grazie Italian Ristorante", "image_url": "https://s3-media4.fl.yelpcdn.com/bphoto/oE43GAJeMPNhkCmVD99dnA/o.jpg", "is_closed": false, "url": "https://www.yelp.com/biz/grazie-italian-ristorante-north-adams?adjust_creative=ywY5UnLZrNrRl2b93Ruy_g&utm_campaign=yelp_api_v3&utm_medium=api_v3_business_search&utm_source=ywY5UnLZrNrRl2b93Ruy_g", "review_count": 51, "categories": [{"alias": "italian", "title": "Italian"}], "rating": 4.0, "coordinates": {"latitude": 42.7000664437915, "longitude": -73.1135589022095}, "transactions": [], "price": "$$", "location": {"address1": "26 Marshall St", "address2": "", "address3": "", "city": "North Adams", "zip_code": "01247", "country": "US", "state": "MA", "display_address": ["26 Marshall St", "North Adams, MA 01247"]}, "phone": "+14136640044", "display_phone": "(413) 664-0044", "distance": 13768.55723575515}, {"id": "iiwtOLU7p4M_Sq56kvhJGw", "alias": "trail-house-kitchen-and-bar-north-adams", "name": "Trail House Kitchen & Bar", "image_url": "https://s3-media3.fl.yelpcdn.com/bphoto/ByRVQu0kRDlMabBfOx-B8w/o.jpg", "is_closed": false, "url": "https://www.yelp.com/biz/trail-house-kitchen-and-bar-north-adams?adjust_creative=ywY5UnLZrNrRl2b93Ruy_g&utm_campaign=yelp_api_v3&utm_medium=api_v3_business_search&utm_source=ywY5UnLZrNrRl2b93Ruy_g", "review_count": 32, "categories": [{"alias": "bars", "title": "Bars"}, {"alias": "newamerican", "title": "American (New)"}], "rating": 4.0, "coordinates": {"latitude": 42.7003099630627, "longitude": -73.1668474897742}, "transactions": ["restaurant_reservation"], "price": "$$$", "location": {"address1": "896 State Rd", "address2": "", "address3": null, "city": "North Adams", "zip_code": "01247", "country": "US", "state": "MA", "display_address": ["896 State Rd", "North Adams, MA 01247"]}, "phone": "+14134121090", "display_phone": "(413) 412-1090", "distance": 16537.539384958316}, {"id": "FzEewR1sdPRNgIqTvxfh7Q", "alias": "haflinger-haus-restaurant-tavern-and-inn-adams", "name": "Haflinger Haus Restaurant Tavern & Inn", "image_url": "https://s3-media2.fl.yelpcdn.com/bphoto/mNj8-QpVU52UbZt8wOqZ8A/o.jpg", "is_closed": false, "url": "https://www.yelp.com/biz/haflinger-haus-restaurant-tavern-and-inn-adams?adjust_creative=ywY5UnLZrNrRl2b93Ruy_g&utm_campaign=yelp_api_v3&utm_medium=api_v3_business_search&utm_source=ywY5UnLZrNrRl2b93Ruy_g", "review_count": 40, "categories": [{"alias": "austrian", "title": "Austrian"}, {"alias": "tradamerican", "title": "American (Traditional)"}], "rating": 4.0, "coordinates": {"latitude": 42.618738, "longitude": -73.121827}, "transactions": [], "price": "$$", "location": {"address1": "17 Commercial St", "address2": null, "address3": "", "city": "Adams", "zip_code": "01220", "country": "US", "state": "MA", "display_address": ["17 Commercial St", "Adams, MA 01220"]}, "phone": "+14137432221", "display_phone": "(413) 743-2221", "distance": 8434.625817155884}, {"id": "VU3s1OoN4ShEcKlc_Iz3AA", "alias": "freight-yard-pub-and-restaurant-north-adams", "name": "Freight Yard Pub & Restaurant", "image_url": "https://s3-media3.fl.yelpcdn.com/bphoto/uw51e0o54gszEoMyX9Gt9w/o.jpg", "is_closed": false, "url": "https://www.yelp.com/biz/freight-yard-pub-and-restaurant-north-adams?adjust_creative=ywY5UnLZrNrRl2b93Ruy_g&utm_campaign=yelp_api_v3&utm_medium=api_v3_business_search&utm_source=ywY5UnLZrNrRl2b93Ruy_g", "review_count": 106, "categories": [{"alias": "tradamerican", "title": "American (Traditional)"}, {"alias": "pubs", "title": "Pubs"}], "rating": 3.5, "coordinates": {"latitude": 42.6967626878444, "longitude": -73.1140930606933}, "transactions": ["pickup"], "price": "$$", "location": {"address1": "1 Furnace St", "address2": "", "address3": "", "city": "North Adams", "zip_code": "01247", "country": "US", "state": "MA", "display_address": ["1 Furnace St", "North Adams, MA 01247"]}, "phone": "+14136636547", "display_phone": "(413) 663-6547", "distance": 13483.891222326858}, {"id": "C4skTr66kKHctEQH7U-T7Q", "alias": "elizabeths-pittsfield", "name": "Elizabeth's", "image_url": "https://s3-media1.fl.yelpcdn.com/bphoto/H8Vn6lhIqFVPIqEuOkGohA/o.jpg", "is_closed": false, "url": "https://www.yelp.com/biz/elizabeths-pittsfield?adjust_creative=ywY5UnLZrNrRl2b93Ruy_g&utm_campaign=yelp_api_v3&utm_medium=api_v3_business_search&utm_source=ywY5UnLZrNrRl2b93Ruy_g", "review_count": 111, "categories": [{"alias": "italian", "title": "Italian"}, {"alias": "newamerican", "title": "American (New)"}], "rating": 4.5, "coordinates": {"latitude": 42.453037, "longitude": -73.224449}, "transactions": ["delivery"], "price": "$$", "location": {"address1": "1264 East St", "address2": "", "address3": "", "city": "Pittsfield", "zip_code": "01201", "country": "US", "state": "MA", "display_address": ["1264 East St", "Pittsfield, MA 01201"]}, "phone": "+14134488244", "display_phone": "(413) 448-8244", "distance": 22857.681290464494}, {"id": "W98ipXrk73IKpQWCSzyxVA", "alias": "berkshire-palate-williamstown", "name": "Berkshire Palate", "image_url": "https://s3-media1.fl.yelpcdn.com/bphoto/IVVcXSz-eRkxRMsHyNDEyQ/o.jpg", "is_closed": false, "url": "https://www.yelp.com/biz/berkshire-palate-williamstown?adjust_creative=ywY5UnLZrNrRl2b93Ruy_g&utm_campaign=yelp_api_v3&utm_medium=api_v3_business_search&utm_source=ywY5UnLZrNrRl2b93Ruy_g", "review_count": 19, "categories": [{"alias": "newamerican", "title": "American (New)"}, {"alias": "gastropubs", "title": "Gastropubs"}, {"alias": "catering", "title": "Caterers"}], "rating": 4.0, "coordinates": {"latitude": 42.7024796, "longitude": -73.1843073}, "transactions": [], "price": "$$", "location": {"address1": "234 Main St", "address2": null, "address3": "", "city": "Williamstown", "zip_code": "01267", "country": "US", "state": "MA", "display_address": ["234 Main St", "Williamstown, MA 01267"]}, "phone": "+14134586304", "display_phone": "(413) 458-6304", "distance": 17740.2534549253}, {"id": "pPXCDn7nz2etvVF6Fyh2Cg", "alias": "golden-eagle-restaurant-and-gift-shoppe-clarksburg", "name": "Golden Eagle Restaurant & Gift Shoppe", "image_url": "https://s3-media1.fl.yelpcdn.com/bphoto/bYQ4eTMepsXBC7AwFAj6Eg/o.jpg", "is_closed": false, "url": "https://www.yelp.com/biz/golden-eagle-restaurant-and-gift-shoppe-clarksburg?adjust_creative=ywY5UnLZrNrRl2b93Ruy_g&utm_campaign=yelp_api_v3&utm_medium=api_v3_business_search&utm_source=ywY5UnLZrNrRl2b93Ruy_g", "review_count": 47, "categories": [{"alias": "tradamerican", "title": "American (Traditional)"}, {"alias": "seafood", "title": "Seafood"}], "rating": 3.5, "coordinates": {"latitude": 42.7093690129757, "longitude": -73.0626602891234}, "transactions": [], "price": "$$", "location": {"address1": "1935 Mohawk Trl", "address2": "", "address3": "", "city": "Clarksburg", "zip_code": "01247", "country": "US", "state": "MA", "display_address": ["1935 Mohawk Trl", "Clarksburg, MA 01247"]}, "phone": "+14136639834", "display_phone": "(413) 663-9834", "distance": 13061.958494683828}, {"id": "VvAcjLH87MhtrZC67tPpww", "alias": "cold-river-cafe-and-restaurant-charlemont", "name": "Cold River Cafe & Restaurant", "image_url": "https://s3-media2.fl.yelpcdn.com/bphoto/PV_66NvbKtHue0PFwzD6Eg/o.jpg", "is_closed": false, "url": "https://www.yelp.com/biz/cold-river-cafe-and-restaurant-charlemont?adjust_creative=ywY5UnLZrNrRl2b93Ruy_g&utm_campaign=yelp_api_v3&utm_medium=api_v3_business_search&utm_source=ywY5UnLZrNrRl2b93Ruy_g", "review_count": 48, "categories": [{"alias": "breakfast_brunch", "title": "Breakfast & Brunch"}, {"alias": "cafes", "title": "Cafes"}, {"alias": "pizza", "title": "Pizza"}], "rating": 3.5, "coordinates": {"latitude": 42.62666, "longitude": -72.88171}, "transactions": [], "price": "$$", "location": {"address1": "31A Main St", "address2": "", "address3": "", "city": "Charlemont", "zip_code": "01339", "country": "US", "state": "MA", "display_address": ["31A Main St", "Charlemont, MA 01339"]}, "phone": "+14133390000", "display_phone": "(413) 339-0000", "distance": 12098.048151016299}, {"id": "OcBZ6kfanU8lvBuYKgnjCg", "alias": "coyote-flaco-williamstown", "name": "Coyote Flaco", "image_url": "https://s3-media4.fl.yelpcdn.com/bphoto/rOc3rHkT2y8QH2-WPdlAhA/o.jpg", "is_closed": false, "url": "https://www.yelp.com/biz/coyote-flaco-williamstown?adjust_creative=ywY5UnLZrNrRl2b93Ruy_g&utm_campaign=yelp_api_v3&utm_medium=api_v3_business_search&utm_source=ywY5UnLZrNrRl2b93Ruy_g", "review_count": 112, "categories": [{"alias": "mexican", "title": "Mexican"}], "rating": 4.0, "coordinates": {"latitude": 42.704206, "longitude": -73.222765}, "transactions": [], "price": "$$", "location": {"address1": "505 Cold Spring Rd", "address2": "", "address3": "", "city": "Williamstown", "zip_code": "01267", "country": "US", "state": "MA", "display_address": ["505 Cold Spring Rd", "Williamstown, MA 01267"]}, "phone": "+14134584240", "display_phone": "(413) 458-4240", "distance": 20297.81469369839}, {"id": "CJ4IxtpJ1M34DLidfnmaoA", "alias": "water-street-grill-williamstown", "name": "Water Street Grill", "image_url": "https://s3-media3.fl.yelpcdn.com/bphoto/_QToyvujUOHgqNJdcAuIrw/o.jpg", "is_closed": false, "url": "https://www.yelp.com/biz/water-street-grill-williamstown?adjust_creative=ywY5UnLZrNrRl2b93Ruy_g&utm_campaign=yelp_api_v3&utm_medium=api_v3_business_search&utm_source=ywY5UnLZrNrRl2b93Ruy_g", "review_count": 89, "categories": [{"alias": "tradamerican", "title": "American (Traditional)"}], "rating": 4.0, "coordinates": {"latitude": 42.7077855169773, "longitude": -73.2007073611021}, "transactions": [], "price": "$$", "location": {"address1": "123 Water St", "address2": "", "address3": "", "city": "Williamstown", "zip_code": "01267", "country": "US", "state": "MA", "display_address": ["123 Water St", "Williamstown, MA 01267"]}, "phone": "+14134582175", "display_phone": "(413) 458-2175", "distance": 19152.6305516532}, {"id": "LjIq-9U-bmB-yoBzip4qLA", "alias": "mezze-bistro-bar-williamstown", "name": "Mezze Bistro + Bar", "image_url": "https://s3-media3.fl.yelpcdn.com/bphoto/VV1En774j6XPAOkz4MB1hA/o.jpg", "is_closed": false, "url": "https://www.yelp.com/biz/mezze-bistro-bar-williamstown?adjust_creative=ywY5UnLZrNrRl2b93Ruy_g&utm_campaign=yelp_api_v3&utm_medium=api_v3_business_search&utm_source=ywY5UnLZrNrRl2b93Ruy_g", "review_count": 141, "categories": [{"alias": "bars", "title": "Bars"}, {"alias": "tradamerican", "title": "American (Traditional)"}, {"alias": "venues", "title": "Venues & Event Spaces"}], "rating": 4.0, "coordinates": {"latitude": 42.6973, "longitude": -73.22639}, "transactions": [], "price": "$$$", "location": {"address1": "777 Cold Spring Road Route 7", "address2": null, "address3": "", "city": "Williamstown", "zip_code": "01267", "country": "US", "state": "MA", "display_address": ["777 Cold Spring Road Route 7", "Williamstown, MA 01267"]}, "phone": "+14134580123", "display_phone": "(413) 458-0123", "distance": 20083.17200557551}, {"id": "LsBWcjUV9pWHx18TFHmgxw", "alias": "deweys-public-house-dalton", "name": "Dewey's Public House", "image_url": "https://s3-media1.fl.yelpcdn.com/bphoto/IexiQnkl0NHDCGObVhW8QQ/o.jpg", "is_closed": false, "url": "https://www.yelp.com/biz/deweys-public-house-dalton?adjust_creative=ywY5UnLZrNrRl2b93Ruy_g&utm_campaign=yelp_api_v3&utm_medium=api_v3_business_search&utm_source=ywY5UnLZrNrRl2b93Ruy_g", "review_count": 17, "categories": [{"alias": "bars", "title": "Bars"}, {"alias": "tradamerican", "title": "American (Traditional)"}], "rating": 4.0, "coordinates": {"latitude": 42.4734917, "longitude": -73.156044}, "transactions": [], "price": "$$", "location": {"address1": "16 Depot St", "address2": "", "address3": "", "city": "Dalton", "zip_code": "01226", "country": "US", "state": "MA", "display_address": ["16 Depot St", "Dalton, MA 01226"]}, "phone": "+14136840900", "display_phone": "(413) 684-0900", "distance": 17366.27930620655}, {"id": "z7YgVWr4CI_SOOmdHH-ddQ", "alias": "lees-dynasty-adams", "name": "Lee's Dynasty", "image_url": "https://s3-media1.fl.yelpcdn.com/bphoto/AzqvxgGqymm2CP-B-dV-KA/o.jpg", "is_closed": false, "url": "https://www.yelp.com/biz/lees-dynasty-adams?adjust_creative=ywY5UnLZrNrRl2b93Ruy_g&utm_campaign=yelp_api_v3&utm_medium=api_v3_business_search&utm_source=ywY5UnLZrNrRl2b93Ruy_g", "review_count": 13, "categories": [{"alias": "chinese", "title": "Chinese"}, {"alias": "sushi", "title": "Sushi Bars"}], "rating": 4.5, "coordinates": {"latitude": 42.63389, "longitude": -73.1135}, "transactions": [], "location": {"address1": "131 Columbia St", "address2": "", "address3": null, "city": "Adams", "zip_code": "01220", "country": "US", "state": "MA", "display_address": ["131 Columbia St", "Adams, MA 01220"]}, "phone": "+14137433333", "display_phone": "(413) 743-3333", "distance": 8522.84187736387}, {"id": "30xbqOCYLbCo841PyZFv6w", "alias": "bounti-fare-restaurant-adams", "name": "Bounti-Fare Restaurant", "image_url": "https://s3-media2.fl.yelpcdn.com/bphoto/Ynn4fqHMBNhd4iKc4T4JBQ/o.jpg", "is_closed": false, "url": "https://www.yelp.com/biz/bounti-fare-restaurant-adams?adjust_creative=ywY5UnLZrNrRl2b93Ruy_g&utm_campaign=yelp_api_v3&utm_medium=api_v3_business_search&utm_source=ywY5UnLZrNrRl2b93Ruy_g", "review_count": 11, "categories": [{"alias": "newamerican", "title": "American (New)"}], "rating": 4.0, "coordinates": {"latitude": 42.6568459876221, "longitude": -73.1102218017408}, "transactions": [], "price": "$$", "location": {"address1": "200 Howland Ave", "address2": "", "address3": "", "city": "Adams", "zip_code": "01220", "country": "US", "state": "MA", "display_address": ["200 Howland Ave", "Adams, MA 01220"]}, "phone": "+14137430193", "display_phone": "(413) 743-0193", "distance": 9849.042029348362}, {"id": "E2xT92za-6k_MZr43zRZrg", "alias": "pera-mediterranean-bistro-williamstown", "name": "Pera Mediterranean Bistro", "image_url": "https://s3-media4.fl.yelpcdn.com/bphoto/DEgQJDVSGpfovyZb9SV_Ug/o.jpg", "is_closed": false, "url": "https://www.yelp.com/biz/pera-mediterranean-bistro-williamstown?adjust_creative=ywY5UnLZrNrRl2b93Ruy_g&utm_campaign=yelp_api_v3&utm_medium=api_v3_business_search&utm_source=ywY5UnLZrNrRl2b93Ruy_g", "review_count": 101, "categories": [{"alias": "mediterranean", "title": "Mediterranean"}], "rating": 3.5, "coordinates": {"latitude": 42.7104146518457, "longitude": -73.2042332684886}, "transactions": ["pickup"], "price": "$$", "location": {"address1": "60 Spring St", "address2": "", "address3": "", "city": "Williamstown", "zip_code": "01267", "country": "US", "state": "MA", "display_address": ["60 Spring St", "Williamstown, MA 01267"]}, "phone": "+14134588676", "display_phone": "(413) 458-8676", "distance": 19545.120799751785}, {"id": "UhJ73AgVx5U6mQmij6_I8g", "alias": "blue-mango-williamstown", "name": "blue mango", "image_url": "https://s3-media3.fl.yelpcdn.com/bphoto/m4YTOuY50i3SmO312Dy7Uw/o.jpg", "is_closed": false, "url": "https://www.yelp.com/biz/blue-mango-williamstown?adjust_creative=ywY5UnLZrNrRl2b93Ruy_g&utm_campaign=yelp_api_v3&utm_medium=api_v3_business_search&utm_source=ywY5UnLZrNrRl2b93Ruy_g", "review_count": 34, "categories": [{"alias": "thai", "title": "Thai"}, {"alias": "japanese", "title": "Japanese"}], "rating": 4.5, "coordinates": {"latitude": 42.7112949, "longitude": -73.2041676}, "transactions": [], "price": "$$", "location": {"address1": "27 Spring St", "address2": "", "address3": null, "city": "Williamstown", "zip_code": "01267", "country": "US", "state": "MA", "display_address": ["27 Spring St", "Williamstown, MA 01267"]}, "phone": "+14134580004", "display_phone": "(413) 458-0004", "distance": 19615.625387354656}, {"id": "jkYGwogtKOwlNhz8juiGWQ", "alias": "daily-grind-adams", "name": "Daily Grind", "image_url": "https://s3-media3.fl.yelpcdn.com/bphoto/pTIbqnNn-8fbakgAdoCjIA/o.jpg", "is_closed": false, "url": "https://www.yelp.com/biz/daily-grind-adams?adjust_creative=ywY5UnLZrNrRl2b93Ruy_g&utm_campaign=yelp_api_v3&utm_medium=api_v3_business_search&utm_source=ywY5UnLZrNrRl2b93Ruy_g", "review_count": 18, "categories": [{"alias": "delis", "title": "Delis"}], "rating": 4.0, "coordinates": {"latitude": 42.6220003995806, "longitude": -73.1200815902789}, "transactions": [], "price": "$", "location": {"address1": "57 Park St", "address2": "", "address3": "", "city": "Adams", "zip_code": "01220", "country": "US", "state": "MA", "display_address": ["57 Park St", "Adams, MA 01220"]}, "phone": "+14137439577", "display_phone": "(413) 743-9577", "distance": 8444.667351211}, {"id": "evqim7GCUmXaIXYon482IQ", "alias": "korean-garden-north-adams", "name": "Korean Garden", "image_url": "https://s3-media4.fl.yelpcdn.com/bphoto/MsgpxFwZ8Cog4BgwVZyyDA/o.jpg", "is_closed": false, "url": "https://www.yelp.com/biz/korean-garden-north-adams?adjust_creative=ywY5UnLZrNrRl2b93Ruy_g&utm_campaign=yelp_api_v3&utm_medium=api_v3_business_search&utm_source=ywY5UnLZrNrRl2b93Ruy_g", "review_count": 76, "categories": [{"alias": "korean", "title": "Korean"}, {"alias": "asianfusion", "title": "Asian Fusion"}], "rating": 4.5, "coordinates": {"latitude": 42.694896697998, "longitude": -73.1101608276367}, "transactions": [], "price": "$$", "location": {"address1": "139 Ashland St", "address2": "", "address3": "", "city": "North Adams", "zip_code": "01247", "country": "US", "state": "MA", "display_address": ["139 Ashland St", "North Adams, MA 01247"]}, "phone": "+14133464097", "display_phone": "(413) 346-4097", "distance": 13129.620885750865}, {"id": "q_XWxF3s5hTEnPiLbgmzjQ", "alias": "ajs-trailside-pub-adams", "name": "AJs trailside pub", "image_url": "https://s3-media2.fl.yelpcdn.com/bphoto/3soC_sfncbguc2LWX6Y1UQ/o.jpg", "is_closed": false, "url": "https://www.yelp.com/biz/ajs-trailside-pub-adams?adjust_creative=ywY5UnLZrNrRl2b93Ruy_g&utm_campaign=yelp_api_v3&utm_medium=api_v3_business_search&utm_source=ywY5UnLZrNrRl2b93Ruy_g", "review_count": 5, "categories": [{"alias": "tradamerican", "title": "American (Traditional)"}, {"alias": "pubs", "title": "Pubs"}], "rating": 3.0, "coordinates": {"latitude": 42.6217931885812, "longitude": -73.1190310791135}, "transactions": [], "location": {"address1": "12 Pleasant St", "address2": "", "address3": null, "city": "Adams", "zip_code": "01220", "country": "US", "state": "MA", "display_address": ["12 Pleasant St", "Adams, MA 01220"]}, "phone": "+14137437831", "display_phone": "(413) 743-7831", "distance": 8356.074321333877}, {"id": "Hz8ENDohZ-ZY2MooPz8-Eg", "alias": "spruce-corner-restaurant-goshen", "name": "Spruce Corner Restaurant", "image_url": "https://s3-media3.fl.yelpcdn.com/bphoto/Vf9B0rulKSpqtTS-E_lQrA/o.jpg", "is_closed": false, "url": "https://www.yelp.com/biz/spruce-corner-restaurant-goshen?adjust_creative=ywY5UnLZrNrRl2b93Ruy_g&utm_campaign=yelp_api_v3&utm_medium=api_v3_business_search&utm_source=ywY5UnLZrNrRl2b93Ruy_g", "review_count": 11, "categories": [{"alias": "tradamerican", "title": "American (Traditional)"}], "rating": 4.0, "coordinates": {"latitude": 42.45618, "longitude": -72.832747}, "transactions": [], "price": "$$", "location": {"address1": "188 Berkshire Trl W", "address2": "", "address3": "", "city": "Goshen", "zip_code": "01032", "country": "US", "state": "MA", "display_address": ["188 Berkshire Trl W", "Goshen, MA 01032"]}, "phone": "+14132683188", "display_phone": "(413) 268-3188", "distance": 22001.24477550376}, {"id": "wqQ-cLMbLmxzc_p4jjDSxw", "alias": "the-old-creamery-cummington-2", "name": "The Old Creamery", "image_url": "https://s3-media3.fl.yelpcdn.com/bphoto/suPv8fzXhQdsR8elaUVfzg/o.jpg", "is_closed": false, "url": "https://www.yelp.com/biz/the-old-creamery-cummington-2?adjust_creative=ywY5UnLZrNrRl2b93Ruy_g&utm_campaign=yelp_api_v3&utm_medium=api_v3_business_search&utm_source=ywY5UnLZrNrRl2b93Ruy_g", "review_count": 31, "categories": [{"alias": "grocery", "title": "Grocery"}, {"alias": "bakeries", "title": "Bakeries"}, {"alias": "sandwiches", "title": "Sandwiches"}], "rating": 4.5, "coordinates": {"latitude": 42.464115, "longitude": -72.90535}, "transactions": [], "price": "$$", "location": {"address1": "445 Berkshire Trl", "address2": "", "address3": "", "city": "Cummington", "zip_code": "01026", "country": "US", "state": "MA", "display_address": ["445 Berkshire Trl", "Cummington, MA 01026"]}, "phone": "+14136345560", "display_phone": "(413) 634-5560", "distance": 17521.271511211253}, {"id": "U2zoVAZs8xYVuBW7tyDquA", "alias": "angelinas-submarine-shop-adams", "name": "Angelina's Submarine Shop", "image_url": "https://s3-media3.fl.yelpcdn.com/bphoto/7qF4VGEMh4WqzYTZ7XAsmA/o.jpg", "is_closed": false, "url": "https://www.yelp.com/biz/angelinas-submarine-shop-adams?adjust_creative=ywY5UnLZrNrRl2b93Ruy_g&utm_campaign=yelp_api_v3&utm_medium=api_v3_business_search&utm_source=ywY5UnLZrNrRl2b93Ruy_g", "review_count": 7, "categories": [{"alias": "sandwiches", "title": "Sandwiches"}], "rating": 5.0, "coordinates": {"latitude": 42.628297, "longitude": -73.116417}, "transactions": [], "price": "$", "location": {"address1": "34 1/2 Columbia St", "address2": "", "address3": "", "city": "Adams", "zip_code": "01220", "country": "US", "state": "MA", "display_address": ["34 1/2 Columbia St", "Adams, MA 01220"]}, "phone": "+14137439744", "display_phone": "(413) 743-9744", "distance": 8441.869402006125}, {"id": "llUzaHlkasDeXANKWHdjnw", "alias": "the-6-house-pub-williamstown", "name": "The '6 House Pub", "image_url": "https://s3-media2.fl.yelpcdn.com/bphoto/SBcr6mQ8oDrjnGqvKRvbmg/o.jpg", "is_closed": false, "url": "https://www.yelp.com/biz/the-6-house-pub-williamstown?adjust_creative=ywY5UnLZrNrRl2b93Ruy_g&utm_campaign=yelp_api_v3&utm_medium=api_v3_business_search&utm_source=ywY5UnLZrNrRl2b93Ruy_g", "review_count": 69, "categories": [{"alias": "tradamerican", "title": "American (Traditional)"}, {"alias": "pubs", "title": "Pubs"}], "rating": 3.0, "coordinates": {"latitude": 42.6945968681668, "longitude": -73.2261698519241}, "transactions": [], "price": "$$", "location": {"address1": "866 Cold Spring Rd", "address2": "", "address3": "", "city": "Williamstown", "zip_code": "01267", "country": "US", "state": "MA", "display_address": ["866 Cold Spring Rd", "Williamstown, MA 01267"]}, "phone": "+14134581896", "display_phone": "(413) 458-1896", "distance": 19912.711703198587}, {"id": "eyXCrSkfRHrxFnfU3uw2gA", "alias": "gramercy-bistro-north-adams", "name": "Gramercy Bistro", "image_url": "https://s3-media4.fl.yelpcdn.com/bphoto/2cuMaIkRSZVVFOlXxW8WHw/o.jpg", "is_closed": false, "url": "https://www.yelp.com/biz/gramercy-bistro-north-adams?adjust_creative=ywY5UnLZrNrRl2b93Ruy_g&utm_campaign=yelp_api_v3&utm_medium=api_v3_business_search&utm_source=ywY5UnLZrNrRl2b93Ruy_g", "review_count": 81, "categories": [{"alias": "tradamerican", "title": "American (Traditional)"}, {"alias": "breakfast_brunch", "title": "Breakfast & Brunch"}], "rating": 3.5, "coordinates": {"latitude": 42.7021799, "longitude": -73.1137849}, "transactions": [], "price": "$$$", "location": {"address1": "87 Marshall St", "address2": "", "address3": "", "city": "North Adams", "zip_code": "01247", "country": "US", "state": "MA", "display_address": ["87 Marshall St", "North Adams, MA 01247"]}, "phone": "+14136635300", "display_phone": "(413) 663-5300", "distance": 13977.734178111514}, {"id": "xkKYVwDYXzUV62udwUaboQ", "alias": "bass-water-grill-cheshire", "name": "Bass Water Grill", "image_url": "https://s3-media2.fl.yelpcdn.com/bphoto/eq2hPkZOGZ8t5uzrOQQuPQ/o.jpg", "is_closed": false, "url": "https://www.yelp.com/biz/bass-water-grill-cheshire?adjust_creative=ywY5UnLZrNrRl2b93Ruy_g&utm_campaign=yelp_api_v3&utm_medium=api_v3_business_search&utm_source=ywY5UnLZrNrRl2b93Ruy_g", "review_count": 23, "categories": [{"alias": "newamerican", "title": "American (New)"}, {"alias": "salad", "title": "Salad"}, {"alias": "burgers", "title": "Burgers"}], "rating": 4.0, "coordinates": {"latitude": 42.554713, "longitude": -73.165292}, "transactions": [], "price": "$$", "location": {"address1": "287 S State Rd", "address2": null, "address3": null, "city": "Cheshire", "zip_code": "01225", "country": "US", "state": "MA", "display_address": ["287 S State Rd", "Cheshire, MA 01225"]}, "phone": "+14137431911", "display_phone": "(413) 743-1911", "distance": 12474.464677882188}, {"id": "BF9xYXqTP6_PRj8PBZKbyA", "alias": "hot-tomatoes-neopolitan-pizza-williamstown", "name": "Hot Tomatoes Neopolitan Pizza", "image_url": "https://s3-media2.fl.yelpcdn.com/bphoto/SoKdlxMTiCOn5TmOphjl9g/o.jpg", "is_closed": false, "url": "https://www.yelp.com/biz/hot-tomatoes-neopolitan-pizza-williamstown?adjust_creative=ywY5UnLZrNrRl2b93Ruy_g&utm_campaign=yelp_api_v3&utm_medium=api_v3_business_search&utm_source=ywY5UnLZrNrRl2b93Ruy_g", "review_count": 69, "categories": [{"alias": "pizza", "title": "Pizza"}], "rating": 4.5, "coordinates": {"latitude": 42.7085494995117, "longitude": -73.2002639770508}, "transactions": [], "price": "$$", "location": {"address1": "100 Water St", "address2": "", "address3": "", "city": "Williamstown", "zip_code": "01267", "country": "US", "state": "MA", "display_address": ["100 Water St", "Williamstown, MA 01267"]}, "phone": "+14134582722", "display_phone": "(413) 458-2722", "distance": 19171.946884519315}, {"id": "IgKsujHXUMKmSrDko-VzSA", "alias": "the-barn-kitchen-and-bar-williamstown", "name": "The Barn Kitchen & Bar", "image_url": "https://s3-media2.fl.yelpcdn.com/bphoto/fUiEkYbJIZIsDSmjS3-XJg/o.jpg", "is_closed": false, "url": "https://www.yelp.com/biz/the-barn-kitchen-and-bar-williamstown?adjust_creative=ywY5UnLZrNrRl2b93Ruy_g&utm_campaign=yelp_api_v3&utm_medium=api_v3_business_search&utm_source=ywY5UnLZrNrRl2b93Ruy_g", "review_count": 13, "categories": [{"alias": "desserts", "title": "Desserts"}, {"alias": "salad", "title": "Salad"}, {"alias": "breakfast_brunch", "title": "Breakfast & Brunch"}], "rating": 3.5, "coordinates": {"latitude": 42.708405, "longitude": -73.2052743}, "transactions": [], "location": {"address1": "103 Spring St", "address2": null, "address3": "", "city": "Williamstown", "zip_code": "01267", "country": "US", "state": "MA", "display_address": ["103 Spring St", "Williamstown, MA 01267"]}, "phone": "+19787847602", "display_phone": "(978) 784-7602", "distance": 19464.946744010016}, {"id": "IaujkYzYVYjwN4LNSZGWNg", "alias": "chees-chinese-cuisine-adams", "name": "Chee's Chinese Cuisine", "image_url": "https://s3-media1.fl.yelpcdn.com/bphoto/Txxm5ALf_ACvq2O4pkNR5g/o.jpg", "is_closed": false, "url": "https://www.yelp.com/biz/chees-chinese-cuisine-adams?adjust_creative=ywY5UnLZrNrRl2b93Ruy_g&utm_campaign=yelp_api_v3&utm_medium=api_v3_business_search&utm_source=ywY5UnLZrNrRl2b93Ruy_g", "review_count": 38, "categories": [{"alias": "chinese", "title": "Chinese"}], "rating": 4.0, "coordinates": {"latitude": 42.6247978, "longitude": -73.1190299}, "transactions": [], "price": "$$", "location": {"address1": "13 Columbia St", "address2": "", "address3": "", "city": "Adams", "zip_code": "01220", "country": "US", "state": "MA", "display_address": ["13 Columbia St", "Adams, MA 01220"]}, "phone": "+14137437270", "display_phone": "(413) 743-7270", "distance": 8470.711773568351}, {"id": "Tl7-baJG-aW8BKgiYAtmpg", "alias": "spice-root-williamstown-2", "name": "Spice Root", "image_url": "https://s3-media4.fl.yelpcdn.com/bphoto/wBCovdBGDpGyHgr3tJGNiA/o.jpg", "is_closed": false, "url": "https://www.yelp.com/biz/spice-root-williamstown-2?adjust_creative=ywY5UnLZrNrRl2b93Ruy_g&utm_campaign=yelp_api_v3&utm_medium=api_v3_business_search&utm_source=ywY5UnLZrNrRl2b93Ruy_g", "review_count": 88, "categories": [{"alias": "indpak", "title": "Indian"}], "rating": 4.0, "coordinates": {"latitude": 42.7113909, "longitude": -73.204129}, "transactions": ["pickup", "delivery"], "price": "$$", "location": {"address1": "23 Spring St", "address2": "", "address3": "", "city": "Williamstown", "zip_code": "01267", "country": "US", "state": "MA", "display_address": ["23 Spring St", "Williamstown, MA 01267"]}, "phone": "+14134585200", "display_phone": "(413) 458-5200", "distance": 19611.123821390804}, {"id": "7RBjiuk4ZufiwelJsMNPVQ", "alias": "mengs-pan-asian-north-adams", "name": "Mengs Pan Asian", "image_url": "https://s3-media4.fl.yelpcdn.com/bphoto/a3oMozJXzAl3kAlUU2WD8w/o.jpg", "is_closed": false, "url": "https://www.yelp.com/biz/mengs-pan-asian-north-adams?adjust_creative=ywY5UnLZrNrRl2b93Ruy_g&utm_campaign=yelp_api_v3&utm_medium=api_v3_business_search&utm_source=ywY5UnLZrNrRl2b93Ruy_g", "review_count": 11, "categories": [{"alias": "panasian", "title": "Pan Asian"}], "rating": 3.5, "coordinates": {"latitude": 42.6996197981797, "longitude": -73.1126092001796}, "transactions": [], "location": {"address1": "41 Main St", "address2": "", "address3": null, "city": "North Adams", "zip_code": "01247", "country": "US", "state": "MA", "display_address": ["41 Main St", "North Adams, MA 01247"]}, "phone": "", "display_phone": "", "distance": 13685.079867873357}, {"id": "bcJyzsejMPVlVLCjFJJDfw", "alias": "corner-lunch-adams", "name": "Corner Lunch", "image_url": "https://s3-media3.fl.yelpcdn.com/bphoto/cYVpOToipW6un16LK7S1FQ/o.jpg", "is_closed": false, "url": "https://www.yelp.com/biz/corner-lunch-adams?adjust_creative=ywY5UnLZrNrRl2b93Ruy_g&utm_campaign=yelp_api_v3&utm_medium=api_v3_business_search&utm_source=ywY5UnLZrNrRl2b93Ruy_g", "review_count": 5, "categories": [{"alias": "newamerican", "title": "American (New)"}], "rating": 4.0, "coordinates": {"latitude": 42.62182, "longitude": -73.11519}, "transactions": [], "price": "$", "location": {"address1": "50 Summer St", "address2": "", "address3": "", "city": "Adams", "zip_code": "01220", "country": "US", "state": "MA", "display_address": ["50 Summer St", "Adams, MA 01220"]}, "phone": "+14137439725", "display_phone": "(413) 743-9725", "distance": 8063.832182325057}, {"id": "1tZUNzRCkpwHkerqyHpIyg", "alias": "capitol-restaurant-north-adams-2", "name": "Capitol Restaurant", "image_url": "https://s3-media1.fl.yelpcdn.com/bphoto/-hCC_IQ8hY4YT7l_j_O2SA/o.jpg", "is_closed": false, "url": "https://www.yelp.com/biz/capitol-restaurant-north-adams-2?adjust_creative=ywY5UnLZrNrRl2b93Ruy_g&utm_campaign=yelp_api_v3&utm_medium=api_v3_business_search&utm_source=ywY5UnLZrNrRl2b93Ruy_g", "review_count": 16, "categories": [{"alias": "tradamerican", "title": "American (Traditional)"}], "rating": 2.5, "coordinates": {"latitude": 42.699381, "longitude": -73.112614}, "transactions": [], "location": {"address1": "55 Main St", "address2": "", "address3": null, "city": "North Adams", "zip_code": "01247", "country": "US", "state": "MA", "display_address": ["55 Main St", "North Adams, MA 01247"]}, "phone": "+14136622500", "display_phone": "(413) 662-2500", "distance": 13663.397130408717}, {"id": "zjskDGo-8yvIbXDKr8PLEg", "alias": "cozy-corner-restaurant-williamstown", "name": "Cozy Corner Restaurant", "image_url": "https://s3-media4.fl.yelpcdn.com/bphoto/7z7XMuhHi8cd9QKNJTeluQ/o.jpg", "is_closed": false, "url": "https://www.yelp.com/biz/cozy-corner-restaurant-williamstown?adjust_creative=ywY5UnLZrNrRl2b93Ruy_g&utm_campaign=yelp_api_v3&utm_medium=api_v3_business_search&utm_source=ywY5UnLZrNrRl2b93Ruy_g", "review_count": 19, "categories": [{"alias": "pizza", "title": "Pizza"}, {"alias": "tradamerican", "title": "American (Traditional)"}, {"alias": "seafood", "title": "Seafood"}], "rating": 4.0, "coordinates": {"latitude": 42.73511, "longitude": -73.20609}, "transactions": [], "price": "$$", "location": {"address1": "850 Simonds Rd", "address2": "", "address3": "", "city": "Williamstown", "zip_code": "01267", "country": "US", "state": "MA", "display_address": ["850 Simonds Rd", "Williamstown, MA 01267"]}, "phone": "+14134583854", "display_phone": "(413) 458-3854", "distance": 21553.602581278956}, {"id": "11wecSBDA36kJoXAxA8Lew", "alias": "empire-cafe-north-adams", "name": "Empire Cafe", "image_url": "https://s3-media1.fl.yelpcdn.com/bphoto/_A_e_8XBVD34vdVccy4EhQ/o.jpg", "is_closed": false, "url": "https://www.yelp.com/biz/empire-cafe-north-adams?adjust_creative=ywY5UnLZrNrRl2b93Ruy_g&utm_campaign=yelp_api_v3&utm_medium=api_v3_business_search&utm_source=ywY5UnLZrNrRl2b93Ruy_g", "review_count": 34, "categories": [{"alias": "cafes", "title": "Cafes"}], "rating": 4.5, "coordinates": {"latitude": 42.699362, "longitude": -73.112506}, "transactions": [], "price": "$", "location": {"address1": "57 Main St", "address2": "", "address3": null, "city": "North Adams", "zip_code": "01247", "country": "US", "state": "MA", "display_address": ["57 Main St", "North Adams, MA 01247"]}, "phone": "+14133985666", "display_phone": "(413) 398-5666", "distance": 13656.339803595787}, {"id": "5fGDL6__gYOZ3aEqUrnprA", "alias": "dalton-restaurant-dalton", "name": "Dalton Restaurant", "image_url": "https://s3-media3.fl.yelpcdn.com/bphoto/s2zuMPhQulG1TNyWx1EfAg/o.jpg", "is_closed": false, "url": "https://www.yelp.com/biz/dalton-restaurant-dalton?adjust_creative=ywY5UnLZrNrRl2b93Ruy_g&utm_campaign=yelp_api_v3&utm_medium=api_v3_business_search&utm_source=ywY5UnLZrNrRl2b93Ruy_g", "review_count": 12, "categories": [{"alias": "diners", "title": "Diners"}], "rating": 4.0, "coordinates": {"latitude": 42.4734982, "longitude": -73.1721344}, "transactions": ["delivery"], "price": "$", "location": {"address1": "401 Main St", "address2": "", "address3": "", "city": "Dalton", "zip_code": "01226", "country": "US", "state": "MA", "display_address": ["401 Main St", "Dalton, MA 01226"]}, "phone": "+14136840414", "display_phone": "(413) 684-0414", "distance": 18235.579054895545}, {"id": "z4A_a7AY4DLCufdHFgt_1Q", "alias": "tres-ni\u00f1os-taqueria-north-adams", "name": "Tres Ni\u00f1os Taqueria", "image_url": "https://s3-media1.fl.yelpcdn.com/bphoto/vDMDtAUkcTliI_eaKCszGA/o.jpg", "is_closed": false, "url": "https://www.yelp.com/biz/tres-ni%C3%B1os-taqueria-north-adams?adjust_creative=ywY5UnLZrNrRl2b93Ruy_g&utm_campaign=yelp_api_v3&utm_medium=api_v3_business_search&utm_source=ywY5UnLZrNrRl2b93Ruy_g", "review_count": 11, "categories": [{"alias": "mexican", "title": "Mexican"}], "rating": 3.5, "coordinates": {"latitude": 42.6999034048848, "longitude": -73.1135157868266}, "transactions": [], "location": {"address1": "20 Marshall St", "address2": "", "address3": null, "city": "North Adams", "zip_code": "01247", "country": "US", "state": "MA", "display_address": ["20 Marshall St", "North Adams, MA 01247"]}, "phone": "+14133464000", "display_phone": "(413) 346-4000", "distance": 13751.366668764247}, {"id": "owKxbDnhxlBpqhcfiBjGiA", "alias": "berkshire-pizzeria-charlemont", "name": "Berkshire Pizzeria", "image_url": "https://s3-media1.fl.yelpcdn.com/bphoto/devT5oL9Ji6IwzHm5rv5sA/o.jpg", "is_closed": false, "url": "https://www.yelp.com/biz/berkshire-pizzeria-charlemont?adjust_creative=ywY5UnLZrNrRl2b93Ruy_g&utm_campaign=yelp_api_v3&utm_medium=api_v3_business_search&utm_source=ywY5UnLZrNrRl2b93Ruy_g", "review_count": 36, "categories": [{"alias": "pizza", "title": "Pizza"}, {"alias": "breakfast_brunch", "title": "Breakfast & Brunch"}, {"alias": "wraps", "title": "Wraps"}], "rating": 4.0, "coordinates": {"latitude": 42.6270903, "longitude": -72.8787897}, "transactions": [], "price": "$", "location": {"address1": "72 Main St", "address2": "", "address3": "", "city": "Charlemont", "zip_code": "01339", "country": "US", "state": "MA", "display_address": ["72 Main St", "Charlemont, MA 01339"]}, "phone": "+14133375501", "display_phone": "(413) 337-5501", "distance": 12342.435481726554}, {"id": "BCiMAzkoIdl2QzKfSXRw4A", "alias": "boston-seafood-restaurant-north-adams", "name": "Boston Seafood Restaurant", "image_url": "https://s3-media3.fl.yelpcdn.com/bphoto/G-7ncHb3ZSr7LTf7PfQKZQ/o.jpg", "is_closed": false, "url": "https://www.yelp.com/biz/boston-seafood-restaurant-north-adams?adjust_creative=ywY5UnLZrNrRl2b93Ruy_g&utm_campaign=yelp_api_v3&utm_medium=api_v3_business_search&utm_source=ywY5UnLZrNrRl2b93Ruy_g", "review_count": 14, "categories": [{"alias": "seafoodmarkets", "title": "Seafood Markets"}, {"alias": "seafood", "title": "Seafood"}], "rating": 3.5, "coordinates": {"latitude": 42.695859, "longitude": -73.110216}, "transactions": [], "price": "$$", "location": {"address1": "160 American Legion Dr", "address2": "", "address3": "", "city": "North Adams", "zip_code": "01247", "country": "US", "state": "MA", "display_address": ["160 American Legion Dr", "North Adams, MA 01247"]}, "phone": "+14136638740", "display_phone": "(413) 663-8740", "distance": 13227.183937364613}, {"id": "mkyHHyW9ZQLBF4lmIvLj1w", "alias": "tonys-sombrero-williamstown", "name": "Tony's Sombrero", "image_url": "https://s3-media1.fl.yelpcdn.com/bphoto/hvBPRpWBlBuSUBhOW6Q8zA/o.jpg", "is_closed": false, "url": "https://www.yelp.com/biz/tonys-sombrero-williamstown?adjust_creative=ywY5UnLZrNrRl2b93Ruy_g&utm_campaign=yelp_api_v3&utm_medium=api_v3_business_search&utm_source=ywY5UnLZrNrRl2b93Ruy_g", "review_count": 30, "categories": [{"alias": "mexican", "title": "Mexican"}], "rating": 4.5, "coordinates": {"latitude": 42.7102816, "longitude": -73.2044119}, "transactions": [], "price": "$", "location": {"address1": "69 Spring St", "address2": "", "address3": "", "city": "Williamstown", "zip_code": "01267", "country": "US", "state": "MA", "display_address": ["69 Spring St", "Williamstown, MA 01267"]}, "phone": "+14133445121", "display_phone": "(413) 344-5121", "distance": 19546.527169069304}, {"id": "hgYwnq3p01n3_siL1NUWcw", "alias": "jacks-hot-dog-stand-north-adams", "name": "Jack's Hot Dog Stand", "image_url": "https://s3-media1.fl.yelpcdn.com/bphoto/YCuGEg-PEV1SWQpjtidPCg/o.jpg", "is_closed": false, "url": "https://www.yelp.com/biz/jacks-hot-dog-stand-north-adams?adjust_creative=ywY5UnLZrNrRl2b93Ruy_g&utm_campaign=yelp_api_v3&utm_medium=api_v3_business_search&utm_source=ywY5UnLZrNrRl2b93Ruy_g", "review_count": 56, "categories": [{"alias": "hotdog", "title": "Hot Dogs"}], "rating": 4.5, "coordinates": {"latitude": 42.699104309082, "longitude": -73.1096878051758}, "transactions": [], "price": "$", "location": {"address1": "12 Eagle St", "address2": "", "address3": "", "city": "North Adams", "zip_code": "01247", "country": "US", "state": "MA", "display_address": ["12 Eagle St", "North Adams, MA 01247"]}, "phone": "+14136649006", "display_phone": "(413) 664-9006", "distance": 13512.289795582403}, {"id": "X_gLEwRckCC3wGGVIGhvuQ", "alias": "crazy-horse-lounge-charlemont", "name": "crazy horse lounge", "image_url": "https://s3-media2.fl.yelpcdn.com/bphoto/sh9BCRP3oQ9exZUdvJRQsw/o.jpg", "is_closed": false, "url": "https://www.yelp.com/biz/crazy-horse-lounge-charlemont?adjust_creative=ywY5UnLZrNrRl2b93Ruy_g&utm_campaign=yelp_api_v3&utm_medium=api_v3_business_search&utm_source=ywY5UnLZrNrRl2b93Ruy_g", "review_count": 1, "categories": [{"alias": "salad", "title": "Salad"}, {"alias": "cafes", "title": "Cafes"}], "rating": 3.0, "coordinates": {"latitude": 42.6225341098203, "longitude": -72.8777315857901}, "transactions": [], "location": {"address1": "66 S River Rd", "address2": "", "address3": "", "city": "Charlemont", "zip_code": "01339", "country": "US", "state": "MA", "display_address": ["66 S River Rd", "Charlemont, MA 01339"]}, "phone": "+14133396617", "display_phone": "(413) 339-6617", "distance": 12292.320826046403}, {"id": "4dhv5RSlcL7Eh61WydcjKg", "alias": "red-carpet-restaurant-adams", "name": "Red Carpet Restaurant", "image_url": "https://s3-media4.fl.yelpcdn.com/bphoto/WUODya8jL1WfLvOYffBxEw/o.jpg", "is_closed": false, "url": "https://www.yelp.com/biz/red-carpet-restaurant-adams?adjust_creative=ywY5UnLZrNrRl2b93Ruy_g&utm_campaign=yelp_api_v3&utm_medium=api_v3_business_search&utm_source=ywY5UnLZrNrRl2b93Ruy_g", "review_count": 7, "categories": [{"alias": "newamerican", "title": "American (New)"}], "rating": 3.0, "coordinates": {"latitude": 42.62308, "longitude": -73.11963}, "transactions": ["delivery"], "price": "$", "location": {"address1": "69 Park St", "address2": "", "address3": "", "city": "Adams", "zip_code": "01220", "country": "US", "state": "MA", "display_address": ["69 Park St", "Adams, MA 01220"]}, "phone": "+14137439781", "display_phone": "(413) 743-9781", "distance": 8463.379459564241}, {"id": "2JMFNYFBji7Uy0K2Ir1sBg", "alias": "desperados-north-adams", "name": "Desperados", "image_url": "https://s3-media2.fl.yelpcdn.com/bphoto/8p90k1nihXrCf-hzruYgag/o.jpg", "is_closed": false, "url": "https://www.yelp.com/biz/desperados-north-adams?adjust_creative=ywY5UnLZrNrRl2b93Ruy_g&utm_campaign=yelp_api_v3&utm_medium=api_v3_business_search&utm_source=ywY5UnLZrNrRl2b93Ruy_g", "review_count": 51, "categories": [{"alias": "mexican", "title": "Mexican"}, {"alias": "desserts", "title": "Desserts"}, {"alias": "soup", "title": "Soup"}], "rating": 3.5, "coordinates": {"latitude": 42.6993597407468, "longitude": -73.1096453390626}, "transactions": [], "price": "$$", "location": {"address1": "23 Eagle St", "address2": "", "address3": "", "city": "North Adams", "zip_code": "01247", "country": "US", "state": "MA", "display_address": ["23 Eagle St", "North Adams, MA 01247"]}, "phone": "+14133464664", "display_phone": "(413) 346-4664", "distance": 13532.680949095151}, {"id": "NXgDH-jG3KxXqKofvuHipg", "alias": "pedrins-dairy-bar-north-adams", "name": "Pedrin's Dairy Bar", "image_url": "https://s3-media2.fl.yelpcdn.com/bphoto/Byk9aRu_ZHRfUc7vcRCytA/o.jpg", "is_closed": false, "url": "https://www.yelp.com/biz/pedrins-dairy-bar-north-adams?adjust_creative=ywY5UnLZrNrRl2b93Ruy_g&utm_campaign=yelp_api_v3&utm_medium=api_v3_business_search&utm_source=ywY5UnLZrNrRl2b93Ruy_g", "review_count": 22, "categories": [{"alias": "tradamerican", "title": "American (Traditional)"}, {"alias": "hotdogs", "title": "Fast Food"}], "rating": 4.0, "coordinates": {"latitude": 42.6653894372648, "longitude": -73.1076757717891}, "transactions": [], "price": "$", "location": {"address1": "1360 Curran Hwy", "address2": "", "address3": "", "city": "North Adams", "zip_code": "01247", "country": "US", "state": "MA", "display_address": ["1360 Curran Hwy", "North Adams, MA 01247"]}, "phone": "+14136649540", "display_phone": "(413) 664-9540", "distance": 10402.868093854431}, {"id": "J_T8Gb4Zn_joUoGQkQ3u4A", "alias": "pizza-house-adams-2", "name": "Pizza House", "image_url": "https://s3-media2.fl.yelpcdn.com/bphoto/RRyt1MSGQxoP5XRfuHdUMg/o.jpg", "is_closed": false, "url": "https://www.yelp.com/biz/pizza-house-adams-2?adjust_creative=ywY5UnLZrNrRl2b93Ruy_g&utm_campaign=yelp_api_v3&utm_medium=api_v3_business_search&utm_source=ywY5UnLZrNrRl2b93Ruy_g", "review_count": 7, "categories": [{"alias": "pizza", "title": "Pizza"}], "rating": 3.5, "coordinates": {"latitude": 42.6254196166992, "longitude": -73.1136322021484}, "transactions": [], "location": {"address1": "26 Hoosac St", "address2": "", "address3": null, "city": "Adams", "zip_code": "01220", "country": "US", "state": "MA", "display_address": ["26 Hoosac St", "Adams, MA 01220"]}, "phone": "+14137434466", "display_phone": "(413) 743-4466", "distance": 8100.126805530072}, {"id": "T2YJMk3EeMv7jKYzDFIi-g", "alias": "casalina-williamstown-3", "name": "CasaLina", "image_url": "https://s3-media3.fl.yelpcdn.com/bphoto/61XvnBzZIeJWsquUB6R-_g/o.jpg", "is_closed": false, "url": "https://www.yelp.com/biz/casalina-williamstown-3?adjust_creative=ywY5UnLZrNrRl2b93Ruy_g&utm_campaign=yelp_api_v3&utm_medium=api_v3_business_search&utm_source=ywY5UnLZrNrRl2b93Ruy_g", "review_count": 15, "categories": [{"alias": "bars", "title": "Bars"}, {"alias": "venues", "title": "Venues & Event Spaces"}, {"alias": "newamerican", "title": "American (New)"}], "rating": 3.0, "coordinates": {"latitude": 42.7108944167605, "longitude": -73.199456927468}, "transactions": [], "location": {"address1": "16 Water St", "address2": "", "address3": null, "city": "Williamstown", "zip_code": "01267", "country": "US", "state": "MA", "display_address": ["16 Water St", "Williamstown, MA 01267"]}, "phone": "+14134586136", "display_phone": "(413) 458-6136", "distance": 19286.629604967377}, {"id": "xYYYNn4zVVrCfqpzjp9fog", "alias": "chopsticks-williamstown", "name": "Chopsticks", "image_url": "https://s3-media4.fl.yelpcdn.com/bphoto/kMKh9gw11u8H9s4DZ_Tsyw/o.jpg", "is_closed": false, "url": "https://www.yelp.com/biz/chopsticks-williamstown?adjust_creative=ywY5UnLZrNrRl2b93Ruy_g&utm_campaign=yelp_api_v3&utm_medium=api_v3_business_search&utm_source=ywY5UnLZrNrRl2b93Ruy_g", "review_count": 56, "categories": [{"alias": "chinese", "title": "Chinese"}, {"alias": "japanese", "title": "Japanese"}], "rating": 3.5, "coordinates": {"latitude": 42.7056045532227, "longitude": -73.1888198852539}, "transactions": [], "price": "$$", "location": {"address1": "412 Main St", "address2": "", "address3": "", "city": "Williamstown", "zip_code": "01267", "country": "US", "state": "MA", "display_address": ["412 Main St", "Williamstown, MA 01267"]}, "phone": "+14134585750", "display_phone": "(413) 458-5750", "distance": 18249.185805877965}, {"id": "QxaEKl0KlP1RHGWh-xkFOw", "alias": "olympic-pizza-williamstown-2", "name": "Olympic Pizza", "image_url": "https://s3-media1.fl.yelpcdn.com/bphoto/eL6Nj6LQq0eFW87B0eTyFQ/o.jpg", "is_closed": false, "url": "https://www.yelp.com/biz/olympic-pizza-williamstown-2?adjust_creative=ywY5UnLZrNrRl2b93Ruy_g&utm_campaign=yelp_api_v3&utm_medium=api_v3_business_search&utm_source=ywY5UnLZrNrRl2b93Ruy_g", "review_count": 17, "categories": [{"alias": "pizza", "title": "Pizza"}, {"alias": "greek", "title": "Greek"}, {"alias": "mediterranean", "title": "Mediterranean"}], "rating": 4.0, "coordinates": {"latitude": 42.706596, "longitude": -73.190014}, "transactions": [], "price": "$$", "location": {"address1": "460 Main Rd", "address2": "", "address3": "", "city": "Williamstown", "zip_code": "01267", "country": "US", "state": "MA", "display_address": ["460 Main Rd", "Williamstown, MA 01267"]}, "phone": "+14134580055", "display_phone": "(413) 458-0055", "distance": 18393.10941932209}, {"id": "QYo9nCzJXx_0RFi8ejepqg", "alias": "the-richmond-grille-north-adams", "name": "The Richmond Grille", "image_url": "https://s3-media4.fl.yelpcdn.com/bphoto/Wg3yTyRBJYglgMga3ZlH0Q/o.jpg", "is_closed": false, "url": "https://www.yelp.com/biz/the-richmond-grille-north-adams?adjust_creative=ywY5UnLZrNrRl2b93Ruy_g&utm_campaign=yelp_api_v3&utm_medium=api_v3_business_search&utm_source=ywY5UnLZrNrRl2b93Ruy_g", "review_count": 13, "categories": [{"alias": "breakfast_brunch", "title": "Breakfast & Brunch"}, {"alias": "tradamerican", "title": "American (Traditional)"}, {"alias": "bars", "title": "Bars"}], "rating": 3.5, "coordinates": {"latitude": 42.6988606, "longitude": -73.113338}, "transactions": [], "price": "$", "location": {"address1": "40 Main St", "address2": null, "address3": "", "city": "North Adams", "zip_code": "01247", "country": "US", "state": "MA", "display_address": ["40 Main St", "North Adams, MA 01247"]}, "phone": "+14136636500", "display_phone": "(413) 663-6500", "distance": 13645.813051217485}, {"id": "2fENUg-xGYj6CbvLZYZ2kA", "alias": "renees-diner-north-adams", "name": "Renee's Diner", "image_url": "https://s3-media1.fl.yelpcdn.com/bphoto/aPA3-PipK53Q76eW_DlM3g/o.jpg", "is_closed": false, "url": "https://www.yelp.com/biz/renees-diner-north-adams?adjust_creative=ywY5UnLZrNrRl2b93Ruy_g&utm_campaign=yelp_api_v3&utm_medium=api_v3_business_search&utm_source=ywY5UnLZrNrRl2b93Ruy_g", "review_count": 170, "categories": [{"alias": "tradamerican", "title": "American (Traditional)"}, {"alias": "breakfast_brunch", "title": "Breakfast & Brunch"}], "rating": 4.0, "coordinates": {"latitude": 42.701341, "longitude": -73.1422212}, "transactions": [], "price": "$", "location": {"address1": "780 Massachusetts Ave", "address2": null, "address3": null, "city": "North Adams", "zip_code": "01247", "country": "US", "state": "MA", "display_address": ["780 Massachusetts Ave", "North Adams, MA 01247"]}, "phone": "+14136642070", "display_phone": "(413) 664-2070", "distance": 15263.121912693667}, {"id": "6ZbYMF2jIN9ougQjf_1gDA", "alias": "cafe-seven-williamstown-2", "name": "Cafe Seven", "image_url": "https://s3-media3.fl.yelpcdn.com/bphoto/lIXRLiYwe34FBgVQyYIKMg/o.jpg", "is_closed": false, "url": "https://www.yelp.com/biz/cafe-seven-williamstown-2?adjust_creative=ywY5UnLZrNrRl2b93Ruy_g&utm_campaign=yelp_api_v3&utm_medium=api_v3_business_search&utm_source=ywY5UnLZrNrRl2b93Ruy_g", "review_count": 4, "categories": [{"alias": "cafes", "title": "Cafes"}], "rating": 4.0, "coordinates": {"latitude": 42.707868, "longitude": -73.213536}, "transactions": [], "location": {"address1": "225 South St", "address2": "", "address3": null, "city": "Williamstown", "zip_code": "01267", "country": "US", "state": "MA", "display_address": ["225 South St", "Williamstown, MA 01267"]}, "phone": "", "display_phone": "", "distance": 19948.663833154875}, {"id": "4HK4TXQO376kFpcHpsCfcQ", "alias": "ramuntos-pizza-and-pub-north-adams-2", "name": "Ramunto's Pizza & Pub", "image_url": "https://s3-media4.fl.yelpcdn.com/bphoto/03gCRpSaOd8wkRGjWShkig/o.jpg", "is_closed": false, "url": "https://www.yelp.com/biz/ramuntos-pizza-and-pub-north-adams-2?adjust_creative=ywY5UnLZrNrRl2b93Ruy_g&utm_campaign=yelp_api_v3&utm_medium=api_v3_business_search&utm_source=ywY5UnLZrNrRl2b93Ruy_g", "review_count": 38, "categories": [{"alias": "pizza", "title": "Pizza"}, {"alias": "beerbar", "title": "Beer Bar"}, {"alias": "burgers", "title": "Burgers"}], "rating": 3.5, "coordinates": {"latitude": 42.699289, "longitude": -73.112021}, "transactions": [], "price": "$$", "location": {"address1": "67 Main St", "address2": "", "address3": null, "city": "North Adams", "zip_code": "01247", "country": "US", "state": "MA", "display_address": ["67 Main St", "North Adams, MA 01247"]}, "phone": "+14133985152", "display_phone": "(413) 398-5152", "distance": 13628.335198172535}, {"id": "HAdx8Iff2N1Q2jRTBv628A", "alias": "christos-famous-pizza-north-adams", "name": "Christos Famous Pizza", "image_url": "https://s3-media1.fl.yelpcdn.com/bphoto/Xnz-ndui5xSpoLIDeAerGg/o.jpg", "is_closed": false, "url": "https://www.yelp.com/biz/christos-famous-pizza-north-adams?adjust_creative=ywY5UnLZrNrRl2b93Ruy_g&utm_campaign=yelp_api_v3&utm_medium=api_v3_business_search&utm_source=ywY5UnLZrNrRl2b93Ruy_g", "review_count": 31, "categories": [{"alias": "pizza", "title": "Pizza"}], "rating": 4.0, "coordinates": {"latitude": 42.6997849888107, "longitude": -73.1119646804661}, "transactions": [], "price": "$$", "location": {"address1": "20 Holden St", "address2": null, "address3": null, "city": "North Adams", "zip_code": "01247", "country": "US", "state": "MA", "display_address": ["20 Holden St", "North Adams, MA 01247"]}, "phone": "+14136623500", "display_phone": "(413) 662-3500", "distance": 13672.609532160623}, {"id": "b5dwwLNwKstRwY78mxS0nQ", "alias": "hinsdale-trading-company-hinsdale", "name": "Hinsdale Trading Company", "image_url": "https://s3-media1.fl.yelpcdn.com/bphoto/HpL6CkqF7IWTTOzbUp6WWA/o.jpg", "is_closed": false, "url": "https://www.yelp.com/biz/hinsdale-trading-company-hinsdale?adjust_creative=ywY5UnLZrNrRl2b93Ruy_g&utm_campaign=yelp_api_v3&utm_medium=api_v3_business_search&utm_source=ywY5UnLZrNrRl2b93Ruy_g", "review_count": 2, "categories": [{"alias": "pizza", "title": "Pizza"}, {"alias": "sandwiches", "title": "Sandwiches"}], "rating": 4.0, "coordinates": {"latitude": 42.4469440430403, "longitude": -73.1244655698538}, "transactions": [], "location": {"address1": "371 Old Dalton Rd", "address2": "", "address3": "", "city": "Hinsdale", "zip_code": "01235", "country": "US", "state": "MA", "display_address": ["371 Old Dalton Rd", "Hinsdale, MA 01235"]}, "phone": "+14136550161", "display_phone": "(413) 655-0161", "distance": 18623.302012934695}, {"id": "iufEPhI6RXRyjgaxJ7r-Lg", "alias": "the-spring-street-market-and-cafe-williamstown", "name": "The Spring Street Market & Cafe", "image_url": "https://s3-media2.fl.yelpcdn.com/bphoto/vG_WxRNLBp-S4hzPb7udcQ/o.jpg", "is_closed": false, "url": "https://www.yelp.com/biz/the-spring-street-market-and-cafe-williamstown?adjust_creative=ywY5UnLZrNrRl2b93Ruy_g&utm_campaign=yelp_api_v3&utm_medium=api_v3_business_search&utm_source=ywY5UnLZrNrRl2b93Ruy_g", "review_count": 28, "categories": [{"alias": "cafes", "title": "Cafes"}], "rating": 3.5, "coordinates": {"latitude": 42.7101498842239, "longitude": -73.2043766230345}, "transactions": [], "price": "$$", "location": {"address1": "66 Spring St", "address2": "", "address3": "", "city": "Williamstown", "zip_code": "01267", "country": "US", "state": "MA", "display_address": ["66 Spring St", "Williamstown, MA 01267"]}, "phone": "+14134586192", "display_phone": "(413) 458-6192", "distance": 19531.6153080013}, {"id": "2HNQ52VIATkFhvYvXIVkxg", "alias": "bascom-lodge-cheshire", "name": "Bascom Lodge", "image_url": "https://s3-media2.fl.yelpcdn.com/bphoto/OqAT0Zo-aER3M6sHxFMhWQ/o.jpg", "is_closed": false, "url": "https://www.yelp.com/biz/bascom-lodge-cheshire?adjust_creative=ywY5UnLZrNrRl2b93Ruy_g&utm_campaign=yelp_api_v3&utm_medium=api_v3_business_search&utm_source=ywY5UnLZrNrRl2b93Ruy_g", "review_count": 4, "categories": [{"alias": "bedbreakfast", "title": "Bed & Breakfast"}, {"alias": "tradamerican", "title": "American (Traditional)"}], "rating": 3.0, "coordinates": {"latitude": 42.5524235867851, "longitude": -73.2149627026462}, "transactions": [], "price": "$$", "location": {"address1": "30 Rockwell Rd", "address2": "", "address3": "", "city": "Cheshire", "zip_code": "01225", "country": "US", "state": "MA", "display_address": ["30 Rockwell Rd", "Cheshire, MA 01225"]}, "phone": "+14137431591", "display_phone": "(413) 743-1591", "distance": 16255.758874686291}, {"id": "wYj5NC61kyhvK2Ak4zxqoQ", "alias": "angelinas-submarine-shop-north-adams", "name": "Angelina's Submarine Shop", "image_url": "https://s3-media2.fl.yelpcdn.com/bphoto/2gcOGloUGbOe11mf4wCTQw/o.jpg", "is_closed": false, "url": "https://www.yelp.com/biz/angelinas-submarine-shop-north-adams?adjust_creative=ywY5UnLZrNrRl2b93Ruy_g&utm_campaign=yelp_api_v3&utm_medium=api_v3_business_search&utm_source=ywY5UnLZrNrRl2b93Ruy_g", "review_count": 11, "categories": [{"alias": "sandwiches", "title": "Sandwiches"}], "rating": 4.0, "coordinates": {"latitude": 42.6962365955114, "longitude": -73.1114635616541}, "transactions": [], "price": "$", "location": {"address1": "152 American Legion Dr", "address2": "", "address3": "", "city": "North Adams", "zip_code": "01247", "country": "US", "state": "MA", "display_address": ["152 American Legion Dr", "North Adams, MA 01247"]}, "phone": "+14136640315", "display_phone": "(413) 664-0315", "distance": 13246.105804355151}, {"id": "mvgUyBOGJ4ixi-BAXRB54w", "alias": "pappa-charlies-deli-williamstown", "name": "Pappa Charlie's Deli", "image_url": "https://s3-media2.fl.yelpcdn.com/bphoto/cnp1y4Tiy4W1AN-dbe1DnA/o.jpg", "is_closed": false, "url": "https://www.yelp.com/biz/pappa-charlies-deli-williamstown?adjust_creative=ywY5UnLZrNrRl2b93Ruy_g&utm_campaign=yelp_api_v3&utm_medium=api_v3_business_search&utm_source=ywY5UnLZrNrRl2b93Ruy_g", "review_count": 43, "categories": [{"alias": "delis", "title": "Delis"}], "rating": 4.0, "coordinates": {"latitude": 42.7113381028175, "longitude": -73.2039139419794}, "transactions": [], "price": "$", "location": {"address1": "28 Spring St", "address2": "", "address3": "", "city": "Williamstown", "zip_code": "01267", "country": "US", "state": "MA", "display_address": ["28 Spring St", "Williamstown, MA 01267"]}, "phone": "+14134585969", "display_phone": "(413) 458-5969", "distance": 19575.192425976828}, {"id": "1vSpetXLeZnGEI-16WVUog", "alias": "the-brookhouse-sports-pub-and-restaurant-lanesborough", "name": "The Brookhouse Sports Pub & Restaurant", "image_url": "https://s3-media2.fl.yelpcdn.com/bphoto/U2Xz6KkR-gdwLE7XheFJAg/o.jpg", "is_closed": false, "url": "https://www.yelp.com/biz/the-brookhouse-sports-pub-and-restaurant-lanesborough?adjust_creative=ywY5UnLZrNrRl2b93Ruy_g&utm_campaign=yelp_api_v3&utm_medium=api_v3_business_search&utm_source=ywY5UnLZrNrRl2b93Ruy_g", "review_count": 18, "categories": [{"alias": "sportsbars", "title": "Sports Bars"}, {"alias": "tradamerican", "title": "American (Traditional)"}], "rating": 3.0, "coordinates": {"latitude": 42.492263, "longitude": -73.202163}, "transactions": ["delivery"], "price": "$$", "location": {"address1": "650 Chesire Rd", "address2": "", "address3": "", "city": "Lanesborough", "zip_code": "01237", "country": "US", "state": "MA", "display_address": ["650 Chesire Rd", "Lanesborough, MA 01237"]}, "phone": "+14134993331", "display_phone": "(413) 499-3331", "distance": 18610.995835850703}, {"id": "HdqIODZiSRUzJ7WHfQepjw", "alias": "teos-hot-dogs-pittsfield", "name": "Teo's Hot Dogs", "image_url": "https://s3-media3.fl.yelpcdn.com/bphoto/IO73zBPj6a3UkTo4HDDjFA/o.jpg", "is_closed": false, "url": "https://www.yelp.com/biz/teos-hot-dogs-pittsfield?adjust_creative=ywY5UnLZrNrRl2b93Ruy_g&utm_campaign=yelp_api_v3&utm_medium=api_v3_business_search&utm_source=ywY5UnLZrNrRl2b93Ruy_g", "review_count": 108, "categories": [{"alias": "hotdog", "title": "Hot Dogs"}, {"alias": "bars", "title": "Bars"}], "rating": 4.0, "coordinates": {"latitude": 42.4539231, "longitude": -73.2175222}, "transactions": ["pickup", "delivery"], "price": "$", "location": {"address1": "1410 East St", "address2": "", "address3": "", "city": "Pittsfield", "zip_code": "01201", "country": "US", "state": "MA", "display_address": ["1410 East St", "Pittsfield, MA 01201"]}, "phone": "+14134479592", "display_phone": "(413) 447-9592", "distance": 22382.772752705267}, {"id": "kOCL-2R5669J8Q7_vJxo7w", "alias": "bella-roma-pizza-north-adams", "name": "Bella Roma Pizza", "image_url": "https://s3-media4.fl.yelpcdn.com/bphoto/NT3a8Tq4nlrrlAUN1CaqmA/o.jpg", "is_closed": false, "url": "https://www.yelp.com/biz/bella-roma-pizza-north-adams?adjust_creative=ywY5UnLZrNrRl2b93Ruy_g&utm_campaign=yelp_api_v3&utm_medium=api_v3_business_search&utm_source=ywY5UnLZrNrRl2b93Ruy_g", "review_count": 4, "categories": [{"alias": "pizza", "title": "Pizza"}], "rating": 3.5, "coordinates": {"latitude": 42.69891, "longitude": -73.110264}, "transactions": ["pickup", "delivery"], "location": {"address1": "117 Main St", "address2": null, "address3": "", "city": "North Adams", "zip_code": "01247", "country": "US", "state": "MA", "display_address": ["117 Main St", "North Adams, MA 01247"]}, "phone": "+14136636666", "display_phone": "(413) 663-6666", "distance": 13516.579789094958}, {"id": "81-lc7fxIhG7mfT8f1Cirg", "alias": "brewhaha-north-adams-2", "name": "Brewhaha", "image_url": "https://s3-media2.fl.yelpcdn.com/bphoto/g5h7Op66SgvN1evBgqw0VQ/o.jpg", "is_closed": false, "url": "https://www.yelp.com/biz/brewhaha-north-adams-2?adjust_creative=ywY5UnLZrNrRl2b93Ruy_g&utm_campaign=yelp_api_v3&utm_medium=api_v3_business_search&utm_source=ywY5UnLZrNrRl2b93Ruy_g", "review_count": 15, "categories": [{"alias": "cafes", "title": "Cafes"}, {"alias": "breakfast_brunch", "title": "Breakfast & Brunch"}], "rating": 4.0, "coordinates": {"latitude": 42.69909, "longitude": -73.12997}, "transactions": [], "location": {"address1": "437 West Main St", "address2": null, "address3": "", "city": "North Adams", "zip_code": "01247", "country": "US", "state": "MA", "display_address": ["437 West Main St", "North Adams, MA 01247"]}, "phone": "+14136642020", "display_phone": "(413) 664-2020", "distance": 14437.508769440132}, {"id": "zfMgkBaSVR9KucqK1mmkOg", "alias": "jacobs-restaurant-dalton", "name": "Jacob's Restaurant", "image_url": "https://s3-media3.fl.yelpcdn.com/bphoto/70XUhQbB7N2n7moFQ37NaA/o.jpg", "is_closed": false, "url": "https://www.yelp.com/biz/jacobs-restaurant-dalton?adjust_creative=ywY5UnLZrNrRl2b93Ruy_g&utm_campaign=yelp_api_v3&utm_medium=api_v3_business_search&utm_source=ywY5UnLZrNrRl2b93Ruy_g", "review_count": 11, "categories": [{"alias": "restaurants", "title": "Restaurants"}], "rating": 3.0, "coordinates": {"latitude": 42.47424, "longitude": -73.16418}, "transactions": [], "price": "$", "location": {"address1": "51 Daly Ave", "address2": "", "address3": "", "city": "Dalton", "zip_code": "01226", "country": "US", "state": "MA", "display_address": ["51 Daly Ave", "Dalton, MA 01226"]}, "phone": "+14136849766", "display_phone": "(413) 684-9766", "distance": 17743.356054355943}, {"id": "qzb2lo-LNbUz2DaN6m5Qcw", "alias": "hot-harrys-fresh-burritos-dalton", "name": "Hot Harry's Fresh Burritos", "image_url": "https://s3-media1.fl.yelpcdn.com/bphoto/_LeE478T5T33qyGGCA9fgw/o.jpg", "is_closed": false, "url": "https://www.yelp.com/biz/hot-harrys-fresh-burritos-dalton?adjust_creative=ywY5UnLZrNrRl2b93Ruy_g&utm_campaign=yelp_api_v3&utm_medium=api_v3_business_search&utm_source=ywY5UnLZrNrRl2b93Ruy_g", "review_count": 5, "categories": [{"alias": "mexican", "title": "Mexican"}], "rating": 4.0, "coordinates": {"latitude": 42.4734965, "longitude": -73.1720944}, "transactions": ["delivery"], "location": {"address1": "403 Main St", "address2": "", "address3": null, "city": "Dalton", "zip_code": "01226", "country": "US", "state": "MA", "display_address": ["403 Main St", "Dalton, MA 01226"]}, "phone": "+14133000028", "display_phone": "(413) 300-0028", "distance": 18225.567344817664}, {"id": "MnxAo_K6Zc2S3FrwIV7Y3g", "alias": "mingos-sports-bar-and-grill-north-adams", "name": "Mingo's Sports Bar & Grill", "image_url": "https://s3-media2.fl.yelpcdn.com/bphoto/17EtWdDcrU2JmJdgnTXhiQ/o.jpg", "is_closed": false, "url": "https://www.yelp.com/biz/mingos-sports-bar-and-grill-north-adams?adjust_creative=ywY5UnLZrNrRl2b93Ruy_g&utm_campaign=yelp_api_v3&utm_medium=api_v3_business_search&utm_source=ywY5UnLZrNrRl2b93Ruy_g", "review_count": 15, "categories": [{"alias": "tradamerican", "title": "American (Traditional)"}, {"alias": "sportsbars", "title": "Sports Bars"}], "rating": 3.5, "coordinates": {"latitude": 42.6994546, "longitude": -73.1406769}, "transactions": [], "price": "$$", "location": {"address1": "41 Roberts Dr", "address2": "", "address3": "", "city": "North Adams", "zip_code": "01247", "country": "US", "state": "MA", "display_address": ["41 Roberts Dr", "North Adams, MA 01247"]}, "phone": "+14133464067", "display_phone": "(413) 346-4067", "distance": 15021.10051766927}, {"id": "07wqPb4wNqoiUNiqtnFUbA", "alias": "oriental-buffet-north-adams", "name": "Oriental Buffet", "image_url": "https://s3-media1.fl.yelpcdn.com/bphoto/_UIYT1elIYIkesjFM3FX8w/o.jpg", "is_closed": false, "url": "https://www.yelp.com/biz/oriental-buffet-north-adams?adjust_creative=ywY5UnLZrNrRl2b93Ruy_g&utm_campaign=yelp_api_v3&utm_medium=api_v3_business_search&utm_source=ywY5UnLZrNrRl2b93Ruy_g", "review_count": 11, "categories": [{"alias": "buffets", "title": "Buffets"}], "rating": 3.5, "coordinates": {"latitude": 42.6980798, "longitude": -73.1428616}, "transactions": [], "price": "$", "location": {"address1": "245 State Rd", "address2": "", "address3": "", "city": "North Adams", "zip_code": "01247", "country": "US", "state": "MA", "display_address": ["245 State Rd", "North Adams, MA 01247"]}, "phone": "+14136632888", "display_phone": "(413) 663-2888", "distance": 15115.214923075331}, {"id": "PCeGA7kPoRSvYo7VNyotPA", "alias": "mannys-pizza-dalton", "name": "Manny's Pizza", "image_url": "https://s3-media2.fl.yelpcdn.com/bphoto/nq6wW8BPgLO2u5nSum8XPw/o.jpg", "is_closed": false, "url": "https://www.yelp.com/biz/mannys-pizza-dalton?adjust_creative=ywY5UnLZrNrRl2b93Ruy_g&utm_campaign=yelp_api_v3&utm_medium=api_v3_business_search&utm_source=ywY5UnLZrNrRl2b93Ruy_g", "review_count": 7, "categories": [{"alias": "pizza", "title": "Pizza"}], "rating": 3.5, "coordinates": {"latitude": 42.4811831058193, "longitude": -73.1548690795898}, "transactions": ["pickup", "delivery"], "price": "$$", "location": {"address1": "302 North St", "address2": "", "address3": "", "city": "Dalton", "zip_code": "01226", "country": "US", "state": "MA", "display_address": ["302 North St", "Dalton, MA 01226"]}, "phone": "+14138425289", "display_phone": "(413) 842-5289", "distance": 16663.411108660064}, {"id": "IsTXPIvjOApzL-C8NsbjjA", "alias": "the-parlor-cafe-north-adams-2", "name": "The Parlor Cafe", "image_url": "https://s3-media3.fl.yelpcdn.com/bphoto/n3WlThKWZ9yCu826W6Aw5A/o.jpg", "is_closed": false, "url": "https://www.yelp.com/biz/the-parlor-cafe-north-adams-2?adjust_creative=ywY5UnLZrNrRl2b93Ruy_g&utm_campaign=yelp_api_v3&utm_medium=api_v3_business_search&utm_source=ywY5UnLZrNrRl2b93Ruy_g", "review_count": 18, "categories": [{"alias": "coffee", "title": "Coffee & Tea"}, {"alias": "bakeries", "title": "Bakeries"}, {"alias": "cafes", "title": "Cafes"}], "rating": 4.5, "coordinates": {"latitude": 42.6912231, "longitude": -73.1063552}, "transactions": [], "price": "$", "location": {"address1": "303 Ashland St", "address2": "", "address3": "", "city": "North Adams", "zip_code": "01247", "country": "US", "state": "MA", "display_address": ["303 Ashland St", "North Adams, MA 01247"]}, "phone": "+14133985554", "display_phone": "(413) 398-5554", "distance": 12622.896211670877}, {"id": "IaXoc2JQs-4CYd3P2YA6FA", "alias": "o-laughlins-restaurant-pittsfield", "name": "O'laughlin's Restaurant", "image_url": "https://s3-media4.fl.yelpcdn.com/bphoto/kt_rEUI0423gfdSTtKxL_g/o.jpg", "is_closed": false, "url": "https://www.yelp.com/biz/o-laughlins-restaurant-pittsfield?adjust_creative=ywY5UnLZrNrRl2b93Ruy_g&utm_campaign=yelp_api_v3&utm_medium=api_v3_business_search&utm_source=ywY5UnLZrNrRl2b93Ruy_g", "review_count": 2, "categories": [{"alias": "tradamerican", "title": "American (Traditional)"}, {"alias": "irish_pubs", "title": "Irish Pub"}], "rating": 4.0, "coordinates": {"latitude": 42.4568138122559, "longitude": -73.212158203125}, "transactions": ["delivery"], "location": {"address1": "342 Merrill Rd", "address2": "", "address3": "", "city": "Pittsfield", "zip_code": "01201", "country": "US", "state": "MA", "display_address": ["342 Merrill Rd", "Pittsfield, MA 01201"]}, "phone": "+14134479507", "display_phone": "(413) 447-9507", "distance": 21844.255224761244}, {"id": "oLaERtmDsjb6EUhEavOPWA", "alias": "angelinas-submarine-shops-dalton", "name": "Angelina's Submarine Shops", "image_url": "https://s3-media1.fl.yelpcdn.com/bphoto/lxov5wUSXOSsWqD-VHgOVQ/o.jpg", "is_closed": false, "url": "https://www.yelp.com/biz/angelinas-submarine-shops-dalton?adjust_creative=ywY5UnLZrNrRl2b93Ruy_g&utm_campaign=yelp_api_v3&utm_medium=api_v3_business_search&utm_source=ywY5UnLZrNrRl2b93Ruy_g", "review_count": 15, "categories": [{"alias": "sandwiches", "title": "Sandwiches"}], "rating": 3.5, "coordinates": {"latitude": 42.47359, "longitude": -73.16254}, "transactions": ["pickup", "delivery"], "price": "$", "location": {"address1": "657 Main St", "address2": "", "address3": "", "city": "Dalton", "zip_code": "01226", "country": "US", "state": "MA", "display_address": ["657 Main St", "Dalton, MA 01226"]}, "phone": "+14136841178", "display_phone": "(413) 684-1178", "distance": 17714.646491007898}, {"id": "Z1lqQq8ycO8QjzTcydJKbA", "alias": "hot-dog-ranch-north-adams", "name": "Hot Dog Ranch", "image_url": "", "is_closed": false, "url": "https://www.yelp.com/biz/hot-dog-ranch-north-adams?adjust_creative=ywY5UnLZrNrRl2b93Ruy_g&utm_campaign=yelp_api_v3&utm_medium=api_v3_business_search&utm_source=ywY5UnLZrNrRl2b93Ruy_g", "review_count": 5, "categories": [{"alias": "hotdog", "title": "Hot Dogs"}, {"alias": "burgers", "title": "Burgers"}], "rating": 3.5, "coordinates": {"latitude": 42.6910438537598, "longitude": -73.1136016845703}, "transactions": [], "price": "$", "location": {"address1": "310 State St", "address2": null, "address3": null, "city": "North Adams", "zip_code": "01247", "country": "US", "state": "MA", "display_address": ["310 State St", "North Adams, MA 01247"]}, "phone": "+14136622009", "display_phone": "(413) 662-2009", "distance": 12933.963861837487}, {"id": "USJvcqDIuom4HQBOHjzQHg", "alias": "desperados-williamstown", "name": "Desperados", "image_url": "https://s3-media3.fl.yelpcdn.com/bphoto/qnmXrrxzy2rN_zkOoENZrw/o.jpg", "is_closed": false, "url": "https://www.yelp.com/biz/desperados-williamstown?adjust_creative=ywY5UnLZrNrRl2b93Ruy_g&utm_campaign=yelp_api_v3&utm_medium=api_v3_business_search&utm_source=ywY5UnLZrNrRl2b93Ruy_g", "review_count": 30, "categories": [{"alias": "mexican", "title": "Mexican"}, {"alias": "bars", "title": "Bars"}, {"alias": "tradamerican", "title": "American (Traditional)"}], "rating": 3.0, "coordinates": {"latitude": 42.7022653, "longitude": -73.1848694}, "transactions": [], "price": "$$", "location": {"address1": "246 Main St", "address2": "", "address3": "", "city": "Williamstown", "zip_code": "01267", "country": "US", "state": "MA", "display_address": ["246 Main St", "Williamstown, MA 01267"]}, "phone": "+14134582100", "display_phone": "(413) 458-2100", "distance": 17761.624612602136}, {"id": "1J02t_gsLt_Rq2x0xPOzzg", "alias": "vivaldis-pizzeria-pittsfield", "name": "Vivaldi's Pizzeria", "image_url": "https://s3-media1.fl.yelpcdn.com/bphoto/4qvGd-y7a3vrDYNcI4-Cmw/o.jpg", "is_closed": false, "url": "https://www.yelp.com/biz/vivaldis-pizzeria-pittsfield?adjust_creative=ywY5UnLZrNrRl2b93Ruy_g&utm_campaign=yelp_api_v3&utm_medium=api_v3_business_search&utm_source=ywY5UnLZrNrRl2b93Ruy_g", "review_count": 32, "categories": [{"alias": "italian", "title": "Italian"}, {"alias": "pizza", "title": "Pizza"}, {"alias": "salad", "title": "Salad"}], "rating": 4.0, "coordinates": {"latitude": 42.46832, "longitude": -73.2038}, "transactions": ["delivery"], "price": "$", "location": {"address1": "5 Cheshire Rd", "address2": "", "address3": null, "city": "Pittsfield", "zip_code": "01201", "country": "US", "state": "MA", "display_address": ["5 Cheshire Rd", "Pittsfield, MA 01201"]}, "phone": "+14132365633", "display_phone": "(413) 236-5633", "distance": 20464.302993156078}, {"id": "dLDVc5HjcwkpD97g9M-Czg", "alias": "moonlight-diner-and-grille-williamstown", "name": "Moonlight Diner & Grille", "image_url": "https://s3-media4.fl.yelpcdn.com/bphoto/DJku4fayb1yaSmJHE330Dg/o.jpg", "is_closed": false, "url": "https://www.yelp.com/biz/moonlight-diner-and-grille-williamstown?adjust_creative=ywY5UnLZrNrRl2b93Ruy_g&utm_campaign=yelp_api_v3&utm_medium=api_v3_business_search&utm_source=ywY5UnLZrNrRl2b93Ruy_g", "review_count": 38, "categories": [{"alias": "diners", "title": "Diners"}, {"alias": "breakfast_brunch", "title": "Breakfast & Brunch"}], "rating": 3.5, "coordinates": {"latitude": 42.7052421569824, "longitude": -73.1890258789062}, "transactions": [], "price": "$", "location": {"address1": "408 Main St", "address2": "", "address3": "", "city": "Williamstown", "zip_code": "01267", "country": "US", "state": "MA", "display_address": ["408 Main St", "Williamstown, MA 01267"]}, "phone": "+14134583305", "display_phone": "(413) 458-3305", "distance": 18242.22085164701}, {"id": "WpF2gHsX2rjlTGj-ohGkNA", "alias": "the-garden-grill-and-tavern-lanesborough", "name": "The Garden Grill & Tavern", "image_url": "https://s3-media2.fl.yelpcdn.com/bphoto/hqhdVQJQNlR6bAOyEy9dKg/o.jpg", "is_closed": false, "url": "https://www.yelp.com/biz/the-garden-grill-and-tavern-lanesborough?adjust_creative=ywY5UnLZrNrRl2b93Ruy_g&utm_campaign=yelp_api_v3&utm_medium=api_v3_business_search&utm_source=ywY5UnLZrNrRl2b93Ruy_g", "review_count": 12, "categories": [{"alias": "tradamerican", "title": "American (Traditional)"}], "rating": 2.0, "coordinates": {"latitude": 42.4936729, "longitude": -73.2017712}, "transactions": [], "price": "$$", "location": {"address1": "655 Cheshire Rd", "address2": "", "address3": "Berkshire Mal", "city": "Lanesborough", "zip_code": "01237", "country": "US", "state": "MA", "display_address": ["655 Cheshire Rd", "Berkshire Mal", "Lanesborough, MA 01237"]}, "phone": "+14134455300", "display_phone": "(413) 445-5300", "distance": 18488.111567144122}, {"id": "MamZuvp1FazZQ0A01EFceg", "alias": "wild-oats-market-williamstown-2", "name": "Wild Oats Market", "image_url": "https://s3-media2.fl.yelpcdn.com/bphoto/mG29nB4G8U-YNtCoq_pgdA/o.jpg", "is_closed": false, "url": "https://www.yelp.com/biz/wild-oats-market-williamstown-2?adjust_creative=ywY5UnLZrNrRl2b93Ruy_g&utm_campaign=yelp_api_v3&utm_medium=api_v3_business_search&utm_source=ywY5UnLZrNrRl2b93Ruy_g", "review_count": 29, "categories": [{"alias": "grocery", "title": "Grocery"}, {"alias": "healthmarkets", "title": "Health Markets"}, {"alias": "cafes", "title": "Cafes"}], "rating": 3.5, "coordinates": {"latitude": 42.70334, "longitude": -73.18677}, "transactions": [], "price": "$$", "location": {"address1": "320 Main St", "address2": "", "address3": "", "city": "Williamstown", "zip_code": "01267", "country": "US", "state": "MA", "display_address": ["320 Main St", "Williamstown, MA 01267"]}, "phone": "+14134588060", "display_phone": "(413) 458-8060", "distance": 17982.47963176739}, {"id": "BX2feYy_4dHXdqr4VRMfww", "alias": "ramuntos-pizza-williamstown", "name": "Ramunto's Pizza", "image_url": "https://s3-media4.fl.yelpcdn.com/bphoto/0ahQzl7stNnjRZaUtmtLqg/o.jpg", "is_closed": false, "url": "https://www.yelp.com/biz/ramuntos-pizza-williamstown?adjust_creative=ywY5UnLZrNrRl2b93Ruy_g&utm_campaign=yelp_api_v3&utm_medium=api_v3_business_search&utm_source=ywY5UnLZrNrRl2b93Ruy_g", "review_count": 8, "categories": [{"alias": "pizza", "title": "Pizza"}], "rating": 3.0, "coordinates": {"latitude": 42.7098569863576, "longitude": -73.2042880452379}, "transactions": [], "location": {"address1": "78 Spring St", "address2": "", "address3": null, "city": "Williamstown", "zip_code": "01267", "country": "US", "state": "MA", "display_address": ["78 Spring St", "Williamstown, MA 01267"]}, "phone": "+14138846073", "display_phone": "(413) 884-6073", "distance": 19508.088154338107}, {"id": "COim2jPB588_ZUmyU9ohlA", "alias": "village-pizza-north-adams", "name": "Village Pizza", "image_url": "https://s3-media2.fl.yelpcdn.com/bphoto/fzMu4ujaKlf8A0FRo0O9vQ/o.jpg", "is_closed": false, "url": "https://www.yelp.com/biz/village-pizza-north-adams?adjust_creative=ywY5UnLZrNrRl2b93Ruy_g&utm_campaign=yelp_api_v3&utm_medium=api_v3_business_search&utm_source=ywY5UnLZrNrRl2b93Ruy_g", "review_count": 33, "categories": [{"alias": "pizza", "title": "Pizza"}], "rating": 2.5, "coordinates": {"latitude": 42.699954, "longitude": -73.109382}, "transactions": [], "price": "$$", "location": {"address1": "51 Eagle St", "address2": "", "address3": "", "city": "North Adams", "zip_code": "01247", "country": "US", "state": "MA", "display_address": ["51 Eagle St", "North Adams, MA 01247"]}, "phone": "+14136644134", "display_phone": "(413) 664-4134", "distance": 13577.91544267266}, {"id": "dTPRhcx8OZw-LhH1wlGuoQ", "alias": "koto-hibachi-steak-house-pittsfield", "name": "Koto Hibachi Steak House", "image_url": "https://s3-media1.fl.yelpcdn.com/bphoto/PC1JPjHBxzdpIZ5uDnjRpQ/o.jpg", "is_closed": false, "url": "https://www.yelp.com/biz/koto-hibachi-steak-house-pittsfield?adjust_creative=ywY5UnLZrNrRl2b93Ruy_g&utm_campaign=yelp_api_v3&utm_medium=api_v3_business_search&utm_source=ywY5UnLZrNrRl2b93Ruy_g", "review_count": 50, "categories": [{"alias": "sushi", "title": "Sushi Bars"}, {"alias": "japanese", "title": "Japanese"}, {"alias": "steak", "title": "Steakhouses"}], "rating": 3.0, "coordinates": {"latitude": 42.4674977, "longitude": -73.2051329}, "transactions": ["delivery"], "price": "$$", "location": {"address1": "795 Dalton Ave", "address2": "", "address3": "", "city": "Pittsfield", "zip_code": "01201", "country": "US", "state": "MA", "display_address": ["795 Dalton Ave", "Pittsfield, MA 01201"]}, "phone": "+14137707128", "display_phone": "(413) 770-7128", "distance": 20601.348797631174}, {"id": "948nvOIUUValVhVnofzurw", "alias": "lickety-split-north-adams", "name": "Lickety-Split", "image_url": "https://s3-media4.fl.yelpcdn.com/bphoto/1QfiLPcvedlSbZ5zV8V05A/o.jpg", "is_closed": false, "url": "https://www.yelp.com/biz/lickety-split-north-adams?adjust_creative=ywY5UnLZrNrRl2b93Ruy_g&utm_campaign=yelp_api_v3&utm_medium=api_v3_business_search&utm_source=ywY5UnLZrNrRl2b93Ruy_g", "review_count": 22, "categories": [{"alias": "sandwiches", "title": "Sandwiches"}, {"alias": "cafes", "title": "Cafes"}], "rating": 3.0, "coordinates": {"latitude": 42.7021799, "longitude": -73.1137849}, "transactions": [], "price": "$$", "location": {"address1": "87 Marshall St", "address2": "", "address3": "", "city": "North Adams", "zip_code": "01247", "country": "US", "state": "MA", "display_address": ["87 Marshall St", "North Adams, MA 01247"]}, "phone": "+14136633372", "display_phone": "(413) 663-3372", "distance": 13977.734178111514}, {"id": "_4k5a9V9p6oDd0h8kCJbgg", "alias": "zuccos-family-restaurant-pittsfield", "name": "Zucco's Family Restaurant", "image_url": "https://s3-media3.fl.yelpcdn.com/bphoto/8kDDvVuGiEDPXeMZBNEPXA/o.jpg", "is_closed": false, "url": "https://www.yelp.com/biz/zuccos-family-restaurant-pittsfield?adjust_creative=ywY5UnLZrNrRl2b93Ruy_g&utm_campaign=yelp_api_v3&utm_medium=api_v3_business_search&utm_source=ywY5UnLZrNrRl2b93Ruy_g", "review_count": 24, "categories": [{"alias": "mediterranean", "title": "Mediterranean"}, {"alias": "italian", "title": "Italian"}, {"alias": "gluten_free", "title": "Gluten-Free"}], "rating": 3.0, "coordinates": {"latitude": 42.4633698981432, "longitude": -73.2147974686028}, "transactions": ["pickup", "delivery"], "price": "$$", "location": {"address1": "451 Dalton Ave", "address2": "", "address3": "", "city": "Pittsfield", "zip_code": "01201", "country": "US", "state": "MA", "display_address": ["451 Dalton Ave", "Pittsfield, MA 01201"]}, "phone": "+14134438112", "display_phone": "(413) 443-8112", "distance": 21492.42708953295}, {"id": "9NAI2dKSdr_xIOUnDlOEnw", "alias": "papa-ginos-pizzeria-north-adams", "name": "Papa Gino's Pizzeria", "image_url": "https://s3-media2.fl.yelpcdn.com/bphoto/CdCnlb-yfwsqSB4EVfmWpw/o.jpg", "is_closed": false, "url": "https://www.yelp.com/biz/papa-ginos-pizzeria-north-adams?adjust_creative=ywY5UnLZrNrRl2b93Ruy_g&utm_campaign=yelp_api_v3&utm_medium=api_v3_business_search&utm_source=ywY5UnLZrNrRl2b93Ruy_g", "review_count": 9, "categories": [{"alias": "pizza", "title": "Pizza"}], "rating": 3.5, "coordinates": {"latitude": 42.6979367, "longitude": -73.1130971}, "transactions": [], "price": "$$", "location": {"address1": "36 American Legion", "address2": "", "address3": "", "city": "North Adams", "zip_code": "01247", "country": "US", "state": "MA", "display_address": ["36 American Legion", "North Adams, MA 01247"]}, "phone": "+14136647811", "display_phone": "(413) 664-7811", "distance": 13570.7032541871}, {"id": "WpkbEYbNkC252tMTmhFAKg", "alias": "chilis-pittsfield", "name": "Chili's", "image_url": "https://s3-media2.fl.yelpcdn.com/bphoto/Jm4gEu-XCkmcC5Fql-XDTA/o.jpg", "is_closed": false, "url": "https://www.yelp.com/biz/chilis-pittsfield?adjust_creative=ywY5UnLZrNrRl2b93Ruy_g&utm_campaign=yelp_api_v3&utm_medium=api_v3_business_search&utm_source=ywY5UnLZrNrRl2b93Ruy_g", "review_count": 20, "categories": [{"alias": "tex-mex", "title": "Tex-Mex"}, {"alias": "bars", "title": "Bars"}, {"alias": "tradamerican", "title": "American (Traditional)"}], "rating": 2.5, "coordinates": {"latitude": 42.46652, "longitude": -73.19619}, "transactions": [], "location": {"address1": "555 Hubbard Ave", "address2": "", "address3": null, "city": "Pittsfield", "zip_code": "01201", "country": "US", "state": "MA", "display_address": ["555 Hubbard Ave", "Pittsfield, MA 01201"]}, "phone": "", "display_phone": "", "distance": 20508.53886585044}, {"id": "wxQ4WF6IOxObxPXJM6AlYw", "alias": "misty-moonlight-diner-pittsfield", "name": "Misty Moonlight Diner", "image_url": "https://s3-media1.fl.yelpcdn.com/bphoto/HxRE5Va6F7N8hV8WYBNU2A/o.jpg", "is_closed": false, "url": "https://www.yelp.com/biz/misty-moonlight-diner-pittsfield?adjust_creative=ywY5UnLZrNrRl2b93Ruy_g&utm_campaign=yelp_api_v3&utm_medium=api_v3_business_search&utm_source=ywY5UnLZrNrRl2b93Ruy_g", "review_count": 49, "categories": [{"alias": "diners", "title": "Diners"}], "rating": 3.5, "coordinates": {"latitude": 42.4656219482422, "longitude": -73.2095642089844}, "transactions": ["delivery"], "price": "$$", "location": {"address1": "565 Dalton Ave", "address2": "", "address3": "", "city": "Pittsfield", "zip_code": "01201", "country": "US", "state": "MA", "display_address": ["565 Dalton Ave", "Pittsfield, MA 01201"]}, "phone": "+14134992483", "display_phone": "(413) 499-2483", "distance": 21008.75810199962}, {"id": "6EQf1-9Jcha2gfDWTU2uCA", "alias": "hibachi-burffet-pittsfield", "name": "Hibachi Burffet", "image_url": "https://s3-media3.fl.yelpcdn.com/bphoto/Hw2AA6MhG3Xdq042h4nifA/o.jpg", "is_closed": false, "url": "https://www.yelp.com/biz/hibachi-burffet-pittsfield?adjust_creative=ywY5UnLZrNrRl2b93Ruy_g&utm_campaign=yelp_api_v3&utm_medium=api_v3_business_search&utm_source=ywY5UnLZrNrRl2b93Ruy_g", "review_count": 12, "categories": [{"alias": "chinese", "title": "Chinese"}], "rating": 3.0, "coordinates": {"latitude": 42.470356, "longitude": -73.2040024}, "transactions": [], "location": {"address1": "61 Cheshire Rd", "address2": "", "address3": "", "city": "Pittsfield", "zip_code": "01201", "country": "US", "state": "MA", "display_address": ["61 Cheshire Rd", "Pittsfield, MA 01201"]}, "phone": "", "display_phone": "", "distance": 20466.3663806958}, {"id": "NBAJoxld1LoJ2xbHbMkpaQ", "alias": "lindas-cafe-north-adams", "name": "Linda's Cafe", "image_url": "https://s3-media2.fl.yelpcdn.com/bphoto/ePZOQrfsnS7GpoHur0mjQw/o.jpg", "is_closed": false, "url": "https://www.yelp.com/biz/lindas-cafe-north-adams?adjust_creative=ywY5UnLZrNrRl2b93Ruy_g&utm_campaign=yelp_api_v3&utm_medium=api_v3_business_search&utm_source=ywY5UnLZrNrRl2b93Ruy_g", "review_count": 18, "categories": [{"alias": "cafes", "title": "Cafes"}], "rating": 3.5, "coordinates": {"latitude": 42.700272, "longitude": -73.102139}, "transactions": [], "price": "$", "location": {"address1": "178 Union St", "address2": "", "address3": "", "city": "North Adams", "zip_code": "01247", "country": "US", "state": "MA", "display_address": ["178 Union St", "North Adams, MA 01247"]}, "phone": "+14136638003", "display_phone": "(413) 663-8003", "distance": 13311.62617116571}, {"id": "sVoxGa8_98EdhBZObbZEBA", "alias": "zens-doghouse-lanesboro", "name": "Zen's Doghouse", "image_url": "", "is_closed": false, "url": "https://www.yelp.com/biz/zens-doghouse-lanesboro?adjust_creative=ywY5UnLZrNrRl2b93Ruy_g&utm_campaign=yelp_api_v3&utm_medium=api_v3_business_search&utm_source=ywY5UnLZrNrRl2b93Ruy_g", "review_count": 1, "categories": [{"alias": "newamerican", "title": "American (New)"}], "rating": 3.0, "coordinates": {"latitude": 42.492415, "longitude": -73.202326}, "transactions": [], "location": {"address1": "650 Cheshire Rd", "address2": null, "address3": null, "city": "Lanesboro", "zip_code": "01237", "country": "US", "state": "MA", "display_address": ["650 Cheshire Rd", "Lanesboro, MA 01237"]}, "phone": "+14134993331", "display_phone": "(413) 499-3331", "distance": 18610.00855323381}, {"id": "yVmdYiqeafa71KLIZsQV_w", "alias": "subway-north-adams-3", "name": "Subway", "image_url": "https://s3-media4.fl.yelpcdn.com/bphoto/Na2VXFXPxxPvZmeto_7rrg/o.jpg", "is_closed": false, "url": "https://www.yelp.com/biz/subway-north-adams-3?adjust_creative=ywY5UnLZrNrRl2b93Ruy_g&utm_campaign=yelp_api_v3&utm_medium=api_v3_business_search&utm_source=ywY5UnLZrNrRl2b93Ruy_g", "review_count": 1, "categories": [{"alias": "sandwiches", "title": "Sandwiches"}], "rating": 5.0, "coordinates": {"latitude": 42.6997414026416, "longitude": -73.1143786976775}, "transactions": [], "price": "$", "location": {"address1": "1 Main St", "address2": "", "address3": "", "city": "North Adams", "zip_code": "01247", "country": "US", "state": "MA", "display_address": ["1 Main St", "North Adams, MA 01247"]}, "phone": "+14136648020", "display_phone": "(413) 664-8020", "distance": 13774.175794629926}, {"id": "0VAkYUcPyFvhr62FVzbpZg", "alias": "99-restaurants-pittsfield-2", "name": "99 Restaurants", "image_url": "https://s3-media3.fl.yelpcdn.com/bphoto/mKSEJrY9DvPWBM9rtWzllQ/o.jpg", "is_closed": false, "url": "https://www.yelp.com/biz/99-restaurants-pittsfield-2?adjust_creative=ywY5UnLZrNrRl2b93Ruy_g&utm_campaign=yelp_api_v3&utm_medium=api_v3_business_search&utm_source=ywY5UnLZrNrRl2b93Ruy_g", "review_count": 31, "categories": [{"alias": "tradamerican", "title": "American (Traditional)"}, {"alias": "seafood", "title": "Seafood"}, {"alias": "pubs", "title": "Pubs"}], "rating": 2.5, "coordinates": {"latitude": 42.4663972, "longitude": -73.2058286}, "transactions": [], "price": "$$", "location": {"address1": "609 Merrill Rd", "address2": "", "address3": "", "city": "Pittsfield", "zip_code": "01201", "country": "US", "state": "MA", "display_address": ["609 Merrill Rd", "Pittsfield, MA 01201"]}, "phone": "+14132360980", "display_phone": "(413) 236-0980", "distance": 20727.261524774043}, {"id": "A7JGLOn_YVRXkbaPpthlzQ", "alias": "east-side-cafe-pittsfield", "name": "East Side Cafe", "image_url": "https://s3-media2.fl.yelpcdn.com/bphoto/YNa8xMKyNtthl8beIWGhfA/o.jpg", "is_closed": false, "url": "https://www.yelp.com/biz/east-side-cafe-pittsfield?adjust_creative=ywY5UnLZrNrRl2b93Ruy_g&utm_campaign=yelp_api_v3&utm_medium=api_v3_business_search&utm_source=ywY5UnLZrNrRl2b93Ruy_g", "review_count": 27, "categories": [{"alias": "italian", "title": "Italian"}, {"alias": "pizza", "title": "Pizza"}], "rating": 3.5, "coordinates": {"latitude": 42.4518555795743, "longitude": -73.2267382570664}, "transactions": ["delivery"], "price": "$", "location": {"address1": "378 Newell St", "address2": "", "address3": "", "city": "Pittsfield", "zip_code": "01201", "country": "US", "state": "MA", "display_address": ["378 Newell St", "Pittsfield, MA 01201"]}, "phone": "+14134479405", "display_phone": "(413) 447-9405", "distance": 23084.447231702725}, {"id": "oadhNMM6_QqXHMS5s5jWyQ", "alias": "pizza-works-north-adams", "name": "Pizza Works", "image_url": "https://s3-media4.fl.yelpcdn.com/bphoto/fX9cs5sZWkJ0ylsgcQXpeA/o.jpg", "is_closed": false, "url": "https://www.yelp.com/biz/pizza-works-north-adams?adjust_creative=ywY5UnLZrNrRl2b93Ruy_g&utm_campaign=yelp_api_v3&utm_medium=api_v3_business_search&utm_source=ywY5UnLZrNrRl2b93Ruy_g", "review_count": 11, "categories": [{"alias": "pizza", "title": "Pizza"}], "rating": 2.5, "coordinates": {"latitude": 42.6909245, "longitude": -73.1061431}, "transactions": [], "price": "$$", "location": {"address1": "315 Ashland St", "address2": "", "address3": "", "city": "North Adams", "zip_code": "01247", "country": "US", "state": "MA", "display_address": ["315 Ashland St", "North Adams, MA 01247"]}, "phone": "+14136636661", "display_phone": "(413) 663-6661", "distance": 12585.582649182119}, {"id": "PjnuvUKvpp0nyGQOAPitEg", "alias": "tjs-southwestern-bar-and-grill-north-adams", "name": "TJ's Southwestern bar & grill", "image_url": "", "is_closed": false, "url": "https://www.yelp.com/biz/tjs-southwestern-bar-and-grill-north-adams?adjust_creative=ywY5UnLZrNrRl2b93Ruy_g&utm_campaign=yelp_api_v3&utm_medium=api_v3_business_search&utm_source=ywY5UnLZrNrRl2b93Ruy_g", "review_count": 1, "categories": [{"alias": "tex-mex", "title": "Tex-Mex"}], "rating": 1.0, "coordinates": {"latitude": 42.6947904744372, "longitude": -73.1097201505478}, "transactions": [], "location": {"address1": "139 Ashland St", "address2": "", "address3": "", "city": "North Adams", "zip_code": "01247", "country": "US", "state": "MA", "display_address": ["139 Ashland St", "North Adams, MA 01247"]}, "phone": "", "display_phone": "", "distance": 13105.24090279481}, {"id": "hi4R8b0DYuEmnlDoKWtNBA", "alias": "eat-to-total-health-north-adams", "name": "Eat To Total Health", "image_url": "", "is_closed": false, "url": "https://www.yelp.com/biz/eat-to-total-health-north-adams?adjust_creative=ywY5UnLZrNrRl2b93Ruy_g&utm_campaign=yelp_api_v3&utm_medium=api_v3_business_search&utm_source=ywY5UnLZrNrRl2b93Ruy_g", "review_count": 2, "categories": [{"alias": "juicebars", "title": "Juice Bars & Smoothies"}, {"alias": "healthmarkets", "title": "Health Markets"}, {"alias": "cafes", "title": "Cafes"}], "rating": 2.5, "coordinates": {"latitude": 42.698356, "longitude": -73.110206}, "transactions": [], "location": {"address1": "14 Ashland St", "address2": "", "address3": null, "city": "North Adams", "zip_code": "01247", "country": "US", "state": "MA", "display_address": ["14 Ashland St", "North Adams, MA 01247"]}, "phone": "+14133464357", "display_phone": "(413) 346-4357", "distance": 13461.890303850272}, {"id": "f6iWxoj4vxSdZHsrRx6txg", "alias": "dominos-pizza-north-adams", "name": "Domino's Pizza", "image_url": "https://s3-media3.fl.yelpcdn.com/bphoto/NUsnWHDEVOUHdex9RLn5Qw/o.jpg", "is_closed": false, "url": "https://www.yelp.com/biz/dominos-pizza-north-adams?adjust_creative=ywY5UnLZrNrRl2b93Ruy_g&utm_campaign=yelp_api_v3&utm_medium=api_v3_business_search&utm_source=ywY5UnLZrNrRl2b93Ruy_g", "review_count": 3, "categories": [{"alias": "pizza", "title": "Pizza"}, {"alias": "chicken_wings", "title": "Chicken Wings"}, {"alias": "sandwiches", "title": "Sandwiches"}], "rating": 3.0, "coordinates": {"latitude": 42.702301, "longitude": -73.1075897}, "transactions": [], "price": "$", "location": {"address1": "1 River St", "address2": null, "address3": null, "city": "North Adams", "zip_code": "01247", "country": "US", "state": "MA", "display_address": ["1 River St", "North Adams, MA 01247"]}, "phone": "+14136636363", "display_phone": "(413) 663-6363", "distance": 13729.829421638258}, {"id": "hMY9WV4Z8BKgIWwHgnL01g", "alias": "applebees-grill-bar-pittsfield", "name": "Applebee's Grill + Bar", "image_url": "https://s3-media3.fl.yelpcdn.com/bphoto/lcgH8oFDmmaKXUDt_OBFfg/o.jpg", "is_closed": false, "url": "https://www.yelp.com/biz/applebees-grill-bar-pittsfield?adjust_creative=ywY5UnLZrNrRl2b93Ruy_g&utm_campaign=yelp_api_v3&utm_medium=api_v3_business_search&utm_source=ywY5UnLZrNrRl2b93Ruy_g", "review_count": 29, "categories": [{"alias": "tradamerican", "title": "American (Traditional)"}, {"alias": "sportsbars", "title": "Sports Bars"}, {"alias": "burgers", "title": "Burgers"}], "rating": 2.5, "coordinates": {"latitude": 42.468614, "longitude": -73.198755}, "transactions": [], "price": "$$", "location": {"address1": "555 Hubbard Ave", "address2": "Berkshire Crossing Shopping Center", "address3": "", "city": "Pittsfield", "zip_code": "01201", "country": "US", "state": "MA", "display_address": ["555 Hubbard Ave", "Berkshire Crossing Shopping Center", "Pittsfield, MA 01201"]}, "phone": "+14134995157", "display_phone": "(413) 499-5157", "distance": 20139.520682841667}, {"id": "pmy-RkBV3NjQYW2pQl9mQQ", "alias": "grand-buffet-star-chinese-restaurant-pittsfield", "name": "Grand Buffet Star Chinese Restaurant", "image_url": "https://s3-media2.fl.yelpcdn.com/bphoto/vZpisPXNq97CDzq8d_vqbA/o.jpg", "is_closed": false, "url": "https://www.yelp.com/biz/grand-buffet-star-chinese-restaurant-pittsfield?adjust_creative=ywY5UnLZrNrRl2b93Ruy_g&utm_campaign=yelp_api_v3&utm_medium=api_v3_business_search&utm_source=ywY5UnLZrNrRl2b93Ruy_g", "review_count": 11, "categories": [{"alias": "chinese", "title": "Chinese"}], "rating": 2.0, "coordinates": {"latitude": 42.470423, "longitude": -73.204747}, "transactions": [], "price": "$", "location": {"address1": "61 Cheshire Rd", "address2": "", "address3": "", "city": "Pittsfield", "zip_code": "01201", "country": "US", "state": "MA", "display_address": ["61 Cheshire Rd", "Pittsfield, MA 01201"]}, "phone": "+14134427000", "display_phone": "(413) 442-7000", "distance": 20354.608474227964}, {"id": "pZ5Q3wPrBLmHXmV6LKlpcg", "alias": "mcdonalds-adams-4", "name": "McDonald's", "image_url": "https://s3-media2.fl.yelpcdn.com/bphoto/dPKXKZX9SRSCG9YORg2u7Q/o.jpg", "is_closed": false, "url": "https://www.yelp.com/biz/mcdonalds-adams-4?adjust_creative=ywY5UnLZrNrRl2b93Ruy_g&utm_campaign=yelp_api_v3&utm_medium=api_v3_business_search&utm_source=ywY5UnLZrNrRl2b93Ruy_g", "review_count": 2, "categories": [{"alias": "coffee", "title": "Coffee & Tea"}, {"alias": "burgers", "title": "Burgers"}, {"alias": "hotdogs", "title": "Fast Food"}], "rating": 2.0, "coordinates": {"latitude": 42.6198977, "longitude": -73.1200694}, "transactions": [], "price": "$", "location": {"address1": "2 Commercial St", "address2": null, "address3": null, "city": "Adams", "zip_code": "01220", "country": "US", "state": "MA", "display_address": ["2 Commercial St", "Adams, MA 01220"]}, "phone": "+14137434678", "display_phone": "(413) 743-4678", "distance": 8347.994569308306}, {"id": "JE7ddPRkUKhgWO0Jmy7xNg", "alias": "china-wok-pittsfield", "name": "China Wok", "image_url": "https://s3-media1.fl.yelpcdn.com/bphoto/jWYAgXQeOzMzTTvhnHWKXg/o.jpg", "is_closed": false, "url": "https://www.yelp.com/biz/china-wok-pittsfield?adjust_creative=ywY5UnLZrNrRl2b93Ruy_g&utm_campaign=yelp_api_v3&utm_medium=api_v3_business_search&utm_source=ywY5UnLZrNrRl2b93Ruy_g", "review_count": 15, "categories": [{"alias": "chinese", "title": "Chinese"}], "rating": 3.5, "coordinates": {"latitude": 42.4633937, "longitude": -73.2146138}, "transactions": ["delivery"], "price": "$", "location": {"address1": "457 Dalton Ave", "address2": "Ste 6", "address3": "", "city": "Pittsfield", "zip_code": "01201", "country": "US", "state": "MA", "display_address": ["457 Dalton Ave", "Ste 6", "Pittsfield, MA 01201"]}, "phone": "+14134488810", "display_phone": "(413) 448-8810", "distance": 21391.948455048347}, {"id": "BPyXFtPX_6PirL4p4HfIGA", "alias": "five-guys-pittsfield", "name": "Five Guys", "image_url": "https://s3-media1.fl.yelpcdn.com/bphoto/XerdEcgL30G8_SN5W5W1uA/o.jpg", "is_closed": false, "url": "https://www.yelp.com/biz/five-guys-pittsfield?adjust_creative=ywY5UnLZrNrRl2b93Ruy_g&utm_campaign=yelp_api_v3&utm_medium=api_v3_business_search&utm_source=ywY5UnLZrNrRl2b93Ruy_g", "review_count": 12, "categories": [{"alias": "burgers", "title": "Burgers"}, {"alias": "hotdogs", "title": "Fast Food"}], "rating": 4.0, "coordinates": {"latitude": 42.46647, "longitude": -73.2041799}, "transactions": [], "price": "$", "location": {"address1": "660 Merrill Rd", "address2": "", "address3": "", "city": "Pittsfield", "zip_code": "01201", "country": "US", "state": "MA", "display_address": ["660 Merrill Rd", "Pittsfield, MA 01201"]}, "phone": "+14134995900", "display_phone": "(413) 499-5900", "distance": 20673.311004802614}, {"id": "_UOV6TpTX9oGunNqFNBT0g", "alias": "kellys-diner-pittsfield", "name": "Kelly's Diner", "image_url": "https://s3-media4.fl.yelpcdn.com/bphoto/dPhDpYeK2lP-PD8Qn1iPRA/o.jpg", "is_closed": false, "url": "https://www.yelp.com/biz/kellys-diner-pittsfield?adjust_creative=ywY5UnLZrNrRl2b93Ruy_g&utm_campaign=yelp_api_v3&utm_medium=api_v3_business_search&utm_source=ywY5UnLZrNrRl2b93Ruy_g", "review_count": 30, "categories": [{"alias": "breakfast_brunch", "title": "Breakfast & Brunch"}], "rating": 3.5, "coordinates": {"latitude": 42.467871, "longitude": -73.202713}, "transactions": ["delivery"], "price": "$", "location": {"address1": "860 Dalton Ave", "address2": "", "address3": "", "city": "Pittsfield", "zip_code": "01201", "country": "US", "state": "MA", "display_address": ["860 Dalton Ave", "Pittsfield, MA 01201"]}, "phone": "+14134421875", "display_phone": "(413) 442-1875", "distance": 20429.572224487678}, {"id": "xXAemH6OUirTl1AkYMhohg", "alias": "burger-king-north-adams-3", "name": "Burger King", "image_url": "https://s3-media2.fl.yelpcdn.com/bphoto/ClLu0ahtHnl2C_W8y-sV1Q/o.jpg", "is_closed": false, "url": "https://www.yelp.com/biz/burger-king-north-adams-3?adjust_creative=ywY5UnLZrNrRl2b93Ruy_g&utm_campaign=yelp_api_v3&utm_medium=api_v3_business_search&utm_source=ywY5UnLZrNrRl2b93Ruy_g", "review_count": 1, "categories": [{"alias": "burgers", "title": "Burgers"}, {"alias": "hotdogs", "title": "Fast Food"}], "rating": 3.0, "coordinates": {"latitude": 42.6971633, "longitude": -73.112693}, "transactions": [], "price": "$", "location": {"address1": "74 American Legion Dr", "address2": "", "address3": "", "city": "North Adams", "zip_code": "01247", "country": "US", "state": "MA", "display_address": ["74 American Legion Dr", "North Adams, MA 01247"]}, "phone": "", "display_phone": "", "distance": 13475.659030059624}, {"id": "xQ_jSCeekj2nmebWiUWVBQ", "alias": "subway-pittsfield-18", "name": "Subway", "image_url": "https://s3-media2.fl.yelpcdn.com/bphoto/Ns0oKq_wodrGXc3l_uQ-lQ/o.jpg", "is_closed": false, "url": "https://www.yelp.com/biz/subway-pittsfield-18?adjust_creative=ywY5UnLZrNrRl2b93Ruy_g&utm_campaign=yelp_api_v3&utm_medium=api_v3_business_search&utm_source=ywY5UnLZrNrRl2b93Ruy_g", "review_count": 1, "categories": [{"alias": "sandwiches", "title": "Sandwiches"}], "rating": 4.0, "coordinates": {"latitude": 42.464833, "longitude": -73.214439}, "transactions": [], "price": "$", "location": {"address1": "457 Dalton Ave", "address2": "", "address3": "", "city": "Pittsfield", "zip_code": "01201", "country": "US", "state": "MA", "display_address": ["457 Dalton Ave", "Pittsfield, MA 01201"]}, "phone": "+14134990067", "display_phone": "(413) 499-0067", "distance": 21359.861928572558}, {"id": "heOqeO6SnUlNmvqR3dbBCg", "alias": "chefs-hat-williamstown", "name": "Chef's Hat", "image_url": "https://s3-media2.fl.yelpcdn.com/bphoto/C8IkogKWidSSiZNzsYxRAg/o.jpg", "is_closed": false, "url": "https://www.yelp.com/biz/chefs-hat-williamstown?adjust_creative=ywY5UnLZrNrRl2b93Ruy_g&utm_campaign=yelp_api_v3&utm_medium=api_v3_business_search&utm_source=ywY5UnLZrNrRl2b93Ruy_g", "review_count": 31, "categories": [{"alias": "breakfast_brunch", "title": "Breakfast & Brunch"}, {"alias": "salad", "title": "Salad"}, {"alias": "tradamerican", "title": "American (Traditional)"}], "rating": 3.5, "coordinates": {"latitude": 42.7367148, "longitude": -73.2069653}, "transactions": [], "price": "$$", "location": {"address1": "905 Simonds Rd", "address2": "", "address3": "", "city": "Williamstown", "zip_code": "01267", "country": "US", "state": "MA", "display_address": ["905 Simonds Rd", "Williamstown, MA 01267"]}, "phone": "+14134585120", "display_phone": "(413) 458-5120", "distance": 21722.310049696633}, {"id": "W8wy2-f1tkjZQPFe_xT4vQ", "alias": "subway-pittsfield-13", "name": "Subway", "image_url": "https://s3-media3.fl.yelpcdn.com/bphoto/TKupqtDxQ-vh8HoIQgur5A/o.jpg", "is_closed": false, "url": "https://www.yelp.com/biz/subway-pittsfield-13?adjust_creative=ywY5UnLZrNrRl2b93Ruy_g&utm_campaign=yelp_api_v3&utm_medium=api_v3_business_search&utm_source=ywY5UnLZrNrRl2b93Ruy_g", "review_count": 1, "categories": [{"alias": "sandwiches", "title": "Sandwiches"}], "rating": 4.0, "coordinates": {"latitude": 42.4649194, "longitude": -73.1985031}, "transactions": [], "price": "$", "location": {"address1": "555 Hubbard Ave", "address2": "Ste 12", "address3": null, "city": "Pittsfield", "zip_code": "01201", "country": "US", "state": "MA", "display_address": ["555 Hubbard Ave", "Ste 12", "Pittsfield, MA 01201"]}, "phone": "+14134422539", "display_phone": "(413) 442-2539", "distance": 20415.23407008106}, {"id": "PtjQ9BHdSh-InDjpYEoLAw", "alias": "pizza-hut-pittsfield-7", "name": "Pizza Hut", "image_url": "https://s3-media2.fl.yelpcdn.com/bphoto/0fWoaDnHsxJ4fqSSKwa4-w/o.jpg", "is_closed": false, "url": "https://www.yelp.com/biz/pizza-hut-pittsfield-7?adjust_creative=ywY5UnLZrNrRl2b93Ruy_g&utm_campaign=yelp_api_v3&utm_medium=api_v3_business_search&utm_source=ywY5UnLZrNrRl2b93Ruy_g", "review_count": 5, "categories": [{"alias": "italian", "title": "Italian"}, {"alias": "pizza", "title": "Pizza"}], "rating": 2.5, "coordinates": {"latitude": 42.465908213687, "longitude": -73.2030403283647}, "transactions": ["pickup", "delivery"], "price": "$", "location": {"address1": "660 Merrill Rd", "address2": null, "address3": null, "city": "Pittsfield", "zip_code": "01201", "country": "US", "state": "MA", "display_address": ["660 Merrill Rd", "Pittsfield, MA 01201"]}, "phone": "+14134999891", "display_phone": "(413) 499-9891", "distance": 20601.11560387966}, {"id": "9KNacuxUSbU6_v10Jn8Npg", "alias": "friendlys-pittsfield", "name": "Friendly's", "image_url": "https://s3-media3.fl.yelpcdn.com/bphoto/DAdk5s3FnedyuVpFxs0jfw/o.jpg", "is_closed": false, "url": "https://www.yelp.com/biz/friendlys-pittsfield?adjust_creative=ywY5UnLZrNrRl2b93Ruy_g&utm_campaign=yelp_api_v3&utm_medium=api_v3_business_search&utm_source=ywY5UnLZrNrRl2b93Ruy_g", "review_count": 22, "categories": [{"alias": "icecream", "title": "Ice Cream & Frozen Yogurt"}, {"alias": "burgers", "title": "Burgers"}, {"alias": "tradamerican", "title": "American (Traditional)"}], "rating": 2.5, "coordinates": {"latitude": 42.4683225899935, "longitude": -73.2024212926626}, "transactions": ["delivery"], "price": "$$", "location": {"address1": "841 Dalton Ave", "address2": "", "address3": "", "city": "Pittsfield", "zip_code": "01201", "country": "US", "state": "MA", "display_address": ["841 Dalton Ave", "Pittsfield, MA 01201"]}, "phone": "+14134430282", "display_phone": "(413) 443-0282", "distance": 20486.430919041337}, {"id": "KWeBXXzXh9OFbPqCm4_-nA", "alias": "panera-bread-pittsfield", "name": "Panera Bread", "image_url": "https://s3-media3.fl.yelpcdn.com/bphoto/uamCSTPMYSB1mNZV221n9g/o.jpg", "is_closed": false, "url": "https://www.yelp.com/biz/panera-bread-pittsfield?adjust_creative=ywY5UnLZrNrRl2b93Ruy_g&utm_campaign=yelp_api_v3&utm_medium=api_v3_business_search&utm_source=ywY5UnLZrNrRl2b93Ruy_g", "review_count": 18, "categories": [{"alias": "sandwiches", "title": "Sandwiches"}, {"alias": "salad", "title": "Salad"}, {"alias": "soup", "title": "Soup"}], "rating": 2.5, "coordinates": {"latitude": 42.465182, "longitude": -73.206932}, "transactions": [], "price": "$$", "location": {"address1": "635 Merrill Rd", "address2": null, "address3": null, "city": "Pittsfield", "zip_code": "01201", "country": "US", "state": "MA", "display_address": ["635 Merrill Rd", "Pittsfield, MA 01201"]}, "phone": "+14134433200", "display_phone": "(413) 443-3200", "distance": 20886.201623602003}, {"id": "j9UeZCXnFfeMlwqFnIXfCw", "alias": "wendys-pittsfield-2", "name": "Wendy's", "image_url": "https://s3-media1.fl.yelpcdn.com/bphoto/PXtaHMk789N-we_ZBFnlhQ/o.jpg", "is_closed": false, "url": "https://www.yelp.com/biz/wendys-pittsfield-2?adjust_creative=ywY5UnLZrNrRl2b93Ruy_g&utm_campaign=yelp_api_v3&utm_medium=api_v3_business_search&utm_source=ywY5UnLZrNrRl2b93Ruy_g", "review_count": 17, "categories": [{"alias": "hotdogs", "title": "Fast Food"}, {"alias": "burgers", "title": "Burgers"}], "rating": 2.5, "coordinates": {"latitude": 42.468646, "longitude": -73.195668}, "transactions": ["delivery"], "price": "$", "location": {"address1": "556 Hubbard Avenue", "address2": "", "address3": "", "city": "Pittsfield", "zip_code": "01201", "country": "US", "state": "MA", "display_address": ["556 Hubbard Avenue", "Pittsfield, MA 01201"]}, "phone": "+14134422053", "display_phone": "(413) 442-2053", "distance": 19956.32576530404}, {"id": "dPrW7czCTb9yQkZsiyhKcg", "alias": "papa-ginos-pizzeria-pittsfield", "name": "Papa Gino's Pizzeria", "image_url": "https://s3-media1.fl.yelpcdn.com/bphoto/NKN58oe59RYs8nXmvCD_Qg/o.jpg", "is_closed": false, "url": "https://www.yelp.com/biz/papa-ginos-pizzeria-pittsfield?adjust_creative=ywY5UnLZrNrRl2b93Ruy_g&utm_campaign=yelp_api_v3&utm_medium=api_v3_business_search&utm_source=ywY5UnLZrNrRl2b93Ruy_g", "review_count": 21, "categories": [{"alias": "pizza", "title": "Pizza"}], "rating": 2.5, "coordinates": {"latitude": 42.4659526682081, "longitude": -73.2064502022769}, "transactions": ["delivery"], "price": "$$", "location": {"address1": "685 Merrill Rd", "address2": null, "address3": null, "city": "Pittsfield", "zip_code": "01201", "country": "US", "state": "MA", "display_address": ["685 Merrill Rd", "Pittsfield, MA 01201"]}, "phone": "+14134455307", "display_phone": "(413) 445-5307", "distance": 20798.27514372236}, {"id": "Vci641OhbgfuHGeRFPjT0g", "alias": "mcdonalds-north-adams", "name": "McDonald's", "image_url": "https://s3-media2.fl.yelpcdn.com/bphoto/bbSuMULzItulAx_v8FBI3w/o.jpg", "is_closed": false, "url": "https://www.yelp.com/biz/mcdonalds-north-adams?adjust_creative=ywY5UnLZrNrRl2b93Ruy_g&utm_campaign=yelp_api_v3&utm_medium=api_v3_business_search&utm_source=ywY5UnLZrNrRl2b93Ruy_g", "review_count": 3, "categories": [{"alias": "burgers", "title": "Burgers"}, {"alias": "hotdogs", "title": "Fast Food"}, {"alias": "coffee", "title": "Coffee & Tea"}], "rating": 1.0, "coordinates": {"latitude": 42.700652, "longitude": -73.1080252}, "transactions": [], "price": "$", "location": {"address1": "17 Union St", "address2": "", "address3": "", "city": "North Adams", "zip_code": "01247", "country": "US", "state": "MA", "display_address": ["17 Union St", "North Adams, MA 01247"]}, "phone": "+14136647272", "display_phone": "(413) 664-7272", "distance": 13592.16091582157}, {"id": "j3iGXa2h_E9-JDTYhcBMEg", "alias": "hold-the-anchovies-pittsfield", "name": "Hold the Anchovies", "image_url": "", "is_closed": false, "url": "https://www.yelp.com/biz/hold-the-anchovies-pittsfield?adjust_creative=ywY5UnLZrNrRl2b93Ruy_g&utm_campaign=yelp_api_v3&utm_medium=api_v3_business_search&utm_source=ywY5UnLZrNrRl2b93Ruy_g", "review_count": 1, "categories": [{"alias": "pizza", "title": "Pizza"}], "rating": 1.0, "coordinates": {"latitude": 42.46429, "longitude": -73.21442}, "transactions": [], "price": "$$", "location": {"address1": "455 Dalton Ave", "address2": "", "address3": "", "city": "Pittsfield", "zip_code": "01201", "country": "US", "state": "MA", "display_address": ["455 Dalton Ave", "Pittsfield, MA 01201"]}, "phone": "+14134432400", "display_phone": "(413) 443-2400", "distance": 21400.175962095713}, {"id": "3TyINqqzEADspKjjStQOsQ", "alias": "mcdonalds-pittsfield", "name": "McDonald's", "image_url": "https://s3-media3.fl.yelpcdn.com/bphoto/JeCD1DpJ1rrasg9aYG7Eew/o.jpg", "is_closed": false, "url": "https://www.yelp.com/biz/mcdonalds-pittsfield?adjust_creative=ywY5UnLZrNrRl2b93Ruy_g&utm_campaign=yelp_api_v3&utm_medium=api_v3_business_search&utm_source=ywY5UnLZrNrRl2b93Ruy_g", "review_count": 5, "categories": [{"alias": "coffee", "title": "Coffee & Tea"}, {"alias": "burgers", "title": "Burgers"}, {"alias": "hotdogs", "title": "Fast Food"}], "rating": 3.0, "coordinates": {"latitude": 42.468519, "longitude": -73.2040031329598}, "transactions": [], "price": "$", "location": {"address1": "61 Cheshire Rd", "address2": "", "address3": "", "city": "Pittsfield", "zip_code": "01201", "country": "US", "state": "MA", "display_address": ["61 Cheshire Rd", "Pittsfield, MA 01201"]}, "phone": "+14134424602", "display_phone": "(413) 442-4602", "distance": 20455.882008944067}, {"id": "JdgwEC4QOezifl1_1dtCXA", "alias": "taco-bell-pittsfield-2", "name": "Taco Bell", "image_url": "https://s3-media1.fl.yelpcdn.com/bphoto/SDdSHQO3GYmXloHlSlEiKQ/o.jpg", "is_closed": false, "url": "https://www.yelp.com/biz/taco-bell-pittsfield-2?adjust_creative=ywY5UnLZrNrRl2b93Ruy_g&utm_campaign=yelp_api_v3&utm_medium=api_v3_business_search&utm_source=ywY5UnLZrNrRl2b93Ruy_g", "review_count": 15, "categories": [{"alias": "hotdogs", "title": "Fast Food"}, {"alias": "tacos", "title": "Tacos"}], "rating": 2.5, "coordinates": {"latitude": 42.4690315746512, "longitude": -73.1969030708575}, "transactions": ["delivery"], "price": "$", "location": {"address1": "555 Hubbard Ave", "address2": "", "address3": "", "city": "Pittsfield", "zip_code": "01201", "country": "US", "state": "MA", "display_address": ["555 Hubbard Ave", "Pittsfield, MA 01201"]}, "phone": "+14134421007", "display_phone": "(413) 442-1007", "distance": 19998.81299363833}, {"id": "0PxpbEmiFrYpp37WeCyb5g", "alias": "subway-williamstown-8", "name": "Subway", "image_url": "https://s3-media3.fl.yelpcdn.com/bphoto/H04mpthybBZFeHrZUWecyQ/o.jpg", "is_closed": false, "url": "https://www.yelp.com/biz/subway-williamstown-8?adjust_creative=ywY5UnLZrNrRl2b93Ruy_g&utm_campaign=yelp_api_v3&utm_medium=api_v3_business_search&utm_source=ywY5UnLZrNrRl2b93Ruy_g", "review_count": 1, "categories": [{"alias": "sandwiches", "title": "Sandwiches"}], "rating": 1.0, "coordinates": {"latitude": 42.7048670617733, "longitude": -73.1884805757429}, "transactions": [], "price": "$", "location": {"address1": "384 Main St", "address2": null, "address3": null, "city": "Williamstown", "zip_code": "01267", "country": "US", "state": "MA", "display_address": ["384 Main St", "Williamstown, MA 01267"]}, "phone": "+14134587014", "display_phone": "(413) 458-7014", "distance": 18171.3133139309}, {"id": "qqA8YX58xnmEXLyanHfdUg", "alias": "stufd-food-truck-brooklyn", "name": "Stuf'd Food Truck", "image_url": "https://s3-media2.fl.yelpcdn.com/bphoto/_Wn0i-tLIOFinw8BPAqxPA/o.jpg", "is_closed": false, "url": "https://www.yelp.com/biz/stufd-food-truck-brooklyn?adjust_creative=ywY5UnLZrNrRl2b93Ruy_g&utm_campaign=yelp_api_v3&utm_medium=api_v3_business_search&utm_source=ywY5UnLZrNrRl2b93Ruy_g", "review_count": 4, "categories": [{"alias": "sandwiches", "title": "Sandwiches"}, {"alias": "foodtrucks", "title": "Food Trucks"}], "rating": 4.0, "coordinates": {"latitude": 40.7124539, "longitude": -73.9287374}, "transactions": [], "location": {"address1": "178 Varick Ave", "address2": "", "address3": null, "city": "Brooklyn", "zip_code": "11237", "country": "US", "state": "NY", "display_address": ["178 Varick Ave", "Brooklyn, NY 11237"]}, "phone": "+18457091808", "display_phone": "(845) 709-1808", "distance": 222482.71469208464}]