[{"id": "m5RLHsmP10ndwlHViypFtQ", "alias": "lucky-dog-tavern-north-smithfield", "name": "Lucky Dog Tavern", "image_url": "https://s3-media1.fl.yelpcdn.com/bphoto/B1GtVbmAsSqv7LIKsziFkQ/o.jpg", "is_closed": false, "url": "https://www.yelp.com/biz/lucky-dog-tavern-north-smithfield?adjust_creative=HdhkN5EEH6lAqE3kwhsHEQ&utm_campaign=yelp_api_v3&utm_medium=api_v3_business_search&utm_source=HdhkN5EEH6lAqE3kwhsHEQ", "review_count": 127, "categories": [{"alias": "tradamerican", "title": "American (Traditional)"}, {"alias": "seafood", "title": "Seafood"}, {"alias": "burgers", "title": "Burgers"}], "rating": 4.5, "coordinates": {"latitude": 42.0001733244128, "longitude": -71.570336091304}, "transactions": [], "price": "$$", "location": {"address1": "82 School St", "address2": "", "address3": null, "city": "North Smithfield", "zip_code": "02896", "country": "US", "state": "RI", "display_address": ["82 School St", "North Smithfield, RI 02896"]}, "phone": "+14014884777", "display_phone": "(401) 488-4777", "distance": 4340.357981027912}, {"id": "WPCcCtx1ue5yTrswRHi0tQ", "alias": "christophers-kitchen-and-bar-woonsocket", "name": "Christopher's Kitchen and Bar", "image_url": "https://s3-media1.fl.yelpcdn.com/bphoto/Ui7GhBQAOEEzPMVArOorDQ/o.jpg", "is_closed": false, "url": "https://www.yelp.com/biz/christophers-kitchen-and-bar-woonsocket?adjust_creative=HdhkN5EEH6lAqE3kwhsHEQ&utm_campaign=yelp_api_v3&utm_medium=api_v3_business_search&utm_source=HdhkN5EEH6lAqE3kwhsHEQ", "review_count": 31, "categories": [{"alias": "bars", "title": "Bars"}, {"alias": "mediterranean", "title": "Mediterranean"}], "rating": 4.0, "coordinates": {"latitude": 41.99990167, "longitude": -71.51617833}, "transactions": ["delivery"], "price": "$$", "location": {"address1": "2 S Main St", "address2": null, "address3": "", "city": "Woonsocket", "zip_code": "02895", "country": "US", "state": "RI", "display_address": ["2 S Main St", "Woonsocket, RI 02895"]}, "phone": "+14017663615", "display_phone": "(401) 766-3615", "distance": 6676.869747326562}, {"id": "ESV1L-ai5ruQ-3ncZsxKdA", "alias": "goodstuff-smokehouse-blackstone", "name": "Goodstuff Smokehouse", "image_url": "https://s3-media3.fl.yelpcdn.com/bphoto/pyHBn0p5vs0PfwxFKKrOpA/o.jpg", "is_closed": false, "url": "https://www.yelp.com/biz/goodstuff-smokehouse-blackstone?adjust_creative=HdhkN5EEH6lAqE3kwhsHEQ&utm_campaign=yelp_api_v3&utm_medium=api_v3_business_search&utm_source=HdhkN5EEH6lAqE3kwhsHEQ", "review_count": 273, "categories": [{"alias": "bbq", "title": "Barbeque"}, {"alias": "southern", "title": "Southern"}], "rating": 4.5, "coordinates": {"latitude": 42.01865, "longitude": -71.5363}, "transactions": ["delivery"], "price": "$$", "location": {"address1": "97 Main St", "address2": null, "address3": "", "city": "Blackstone", "zip_code": "01504", "country": "US", "state": "MA", "display_address": ["97 Main St", "Blackstone, MA 01504"]}, "phone": "+15089281815", "display_phone": "(508) 928-1815", "distance": 4081.6809486179054}, {"id": "GKMpQejm7E9jEl9l0ZApqA", "alias": "alicante-restaurant-and-lounge-mendon", "name": "Alicante Restaurant & Lounge", "image_url": "https://s3-media3.fl.yelpcdn.com/bphoto/seh2hwPtBSHUtovlVXh-bQ/o.jpg", "is_closed": false, "url": "https://www.yelp.com/biz/alicante-restaurant-and-lounge-mendon?adjust_creative=HdhkN5EEH6lAqE3kwhsHEQ&utm_campaign=yelp_api_v3&utm_medium=api_v3_business_search&utm_source=HdhkN5EEH6lAqE3kwhsHEQ", "review_count": 279, "categories": [{"alias": "mediterranean", "title": "Mediterranean"}, {"alias": "spanish", "title": "Spanish"}, {"alias": "italian", "title": "Italian"}], "rating": 4.5, "coordinates": {"latitude": 42.0976073, "longitude": -71.5727322}, "transactions": ["restaurant_reservation"], "price": "$$$", "location": {"address1": "84 Uxbridge Rd", "address2": null, "address3": "", "city": "Mendon", "zip_code": "01756", "country": "US", "state": "MA", "display_address": ["84 Uxbridge Rd", "Mendon, MA 01756"]}, "phone": "+15086348188", "display_phone": "(508) 634-8188", "distance": 6548.551664446997}, {"id": "TSUFpu2DVh1D5l-9bU0TFw", "alias": "lindys-tavern-forestdale", "name": "Lindy's Tavern", "image_url": "https://s3-media4.fl.yelpcdn.com/bphoto/UTfKQo-bEPIzETtyKio33g/o.jpg", "is_closed": false, "url": "https://www.yelp.com/biz/lindys-tavern-forestdale?adjust_creative=HdhkN5EEH6lAqE3kwhsHEQ&utm_campaign=yelp_api_v3&utm_medium=api_v3_business_search&utm_source=HdhkN5EEH6lAqE3kwhsHEQ", "review_count": 254, "categories": [{"alias": "seafood", "title": "Seafood"}, {"alias": "bars", "title": "Bars"}, {"alias": "salad", "title": "Salad"}], "rating": 4.0, "coordinates": {"latitude": 41.99935667, "longitude": -71.56814667}, "transactions": [], "price": "$$", "location": {"address1": "98 School St", "address2": null, "address3": null, "city": "Forestdale", "zip_code": "02824", "country": "US", "state": "RI", "display_address": ["98 School St", "Forestdale, RI 02824"]}, "phone": "+14013561966", "display_phone": "(401) 356-1966", "distance": 4465.593322300315}, {"id": "e9-DTlkFVV7BUkoE4n-FaA", "alias": "the-uxlocale-uxbridge-2", "name": "The UxLocale", "image_url": "https://s3-media1.fl.yelpcdn.com/bphoto/n66RBpoAYX8Y7mGPyxebzg/o.jpg", "is_closed": false, "url": "https://www.yelp.com/biz/the-uxlocale-uxbridge-2?adjust_creative=HdhkN5EEH6lAqE3kwhsHEQ&utm_campaign=yelp_api_v3&utm_medium=api_v3_business_search&utm_source=HdhkN5EEH6lAqE3kwhsHEQ", "review_count": 105, "categories": [{"alias": "italian", "title": "Italian"}, {"alias": "pizza", "title": "Pizza"}, {"alias": "gastropubs", "title": "Gastropubs"}], "rating": 4.0, "coordinates": {"latitude": 42.0795967301298, "longitude": -71.6761799891327}, "transactions": [], "price": "$$", "location": {"address1": "510 Hartford Ave", "address2": "", "address3": null, "city": "Uxbridge", "zip_code": "01569", "country": "US", "state": "MA", "display_address": ["510 Hartford Ave", "Uxbridge, MA 01569"]}, "phone": "+15087797515", "display_phone": "(508) 779-7515", "distance": 9312.667061477692}, {"id": "ukGam4bZqVn_6QIjf-O7aw", "alias": "gallifords-restaurant-and-tavern-mendon", "name": "Galliford's Restaurant & Tavern", "image_url": "https://s3-media2.fl.yelpcdn.com/bphoto/9ZFBDmrQT6NvVX6TtbWI9A/o.jpg", "is_closed": false, "url": "https://www.yelp.com/biz/gallifords-restaurant-and-tavern-mendon?adjust_creative=HdhkN5EEH6lAqE3kwhsHEQ&utm_campaign=yelp_api_v3&utm_medium=api_v3_business_search&utm_source=HdhkN5EEH6lAqE3kwhsHEQ", "review_count": 95, "categories": [{"alias": "newamerican", "title": "American (New)"}, {"alias": "beerbar", "title": "Beer Bar"}], "rating": 4.0, "coordinates": {"latitude": 42.064921819907, "longitude": -71.5841863249914}, "transactions": [], "price": "$$", "location": {"address1": "5 Southwick St", "address2": "", "address3": "Southwick's Zoo", "city": "Mendon", "zip_code": "01756", "country": "US", "state": "MA", "display_address": ["5 Southwick St", "Southwick's Zoo", "Mendon, MA 01756"]}, "phone": "+15089280928", "display_phone": "(508) 928-0928", "distance": 2951.379608346463}, {"id": "dEdKXuVRx8FMoi1MlXIvMw", "alias": "tavern-6-two-1-north-smithfield", "name": "Tavern 6 Two 1", "image_url": "https://s3-media4.fl.yelpcdn.com/bphoto/N1b7itR_OkZJFWh_DIdXsw/o.jpg", "is_closed": false, "url": "https://www.yelp.com/biz/tavern-6-two-1-north-smithfield?adjust_creative=HdhkN5EEH6lAqE3kwhsHEQ&utm_campaign=yelp_api_v3&utm_medium=api_v3_business_search&utm_source=HdhkN5EEH6lAqE3kwhsHEQ", "review_count": 47, "categories": [{"alias": "pizza", "title": "Pizza"}, {"alias": "tradamerican", "title": "American (Traditional)"}, {"alias": "sportsbars", "title": "Sports Bars"}], "rating": 4.5, "coordinates": {"latitude": 41.989519164815, "longitude": -71.5571130786062}, "transactions": [], "price": "$$", "location": {"address1": "621 Pound Hill Rd", "address2": "", "address3": null, "city": "North Smithfield", "zip_code": "02896", "country": "US", "state": "RI", "display_address": ["621 Pound Hill Rd", "North Smithfield, RI 02896"]}, "phone": "+14012499333", "display_phone": "(401) 249-9333", "distance": 5739.230239276998}, {"id": "EHFtJ_sdxLjwfc1FVvj-NA", "alias": "coachmens-lodge-bellingham", "name": "Coachmen's Lodge", "image_url": "https://s3-media2.fl.yelpcdn.com/bphoto/Wu6yyKvsMC9McH3THl8HFQ/o.jpg", "is_closed": false, "url": "https://www.yelp.com/biz/coachmens-lodge-bellingham?adjust_creative=HdhkN5EEH6lAqE3kwhsHEQ&utm_campaign=yelp_api_v3&utm_medium=api_v3_business_search&utm_source=HdhkN5EEH6lAqE3kwhsHEQ", "review_count": 155, "categories": [{"alias": "venues", "title": "Venues & Event Spaces"}, {"alias": "italian", "title": "Italian"}, {"alias": "mediterranean", "title": "Mediterranean"}], "rating": 3.5, "coordinates": {"latitude": 42.02531, "longitude": -71.47533}, "transactions": ["restaurant_reservation", "delivery"], "price": "$$", "location": {"address1": "273 Wrentham Rd", "address2": "", "address3": "", "city": "Bellingham", "zip_code": "02019", "country": "US", "state": "MA", "display_address": ["273 Wrentham Rd", "Bellingham, MA 02019"]}, "phone": "+15088839888", "display_phone": "(508) 883-9888", "distance": 8580.767314894036}, {"id": "lcP4rb76-ymxAdtLJGVRqw", "alias": "the-village-haven-forestdale", "name": "The Village Haven", "image_url": "https://s3-media2.fl.yelpcdn.com/bphoto/1e1FOcJWOuP5xjgcAuX4Gg/o.jpg", "is_closed": false, "url": "https://www.yelp.com/biz/the-village-haven-forestdale?adjust_creative=HdhkN5EEH6lAqE3kwhsHEQ&utm_campaign=yelp_api_v3&utm_medium=api_v3_business_search&utm_source=HdhkN5EEH6lAqE3kwhsHEQ", "review_count": 75, "categories": [{"alias": "tradamerican", "title": "American (Traditional)"}], "rating": 4.0, "coordinates": {"latitude": 41.999786, "longitude": -71.569072}, "transactions": [], "price": "$$", "location": {"address1": "90 School St", "address2": "", "address3": "", "city": "Forestdale", "zip_code": "02824", "country": "US", "state": "RI", "display_address": ["90 School St", "Forestdale, RI 02824"]}, "phone": "+14017624242", "display_phone": "(401) 762-4242", "distance": 4398.61205772728}, {"id": "EeGiDYnY0MKAdrkYKteCTg", "alias": "mill-tavern-pizza-millville", "name": "Mill Tavern Pizza", "image_url": "https://s3-media1.fl.yelpcdn.com/bphoto/MPYWO_2hNrwuXrxpgzhNdQ/o.jpg", "is_closed": false, "url": "https://www.yelp.com/biz/mill-tavern-pizza-millville?adjust_creative=HdhkN5EEH6lAqE3kwhsHEQ&utm_campaign=yelp_api_v3&utm_medium=api_v3_business_search&utm_source=HdhkN5EEH6lAqE3kwhsHEQ", "review_count": 13, "categories": [{"alias": "pizza", "title": "Pizza"}, {"alias": "salad", "title": "Salad"}, {"alias": "sandwiches", "title": "Sandwiches"}], "rating": 4.0, "coordinates": {"latitude": 42.026018, "longitude": -71.575881}, "transactions": [], "price": "$", "location": {"address1": "187 Main St", "address2": "", "address3": "", "city": "Millville", "zip_code": "01529", "country": "US", "state": "MA", "display_address": ["187 Main St", "Millville, MA 01529"]}, "phone": "+15088831650", "display_phone": "(508) 883-1650", "distance": 1431.7978041477363}, {"id": "tj8x4F_EdL-27LahB6-0lQ", "alias": "the-table-family-diner-uxbridge", "name": "The Table Family Diner", "image_url": "https://s3-media2.fl.yelpcdn.com/bphoto/sbEmdN-r7aC3mpLLne-TAw/o.jpg", "is_closed": false, "url": "https://www.yelp.com/biz/the-table-family-diner-uxbridge?adjust_creative=HdhkN5EEH6lAqE3kwhsHEQ&utm_campaign=yelp_api_v3&utm_medium=api_v3_business_search&utm_source=HdhkN5EEH6lAqE3kwhsHEQ", "review_count": 3, "categories": [{"alias": "diners", "title": "Diners"}, {"alias": "coffee", "title": "Coffee & Tea"}, {"alias": "breakfast_brunch", "title": "Breakfast & Brunch"}], "rating": 5.0, "coordinates": {"latitude": 42.02799, "longitude": -71.60707}, "transactions": [], "location": {"address1": "775 Quaker Hwy", "address2": null, "address3": "", "city": "Uxbridge", "zip_code": "01569", "country": "US", "state": "MA", "display_address": ["775 Quaker Hwy", "Uxbridge, MA 01569"]}, "phone": "+15082787327", "display_phone": "(508) 278-7327", "distance": 2714.9393966033017}, {"id": "W80UywxEeUHOjFfXikio8g", "alias": "casa-burrito-blackstone", "name": "Casa Burrito", "image_url": "https://s3-media3.fl.yelpcdn.com/bphoto/p6Zv5TIKKX6ZAq11TTyhsw/o.jpg", "is_closed": false, "url": "https://www.yelp.com/biz/casa-burrito-blackstone?adjust_creative=HdhkN5EEH6lAqE3kwhsHEQ&utm_campaign=yelp_api_v3&utm_medium=api_v3_business_search&utm_source=HdhkN5EEH6lAqE3kwhsHEQ", "review_count": 38, "categories": [{"alias": "mexican", "title": "Mexican"}], "rating": 4.5, "coordinates": {"latitude": 42.0189204003048, "longitude": -71.536976159632}, "transactions": ["delivery"], "price": "$$", "location": {"address1": "114 Main St", "address2": "", "address3": null, "city": "Blackstone", "zip_code": "01504", "country": "US", "state": "MA", "display_address": ["114 Main St", "Blackstone, MA 01504"]}, "phone": "+15089280904", "display_phone": "(508) 928-0904", "distance": 4022.827731694689}, {"id": "g1H9zWKSZaRkCgyYRTL3kw", "alias": "lao-thai-cafe-bellingham-2", "name": "Lao Thai Cafe", "image_url": "https://s3-media4.fl.yelpcdn.com/bphoto/JijuhvmSwZN3r6k7PkZ6Yw/o.jpg", "is_closed": false, "url": "https://www.yelp.com/biz/lao-thai-cafe-bellingham-2?adjust_creative=HdhkN5EEH6lAqE3kwhsHEQ&utm_campaign=yelp_api_v3&utm_medium=api_v3_business_search&utm_source=HdhkN5EEH6lAqE3kwhsHEQ", "review_count": 23, "categories": [{"alias": "thai", "title": "Thai"}, {"alias": "laotian", "title": "Laotian"}], "rating": 4.0, "coordinates": {"latitude": 42.0183469, "longitude": -71.4969097}, "transactions": ["delivery"], "price": "$$", "location": {"address1": "52 Pulaski Blvd", "address2": null, "address3": "", "city": "Bellingham", "zip_code": "02895", "country": "US", "state": "RI", "display_address": ["52 Pulaski Blvd", "Bellingham, RI 02895"]}, "phone": "+15088839999", "display_phone": "(508) 883-9999", "distance": 6965.622856035368}, {"id": "CghRGmcqO07RcZh-kduLow", "alias": "river-falls-restaurant-woonsocket-3", "name": "River Falls Restaurant", "image_url": "https://s3-media4.fl.yelpcdn.com/bphoto/EGD7bvfQC8GNmBKEAssfQg/o.jpg", "is_closed": false, "url": "https://www.yelp.com/biz/river-falls-restaurant-woonsocket-3?adjust_creative=HdhkN5EEH6lAqE3kwhsHEQ&utm_campaign=yelp_api_v3&utm_medium=api_v3_business_search&utm_source=HdhkN5EEH6lAqE3kwhsHEQ", "review_count": 223, "categories": [{"alias": "italian", "title": "Italian"}, {"alias": "steak", "title": "Steakhouses"}, {"alias": "seafood", "title": "Seafood"}], "rating": 3.0, "coordinates": {"latitude": 41.99904, "longitude": -71.51743}, "transactions": ["delivery"], "price": "$$", "location": {"address1": "74 S Main St", "address2": "", "address3": "", "city": "Woonsocket", "zip_code": "02895", "country": "US", "state": "RI", "display_address": ["74 S Main St", "Woonsocket, RI 02895"]}, "phone": "+14012359026", "display_phone": "(401) 235-9026", "distance": 6703.780772981387}, {"id": "2o9ANW9s3BQ02-c_pJZjNg", "alias": "ciros-tavern-woonsocket", "name": "Ciro's Tavern", "image_url": "https://s3-media3.fl.yelpcdn.com/bphoto/meZXFz46ogxqHYnn1HuAvQ/o.jpg", "is_closed": false, "url": "https://www.yelp.com/biz/ciros-tavern-woonsocket?adjust_creative=HdhkN5EEH6lAqE3kwhsHEQ&utm_campaign=yelp_api_v3&utm_medium=api_v3_business_search&utm_source=HdhkN5EEH6lAqE3kwhsHEQ", "review_count": 157, "categories": [{"alias": "pubs", "title": "Pubs"}, {"alias": "tradamerican", "title": "American (Traditional)"}, {"alias": "salad", "title": "Salad"}], "rating": 3.5, "coordinates": {"latitude": 42.0045509338379, "longitude": -71.5132522583008}, "transactions": ["delivery"], "price": "$$", "location": {"address1": "42 Cherry St", "address2": "", "address3": "", "city": "Woonsocket", "zip_code": "02895", "country": "US", "state": "RI", "display_address": ["42 Cherry St", "Woonsocket, RI 02895"]}, "phone": "+14017693330", "display_phone": "(401) 769-3330", "distance": 6543.782406028995}, {"id": "vRhbY_qUxTlEYO1Jii015Q", "alias": "bella-restaurant-glendale-2", "name": "Bella Restaurant", "image_url": "https://s3-media1.fl.yelpcdn.com/bphoto/ZfHT8BZFvf7BUcvZYen59Q/o.jpg", "is_closed": false, "url": "https://www.yelp.com/biz/bella-restaurant-glendale-2?adjust_creative=HdhkN5EEH6lAqE3kwhsHEQ&utm_campaign=yelp_api_v3&utm_medium=api_v3_business_search&utm_source=HdhkN5EEH6lAqE3kwhsHEQ", "review_count": 68, "categories": [{"alias": "italian", "title": "Italian"}, {"alias": "venues", "title": "Venues & Event Spaces"}, {"alias": "bars", "title": "Bars"}], "rating": 4.0, "coordinates": {"latitude": 41.9741, "longitude": -71.63016}, "transactions": [], "price": "$$", "location": {"address1": "1992 Victory Hwy", "address2": "", "address3": "", "city": "Glendale", "zip_code": "02826", "country": "US", "state": "RI", "display_address": ["1992 Victory Hwy", "Glendale, RI 02826"]}, "phone": "+14015686996", "display_phone": "(401) 568-6996", "distance": 8384.298312137409}, {"id": "L7Zdn_bFhzX6Ni-xHwRMeg", "alias": "vohns-restaurant-bellingham", "name": "Vohn's Restaurant", "image_url": "https://s3-media3.fl.yelpcdn.com/bphoto/k-Ill-vzG7pkshT3-AqOYg/o.jpg", "is_closed": false, "url": "https://www.yelp.com/biz/vohns-restaurant-bellingham?adjust_creative=HdhkN5EEH6lAqE3kwhsHEQ&utm_campaign=yelp_api_v3&utm_medium=api_v3_business_search&utm_source=HdhkN5EEH6lAqE3kwhsHEQ", "review_count": 171, "categories": [{"alias": "vietnamese", "title": "Vietnamese"}, {"alias": "thai", "title": "Thai"}], "rating": 4.0, "coordinates": {"latitude": 42.032706, "longitude": -71.4841304719448}, "transactions": ["delivery"], "price": "$$", "location": {"address1": "633 Pulaski Blvd", "address2": "", "address3": "", "city": "Bellingham", "zip_code": "02019", "country": "US", "state": "MA", "display_address": ["633 Pulaski Blvd", "Bellingham, MA 02019"]}, "phone": "+15088834934", "display_phone": "(508) 883-4934", "distance": 7753.005636730809}, {"id": "oJ39jcqEPQX_Ika99L8hlQ", "alias": "new-england-steak-and-seafood-mendon", "name": "New England Steak & Seafood", "image_url": "https://s3-media4.fl.yelpcdn.com/bphoto/3FjSdEKjcZJKfEmmJEilMA/o.jpg", "is_closed": false, "url": "https://www.yelp.com/biz/new-england-steak-and-seafood-mendon?adjust_creative=HdhkN5EEH6lAqE3kwhsHEQ&utm_campaign=yelp_api_v3&utm_medium=api_v3_business_search&utm_source=HdhkN5EEH6lAqE3kwhsHEQ", "review_count": 199, "categories": [{"alias": "tradamerican", "title": "American (Traditional)"}, {"alias": "seafood", "title": "Seafood"}, {"alias": "steak", "title": "Steakhouses"}], "rating": 3.5, "coordinates": {"latitude": 42.10336, "longitude": -71.56254}, "transactions": ["delivery"], "price": "$$", "location": {"address1": "11 Uxbridge Rd", "address2": "", "address3": "", "city": "Mendon", "zip_code": "01756", "country": "US", "state": "MA", "display_address": ["11 Uxbridge Rd", "Mendon, MA 01756"]}, "phone": "+15084735079", "display_phone": "(508) 473-5079", "distance": 7293.244119049342}, {"id": "TDPPoreNhWESN4vDz90ZzQ", "alias": "gia-ristorante-italiano-uxbridge-2", "name": "Gia Ristorante Italiano", "image_url": "https://s3-media1.fl.yelpcdn.com/bphoto/j57xuZMxQInN8Wa086bD9w/o.jpg", "is_closed": false, "url": "https://www.yelp.com/biz/gia-ristorante-italiano-uxbridge-2?adjust_creative=HdhkN5EEH6lAqE3kwhsHEQ&utm_campaign=yelp_api_v3&utm_medium=api_v3_business_search&utm_source=HdhkN5EEH6lAqE3kwhsHEQ", "review_count": 93, "categories": [{"alias": "italian", "title": "Italian"}, {"alias": "seafood", "title": "Seafood"}], "rating": 3.0, "coordinates": {"latitude": 42.02737, "longitude": -71.60652}, "transactions": [], "price": "$$", "location": {"address1": "785 Quaker Hwy", "address2": "", "address3": "", "city": "Uxbridge", "zip_code": "01569", "country": "US", "state": "MA", "display_address": ["785 Quaker Hwy", "Uxbridge, MA 01569"]}, "phone": "+15082787500", "display_phone": "(508) 278-7500", "distance": 2702.995734898982}, {"id": "-uN7mgH2147YHuwgQb0iUw", "alias": "the-green-plate-whitinsville-3", "name": "The Green Plate", "image_url": "https://s3-media3.fl.yelpcdn.com/bphoto/QMD1DgjIYzSu-GJSRajR-g/o.jpg", "is_closed": false, "url": "https://www.yelp.com/biz/the-green-plate-whitinsville-3?adjust_creative=HdhkN5EEH6lAqE3kwhsHEQ&utm_campaign=yelp_api_v3&utm_medium=api_v3_business_search&utm_source=HdhkN5EEH6lAqE3kwhsHEQ", "review_count": 26, "categories": [{"alias": "catering", "title": "Caterers"}, {"alias": "gluten_free", "title": "Gluten-Free"}, {"alias": "cafes", "title": "Cafes"}], "rating": 4.5, "coordinates": {"latitude": 42.112744, "longitude": -71.6586675}, "transactions": ["delivery"], "location": {"address1": "167 Church St", "address2": null, "address3": "", "city": "Whitinsville", "zip_code": "01588", "country": "US", "state": "MA", "display_address": ["167 Church St", "Whitinsville, MA 01588"]}, "phone": "+17748130200", "display_phone": "(774) 813-0200", "distance": 10595.912812351711}, {"id": "1tmvUK4yA3z0VprJ9Rn5ng", "alias": "maison-de-manger-whitinsville", "name": "Maison de Manger", "image_url": "https://s3-media4.fl.yelpcdn.com/bphoto/eRF2lN5iopIe_3xK5yQ8cA/o.jpg", "is_closed": false, "url": "https://www.yelp.com/biz/maison-de-manger-whitinsville?adjust_creative=HdhkN5EEH6lAqE3kwhsHEQ&utm_campaign=yelp_api_v3&utm_medium=api_v3_business_search&utm_source=HdhkN5EEH6lAqE3kwhsHEQ", "review_count": 50, "categories": [{"alias": "creperies", "title": "Creperies"}], "rating": 4.5, "coordinates": {"latitude": 42.0981689248088, "longitude": -71.6459773108363}, "transactions": [], "price": "$$", "location": {"address1": "670 Linwood Ave", "address2": "", "address3": "", "city": "Whitinsville", "zip_code": "01588", "country": "US", "state": "MA", "display_address": ["670 Linwood Ave", "Whitinsville, MA 01588"]}, "phone": "+15083729797", "display_phone": "(508) 372-9797", "distance": 8680.72356315541}, {"id": "LOJNnsHl2HyTVtL8GkoOJA", "alias": "neos-greek-restaurant-woonsocket", "name": "NEOS Greek Restaurant", "image_url": "https://s3-media2.fl.yelpcdn.com/bphoto/69veTWNuVXFGbXOjQgrFSA/o.jpg", "is_closed": false, "url": "https://www.yelp.com/biz/neos-greek-restaurant-woonsocket?adjust_creative=HdhkN5EEH6lAqE3kwhsHEQ&utm_campaign=yelp_api_v3&utm_medium=api_v3_business_search&utm_source=HdhkN5EEH6lAqE3kwhsHEQ", "review_count": 39, "categories": [{"alias": "greek", "title": "Greek"}], "rating": 4.5, "coordinates": {"latitude": 42.00598, "longitude": -71.48901}, "transactions": ["delivery"], "location": {"address1": "480 Cass Ave", "address2": "", "address3": null, "city": "Woonsocket", "zip_code": "02895", "country": "US", "state": "RI", "display_address": ["480 Cass Ave", "Woonsocket, RI 02895"]}, "phone": "+14013564145", "display_phone": "(401) 356-4145", "distance": 8167.010392339578}, {"id": "t89WXv8je9Ci3N7M7HMmug", "alias": "petes-bluebird-bellingham", "name": "Pete's Bluebird", "image_url": "https://s3-media1.fl.yelpcdn.com/bphoto/I_WrKg2NQPar93Tyg8iX6g/o.jpg", "is_closed": false, "url": "https://www.yelp.com/biz/petes-bluebird-bellingham?adjust_creative=HdhkN5EEH6lAqE3kwhsHEQ&utm_campaign=yelp_api_v3&utm_medium=api_v3_business_search&utm_source=HdhkN5EEH6lAqE3kwhsHEQ", "review_count": 83, "categories": [{"alias": "steak", "title": "Steakhouses"}, {"alias": "seafood", "title": "Seafood"}, {"alias": "tradamerican", "title": "American (Traditional)"}], "rating": 3.5, "coordinates": {"latitude": 42.08715, "longitude": -71.48538}, "transactions": [], "price": "$$", "location": {"address1": "93 Mendon St", "address2": "", "address3": "", "city": "Bellingham", "zip_code": "02019", "country": "US", "state": "MA", "display_address": ["93 Mendon St", "Bellingham, MA 02019"]}, "phone": "+15089669717", "display_phone": "(508) 966-9717", "distance": 9364.475307536592}, {"id": "yHPTmk4oRqiuTxo3Jme2xQ", "alias": "georges-surf-n-turf-mendon", "name": "George's Surf N Turf", "image_url": "https://s3-media2.fl.yelpcdn.com/bphoto/2mXeMMR3fTFW2sIQYDWbTQ/o.jpg", "is_closed": false, "url": "https://www.yelp.com/biz/georges-surf-n-turf-mendon?adjust_creative=HdhkN5EEH6lAqE3kwhsHEQ&utm_campaign=yelp_api_v3&utm_medium=api_v3_business_search&utm_source=HdhkN5EEH6lAqE3kwhsHEQ", "review_count": 76, "categories": [{"alias": "seafood", "title": "Seafood"}, {"alias": "burgers", "title": "Burgers"}], "rating": 4.0, "coordinates": {"latitude": 42.095380978894, "longitude": -71.580294736915}, "transactions": [], "price": "$$", "location": {"address1": "116 Uxbridge Rd", "address2": "", "address3": "", "city": "Mendon", "zip_code": "01756", "country": "US", "state": "MA", "display_address": ["116 Uxbridge Rd", "Mendon, MA 01756"]}, "phone": "+15084732125", "display_phone": "(508) 473-2125", "distance": 6292.235813279425}, {"id": "pL5TW-MDDTeLVe_4rASxYA", "alias": "larry-joes-new-england-firepit-mendon-3", "name": "Larry Joe's New England FirePit", "image_url": "https://s3-media2.fl.yelpcdn.com/bphoto/Nmx5oHr0Klp2HbeGKHmUqg/o.jpg", "is_closed": false, "url": "https://www.yelp.com/biz/larry-joes-new-england-firepit-mendon-3?adjust_creative=HdhkN5EEH6lAqE3kwhsHEQ&utm_campaign=yelp_api_v3&utm_medium=api_v3_business_search&utm_source=HdhkN5EEH6lAqE3kwhsHEQ", "review_count": 53, "categories": [{"alias": "hotdog", "title": "Hot Dogs"}], "rating": 5.0, "coordinates": {"latitude": 42.0980429, "longitude": -71.499184}, "transactions": ["pickup", "delivery"], "price": "$", "location": {"address1": "30-A Cape Rd", "address2": "", "address3": "", "city": "Mendon", "zip_code": "01756", "country": "US", "state": "MA", "display_address": ["30-A Cape Rd", "Mendon, MA 01756"]}, "phone": "+15087359006", "display_phone": "(508) 735-9006", "distance": 9235.783522610522}, {"id": "Ns5SdvE6PxVoXF_cDhV4Yg", "alias": "lotus-fine-thai-north-smithfield", "name": "Lotus Fine Thai", "image_url": "https://s3-media2.fl.yelpcdn.com/bphoto/5Fot6Hgx6npMnjsWHER1Sg/o.jpg", "is_closed": false, "url": "https://www.yelp.com/biz/lotus-fine-thai-north-smithfield?adjust_creative=HdhkN5EEH6lAqE3kwhsHEQ&utm_campaign=yelp_api_v3&utm_medium=api_v3_business_search&utm_source=HdhkN5EEH6lAqE3kwhsHEQ", "review_count": 101, "categories": [{"alias": "thai", "title": "Thai"}, {"alias": "bubbletea", "title": "Bubble Tea"}], "rating": 4.0, "coordinates": {"latitude": 41.97903, "longitude": -71.51363}, "transactions": [], "price": "$$", "location": {"address1": "175 Eddie Dowling Hwy", "address2": "", "address3": "", "city": "North Smithfield", "zip_code": "02896", "country": "US", "state": "RI", "display_address": ["175 Eddie Dowling Hwy", "North Smithfield, RI 02896"]}, "phone": "+14013256888", "display_phone": "(401) 325-6888", "distance": 8492.890859072126}, {"id": "ZnRluJwcFUXwf1tDubF0TQ", "alias": "uncle-ronnies-red-tavern-burrillville-2", "name": "Uncle Ronnie's Red Tavern", "image_url": "https://s3-media2.fl.yelpcdn.com/bphoto/7KGtRqTIM2FJD4Ysbx_fRQ/o.jpg", "is_closed": false, "url": "https://www.yelp.com/biz/uncle-ronnies-red-tavern-burrillville-2?adjust_creative=HdhkN5EEH6lAqE3kwhsHEQ&utm_campaign=yelp_api_v3&utm_medium=api_v3_business_search&utm_source=HdhkN5EEH6lAqE3kwhsHEQ", "review_count": 54, "categories": [{"alias": "bars", "title": "Bars"}, {"alias": "newamerican", "title": "American (New)"}], "rating": 3.5, "coordinates": {"latitude": 41.980982, "longitude": -71.609991}, "transactions": [], "price": "$$", "location": {"address1": "2692 Victory Hwy", "address2": "", "address3": "", "city": "Burrillville", "zip_code": "02830", "country": "US", "state": "RI", "display_address": ["2692 Victory Hwy", "Burrillville, RI 02830"]}, "phone": "+14015686243", "display_phone": "(401) 568-6243", "distance": 6977.226483904656}, {"id": "ASpjMM7DCGgHXTAt1cL7kA", "alias": "roast-house-blackstone", "name": "Roast House", "image_url": "https://s3-media1.fl.yelpcdn.com/bphoto/wOxpKMRdANP8VPsb8bQCmQ/o.jpg", "is_closed": false, "url": "https://www.yelp.com/biz/roast-house-blackstone?adjust_creative=HdhkN5EEH6lAqE3kwhsHEQ&utm_campaign=yelp_api_v3&utm_medium=api_v3_business_search&utm_source=HdhkN5EEH6lAqE3kwhsHEQ", "review_count": 55, "categories": [{"alias": "tradamerican", "title": "American (Traditional)"}, {"alias": "bars", "title": "Bars"}], "rating": 3.5, "coordinates": {"latitude": 42.0173518, "longitude": -71.51308}, "transactions": ["delivery"], "price": "$$", "location": {"address1": "3 Farm St", "address2": null, "address3": null, "city": "Blackstone", "zip_code": "01504", "country": "US", "state": "MA", "display_address": ["3 Farm St", "Blackstone, MA 01504"]}, "phone": "+15088837700", "display_phone": "(508) 883-7700", "distance": 5843.099309818899}, {"id": "rpaUYCqcAQ041wpNsocuFw", "alias": "yama-fuji-north-smithfield-2", "name": "Yama Fuji", "image_url": "https://s3-media1.fl.yelpcdn.com/bphoto/hosPRo6JNWhK5ZqmdYREgg/o.jpg", "is_closed": false, "url": "https://www.yelp.com/biz/yama-fuji-north-smithfield-2?adjust_creative=HdhkN5EEH6lAqE3kwhsHEQ&utm_campaign=yelp_api_v3&utm_medium=api_v3_business_search&utm_source=HdhkN5EEH6lAqE3kwhsHEQ", "review_count": 74, "categories": [{"alias": "japanese", "title": "Japanese"}, {"alias": "sushi", "title": "Sushi Bars"}], "rating": 3.5, "coordinates": {"latitude": 42.0050400107292, "longitude": -71.5855900175255}, "transactions": [], "price": "$$", "location": {"address1": "900 Victory Hwy", "address2": "Ste 3", "address3": "", "city": "North Smithfield", "zip_code": "02896", "country": "US", "state": "RI", "display_address": ["900 Victory Hwy", "Ste 3", "North Smithfield, RI 02896"]}, "phone": "+14015970885", "display_phone": "(401) 597-0885", "distance": 3813.9170771710537}, {"id": "MV-PnnPf9bzQn6jk0I4t8A", "alias": "willowbrook-restaurant-mendon", "name": "Willowbrook Restaurant", "image_url": "https://s3-media1.fl.yelpcdn.com/bphoto/68-SJ3fvanQyefRoRb9P4w/o.jpg", "is_closed": false, "url": "https://www.yelp.com/biz/willowbrook-restaurant-mendon?adjust_creative=HdhkN5EEH6lAqE3kwhsHEQ&utm_campaign=yelp_api_v3&utm_medium=api_v3_business_search&utm_source=HdhkN5EEH6lAqE3kwhsHEQ", "review_count": 62, "categories": [{"alias": "tradamerican", "title": "American (Traditional)"}], "rating": 3.5, "coordinates": {"latitude": 42.104744464159, "longitude": -71.5565709024668}, "transactions": [], "price": "$$", "location": {"address1": "16 Hastings St", "address2": null, "address3": null, "city": "Mendon", "zip_code": "01756", "country": "US", "state": "MA", "display_address": ["16 Hastings St", "Mendon, MA 01756"]}, "phone": "+15084734420", "display_phone": "(508) 473-4420", "distance": 7616.193805120888}, {"id": "6amKZgMchVlQ6gR7kfMDlw", "alias": "domino-s-north-smithfield", "name": "Domino\u2019s", "image_url": "https://s3-media4.fl.yelpcdn.com/bphoto/dIOJytLC1BgCDi2lvvOS3g/o.jpg", "is_closed": false, "url": "https://www.yelp.com/biz/domino-s-north-smithfield?adjust_creative=HdhkN5EEH6lAqE3kwhsHEQ&utm_campaign=yelp_api_v3&utm_medium=api_v3_business_search&utm_source=HdhkN5EEH6lAqE3kwhsHEQ", "review_count": 1, "categories": [{"alias": "pizza", "title": "Pizza"}, {"alias": "chicken_wings", "title": "Chicken Wings"}, {"alias": "sandwiches", "title": "Sandwiches"}], "rating": 5.0, "coordinates": {"latitude": 42.00534, "longitude": -71.58487}, "transactions": [], "location": {"address1": "900 Victory Hwy", "address2": "", "address3": null, "city": "North Smithfield", "zip_code": "02896", "country": "US", "state": "RI", "display_address": ["900 Victory Hwy", "North Smithfield, RI 02896"]}, "phone": "+14017692000", "display_phone": "(401) 769-2000", "distance": 3809.28153769855}, {"id": "tamjyRigaiw_jy3yWsTVsw", "alias": "the-taco-shop-burrillville", "name": "The Taco Shop", "image_url": "https://s3-media3.fl.yelpcdn.com/bphoto/HbzrZGM38J1uwEo4WMlDbw/o.jpg", "is_closed": false, "url": "https://www.yelp.com/biz/the-taco-shop-burrillville?adjust_creative=HdhkN5EEH6lAqE3kwhsHEQ&utm_campaign=yelp_api_v3&utm_medium=api_v3_business_search&utm_source=HdhkN5EEH6lAqE3kwhsHEQ", "review_count": 119, "categories": [{"alias": "mexican", "title": "Mexican"}], "rating": 4.5, "coordinates": {"latitude": 41.9661896, "longitude": -71.6787516}, "transactions": [], "price": "$", "location": {"address1": "459 Chapel St", "address2": "", "address3": "", "city": "Burrillville", "zip_code": "02830", "country": "US", "state": "RI", "display_address": ["459 Chapel St", "Burrillville, RI 02830"]}, "phone": "+14015688226", "display_phone": "(401) 568-8226", "distance": 11620.502344893379}, {"id": "fmz5pAgHqTV5LK5GOr8dLg", "alias": "wrights-farm-restaurant-harrisville-3", "name": "Wright's Farm Restaurant", "image_url": "https://s3-media2.fl.yelpcdn.com/bphoto/EhBVekzGzby0EfW0Q6ZO5Q/o.jpg", "is_closed": false, "url": "https://www.yelp.com/biz/wrights-farm-restaurant-harrisville-3?adjust_creative=HdhkN5EEH6lAqE3kwhsHEQ&utm_campaign=yelp_api_v3&utm_medium=api_v3_business_search&utm_source=HdhkN5EEH6lAqE3kwhsHEQ", "review_count": 325, "categories": [{"alias": "tradamerican", "title": "American (Traditional)"}], "rating": 3.5, "coordinates": {"latitude": 41.9857805, "longitude": -71.6054916}, "transactions": [], "price": "$$", "location": {"address1": "84 Inman Rd", "address2": "", "address3": "", "city": "Harrisville", "zip_code": "02830", "country": "US", "state": "RI", "display_address": ["84 Inman Rd", "Harrisville, RI 02830"]}, "phone": "+14017692856", "display_phone": "(401) 769-2856", "distance": 6331.373228821356}, {"id": "Yxbri-0bGC0cyXZYpRHB-A", "alias": "sakura-asian-cuisine-bellingham-5", "name": "Sakura Asian Cuisine", "image_url": "https://s3-media3.fl.yelpcdn.com/bphoto/h-UxjWeUtXRYzhV1sMKJzw/o.jpg", "is_closed": false, "url": "https://www.yelp.com/biz/sakura-asian-cuisine-bellingham-5?adjust_creative=HdhkN5EEH6lAqE3kwhsHEQ&utm_campaign=yelp_api_v3&utm_medium=api_v3_business_search&utm_source=HdhkN5EEH6lAqE3kwhsHEQ", "review_count": 19, "categories": [{"alias": "japanese", "title": "Japanese"}, {"alias": "thai", "title": "Thai"}, {"alias": "noodles", "title": "Noodles"}], "rating": 4.0, "coordinates": {"latitude": 42.0192688, "longitude": -71.4953995}, "transactions": ["pickup", "delivery"], "location": {"address1": "101 Pulaski Blvd", "address2": null, "address3": "", "city": "Bellingham", "zip_code": "02019", "country": "US", "state": "MA", "display_address": ["101 Pulaski Blvd", "Bellingham, MA 02019"]}, "phone": "+15089281747", "display_phone": "(508) 928-1747", "distance": 7132.757274672715}, {"id": "x45-99O7OHj5Y-ZeNXkO5g", "alias": "texas-roadhouse-north-smithfield", "name": "Texas Roadhouse", "image_url": "https://s3-media1.fl.yelpcdn.com/bphoto/iesYirwTuvtpLV6_TRllQQ/o.jpg", "is_closed": false, "url": "https://www.yelp.com/biz/texas-roadhouse-north-smithfield?adjust_creative=HdhkN5EEH6lAqE3kwhsHEQ&utm_campaign=yelp_api_v3&utm_medium=api_v3_business_search&utm_source=HdhkN5EEH6lAqE3kwhsHEQ", "review_count": 108, "categories": [{"alias": "steak", "title": "Steakhouses"}, {"alias": "bbq", "title": "Barbeque"}], "rating": 3.5, "coordinates": {"latitude": 41.9792577972983, "longitude": -71.5084980079346}, "transactions": [], "price": "$$", "location": {"address1": "39 Dowling Village Blvd", "address2": null, "address3": null, "city": "North Smithfield", "zip_code": "02896", "country": "US", "state": "RI", "display_address": ["39 Dowling Village Blvd", "North Smithfield, RI 02896"]}, "phone": "+14017667427", "display_phone": "(401) 766-7427", "distance": 8747.233874349715}, {"id": "vP-HitDc-G_2ADjtu5AfbA", "alias": "the-beef-barn-bellingham-2", "name": "The Beef  Barn", "image_url": "https://s3-media2.fl.yelpcdn.com/bphoto/BaQUz9vkkzSCOy6a2vOmNw/o.jpg", "is_closed": false, "url": "https://www.yelp.com/biz/the-beef-barn-bellingham-2?adjust_creative=HdhkN5EEH6lAqE3kwhsHEQ&utm_campaign=yelp_api_v3&utm_medium=api_v3_business_search&utm_source=HdhkN5EEH6lAqE3kwhsHEQ", "review_count": 79, "categories": [{"alias": "desserts", "title": "Desserts"}, {"alias": "tradamerican", "title": "American (Traditional)"}], "rating": 4.5, "coordinates": {"latitude": 42.0206798941605, "longitude": -71.4950884320202}, "transactions": ["pickup", "delivery"], "price": "$", "location": {"address1": "160 Pulaski Blvd", "address2": "", "address3": "", "city": "Bellingham", "zip_code": "02019", "country": "US", "state": "MA", "display_address": ["160 Pulaski Blvd", "Bellingham, MA 02019"]}, "phone": "+15088831799", "display_phone": "(508) 883-1799", "distance": 7111.051251271149}, {"id": "scBmTjmMxxQWaOCL25XLvg", "alias": "the-beef-barn-north-smithfield", "name": "The Beef Barn", "image_url": "https://s3-media2.fl.yelpcdn.com/bphoto/UnCbLd1MLdQAlGZeNMaAyQ/o.jpg", "is_closed": false, "url": "https://www.yelp.com/biz/the-beef-barn-north-smithfield?adjust_creative=HdhkN5EEH6lAqE3kwhsHEQ&utm_campaign=yelp_api_v3&utm_medium=api_v3_business_search&utm_source=HdhkN5EEH6lAqE3kwhsHEQ", "review_count": 212, "categories": [{"alias": "tradamerican", "title": "American (Traditional)"}], "rating": 4.0, "coordinates": {"latitude": 41.9854007788954, "longitude": -71.5223532757637}, "transactions": ["pickup", "delivery"], "price": "$", "location": {"address1": "4 Greenville Rd", "address2": "", "address3": "", "city": "North Smithfield", "zip_code": "02896", "country": "US", "state": "RI", "display_address": ["4 Greenville Rd", "North Smithfield, RI 02896"]}, "phone": "+14017629880", "display_phone": "(401) 762-9880", "distance": 7475.552089151542}, {"id": "C0L5oIxGYuSeYoiMFnshxA", "alias": "greenhouse-wood-fired-grill-mendon-3", "name": "Greenhouse Wood Fired Grill", "image_url": "https://s3-media4.fl.yelpcdn.com/bphoto/Stt4q-LQCevgXtYHVjYoIg/o.jpg", "is_closed": false, "url": "https://www.yelp.com/biz/greenhouse-wood-fired-grill-mendon-3?adjust_creative=HdhkN5EEH6lAqE3kwhsHEQ&utm_campaign=yelp_api_v3&utm_medium=api_v3_business_search&utm_source=HdhkN5EEH6lAqE3kwhsHEQ", "review_count": 150, "categories": [{"alias": "irish", "title": "Irish"}, {"alias": "newamerican", "title": "American (New)"}, {"alias": "gastropubs", "title": "Gastropubs"}], "rating": 2.5, "coordinates": {"latitude": 42.101918, "longitude": -71.505128}, "transactions": ["pickup", "delivery"], "price": "$$", "location": {"address1": "3 Cape Rd", "address2": "", "address3": "", "city": "Mendon", "zip_code": "01756", "country": "US", "state": "MA", "display_address": ["3 Cape Rd", "Mendon, MA 01756"]}, "phone": "+15086348900", "display_phone": "(508) 634-8900", "distance": 9221.87056995696}, {"id": "xdhpueBbA9Pztwn7TuR7Pg", "alias": "divine-thai-northbridge", "name": "Divine Thai", "image_url": "https://s3-media4.fl.yelpcdn.com/bphoto/NIonMRv3pg-5xeTFcrDjdg/o.jpg", "is_closed": false, "url": "https://www.yelp.com/biz/divine-thai-northbridge?adjust_creative=HdhkN5EEH6lAqE3kwhsHEQ&utm_campaign=yelp_api_v3&utm_medium=api_v3_business_search&utm_source=HdhkN5EEH6lAqE3kwhsHEQ", "review_count": 91, "categories": [{"alias": "thai", "title": "Thai"}], "rating": 4.5, "coordinates": {"latitude": 42.1123352, "longitude": -71.6596985}, "transactions": ["delivery"], "price": "$$", "location": {"address1": "123 Church St", "address2": "", "address3": "", "city": "Northbridge", "zip_code": "01588", "country": "US", "state": "MA", "display_address": ["123 Church St", "Northbridge, MA 01588"]}, "phone": "+15082344500", "display_phone": "(508) 234-4500", "distance": 10611.178706304598}, {"id": "DXDb1JTWJuKjzQ0MPtne9g", "alias": "hannas-place-uxbridge", "name": "Hanna's Place", "image_url": "https://s3-media1.fl.yelpcdn.com/bphoto/SHK9qZj8YsoRKFD7QAvhZg/o.jpg", "is_closed": false, "url": "https://www.yelp.com/biz/hannas-place-uxbridge?adjust_creative=HdhkN5EEH6lAqE3kwhsHEQ&utm_campaign=yelp_api_v3&utm_medium=api_v3_business_search&utm_source=HdhkN5EEH6lAqE3kwhsHEQ", "review_count": 24, "categories": [{"alias": "newamerican", "title": "American (New)"}], "rating": 3.0, "coordinates": {"latitude": 42.027839, "longitude": -71.606959}, "transactions": [], "price": "$$", "location": {"address1": "775 Quaker Hwy", "address2": "", "address3": "", "city": "Uxbridge", "zip_code": "01569", "country": "US", "state": "MA", "display_address": ["775 Quaker Hwy", "Uxbridge, MA 01569"]}, "phone": "+15082785099", "display_phone": "(508) 278-5099", "distance": 2711.972186943094}, {"id": "tbAvoK7WPaivrHbiXxbDIQ", "alias": "stewarts-diner-blackstone", "name": "Stewart's Diner", "image_url": "https://s3-media2.fl.yelpcdn.com/bphoto/dIXhurw5OzixwIlxbNUHmw/o.jpg", "is_closed": false, "url": "https://www.yelp.com/biz/stewarts-diner-blackstone?adjust_creative=HdhkN5EEH6lAqE3kwhsHEQ&utm_campaign=yelp_api_v3&utm_medium=api_v3_business_search&utm_source=HdhkN5EEH6lAqE3kwhsHEQ", "review_count": 14, "categories": [{"alias": "diners", "title": "Diners"}, {"alias": "catering", "title": "Caterers"}], "rating": 4.0, "coordinates": {"latitude": 42.018219, "longitude": -71.539957}, "transactions": [], "price": "$", "location": {"address1": "148 Main St", "address2": "", "address3": "", "city": "Blackstone", "zip_code": "01504", "country": "US", "state": "MA", "display_address": ["148 Main St", "Blackstone, MA 01504"]}, "phone": "+15088834855", "display_phone": "(508) 883-4855", "distance": 3865.3846322871314}, {"id": "6kKipTzsrlBr1LWcgON2qA", "alias": "swagat-indian-food-and-grocery-woonsocket", "name": "Swagat Indian Food and Grocery", "image_url": "https://s3-media1.fl.yelpcdn.com/bphoto/w6aKs0YpRwtRBsZXVcn7IA/o.jpg", "is_closed": false, "url": "https://www.yelp.com/biz/swagat-indian-food-and-grocery-woonsocket?adjust_creative=HdhkN5EEH6lAqE3kwhsHEQ&utm_campaign=yelp_api_v3&utm_medium=api_v3_business_search&utm_source=HdhkN5EEH6lAqE3kwhsHEQ", "review_count": 1, "categories": [{"alias": "indpak", "title": "Indian"}], "rating": 5.0, "coordinates": {"latitude": 42.015711749723, "longitude": -71.4975043013692}, "transactions": [], "location": {"address1": "480 Diamond Hill Rd", "address2": "", "address3": null, "city": "Woonsocket", "zip_code": "02895", "country": "US", "state": "RI", "display_address": ["480 Diamond Hill Rd", "Woonsocket, RI 02895"]}, "phone": "+17192010667", "display_phone": "(719) 201-0667", "distance": 7100.972902500081}, {"id": "b6wocGQ0FxrWgtyZDB_7vw", "alias": "serios-fish-and-chips-woonsocket", "name": "Serio's Fish and Chips", "image_url": "https://s3-media3.fl.yelpcdn.com/bphoto/6Js9sojjaqt9wodrLEJ4NQ/o.jpg", "is_closed": false, "url": "https://www.yelp.com/biz/serios-fish-and-chips-woonsocket?adjust_creative=HdhkN5EEH6lAqE3kwhsHEQ&utm_campaign=yelp_api_v3&utm_medium=api_v3_business_search&utm_source=HdhkN5EEH6lAqE3kwhsHEQ", "review_count": 13, "categories": [{"alias": "fishnchips", "title": "Fish & Chips"}, {"alias": "seafood", "title": "Seafood"}], "rating": 4.5, "coordinates": {"latitude": 41.9942, "longitude": -71.5213}, "transactions": ["delivery"], "price": "$$", "location": {"address1": "170 Providence St", "address2": null, "address3": null, "city": "Woonsocket", "zip_code": "02895", "country": "US", "state": "RI", "display_address": ["170 Providence St", "Woonsocket, RI 02895"]}, "phone": "+14015970515", "display_phone": "(401) 597-0515", "distance": 6792.262219568914}, {"id": "6oitktWSQGOd0KzvlMrI5Q", "alias": "hide-a-way-pizza-mendon-2", "name": "Hide-A-Way Pizza", "image_url": "https://s3-media1.fl.yelpcdn.com/bphoto/AIS6tQmxeK0EtnY3Gcjpnw/o.jpg", "is_closed": false, "url": "https://www.yelp.com/biz/hide-a-way-pizza-mendon-2?adjust_creative=HdhkN5EEH6lAqE3kwhsHEQ&utm_campaign=yelp_api_v3&utm_medium=api_v3_business_search&utm_source=HdhkN5EEH6lAqE3kwhsHEQ", "review_count": 89, "categories": [{"alias": "pizza", "title": "Pizza"}], "rating": 4.0, "coordinates": {"latitude": 42.0969568864465, "longitude": -71.5782347694039}, "transactions": [], "price": "$", "location": {"address1": "95 Uxbridge Rd", "address2": "", "address3": "", "city": "Mendon", "zip_code": "01756", "country": "US", "state": "MA", "display_address": ["95 Uxbridge Rd", "Mendon, MA 01756"]}, "phone": "+15084780600", "display_phone": "(508) 478-0600", "distance": 6463.847634995916}, {"id": "y2zYOMc56ynw5tNgtz04YQ", "alias": "tacos-don-nacho-woonsocket", "name": "Tacos Don Nacho", "image_url": "https://s3-media4.fl.yelpcdn.com/bphoto/NuQBlcQOcOVLAqZrI4pnkQ/o.jpg", "is_closed": false, "url": "https://www.yelp.com/biz/tacos-don-nacho-woonsocket?adjust_creative=HdhkN5EEH6lAqE3kwhsHEQ&utm_campaign=yelp_api_v3&utm_medium=api_v3_business_search&utm_source=HdhkN5EEH6lAqE3kwhsHEQ", "review_count": 41, "categories": [{"alias": "mexican", "title": "Mexican"}], "rating": 4.5, "coordinates": {"latitude": 42.014389, "longitude": -71.5011292}, "transactions": ["delivery"], "price": "$", "location": {"address1": "986 Social St", "address2": "", "address3": "", "city": "Woonsocket", "zip_code": "02895", "country": "US", "state": "RI", "display_address": ["986 Social St", "Woonsocket, RI 02895"]}, "phone": "+14017664264", "display_phone": "(401) 766-4264", "distance": 6875.773667739382}, {"id": "vkfEHFP-IjQshrYIjfVIFQ", "alias": "savinis-pomodoro-woonsocket", "name": "Savini's Pomodoro", "image_url": "https://s3-media2.fl.yelpcdn.com/bphoto/QQHFdPUXpUTKN1mm6pAYRg/o.jpg", "is_closed": false, "url": "https://www.yelp.com/biz/savinis-pomodoro-woonsocket?adjust_creative=HdhkN5EEH6lAqE3kwhsHEQ&utm_campaign=yelp_api_v3&utm_medium=api_v3_business_search&utm_source=HdhkN5EEH6lAqE3kwhsHEQ", "review_count": 52, "categories": [{"alias": "italian", "title": "Italian"}], "rating": 3.0, "coordinates": {"latitude": 42.0153552, "longitude": -71.5027961}, "transactions": ["delivery"], "price": "$$", "location": {"address1": "476 Rathbun St", "address2": "", "address3": "", "city": "Woonsocket", "zip_code": "02895", "country": "US", "state": "RI", "display_address": ["476 Rathbun St", "Woonsocket, RI 02895"]}, "phone": "+14017625114", "display_phone": "(401) 762-5114", "distance": 6710.724862839693}, {"id": "gegTB3Oa-3TnNsqHL_o8pA", "alias": "the-burger-grille-uxbridge", "name": "The Burger Grille", "image_url": "https://s3-media4.fl.yelpcdn.com/bphoto/ZmFcv2QgyB2ZhTplgsDgUw/o.jpg", "is_closed": false, "url": "https://www.yelp.com/biz/the-burger-grille-uxbridge?adjust_creative=HdhkN5EEH6lAqE3kwhsHEQ&utm_campaign=yelp_api_v3&utm_medium=api_v3_business_search&utm_source=HdhkN5EEH6lAqE3kwhsHEQ", "review_count": 88, "categories": [{"alias": "burgers", "title": "Burgers"}, {"alias": "chicken_wings", "title": "Chicken Wings"}, {"alias": "salad", "title": "Salad"}], "rating": 4.0, "coordinates": {"latitude": 42.09016, "longitude": -71.64303}, "transactions": [], "price": "$", "location": {"address1": "316 N Main St", "address2": "", "address3": "", "city": "Uxbridge", "zip_code": "01569", "country": "US", "state": "MA", "display_address": ["316 N Main St", "Uxbridge, MA 01569"]}, "phone": "+15083729090", "display_phone": "(508) 372-9090", "distance": 7850.864021663784}, {"id": "RO2jaB93y-_td1wWBwrtDg", "alias": "harefield-tandoori-uxbridge", "name": "Harefield Tandoori", "image_url": "", "is_closed": false, "url": "https://www.yelp.com/biz/harefield-tandoori-uxbridge?adjust_creative=HdhkN5EEH6lAqE3kwhsHEQ&utm_campaign=yelp_api_v3&utm_medium=api_v3_business_search&utm_source=HdhkN5EEH6lAqE3kwhsHEQ", "review_count": 1, "categories": [{"alias": "indpak", "title": "Indian"}], "rating": 4.0, "coordinates": {"latitude": 51.603534, "longitude": -0.482555}, "transactions": [], "location": {"address1": "40 High Street", "address2": "", "address3": "Harefield", "city": "Uxbridge", "zip_code": "UB9 6BU", "country": "GB", "state": "XGL", "display_address": ["40 High Street", "Harefield", "Uxbridge UB9 6BU", "United Kingdom"]}, "phone": "+441895825844", "display_phone": "+44 1895 825844", "distance": 6091.847874587879}, {"id": "a-Bj8NJQ_yvMG7vPe4HX1A", "alias": "coffee-and-cream-north-smithfield-3", "name": "Coffee & Cream", "image_url": "https://s3-media1.fl.yelpcdn.com/bphoto/CIQRQGgtXNESSaNWKXXBkg/o.jpg", "is_closed": false, "url": "https://www.yelp.com/biz/coffee-and-cream-north-smithfield-3?adjust_creative=HdhkN5EEH6lAqE3kwhsHEQ&utm_campaign=yelp_api_v3&utm_medium=api_v3_business_search&utm_source=HdhkN5EEH6lAqE3kwhsHEQ", "review_count": 7, "categories": [{"alias": "breakfast_brunch", "title": "Breakfast & Brunch"}, {"alias": "coffee", "title": "Coffee & Tea"}], "rating": 4.0, "coordinates": {"latitude": 42.0051, "longitude": -71.5856228}, "transactions": [], "location": {"address1": "900 Victory Hwy", "address2": "", "address3": null, "city": "North Smithfield", "zip_code": "02876", "country": "US", "state": "RI", "display_address": ["900 Victory Hwy", "North Smithfield, RI 02876"]}, "phone": "+14014884448", "display_phone": "(401) 488-4448", "distance": 3807.813994589164}, {"id": "42TEHIYhJ5rq9-sEascugQ", "alias": "egans-pub-bellingham", "name": "Egan's Pub", "image_url": "https://s3-media2.fl.yelpcdn.com/bphoto/wJfoCOTf84QuQFG9gzIjaA/o.jpg", "is_closed": false, "url": "https://www.yelp.com/biz/egans-pub-bellingham?adjust_creative=HdhkN5EEH6lAqE3kwhsHEQ&utm_campaign=yelp_api_v3&utm_medium=api_v3_business_search&utm_source=HdhkN5EEH6lAqE3kwhsHEQ", "review_count": 3, "categories": [{"alias": "pubs", "title": "Pubs"}, {"alias": "newamerican", "title": "American (New)"}, {"alias": "sandwiches", "title": "Sandwiches"}], "rating": 4.5, "coordinates": {"latitude": 42.0211076, "longitude": -71.4830976}, "transactions": [], "price": "$$", "location": {"address1": "180 Paine St", "address2": "", "address3": "The New England Country Club", "city": "Bellingham", "zip_code": "02019", "country": "US", "state": "MA", "display_address": ["180 Paine St", "The New England Country Club", "Bellingham, MA 02019"]}, "phone": "+15088832300", "display_phone": "(508) 883-2300", "distance": 8053.827715835744}, {"id": "qXNFw435OzZqebwOsA8upA", "alias": "waterfall-cafe-harrisville", "name": "Waterfall Cafe", "image_url": "https://s3-media1.fl.yelpcdn.com/bphoto/GkQf4RwgVNZfr2oteiwgfg/o.jpg", "is_closed": false, "url": "https://www.yelp.com/biz/waterfall-cafe-harrisville?adjust_creative=HdhkN5EEH6lAqE3kwhsHEQ&utm_campaign=yelp_api_v3&utm_medium=api_v3_business_search&utm_source=HdhkN5EEH6lAqE3kwhsHEQ", "review_count": 36, "categories": [{"alias": "newamerican", "title": "American (New)"}], "rating": 3.5, "coordinates": {"latitude": 41.96514, "longitude": -71.6755699}, "transactions": [], "price": "$$", "location": {"address1": "35 East Ave", "address2": "Ste B", "address3": "", "city": "Harrisville", "zip_code": "02830", "country": "US", "state": "RI", "display_address": ["35 East Ave", "Ste B", "Harrisville, RI 02830"]}, "phone": "+14015677000", "display_phone": "(401) 567-7000", "distance": 11517.529277309513}, {"id": "Y28Jxm3fl0O__uK90Jzj4A", "alias": "hercules-beef-wings-and-pizza-north-smithfield", "name": "Hercules Beef, Wings & Pizza", "image_url": "https://s3-media1.fl.yelpcdn.com/bphoto/KGlnJkfJ_eysQgKjf6JVKg/o.jpg", "is_closed": false, "url": "https://www.yelp.com/biz/hercules-beef-wings-and-pizza-north-smithfield?adjust_creative=HdhkN5EEH6lAqE3kwhsHEQ&utm_campaign=yelp_api_v3&utm_medium=api_v3_business_search&utm_source=HdhkN5EEH6lAqE3kwhsHEQ", "review_count": 4, "categories": [{"alias": "pizza", "title": "Pizza"}, {"alias": "chicken_wings", "title": "Chicken Wings"}, {"alias": "sandwiches", "title": "Sandwiches"}], "rating": 3.5, "coordinates": {"latitude": 42.000133, "longitude": -71.579853}, "transactions": [], "location": {"address1": "7 Main St", "address2": null, "address3": "", "city": "North Smithfield", "zip_code": "02896", "country": "US", "state": "RI", "display_address": ["7 Main St", "North Smithfield, RI 02896"]}, "phone": "+14017661111", "display_phone": "(401) 766-1111", "distance": 4306.51583761343}, {"id": "DfsUHsp2P3w-FEnlbK9JBw", "alias": "ocean-cafe-woonsocket", "name": "Ocean Cafe", "image_url": "https://s3-media1.fl.yelpcdn.com/bphoto/4IxThCDbdCarEYp5eNoaQQ/o.jpg", "is_closed": false, "url": "https://www.yelp.com/biz/ocean-cafe-woonsocket?adjust_creative=HdhkN5EEH6lAqE3kwhsHEQ&utm_campaign=yelp_api_v3&utm_medium=api_v3_business_search&utm_source=HdhkN5EEH6lAqE3kwhsHEQ", "review_count": 22, "categories": [{"alias": "latin", "title": "Latin American"}], "rating": 5.0, "coordinates": {"latitude": 42.002439961571, "longitude": -71.5145447105169}, "transactions": [], "price": "$", "location": {"address1": "114 N Main St", "address2": null, "address3": null, "city": "Woonsocket", "zip_code": "02895", "country": "US", "state": "RI", "display_address": ["114 N Main St", "Woonsocket, RI 02895"]}, "phone": "+14015970006", "display_phone": "(401) 597-0006", "distance": 6598.562641392179}, {"id": "4uUDNnozeGvFdj8opI7K2g", "alias": "hunan-place-blackstone", "name": "Hunan Place", "image_url": "https://s3-media3.fl.yelpcdn.com/bphoto/86m26Gn77gZDEDLU2hncWQ/o.jpg", "is_closed": false, "url": "https://www.yelp.com/biz/hunan-place-blackstone?adjust_creative=HdhkN5EEH6lAqE3kwhsHEQ&utm_campaign=yelp_api_v3&utm_medium=api_v3_business_search&utm_source=HdhkN5EEH6lAqE3kwhsHEQ", "review_count": 14, "categories": [{"alias": "chinese", "title": "Chinese"}], "rating": 3.0, "coordinates": {"latitude": 42.015894, "longitude": -71.526655}, "transactions": ["delivery"], "price": "$$", "location": {"address1": "3 Main St", "address2": "Ste C", "address3": "", "city": "Blackstone", "zip_code": "01504", "country": "US", "state": "MA", "display_address": ["3 Main St", "Ste C", "Blackstone, MA 01504"]}, "phone": "+15088838822", "display_phone": "(508) 883-8822", "distance": 4929.207726551529}, {"id": "lHKSc2rS7lyiHuXHTeDoSQ", "alias": "kays-restaurant-woonsocket-2", "name": "Kay's Restaurant", "image_url": "https://s3-media2.fl.yelpcdn.com/bphoto/jvWtdSfCWe_juvACCopB4Q/o.jpg", "is_closed": false, "url": "https://www.yelp.com/biz/kays-restaurant-woonsocket-2?adjust_creative=HdhkN5EEH6lAqE3kwhsHEQ&utm_campaign=yelp_api_v3&utm_medium=api_v3_business_search&utm_source=HdhkN5EEH6lAqE3kwhsHEQ", "review_count": 105, "categories": [{"alias": "sandwiches", "title": "Sandwiches"}, {"alias": "bars", "title": "Bars"}], "rating": 4.0, "coordinates": {"latitude": 42.004312, "longitude": -71.480724}, "transactions": ["pickup", "delivery"], "price": "$", "location": {"address1": "1013 Cass Ave", "address2": "", "address3": "", "city": "Woonsocket", "zip_code": "02895", "country": "US", "state": "RI", "display_address": ["1013 Cass Ave", "Woonsocket, RI 02895"]}, "phone": "+14017629675", "display_phone": "(401) 762-9675", "distance": 8878.568312044958}, {"id": "EIWYPSesdDzsGuMFKnrQQg", "alias": "grille-122-northbridge", "name": "Grille 122", "image_url": "https://s3-media2.fl.yelpcdn.com/bphoto/sqXDj8wvul-BVFZUSW7Ghg/o.jpg", "is_closed": false, "url": "https://www.yelp.com/biz/grille-122-northbridge?adjust_creative=HdhkN5EEH6lAqE3kwhsHEQ&utm_campaign=yelp_api_v3&utm_medium=api_v3_business_search&utm_source=HdhkN5EEH6lAqE3kwhsHEQ", "review_count": 31, "categories": [{"alias": "bars", "title": "Bars"}, {"alias": "tradamerican", "title": "American (Traditional)"}], "rating": 3.0, "coordinates": {"latitude": 42.0997, "longitude": -71.644}, "transactions": [], "price": "$$", "location": {"address1": "91 Providence Rd", "address2": "", "address3": null, "city": "Northbridge", "zip_code": "01588", "country": "US", "state": "MA", "display_address": ["91 Providence Rd", "Northbridge, MA 01588"]}, "phone": "+15083729498", "display_phone": "(508) 372-9498", "distance": 8706.86331684775}, {"id": "BiCLQ2oUzOpUtk9LDaH07Q", "alias": "quaker-tavern-uxbridge", "name": "Quaker Tavern", "image_url": "https://s3-media4.fl.yelpcdn.com/bphoto/dCU0Y_OtzzrCsx54jFxq4w/o.jpg", "is_closed": false, "url": "https://www.yelp.com/biz/quaker-tavern-uxbridge?adjust_creative=HdhkN5EEH6lAqE3kwhsHEQ&utm_campaign=yelp_api_v3&utm_medium=api_v3_business_search&utm_source=HdhkN5EEH6lAqE3kwhsHEQ", "review_count": 31, "categories": [{"alias": "tradamerican", "title": "American (Traditional)"}], "rating": 3.0, "coordinates": {"latitude": 42.039944306016, "longitude": -71.620462462306}, "transactions": [], "price": "$$", "location": {"address1": "466 Quaker Hwy", "address2": "", "address3": "Rt 146A", "city": "Uxbridge", "zip_code": "01569", "country": "US", "state": "MA", "display_address": ["466 Quaker Hwy", "Rt 146A", "Uxbridge, MA 01569"]}, "phone": "+15087790901", "display_phone": "(508) 779-0901", "distance": 6091.847874587879}, {"id": "84tESMfwulvA_rsUNVPbZQ", "alias": "cheng-kitchen-uxbridge", "name": "Cheng Kitchen", "image_url": "https://s3-media2.fl.yelpcdn.com/bphoto/JqOBR_szGPSFMOuNTSYkag/o.jpg", "is_closed": false, "url": "https://www.yelp.com/biz/cheng-kitchen-uxbridge?adjust_creative=HdhkN5EEH6lAqE3kwhsHEQ&utm_campaign=yelp_api_v3&utm_medium=api_v3_business_search&utm_source=HdhkN5EEH6lAqE3kwhsHEQ", "review_count": 5, "categories": [{"alias": "chinese", "title": "Chinese"}], "rating": 4.0, "coordinates": {"latitude": 42.081671, "longitude": -71.638958}, "transactions": [], "location": {"address1": "158 N Main St", "address2": "", "address3": null, "city": "Uxbridge", "zip_code": "01569", "country": "US", "state": "MA", "display_address": ["158 N Main St", "Uxbridge, MA 01569"]}, "phone": "+15082789399", "display_phone": "(508) 278-9399", "distance": 6951.03481832837}, {"id": "QWyG7YDSFK3wSp4cnYV1QA", "alias": "thai-garden-woonsocket", "name": "Thai Garden", "image_url": "https://s3-media3.fl.yelpcdn.com/bphoto/5nvEBHwOcHbrLGUzP2sIIA/o.jpg", "is_closed": false, "url": "https://www.yelp.com/biz/thai-garden-woonsocket?adjust_creative=HdhkN5EEH6lAqE3kwhsHEQ&utm_campaign=yelp_api_v3&utm_medium=api_v3_business_search&utm_source=HdhkN5EEH6lAqE3kwhsHEQ", "review_count": 67, "categories": [{"alias": "thai", "title": "Thai"}], "rating": 4.0, "coordinates": {"latitude": 42.00444, "longitude": -71.51291}, "transactions": ["delivery"], "price": "$", "location": {"address1": "280 Main St", "address2": "", "address3": "", "city": "Woonsocket", "zip_code": "02895", "country": "US", "state": "RI", "display_address": ["280 Main St", "Woonsocket, RI 02895"]}, "phone": "+14017657010", "display_phone": "(401) 765-7010", "distance": 6577.545058388272}, {"id": "LlTWx5oV7HPKrpjX27_QcQ", "alias": "michaels-woonsocket", "name": "Michael's", "image_url": "https://s3-media1.fl.yelpcdn.com/bphoto/TzuXtK-7-IylT_PA-KLFZQ/o.jpg", "is_closed": false, "url": "https://www.yelp.com/biz/michaels-woonsocket?adjust_creative=HdhkN5EEH6lAqE3kwhsHEQ&utm_campaign=yelp_api_v3&utm_medium=api_v3_business_search&utm_source=HdhkN5EEH6lAqE3kwhsHEQ", "review_count": 24, "categories": [{"alias": "sportsbars", "title": "Sports Bars"}, {"alias": "karaoke", "title": "Karaoke"}, {"alias": "newamerican", "title": "American (New)"}], "rating": 4.5, "coordinates": {"latitude": 42.0076069, "longitude": -71.4950209}, "transactions": [], "price": "$", "location": {"address1": "495 Elm St", "address2": "", "address3": "", "city": "Woonsocket", "zip_code": "02895", "country": "US", "state": "RI", "display_address": ["495 Elm St", "Woonsocket, RI 02895"]}, "phone": "+14017663741", "display_phone": "(401) 766-3741", "distance": 7657.191079678708}, {"id": "LbDsByEV3nwV5GymcXXhgw", "alias": "toyo-steak-house-woonsocket", "name": "Toyo Steak House", "image_url": "https://s3-media2.fl.yelpcdn.com/bphoto/UStl7gWBKJZO9XxJPVrR1Q/o.jpg", "is_closed": false, "url": "https://www.yelp.com/biz/toyo-steak-house-woonsocket?adjust_creative=HdhkN5EEH6lAqE3kwhsHEQ&utm_campaign=yelp_api_v3&utm_medium=api_v3_business_search&utm_source=HdhkN5EEH6lAqE3kwhsHEQ", "review_count": 38, "categories": [{"alias": "sushi", "title": "Sushi Bars"}, {"alias": "japanese", "title": "Japanese"}, {"alias": "steak", "title": "Steakhouses"}], "rating": 3.5, "coordinates": {"latitude": 42.006225, "longitude": -71.506325}, "transactions": ["delivery"], "price": "$$", "location": {"address1": "401 Clinton St", "address2": "", "address3": null, "city": "Woonsocket", "zip_code": "02895", "country": "US", "state": "RI", "display_address": ["401 Clinton St", "Woonsocket, RI 02895"]}, "phone": "+14017620800", "display_phone": "(401) 762-0800", "distance": 6903.395130921875}, {"id": "VUBOX7Ust7JCD9WBuZo4UA", "alias": "rock-n-coal-pizza-bellingham", "name": "Rock N' Coal Pizza", "image_url": "https://s3-media1.fl.yelpcdn.com/bphoto/6aZ60f_MqFB1x2fh2Z1QRQ/o.jpg", "is_closed": false, "url": "https://www.yelp.com/biz/rock-n-coal-pizza-bellingham?adjust_creative=HdhkN5EEH6lAqE3kwhsHEQ&utm_campaign=yelp_api_v3&utm_medium=api_v3_business_search&utm_source=HdhkN5EEH6lAqE3kwhsHEQ", "review_count": 169, "categories": [{"alias": "pizza", "title": "Pizza"}], "rating": 2.5, "coordinates": {"latitude": 42.051201, "longitude": -71.481815}, "transactions": ["delivery"], "price": "$$", "location": {"address1": "799 S Main St", "address2": null, "address3": "", "city": "Bellingham", "zip_code": "02019", "country": "US", "state": "MA", "display_address": ["799 S Main St", "Bellingham, MA 02019"]}, "phone": "+15089282784", "display_phone": "(508) 928-2784", "distance": 8031.860413256968}, {"id": "tdh1rVZdBvWI8nMYvZwUSA", "alias": "hong-kong-house-hopedale", "name": "Hong Kong House", "image_url": "https://s3-media2.fl.yelpcdn.com/bphoto/6MnQ0os3dBnVkYBqrG8q7A/o.jpg", "is_closed": false, "url": "https://www.yelp.com/biz/hong-kong-house-hopedale?adjust_creative=HdhkN5EEH6lAqE3kwhsHEQ&utm_campaign=yelp_api_v3&utm_medium=api_v3_business_search&utm_source=HdhkN5EEH6lAqE3kwhsHEQ", "review_count": 42, "categories": [{"alias": "chinese", "title": "Chinese"}], "rating": 4.0, "coordinates": {"latitude": 42.1040996969436, "longitude": -71.5022871236781}, "transactions": ["delivery"], "price": "$$", "location": {"address1": "150 Hartford Ave", "address2": "", "address3": "", "city": "Hopedale", "zip_code": "01747", "country": "US", "state": "MA", "display_address": ["150 Hartford Ave", "Hopedale, MA 01747"]}, "phone": "+15084738885", "display_phone": "(508) 473-8885", "distance": 9558.573845951467}, {"id": "O2Wj5Wk-qEBLvcK0aqEeiw", "alias": "dudleys-dogs-uxbridge", "name": "Dudley's Dogs", "image_url": "https://s3-media4.fl.yelpcdn.com/bphoto/qAwFX4hQQteaMRQbjE8_wA/o.jpg", "is_closed": false, "url": "https://www.yelp.com/biz/dudleys-dogs-uxbridge?adjust_creative=HdhkN5EEH6lAqE3kwhsHEQ&utm_campaign=yelp_api_v3&utm_medium=api_v3_business_search&utm_source=HdhkN5EEH6lAqE3kwhsHEQ", "review_count": 2, "categories": [{"alias": "hotdog", "title": "Hot Dogs"}, {"alias": "foodtrucks", "title": "Food Trucks"}], "rating": 5.0, "coordinates": {"latitude": 42.0771004903658, "longitude": -71.647076010704}, "transactions": [], "location": {"address1": "16 Cross Rd", "address2": "", "address3": null, "city": "Uxbridge", "zip_code": "01569", "country": "US", "state": "MA", "display_address": ["16 Cross Rd", "Uxbridge, MA 01569"]}, "phone": "+15082841638", "display_phone": "(508) 284-1638", "distance": 7139.266220893287}, {"id": "CbN8duLb4BspKHgVbyas6A", "alias": "excellent-breakfast-burrillville", "name": "Excellent Breakfast", "image_url": "https://s3-media2.fl.yelpcdn.com/bphoto/0GT2VtQLIc_qX9ulm3D3oA/o.jpg", "is_closed": false, "url": "https://www.yelp.com/biz/excellent-breakfast-burrillville?adjust_creative=HdhkN5EEH6lAqE3kwhsHEQ&utm_campaign=yelp_api_v3&utm_medium=api_v3_business_search&utm_source=HdhkN5EEH6lAqE3kwhsHEQ", "review_count": 64, "categories": [{"alias": "breakfast_brunch", "title": "Breakfast & Brunch"}], "rating": 4.5, "coordinates": {"latitude": 41.9636448, "longitude": -71.6750609}, "transactions": [], "location": {"address1": "218 Harrisville Main St", "address2": "", "address3": null, "city": "Burrillville", "zip_code": "02830", "country": "US", "state": "RI", "display_address": ["218 Harrisville Main St", "Burrillville, RI 02830"]}, "phone": "", "display_phone": "", "distance": 11585.637461835096}, {"id": "LkHZs6Os_UXmG8M59VEC3Q", "alias": "140-pub-n-club-bellingham", "name": "140 Pub N Club", "image_url": "https://s3-media2.fl.yelpcdn.com/bphoto/Th-kA7ZN2geByIsR1MdRWw/o.jpg", "is_closed": false, "url": "https://www.yelp.com/biz/140-pub-n-club-bellingham?adjust_creative=HdhkN5EEH6lAqE3kwhsHEQ&utm_campaign=yelp_api_v3&utm_medium=api_v3_business_search&utm_source=HdhkN5EEH6lAqE3kwhsHEQ", "review_count": 38, "categories": [{"alias": "danceclubs", "title": "Dance Clubs"}, {"alias": "pubs", "title": "Pubs"}, {"alias": "tradamerican", "title": "American (Traditional)"}], "rating": 4.0, "coordinates": {"latitude": 42.0868768154618, "longitude": -71.4899149909616}, "transactions": ["delivery"], "price": "$$", "location": {"address1": "168 Mendon St", "address2": "", "address3": "", "city": "Bellingham", "zip_code": "02019", "country": "US", "state": "MA", "display_address": ["168 Mendon St", "Bellingham, MA 02019"]}, "phone": "+15089664411", "display_phone": "(508) 966-4411", "distance": 8999.766738476595}, {"id": "04ixfA0ZJqSTRXbJ1sWuDQ", "alias": "lizs-diamond-bar-and-grille-hopedale", "name": "Liz's Diamond Bar & Grille", "image_url": "https://s3-media4.fl.yelpcdn.com/bphoto/5jf1KKpRAWaUxIH-Trpr8Q/o.jpg", "is_closed": false, "url": "https://www.yelp.com/biz/lizs-diamond-bar-and-grille-hopedale?adjust_creative=HdhkN5EEH6lAqE3kwhsHEQ&utm_campaign=yelp_api_v3&utm_medium=api_v3_business_search&utm_source=HdhkN5EEH6lAqE3kwhsHEQ", "review_count": 17, "categories": [{"alias": "pubs", "title": "Pubs"}, {"alias": "newamerican", "title": "American (New)"}], "rating": 4.0, "coordinates": {"latitude": 42.1038742991199, "longitude": -71.5097415447235}, "transactions": ["delivery"], "price": "$", "location": {"address1": "1 Menfi Way", "address2": "", "address3": "", "city": "Hopedale", "zip_code": "01747", "country": "US", "state": "MA", "display_address": ["1 Menfi Way", "Hopedale, MA 01747"]}, "phone": "+15084780690", "display_phone": "(508) 478-0690", "distance": 9150.273768538209}, {"id": "YlWNPu9beZhqqPcUo-outQ", "alias": "berts-breakfast-and-lunch-uxbridge", "name": "Bert's Breakfast & Lunch", "image_url": "https://s3-media1.fl.yelpcdn.com/bphoto/S8Flm8zx-lkSikNj-i80_A/o.jpg", "is_closed": false, "url": "https://www.yelp.com/biz/berts-breakfast-and-lunch-uxbridge?adjust_creative=HdhkN5EEH6lAqE3kwhsHEQ&utm_campaign=yelp_api_v3&utm_medium=api_v3_business_search&utm_source=HdhkN5EEH6lAqE3kwhsHEQ", "review_count": 25, "categories": [{"alias": "sandwiches", "title": "Sandwiches"}, {"alias": "breakfast_brunch", "title": "Breakfast & Brunch"}], "rating": 3.5, "coordinates": {"latitude": 42.038839, "longitude": -71.619727}, "transactions": [], "price": "$", "location": {"address1": "492 Quaker Hwy", "address2": "", "address3": "", "city": "Uxbridge", "zip_code": "01569", "country": "US", "state": "MA", "display_address": ["492 Quaker Hwy", "Uxbridge, MA 01569"]}, "phone": "+15082782130", "display_phone": "(508) 278-2130", "distance": 3475.3284552630666}, {"id": "UAexFbIHNTkznoH7yvPJsQ", "alias": "bocce-club-restaurant-woonsocket", "name": "Bocce Club Restaurant", "image_url": "https://s3-media1.fl.yelpcdn.com/bphoto/_1z52sc3_QHTyQW2LdfJYg/o.jpg", "is_closed": false, "url": "https://www.yelp.com/biz/bocce-club-restaurant-woonsocket?adjust_creative=HdhkN5EEH6lAqE3kwhsHEQ&utm_campaign=yelp_api_v3&utm_medium=api_v3_business_search&utm_source=HdhkN5EEH6lAqE3kwhsHEQ", "review_count": 18, "categories": [{"alias": "italian", "title": "Italian"}], "rating": 2.5, "coordinates": {"latitude": 42.014575958252, "longitude": -71.4899291992188}, "transactions": [], "price": "$$", "location": {"address1": "226 Saint Louis Ave", "address2": "", "address3": "", "city": "Woonsocket", "zip_code": "02895", "country": "US", "state": "RI", "display_address": ["226 Saint Louis Ave", "Woonsocket, RI 02895"]}, "phone": "+14017672000", "display_phone": "(401) 767-2000", "distance": 7731.034425713871}, {"id": "DH3SW8QzVrbx7L_ZKetpcg", "alias": "patriots-diner-woonsocket", "name": "Patriots Diner", "image_url": "https://s3-media3.fl.yelpcdn.com/bphoto/PCNu3FB-GA_77KSWyQeb1w/o.jpg", "is_closed": false, "url": "https://www.yelp.com/biz/patriots-diner-woonsocket?adjust_creative=HdhkN5EEH6lAqE3kwhsHEQ&utm_campaign=yelp_api_v3&utm_medium=api_v3_business_search&utm_source=HdhkN5EEH6lAqE3kwhsHEQ", "review_count": 311, "categories": [{"alias": "diners", "title": "Diners"}, {"alias": "tradamerican", "title": "American (Traditional)"}], "rating": 4.0, "coordinates": {"latitude": 41.991307109827, "longitude": -71.485044928239}, "transactions": ["pickup", "delivery"], "price": "$", "location": {"address1": "65 Founders Dr", "address2": "", "address3": "", "city": "Woonsocket", "zip_code": "02895", "country": "US", "state": "RI", "display_address": ["65 Founders Dr", "Woonsocket, RI 02895"]}, "phone": "+14017656900", "display_phone": "(401) 765-6900", "distance": 9297.53204811479}, {"id": "5rGouNNMCXi2lvBpLIeZvA", "alias": "martys-liquors-millville", "name": "Marty's Liquors", "image_url": "", "is_closed": false, "url": "https://www.yelp.com/biz/martys-liquors-millville?adjust_creative=HdhkN5EEH6lAqE3kwhsHEQ&utm_campaign=yelp_api_v3&utm_medium=api_v3_business_search&utm_source=HdhkN5EEH6lAqE3kwhsHEQ", "review_count": 6, "categories": [{"alias": "beer_and_wine", "title": "Beer, Wine & Spirits"}, {"alias": "delis", "title": "Delis"}, {"alias": "sandwiches", "title": "Sandwiches"}], "rating": 4.0, "coordinates": {"latitude": 42.0139304, "longitude": -71.5943051}, "transactions": [], "price": "$$", "location": {"address1": "1 Buxton St", "address2": "", "address3": null, "city": "Millville", "zip_code": "01529", "country": "US", "state": "MA", "display_address": ["1 Buxton St", "Millville, MA 01529"]}, "phone": "+15088831880", "display_phone": "(508) 883-1880", "distance": 2961.9672446936765}, {"id": "GpD-gxtsvv0Y-S_SXzchaA", "alias": "new-china-pacific-restaurant-whitinsville", "name": "New China Pacific Restaurant", "image_url": "https://s3-media1.fl.yelpcdn.com/bphoto/ewieQs_lylCwUI3wdI_eCw/o.jpg", "is_closed": false, "url": "https://www.yelp.com/biz/new-china-pacific-restaurant-whitinsville?adjust_creative=HdhkN5EEH6lAqE3kwhsHEQ&utm_campaign=yelp_api_v3&utm_medium=api_v3_business_search&utm_source=HdhkN5EEH6lAqE3kwhsHEQ", "review_count": 37, "categories": [{"alias": "szechuan", "title": "Szechuan"}, {"alias": "cocktailbars", "title": "Cocktail Bars"}], "rating": 3.0, "coordinates": {"latitude": 42.0985303923564, "longitude": -71.6447227075696}, "transactions": [], "price": "$$", "location": {"address1": "683 Linwood Ave", "address2": "", "address3": "", "city": "Whitinsville", "zip_code": "01588", "country": "US", "state": "MA", "display_address": ["683 Linwood Ave", "Whitinsville, MA 01588"]}, "phone": "+15082348100", "display_phone": "(508) 234-8100", "distance": 8644.609599915633}, {"id": "ZlTXh8usbqrn24Zh4RFPKg", "alias": "kapis-pub-uxbridge", "name": "Kapi's Pub", "image_url": "https://s3-media4.fl.yelpcdn.com/bphoto/o8IYhIiJusheXAtJP53Rsw/o.jpg", "is_closed": false, "url": "https://www.yelp.com/biz/kapis-pub-uxbridge?adjust_creative=HdhkN5EEH6lAqE3kwhsHEQ&utm_campaign=yelp_api_v3&utm_medium=api_v3_business_search&utm_source=HdhkN5EEH6lAqE3kwhsHEQ", "review_count": 20, "categories": [{"alias": "pubs", "title": "Pubs"}, {"alias": "tradamerican", "title": "American (Traditional)"}], "rating": 3.0, "coordinates": {"latitude": 42.0878057754441, "longitude": -71.641791}, "transactions": [], "price": "$$", "location": {"address1": "270 North Main St", "address2": null, "address3": null, "city": "Uxbridge", "zip_code": "01569", "country": "US", "state": "MA", "display_address": ["270 North Main St", "Uxbridge, MA 01569"]}, "phone": "+15082785831", "display_phone": "(508) 278-5831", "distance": 7596.1448995446135}, {"id": "-T8evaY6qmBXeRZvlu9l4g", "alias": "hideaway-pizza-uxbridge", "name": "Hideaway Pizza", "image_url": "https://s3-media1.fl.yelpcdn.com/bphoto/V_amlJ5BJqZI-lmTy01ibQ/o.jpg", "is_closed": false, "url": "https://www.yelp.com/biz/hideaway-pizza-uxbridge?adjust_creative=HdhkN5EEH6lAqE3kwhsHEQ&utm_campaign=yelp_api_v3&utm_medium=api_v3_business_search&utm_source=HdhkN5EEH6lAqE3kwhsHEQ", "review_count": 3, "categories": [{"alias": "pizza", "title": "Pizza"}], "rating": 3.5, "coordinates": {"latitude": 42.036511, "longitude": -71.619545}, "transactions": [], "price": "$$", "location": {"address1": "535 Quaker Hwy", "address2": "", "address3": "", "city": "Uxbridge", "zip_code": "01569", "country": "US", "state": "MA", "display_address": ["535 Quaker Hwy", "Uxbridge, MA 01569"]}, "phone": "+15082783700", "display_phone": "(508) 278-3700", "distance": 3469.936793110874}, {"id": "4qqoDKGdVJbGe8iY9jIuBQ", "alias": "chowder-bowl-restaurant-bellingham", "name": "Chowder Bowl Restaurant", "image_url": "https://s3-media3.fl.yelpcdn.com/bphoto/uQl6QUjw5oTtL5rMF-rfTA/o.jpg", "is_closed": false, "url": "https://www.yelp.com/biz/chowder-bowl-restaurant-bellingham?adjust_creative=HdhkN5EEH6lAqE3kwhsHEQ&utm_campaign=yelp_api_v3&utm_medium=api_v3_business_search&utm_source=HdhkN5EEH6lAqE3kwhsHEQ", "review_count": 34, "categories": [{"alias": "seafood", "title": "Seafood"}], "rating": 2.5, "coordinates": {"latitude": 42.057746887207, "longitude": -71.4936065673828}, "transactions": [], "price": "$$", "location": {"address1": "325 Lakeshore Dr", "address2": "", "address3": "", "city": "Bellingham", "zip_code": "02019", "country": "US", "state": "MA", "display_address": ["325 Lakeshore Dr", "Bellingham, MA 02019"]}, "phone": "+15088837030", "display_phone": "(508) 883-7030", "distance": 7292.976445025178}, {"id": "jVIpzIiHKPWydcTMymq13w", "alias": "wilfreds-seafood-woonsocket", "name": "Wilfred's Seafood", "image_url": "https://s3-media1.fl.yelpcdn.com/bphoto/b45GcSBsu5Bff7WOsp6DFQ/o.jpg", "is_closed": false, "url": "https://www.yelp.com/biz/wilfreds-seafood-woonsocket?adjust_creative=HdhkN5EEH6lAqE3kwhsHEQ&utm_campaign=yelp_api_v3&utm_medium=api_v3_business_search&utm_source=HdhkN5EEH6lAqE3kwhsHEQ", "review_count": 10, "categories": [{"alias": "seafood", "title": "Seafood"}], "rating": 3.5, "coordinates": {"latitude": 41.995246887207, "longitude": -71.4884948730469}, "transactions": [], "price": "$$", "location": {"address1": "805 Cumberland Hill Rd", "address2": "", "address3": "", "city": "Woonsocket", "zip_code": "02895", "country": "US", "state": "RI", "display_address": ["805 Cumberland Hill Rd", "Woonsocket, RI 02895"]}, "phone": "+14017696260", "display_phone": "(401) 769-6260", "distance": 8810.956518180848}, {"id": "wa4SGYw_n8iTLQNJwZgRHw", "alias": "chans-woonsocket", "name": "Chan's", "image_url": "https://s3-media2.fl.yelpcdn.com/bphoto/NVQRdDHC0SsDEddUVx0nOg/o.jpg", "is_closed": false, "url": "https://www.yelp.com/biz/chans-woonsocket?adjust_creative=HdhkN5EEH6lAqE3kwhsHEQ&utm_campaign=yelp_api_v3&utm_medium=api_v3_business_search&utm_source=HdhkN5EEH6lAqE3kwhsHEQ", "review_count": 129, "categories": [{"alias": "chinese", "title": "Chinese"}, {"alias": "jazzandblues", "title": "Jazz & Blues"}, {"alias": "seafood", "title": "Seafood"}], "rating": 2.5, "coordinates": {"latitude": 42.0040867, "longitude": -71.512502}, "transactions": ["delivery"], "price": "$$", "location": {"address1": "267 Main St", "address2": null, "address3": "", "city": "Woonsocket", "zip_code": "02895", "country": "US", "state": "RI", "display_address": ["267 Main St", "Woonsocket, RI 02895"]}, "phone": "+14017651900", "display_phone": "(401) 765-1900", "distance": 6624.171551069862}, {"id": "4rR-Nq2f9EHFxEqm-QpQqQ", "alias": "johnny-s-victory-diner-burrillville", "name": "Johnny\u2019s Victory Diner", "image_url": "https://s3-media3.fl.yelpcdn.com/bphoto/h5kREUFeypGTvhyQljYnkA/o.jpg", "is_closed": false, "url": "https://www.yelp.com/biz/johnny-s-victory-diner-burrillville?adjust_creative=HdhkN5EEH6lAqE3kwhsHEQ&utm_campaign=yelp_api_v3&utm_medium=api_v3_business_search&utm_source=HdhkN5EEH6lAqE3kwhsHEQ", "review_count": 55, "categories": [{"alias": "breakfast_brunch", "title": "Breakfast & Brunch"}, {"alias": "diners", "title": "Diners"}, {"alias": "tradamerican", "title": "American (Traditional)"}], "rating": 4.0, "coordinates": {"latitude": 41.9809227620163, "longitude": -71.6078001701749}, "transactions": [], "price": "$", "location": {"address1": "2731 Victory Hwy", "address2": "", "address3": "", "city": "Burrillville", "zip_code": "02830", "country": "US", "state": "RI", "display_address": ["2731 Victory Hwy", "Burrillville, RI 02830"]}, "phone": "+14017652661", "display_phone": "(401) 765-2661", "distance": 6903.970509404294}, {"id": "8AIZ_zXg9_FWbIKBptD2lw", "alias": "broaster-house-woonsocket", "name": "Broaster House", "image_url": "https://s3-media1.fl.yelpcdn.com/bphoto/Xzz5QxXIngxTYnCSG9vADw/o.jpg", "is_closed": false, "url": "https://www.yelp.com/biz/broaster-house-woonsocket?adjust_creative=HdhkN5EEH6lAqE3kwhsHEQ&utm_campaign=yelp_api_v3&utm_medium=api_v3_business_search&utm_source=HdhkN5EEH6lAqE3kwhsHEQ", "review_count": 27, "categories": [{"alias": "comfortfood", "title": "Comfort Food"}, {"alias": "seafood", "title": "Seafood"}, {"alias": "chicken_wings", "title": "Chicken Wings"}], "rating": 3.0, "coordinates": {"latitude": 42.0092503386243, "longitude": -71.5112918615341}, "transactions": ["pickup", "delivery"], "price": "$$", "location": {"address1": "263 Pond St", "address2": "", "address3": "", "city": "Woonsocket", "zip_code": "02895", "country": "US", "state": "RI", "display_address": ["263 Pond St", "Woonsocket, RI 02895"]}, "phone": "+14017621717", "display_phone": "(401) 762-1717", "distance": 6391.921935400087}, {"id": "K78THltJtqnaNHFhH7kYTw", "alias": "vm-moonlight-north-smithfield", "name": "VM Moonlight", "image_url": "https://s3-media4.fl.yelpcdn.com/bphoto/bJlUkqTHmChjVCHqqqI_xQ/o.jpg", "is_closed": false, "url": "https://www.yelp.com/biz/vm-moonlight-north-smithfield?adjust_creative=HdhkN5EEH6lAqE3kwhsHEQ&utm_campaign=yelp_api_v3&utm_medium=api_v3_business_search&utm_source=HdhkN5EEH6lAqE3kwhsHEQ", "review_count": 4, "categories": [{"alias": "breakfast_brunch", "title": "Breakfast & Brunch"}], "rating": 4.0, "coordinates": {"latitude": 41.97903, "longitude": -71.51363}, "transactions": ["pickup", "delivery"], "location": {"address1": "175 Eddie Dowling Hwy", "address2": "", "address3": "", "city": "North Smithfield", "zip_code": "02896", "country": "US", "state": "RI", "display_address": ["175 Eddie Dowling Hwy", "North Smithfield, RI 02896"]}, "phone": "+14013561745", "display_phone": "(401) 356-1745", "distance": 8493.143187349386}, {"id": "fqocnXGgv-Db12PaigBOVg", "alias": "pacific-asian-cuisine-woonsocket", "name": "Pacific Asian Cuisine", "image_url": "https://s3-media3.fl.yelpcdn.com/bphoto/KJpRjrmFeFBs6szoKxNXNQ/o.jpg", "is_closed": false, "url": "https://www.yelp.com/biz/pacific-asian-cuisine-woonsocket?adjust_creative=HdhkN5EEH6lAqE3kwhsHEQ&utm_campaign=yelp_api_v3&utm_medium=api_v3_business_search&utm_source=HdhkN5EEH6lAqE3kwhsHEQ", "review_count": 49, "categories": [{"alias": "chinese", "title": "Chinese"}, {"alias": "seafood", "title": "Seafood"}, {"alias": "thai", "title": "Thai"}], "rating": 3.5, "coordinates": {"latitude": 42.00791104199, "longitude": -71.5029394626617}, "transactions": ["delivery"], "price": "$", "location": {"address1": "63 Cumberland St", "address2": "", "address3": "", "city": "Woonsocket", "zip_code": "02895", "country": "US", "state": "RI", "display_address": ["63 Cumberland St", "Woonsocket, RI 02895"]}, "phone": "+14015340100", "display_phone": "(401) 534-0100", "distance": 7063.857083271469}, {"id": "N-7r3MOvaMbsEiZpmtsHOw", "alias": "new-york-lunch-woonsocket", "name": "New York Lunch", "image_url": "https://s3-media2.fl.yelpcdn.com/bphoto/68xJdHRUxVTXoCyA38fuGA/o.jpg", "is_closed": false, "url": "https://www.yelp.com/biz/new-york-lunch-woonsocket?adjust_creative=HdhkN5EEH6lAqE3kwhsHEQ&utm_campaign=yelp_api_v3&utm_medium=api_v3_business_search&utm_source=HdhkN5EEH6lAqE3kwhsHEQ", "review_count": 49, "categories": [{"alias": "hotdog", "title": "Hot Dogs"}], "rating": 4.0, "coordinates": {"latitude": 42.0006404, "longitude": -71.516041}, "transactions": [], "price": "$", "location": {"address1": "8 Main St", "address2": "", "address3": "", "city": "Woonsocket", "zip_code": "02895", "country": "US", "state": "RI", "display_address": ["8 Main St", "Woonsocket, RI 02895"]}, "phone": "+14017629619", "display_phone": "(401) 762-9619", "distance": 6627.804309551462}, {"id": "OlerFWIyUIu-GNjgGk6uhA", "alias": "uxbridge-house-of-pizza-uxbridge", "name": "Uxbridge House of Pizza", "image_url": "https://s3-media2.fl.yelpcdn.com/bphoto/dNZ55es-_jIznzXzpx90Mg/o.jpg", "is_closed": false, "url": "https://www.yelp.com/biz/uxbridge-house-of-pizza-uxbridge?adjust_creative=HdhkN5EEH6lAqE3kwhsHEQ&utm_campaign=yelp_api_v3&utm_medium=api_v3_business_search&utm_source=HdhkN5EEH6lAqE3kwhsHEQ", "review_count": 27, "categories": [{"alias": "pizza", "title": "Pizza"}], "rating": 4.0, "coordinates": {"latitude": 42.07588, "longitude": -71.629301}, "transactions": [], "price": "$", "location": {"address1": "11 S Main St", "address2": "", "address3": "", "city": "Uxbridge", "zip_code": "01569", "country": "US", "state": "MA", "display_address": ["11 S Main St", "Uxbridge, MA 01569"]}, "phone": "+15082782300", "display_phone": "(508) 278-2300", "distance": 5927.110113888343}, {"id": "6FP5M04d6si-lfXG95KIUQ", "alias": "lumberjacks-pizza-north-smithfield", "name": "Lumberjack's Pizza", "image_url": "https://s3-media1.fl.yelpcdn.com/bphoto/U5d9b52Y1oASmxbJsNO-2A/o.jpg", "is_closed": false, "url": "https://www.yelp.com/biz/lumberjacks-pizza-north-smithfield?adjust_creative=HdhkN5EEH6lAqE3kwhsHEQ&utm_campaign=yelp_api_v3&utm_medium=api_v3_business_search&utm_source=HdhkN5EEH6lAqE3kwhsHEQ", "review_count": 31, "categories": [{"alias": "pizza", "title": "Pizza"}], "rating": 3.0, "coordinates": {"latitude": 41.9949264526367, "longitude": -71.5978164672852}, "transactions": [], "price": "$$", "location": {"address1": "1402 Victory Hwy", "address2": null, "address3": null, "city": "North Smithfield", "zip_code": "02896", "country": "US", "state": "RI", "display_address": ["1402 Victory Hwy", "North Smithfield, RI 02896"]}, "phone": "+14017697437", "display_phone": "(401) 769-7437", "distance": 5156.10919436967}, {"id": "RZBnFrMvsC2j1nyx25Y0DQ", "alias": "quaker-deli-and-variety-uxbridge", "name": "Quaker Deli & Variety", "image_url": "https://s3-media2.fl.yelpcdn.com/bphoto/z7RODcKDAqtkscJONyO4Og/o.jpg", "is_closed": false, "url": "https://www.yelp.com/biz/quaker-deli-and-variety-uxbridge?adjust_creative=HdhkN5EEH6lAqE3kwhsHEQ&utm_campaign=yelp_api_v3&utm_medium=api_v3_business_search&utm_source=HdhkN5EEH6lAqE3kwhsHEQ", "review_count": 6, "categories": [{"alias": "catering", "title": "Caterers"}, {"alias": "delis", "title": "Delis"}], "rating": 3.5, "coordinates": {"latitude": 42.0357551574707, "longitude": -71.6185455322266}, "transactions": [], "price": "$", "location": {"address1": "544 Quaker Hwy", "address2": "", "address3": "", "city": "Uxbridge", "zip_code": "01569", "country": "US", "state": "MA", "display_address": ["544 Quaker Hwy", "Uxbridge, MA 01569"]}, "phone": "+15082786845", "display_phone": "(508) 278-6845", "distance": 3403.9093083889916}, {"id": "4lAc8-rUmNd9ekKpCuykIg", "alias": "the-valley-bean-uxbridge", "name": "The Valley Bean", "image_url": "https://s3-media3.fl.yelpcdn.com/bphoto/BVm_m0Cjjv37Gt4aZJGjew/o.jpg", "is_closed": false, "url": "https://www.yelp.com/biz/the-valley-bean-uxbridge?adjust_creative=HdhkN5EEH6lAqE3kwhsHEQ&utm_campaign=yelp_api_v3&utm_medium=api_v3_business_search&utm_source=HdhkN5EEH6lAqE3kwhsHEQ", "review_count": 13, "categories": [{"alias": "breakfast_brunch", "title": "Breakfast & Brunch"}, {"alias": "sandwiches", "title": "Sandwiches"}, {"alias": "bagels", "title": "Bagels"}], "rating": 4.0, "coordinates": {"latitude": 42.091292, "longitude": -71.643261}, "transactions": [], "location": {"address1": "336 North Main St", "address2": null, "address3": "", "city": "Uxbridge", "zip_code": "01569", "country": "US", "state": "MA", "display_address": ["336 North Main St", "Uxbridge, MA 01569"]}, "phone": "+15087797790", "display_phone": "(508) 779-7790", "distance": 7970.815908027549}, {"id": "nNn8eI7JnwedItXKv4gbpw", "alias": "the-castle-luncheonette-woonsocket", "name": "The Castle Luncheonette", "image_url": "https://s3-media2.fl.yelpcdn.com/bphoto/4ldBLCn-QFmQySX9rDywQg/o.jpg", "is_closed": false, "url": "https://www.yelp.com/biz/the-castle-luncheonette-woonsocket?adjust_creative=HdhkN5EEH6lAqE3kwhsHEQ&utm_campaign=yelp_api_v3&utm_medium=api_v3_business_search&utm_source=HdhkN5EEH6lAqE3kwhsHEQ", "review_count": 15, "categories": [{"alias": "tradamerican", "title": "American (Traditional)"}], "rating": 4.0, "coordinates": {"latitude": 42.008598, "longitude": -71.505897}, "transactions": ["delivery"], "price": "$$", "location": {"address1": "420 Social St", "address2": "", "address3": "", "city": "Woonsocket", "zip_code": "02895", "country": "US", "state": "RI", "display_address": ["420 Social St", "Woonsocket, RI 02895"]}, "phone": "+14017625424", "display_phone": "(401) 762-5424", "distance": 6808.427205061306}, {"id": "od8s4h84SJgPcNm1oHiGTA", "alias": "western-hotel-pizza-and-tavern-harrisville", "name": "Western Hotel Pizza & Tavern", "image_url": "https://s3-media2.fl.yelpcdn.com/bphoto/rLHwypluLo8njMNK_Q_Kow/o.jpg", "is_closed": false, "url": "https://www.yelp.com/biz/western-hotel-pizza-and-tavern-harrisville?adjust_creative=HdhkN5EEH6lAqE3kwhsHEQ&utm_campaign=yelp_api_v3&utm_medium=api_v3_business_search&utm_source=HdhkN5EEH6lAqE3kwhsHEQ", "review_count": 22, "categories": [{"alias": "pizza", "title": "Pizza"}, {"alias": "bars", "title": "Bars"}, {"alias": "tradamerican", "title": "American (Traditional)"}], "rating": 3.5, "coordinates": {"latitude": 41.9777336120605, "longitude": -71.6151733398438}, "transactions": [], "price": "$$", "location": {"address1": "610 Douglas Tpke", "address2": "", "address3": "", "city": "Harrisville", "zip_code": "02830", "country": "US", "state": "RI", "display_address": ["610 Douglas Tpke", "Harrisville, RI 02830"]}, "phone": "+14015686253", "display_phone": "(401) 568-6253", "distance": 7472.035629135777}, {"id": "xg89wUKGQ4c2iaLNkdx6Mg", "alias": "lowells-restaurant-mendon", "name": "Lowell's Restaurant", "image_url": "https://s3-media1.fl.yelpcdn.com/bphoto/huRnyvbHdSxBjewpDCT-Ww/o.jpg", "is_closed": false, "url": "https://www.yelp.com/biz/lowells-restaurant-mendon?adjust_creative=HdhkN5EEH6lAqE3kwhsHEQ&utm_campaign=yelp_api_v3&utm_medium=api_v3_business_search&utm_source=HdhkN5EEH6lAqE3kwhsHEQ", "review_count": 55, "categories": [{"alias": "tradamerican", "title": "American (Traditional)"}, {"alias": "steak", "title": "Steakhouses"}], "rating": 3.0, "coordinates": {"latitude": 42.089183807373, "longitude": -71.4996032714844}, "transactions": ["delivery"], "price": "$$", "location": {"address1": "75 Cape Rd", "address2": "", "address3": "", "city": "Mendon", "zip_code": "01756", "country": "US", "state": "MA", "display_address": ["75 Cape Rd", "Mendon, MA 01756"]}, "phone": "+15084731073", "display_phone": "(508) 473-1073", "distance": 8555.699120179263}, {"id": "toeLljzoJKxkkMabOD3Dlw", "alias": "tko-pizza-blackstone", "name": "TKO Pizza", "image_url": "https://s3-media3.fl.yelpcdn.com/bphoto/HlbaNDC5TNoprHDM1-soCQ/o.jpg", "is_closed": false, "url": "https://www.yelp.com/biz/tko-pizza-blackstone?adjust_creative=HdhkN5EEH6lAqE3kwhsHEQ&utm_campaign=yelp_api_v3&utm_medium=api_v3_business_search&utm_source=HdhkN5EEH6lAqE3kwhsHEQ", "review_count": 29, "categories": [{"alias": "pizza", "title": "Pizza"}], "rating": 2.5, "coordinates": {"latitude": 42.01897, "longitude": -71.53404}, "transactions": ["delivery"], "price": "$", "location": {"address1": "63 Main St", "address2": "", "address3": "", "city": "Blackstone", "zip_code": "01504", "country": "US", "state": "MA", "display_address": ["63 Main St", "Blackstone, MA 01504"]}, "phone": "+15088837607", "display_phone": "(508) 883-7607", "distance": 4242.673401583906}, {"id": "LoIq8iKvZkWDueFu864Iow", "alias": "kyoto-sushi-bar-and-grill-northbridge", "name": "Kyoto Sushi Bar & Grill", "image_url": "https://s3-media3.fl.yelpcdn.com/bphoto/GUbWSX3gpmmBVZpOxcq7ug/o.jpg", "is_closed": false, "url": "https://www.yelp.com/biz/kyoto-sushi-bar-and-grill-northbridge?adjust_creative=HdhkN5EEH6lAqE3kwhsHEQ&utm_campaign=yelp_api_v3&utm_medium=api_v3_business_search&utm_source=HdhkN5EEH6lAqE3kwhsHEQ", "review_count": 48, "categories": [{"alias": "japanese", "title": "Japanese"}, {"alias": "sushi", "title": "Sushi Bars"}], "rating": 3.5, "coordinates": {"latitude": 42.113716066928, "longitude": -71.6578243467222}, "transactions": ["delivery"], "price": "$$", "location": {"address1": "185 Church St", "address2": "", "address3": "", "city": "Northbridge", "zip_code": "01588", "country": "US", "state": "MA", "display_address": ["185 Church St", "Northbridge, MA 01588"]}, "phone": "+15083729516", "display_phone": "(508) 372-9516", "distance": 10636.506772204752}, {"id": "JQfFIbfoPJA_hm5dUG9LHg", "alias": "als-place-woonsocket", "name": "Al's Place", "image_url": "https://s3-media1.fl.yelpcdn.com/bphoto/Q6WYqnmqPaRSX5MDE7e_-A/o.jpg", "is_closed": false, "url": "https://www.yelp.com/biz/als-place-woonsocket?adjust_creative=HdhkN5EEH6lAqE3kwhsHEQ&utm_campaign=yelp_api_v3&utm_medium=api_v3_business_search&utm_source=HdhkN5EEH6lAqE3kwhsHEQ", "review_count": 8, "categories": [{"alias": "breakfast_brunch", "title": "Breakfast & Brunch"}, {"alias": "burgers", "title": "Burgers"}], "rating": 4.5, "coordinates": {"latitude": 41.9947242736816, "longitude": -71.5216217041016}, "transactions": ["delivery"], "location": {"address1": "134 Providence St", "address2": "", "address3": "", "city": "Woonsocket", "zip_code": "02895", "country": "US", "state": "RI", "display_address": ["134 Providence St", "Woonsocket, RI 02895"]}, "phone": "+14017626330", "display_phone": "(401) 762-6330", "distance": 6742.734759851495}, {"id": "xSuPdhkcXrSOGW0baJH6WQ", "alias": "quik-stop-deli-north-smithfield", "name": "Quik Stop Deli", "image_url": "https://s3-media3.fl.yelpcdn.com/bphoto/sXXpgxFE1R4mf0Ef2-Q_BQ/o.jpg", "is_closed": false, "url": "https://www.yelp.com/biz/quik-stop-deli-north-smithfield?adjust_creative=HdhkN5EEH6lAqE3kwhsHEQ&utm_campaign=yelp_api_v3&utm_medium=api_v3_business_search&utm_source=HdhkN5EEH6lAqE3kwhsHEQ", "review_count": 16, "categories": [{"alias": "delis", "title": "Delis"}], "rating": 4.5, "coordinates": {"latitude": 42.0006, "longitude": -71.57955}, "transactions": [], "price": "$", "location": {"address1": "11 Main St", "address2": "", "address3": "", "city": "North Smithfield", "zip_code": "02896", "country": "US", "state": "RI", "display_address": ["11 Main St", "North Smithfield, RI 02896"]}, "phone": "+14017653227", "display_phone": "(401) 765-3227", "distance": 4334.085178277466}, {"id": "eQGzk1MWptUdEzt7LrI2Hw", "alias": "grumpys-restaurant-bellingham", "name": "Grumpy's Restaurant", "image_url": "https://s3-media2.fl.yelpcdn.com/bphoto/X2Zec0dkD2cZqOhcL43ZHw/o.jpg", "is_closed": false, "url": "https://www.yelp.com/biz/grumpys-restaurant-bellingham?adjust_creative=HdhkN5EEH6lAqE3kwhsHEQ&utm_campaign=yelp_api_v3&utm_medium=api_v3_business_search&utm_source=HdhkN5EEH6lAqE3kwhsHEQ", "review_count": 65, "categories": [{"alias": "tradamerican", "title": "American (Traditional)"}], "rating": 2.5, "coordinates": {"latitude": 42.02111, "longitude": -71.49429}, "transactions": ["pickup", "delivery"], "price": "$$", "location": {"address1": "190 Pulaski Blvd", "address2": "", "address3": "", "city": "Bellingham", "zip_code": "02019", "country": "US", "state": "MA", "display_address": ["190 Pulaski Blvd", "Bellingham, MA 02019"]}, "phone": "+15088830101", "display_phone": "(508) 883-0101", "distance": 7149.687483614068}, {"id": "pjI3Xige-FX1ueGHxt4PjQ", "alias": "georges-breakfast-and-lunch-woonsocket", "name": "George's Breakfast & Lunch", "image_url": "https://s3-media3.fl.yelpcdn.com/bphoto/LMBXZZC6uBlTJ9gDDZJaTg/o.jpg", "is_closed": false, "url": "https://www.yelp.com/biz/georges-breakfast-and-lunch-woonsocket?adjust_creative=HdhkN5EEH6lAqE3kwhsHEQ&utm_campaign=yelp_api_v3&utm_medium=api_v3_business_search&utm_source=HdhkN5EEH6lAqE3kwhsHEQ", "review_count": 14, "categories": [{"alias": "restaurants", "title": "Restaurants"}], "rating": 4.0, "coordinates": {"latitude": 42.0136489868164, "longitude": -71.5266494750977}, "transactions": [], "price": "$", "location": {"address1": "793 Harris Ave", "address2": "", "address3": "", "city": "Woonsocket", "zip_code": "02895", "country": "US", "state": "RI", "display_address": ["793 Harris Ave", "Woonsocket, RI 02895"]}, "phone": "+14017691036", "display_phone": "(401) 769-1036", "distance": 5058.559281135516}, {"id": "3b4J007NMpzmSPplBSYDcQ", "alias": "buddys-lower-level-bar-and-grill-north-smithfield", "name": "Buddy's Lower Level Bar & Grill", "image_url": "https://s3-media4.fl.yelpcdn.com/bphoto/xpEdDgI50imkZogq_0T18g/o.jpg", "is_closed": false, "url": "https://www.yelp.com/biz/buddys-lower-level-bar-and-grill-north-smithfield?adjust_creative=HdhkN5EEH6lAqE3kwhsHEQ&utm_campaign=yelp_api_v3&utm_medium=api_v3_business_search&utm_source=HdhkN5EEH6lAqE3kwhsHEQ", "review_count": 7, "categories": [{"alias": "bars", "title": "Bars"}, {"alias": "tradamerican", "title": "American (Traditional)"}], "rating": 4.0, "coordinates": {"latitude": 41.97903, "longitude": -71.51363}, "transactions": [], "price": "$", "location": {"address1": "175 Eddie Dowling Hwy", "address2": null, "address3": null, "city": "North Smithfield", "zip_code": "02896", "country": "US", "state": "RI", "display_address": ["175 Eddie Dowling Hwy", "North Smithfield, RI 02896"]}, "phone": "+14017697900", "display_phone": "(401) 769-7900", "distance": 8492.890859072126}, {"id": "rLDuZiZNFEup3z-0DkNF4A", "alias": "bitchin-bbq-uxbridge", "name": "BitChin BBQ", "image_url": "https://s3-media2.fl.yelpcdn.com/bphoto/gPb5cL7Wg1FkM3VfS3pGXw/o.jpg", "is_closed": false, "url": "https://www.yelp.com/biz/bitchin-bbq-uxbridge?adjust_creative=HdhkN5EEH6lAqE3kwhsHEQ&utm_campaign=yelp_api_v3&utm_medium=api_v3_business_search&utm_source=HdhkN5EEH6lAqE3kwhsHEQ", "review_count": 8, "categories": [{"alias": "foodtrucks", "title": "Food Trucks"}, {"alias": "hotdog", "title": "Hot Dogs"}, {"alias": "bbq", "title": "Barbeque"}], "rating": 2.5, "coordinates": {"latitude": 42.0830841064453, "longitude": -71.6391448974609}, "transactions": [], "location": {"address1": "176 N Main St", "address2": "", "address3": "", "city": "Uxbridge", "zip_code": "01569", "country": "US", "state": "MA", "display_address": ["176 N Main St", "Uxbridge, MA 01569"]}, "phone": "+14013095858", "display_phone": "(401) 309-5858", "distance": 7071.486000401644}, {"id": "MkRcPhlNKCx4mLcmKphpQw", "alias": "hopedale-country-club-hopedale-3", "name": "Hopedale Country Club", "image_url": "https://s3-media4.fl.yelpcdn.com/bphoto/4OzIWiFWewdu1ekp74Rh9w/o.jpg", "is_closed": false, "url": "https://www.yelp.com/biz/hopedale-country-club-hopedale-3?adjust_creative=HdhkN5EEH6lAqE3kwhsHEQ&utm_campaign=yelp_api_v3&utm_medium=api_v3_business_search&utm_source=HdhkN5EEH6lAqE3kwhsHEQ", "review_count": 1, "categories": [{"alias": "venues", "title": "Venues & Event Spaces"}, {"alias": "seafood", "title": "Seafood"}, {"alias": "bars", "title": "Bars"}], "rating": 5.0, "coordinates": {"latitude": 42.11343833, "longitude": -71.5267395}, "transactions": [], "location": {"address1": "90 Mill St", "address2": "", "address3": null, "city": "Hopedale", "zip_code": "01747", "country": "US", "state": "MA", "display_address": ["90 Mill St", "Hopedale, MA 01747"]}, "phone": "+15084739876", "display_phone": "(508) 473-9876", "distance": 9052.61140859178}, {"id": "s5FlMeEpVyq8IneuzsZbeg", "alias": "harrys-famous-pizza-uxbridge", "name": "Harry's Famous Pizza", "image_url": "https://s3-media2.fl.yelpcdn.com/bphoto/-NutXo0FG1bXuL-Db6zHXQ/o.jpg", "is_closed": false, "url": "https://www.yelp.com/biz/harrys-famous-pizza-uxbridge?adjust_creative=HdhkN5EEH6lAqE3kwhsHEQ&utm_campaign=yelp_api_v3&utm_medium=api_v3_business_search&utm_source=HdhkN5EEH6lAqE3kwhsHEQ", "review_count": 49, "categories": [{"alias": "pizza", "title": "Pizza"}], "rating": 3.0, "coordinates": {"latitude": 42.07622, "longitude": -71.62903}, "transactions": [], "price": "$", "location": {"address1": "6 S Main St", "address2": "", "address3": "", "city": "Uxbridge", "zip_code": "01569", "country": "US", "state": "MA", "display_address": ["6 S Main St", "Uxbridge, MA 01569"]}, "phone": "+15082782114", "display_phone": "(508) 278-2114", "distance": 5945.347871410613}, {"id": "k4OOc1yd7Q57GgFgs8KTeQ", "alias": "park-ave-pizza-woonsocket", "name": "Park Ave Pizza", "image_url": "https://s3-media3.fl.yelpcdn.com/bphoto/d13MUUhRtqmn5PMJp96Ibg/o.jpg", "is_closed": false, "url": "https://www.yelp.com/biz/park-ave-pizza-woonsocket?adjust_creative=HdhkN5EEH6lAqE3kwhsHEQ&utm_campaign=yelp_api_v3&utm_medium=api_v3_business_search&utm_source=HdhkN5EEH6lAqE3kwhsHEQ", "review_count": 37, "categories": [{"alias": "pizza", "title": "Pizza"}, {"alias": "italian", "title": "Italian"}], "rating": 3.5, "coordinates": {"latitude": 41.9916038513184, "longitude": -71.5148010253906}, "transactions": ["delivery"], "price": "$$", "location": {"address1": "857 Park Ave", "address2": "", "address3": "", "city": "Woonsocket", "zip_code": "02895", "country": "US", "state": "RI", "display_address": ["857 Park Ave", "Woonsocket, RI 02895"]}, "phone": "+14017653142", "display_phone": "(401) 765-3142", "distance": 7380.807175944221}, {"id": "jbuFZumKE7Ke9zZdMX-y2A", "alias": "andersons-variety-blackstone", "name": "Anderson's Variety", "image_url": "", "is_closed": false, "url": "https://www.yelp.com/biz/andersons-variety-blackstone?adjust_creative=HdhkN5EEH6lAqE3kwhsHEQ&utm_campaign=yelp_api_v3&utm_medium=api_v3_business_search&utm_source=HdhkN5EEH6lAqE3kwhsHEQ", "review_count": 1, "categories": [{"alias": "delis", "title": "Delis"}], "rating": 5.0, "coordinates": {"latitude": 42.04968, "longitude": -71.53212}, "transactions": [], "location": {"address1": "266 Blackstone St", "address2": "", "address3": "", "city": "Blackstone", "zip_code": "01504", "country": "US", "state": "MA", "display_address": ["266 Blackstone St", "Blackstone, MA 01504"]}, "phone": "+15088837819", "display_phone": "(508) 883-7819", "distance": 3951.1095472858}, {"id": "dyIMv5PGbPPsLhyohcNudQ", "alias": "pirates-cove-linwood", "name": "Pirate's Cove", "image_url": "https://s3-media2.fl.yelpcdn.com/bphoto/MJ1L__WC7H9j-AP-5cDNAw/o.jpg", "is_closed": false, "url": "https://www.yelp.com/biz/pirates-cove-linwood?adjust_creative=HdhkN5EEH6lAqE3kwhsHEQ&utm_campaign=yelp_api_v3&utm_medium=api_v3_business_search&utm_source=HdhkN5EEH6lAqE3kwhsHEQ", "review_count": 29, "categories": [{"alias": "seafood", "title": "Seafood"}, {"alias": "icecream", "title": "Ice Cream & Frozen Yogurt"}, {"alias": "hotdog", "title": "Hot Dogs"}], "rating": 3.5, "coordinates": {"latitude": 42.09934, "longitude": -71.64351}, "transactions": [], "price": "$$", "location": {"address1": "74 Providence Rd", "address2": "", "address3": "", "city": "Linwood", "zip_code": "01525", "country": "US", "state": "MA", "display_address": ["74 Providence Rd", "Linwood, MA 01525"]}, "phone": "+15082340700", "display_phone": "(508) 234-0700", "distance": 8633.610683788407}, {"id": "Hl1duVdJ3rPEg26hLhdmZg", "alias": "ye-olde-english-fish-and-chips-restaurant-woonsocket", "name": "Ye Olde English Fish & Chips Restaurant", "image_url": "https://s3-media2.fl.yelpcdn.com/bphoto/qKJqLMkTB_tY_B1_vNWZHA/o.jpg", "is_closed": false, "url": "https://www.yelp.com/biz/ye-olde-english-fish-and-chips-restaurant-woonsocket?adjust_creative=HdhkN5EEH6lAqE3kwhsHEQ&utm_campaign=yelp_api_v3&utm_medium=api_v3_business_search&utm_source=HdhkN5EEH6lAqE3kwhsHEQ", "review_count": 98, "categories": [{"alias": "fishnchips", "title": "Fish & Chips"}, {"alias": "sandwiches", "title": "Sandwiches"}, {"alias": "beer_and_wine", "title": "Beer, Wine & Spirits"}], "rating": 3.5, "coordinates": {"latitude": 41.9994303, "longitude": -71.5169909}, "transactions": ["delivery"], "price": "$$", "location": {"address1": "25 S Main St", "address2": "", "address3": "", "city": "Woonsocket", "zip_code": "02895", "country": "US", "state": "RI", "display_address": ["25 S Main St", "Woonsocket, RI 02895"]}, "phone": "+14017623637", "display_phone": "(401) 762-3637", "distance": 6585.505622302089}, {"id": "uqzp9jHeLAjMbeNE2SRoGg", "alias": "king-wok-chinese-restaurant-woonsocket", "name": "King Wok Chinese Restaurant", "image_url": "https://s3-media3.fl.yelpcdn.com/bphoto/Asd_Zmufjkzek-pocEAzKA/o.jpg", "is_closed": false, "url": "https://www.yelp.com/biz/king-wok-chinese-restaurant-woonsocket?adjust_creative=HdhkN5EEH6lAqE3kwhsHEQ&utm_campaign=yelp_api_v3&utm_medium=api_v3_business_search&utm_source=HdhkN5EEH6lAqE3kwhsHEQ", "review_count": 34, "categories": [{"alias": "chinese", "title": "Chinese"}], "rating": 3.5, "coordinates": {"latitude": 42.0067499, "longitude": -71.5056199}, "transactions": ["delivery"], "price": "$", "location": {"address1": "477 Clinton St", "address2": "", "address3": "", "city": "Woonsocket", "zip_code": "02895", "country": "US", "state": "RI", "display_address": ["477 Clinton St", "Woonsocket, RI 02895"]}, "phone": "+14017620025", "display_phone": "(401) 762-0025", "distance": 6944.105722955687}, {"id": "z5NHbHXn0krY9XPGkdnHmQ", "alias": "js-deli-woonsocket", "name": "J's Deli", "image_url": "https://s3-media3.fl.yelpcdn.com/bphoto/mAcrBe2MECfMQEz4ZNK4zQ/o.jpg", "is_closed": false, "url": "https://www.yelp.com/biz/js-deli-woonsocket?adjust_creative=HdhkN5EEH6lAqE3kwhsHEQ&utm_campaign=yelp_api_v3&utm_medium=api_v3_business_search&utm_source=HdhkN5EEH6lAqE3kwhsHEQ", "review_count": 79, "categories": [{"alias": "sandwiches", "title": "Sandwiches"}], "rating": 3.5, "coordinates": {"latitude": 41.9960975646973, "longitude": -71.4883422851562}, "transactions": ["pickup", "delivery"], "price": "$", "location": {"address1": "760 Cumberland Hill Rd", "address2": "", "address3": "", "city": "Woonsocket", "zip_code": "02895", "country": "US", "state": "RI", "display_address": ["760 Cumberland Hill Rd", "Woonsocket, RI 02895"]}, "phone": "+14013561430", "display_phone": "(401) 356-1430", "distance": 8775.441909164258}, {"id": "ASPhReiu3rooTrDue-baTQ", "alias": "empire-buffet-woonsocket", "name": "Empire Buffet", "image_url": "https://s3-media1.fl.yelpcdn.com/bphoto/DGXzBQ5UHoUcyl51Q7WUgw/o.jpg", "is_closed": false, "url": "https://www.yelp.com/biz/empire-buffet-woonsocket?adjust_creative=HdhkN5EEH6lAqE3kwhsHEQ&utm_campaign=yelp_api_v3&utm_medium=api_v3_business_search&utm_source=HdhkN5EEH6lAqE3kwhsHEQ", "review_count": 59, "categories": [{"alias": "chinese", "title": "Chinese"}], "rating": 3.5, "coordinates": {"latitude": 42.0158424377441, "longitude": -71.4902572631836}, "transactions": ["delivery"], "price": "$", "location": {"address1": "876 Diamond Hill Rd", "address2": "", "address3": "", "city": "Woonsocket", "zip_code": "02895", "country": "US", "state": "RI", "display_address": ["876 Diamond Hill Rd", "Woonsocket, RI 02895"]}, "phone": "+14017669888", "display_phone": "(401) 766-9888", "distance": 7653.991478575238}, {"id": "va0TjOKngGsjaqtvlsEzlw", "alias": "nikos-pizza-chicken-and-ribs-north-uxbridge", "name": "Niko's Pizza Chicken & Ribs", "image_url": "https://s3-media3.fl.yelpcdn.com/bphoto/SN1LQY0bE9zDKdOU0o2D8g/o.jpg", "is_closed": false, "url": "https://www.yelp.com/biz/nikos-pizza-chicken-and-ribs-north-uxbridge?adjust_creative=HdhkN5EEH6lAqE3kwhsHEQ&utm_campaign=yelp_api_v3&utm_medium=api_v3_business_search&utm_source=HdhkN5EEH6lAqE3kwhsHEQ", "review_count": 26, "categories": [{"alias": "pizza", "title": "Pizza"}], "rating": 3.5, "coordinates": {"latitude": 42.08901, "longitude": -71.64248}, "transactions": [], "price": "$", "location": {"address1": "294 N Main St", "address2": "", "address3": "", "city": "North Uxbridge", "zip_code": "01538", "country": "US", "state": "MA", "display_address": ["294 N Main St", "North Uxbridge, MA 01538"]}, "phone": "+15082785055", "display_phone": "(508) 278-5055", "distance": 7737.022366417975}, {"id": "BtSCWqOh_z_bzQAMlF5cCQ", "alias": "woonsocket-palace-pizza-woonsocket", "name": "Woonsocket Palace Pizza", "image_url": "https://s3-media3.fl.yelpcdn.com/bphoto/KRA-HAp6R_JLNJXw1I7G6w/o.jpg", "is_closed": false, "url": "https://www.yelp.com/biz/woonsocket-palace-pizza-woonsocket?adjust_creative=HdhkN5EEH6lAqE3kwhsHEQ&utm_campaign=yelp_api_v3&utm_medium=api_v3_business_search&utm_source=HdhkN5EEH6lAqE3kwhsHEQ", "review_count": 12, "categories": [{"alias": "pizza", "title": "Pizza"}], "rating": 3.5, "coordinates": {"latitude": 42.0015791, "longitude": -71.5111735}, "transactions": ["pickup", "delivery"], "price": "$", "location": {"address1": "85 Front St", "address2": "Unit B", "address3": "", "city": "Woonsocket", "zip_code": "02895", "country": "US", "state": "RI", "display_address": ["85 Front St", "Unit B", "Woonsocket, RI 02895"]}, "phone": "+14017669777", "display_phone": "(401) 766-9777", "distance": 6877.9335998535125}, {"id": "viPH-ro4y-nZQGTuHCSD0g", "alias": "harrys-famous-pizza-whitinsville", "name": "Harry's Famous Pizza", "image_url": "https://s3-media3.fl.yelpcdn.com/bphoto/OkqPCaMOofW2tszWiBcjuA/o.jpg", "is_closed": false, "url": "https://www.yelp.com/biz/harrys-famous-pizza-whitinsville?adjust_creative=HdhkN5EEH6lAqE3kwhsHEQ&utm_campaign=yelp_api_v3&utm_medium=api_v3_business_search&utm_source=HdhkN5EEH6lAqE3kwhsHEQ", "review_count": 41, "categories": [{"alias": "pizza", "title": "Pizza"}, {"alias": "italian", "title": "Italian"}], "rating": 3.5, "coordinates": {"latitude": 42.113355, "longitude": -71.658354}, "transactions": ["delivery"], "price": "$", "location": {"address1": "185 Church St", "address2": "", "address3": "", "city": "Whitinsville", "zip_code": "01588", "country": "US", "state": "MA", "display_address": ["185 Church St", "Whitinsville, MA 01588"]}, "phone": "+15082345155", "display_phone": "(508) 234-5155", "distance": 10632.449154149092}, {"id": "05fMFCqEAbzQzNTR4FV-mA", "alias": "dannys-breakfast-place-woonsocket", "name": "Danny's Breakfast Place", "image_url": "https://s3-media2.fl.yelpcdn.com/bphoto/GkVxFFZi9kVU_kTm3cnRKw/o.jpg", "is_closed": false, "url": "https://www.yelp.com/biz/dannys-breakfast-place-woonsocket?adjust_creative=HdhkN5EEH6lAqE3kwhsHEQ&utm_campaign=yelp_api_v3&utm_medium=api_v3_business_search&utm_source=HdhkN5EEH6lAqE3kwhsHEQ", "review_count": 14, "categories": [{"alias": "newamerican", "title": "American (New)"}], "rating": 3.5, "coordinates": {"latitude": 42.003879, "longitude": -71.48027}, "transactions": [], "price": "$", "location": {"address1": "1039 Cass Ave", "address2": "", "address3": "", "city": "Woonsocket", "zip_code": "02895", "country": "US", "state": "RI", "display_address": ["1039 Cass Ave", "Woonsocket, RI 02895"]}, "phone": "+14013560523", "display_phone": "(401) 356-0523", "distance": 8928.589817762482}, {"id": "zDezRElRZik5ffd2_SEmEg", "alias": "buffalo-wild-wings-north-smithfield", "name": "Buffalo Wild Wings", "image_url": "https://s3-media3.fl.yelpcdn.com/bphoto/cvaG_l5qRiMUm-ge986ePw/o.jpg", "is_closed": false, "url": "https://www.yelp.com/biz/buffalo-wild-wings-north-smithfield?adjust_creative=HdhkN5EEH6lAqE3kwhsHEQ&utm_campaign=yelp_api_v3&utm_medium=api_v3_business_search&utm_source=HdhkN5EEH6lAqE3kwhsHEQ", "review_count": 98, "categories": [{"alias": "tradamerican", "title": "American (Traditional)"}, {"alias": "sportsbars", "title": "Sports Bars"}, {"alias": "chicken_wings", "title": "Chicken Wings"}], "rating": 2.5, "coordinates": {"latitude": 41.981884, "longitude": -71.510662}, "transactions": ["delivery"], "price": "$$", "location": {"address1": "51 Dowling Village Blvd", "address2": "", "address3": "", "city": "North Smithfield", "zip_code": "02896", "country": "US", "state": "RI", "display_address": ["51 Dowling Village Blvd", "North Smithfield, RI 02896"]}, "phone": "+14017652806", "display_phone": "(401) 765-2806", "distance": 8409.433830342432}, {"id": "q87il-TiOL3yBtWTZfvnCA", "alias": "dels-frozen-lemonade-bellingham", "name": "Del's Frozen Lemonade", "image_url": "", "is_closed": false, "url": "https://www.yelp.com/biz/dels-frozen-lemonade-bellingham?adjust_creative=HdhkN5EEH6lAqE3kwhsHEQ&utm_campaign=yelp_api_v3&utm_medium=api_v3_business_search&utm_source=HdhkN5EEH6lAqE3kwhsHEQ", "review_count": 1, "categories": [{"alias": "delis", "title": "Delis"}], "rating": 5.0, "coordinates": {"latitude": 42.02108, "longitude": -71.4935}, "transactions": [], "location": {"address1": "201 Pulaski Blvd", "address2": "", "address3": "", "city": "Bellingham", "zip_code": "02019", "country": "US", "state": "MA", "display_address": ["201 Pulaski Blvd", "Bellingham, MA 02019"]}, "phone": "+15088838844", "display_phone": "(508) 883-8844", "distance": 7224.619880911347}, {"id": "FP23m_z_uxIlg_Pv3BSpaw", "alias": "the-bellingham-palace-bellingham", "name": "The Bellingham Palace", "image_url": "https://s3-media3.fl.yelpcdn.com/bphoto/ssUHth_xz8kJpDhNFaMUSg/o.jpg", "is_closed": false, "url": "https://www.yelp.com/biz/the-bellingham-palace-bellingham?adjust_creative=HdhkN5EEH6lAqE3kwhsHEQ&utm_campaign=yelp_api_v3&utm_medium=api_v3_business_search&utm_source=HdhkN5EEH6lAqE3kwhsHEQ", "review_count": 95, "categories": [{"alias": "burgers", "title": "Burgers"}, {"alias": "pizza", "title": "Pizza"}, {"alias": "sandwiches", "title": "Sandwiches"}], "rating": 3.5, "coordinates": {"latitude": 42.01891, "longitude": -71.49647}, "transactions": ["delivery"], "price": "$", "location": {"address1": "90 Pulaski Blvd", "address2": null, "address3": "", "city": "Bellingham", "zip_code": "02019", "country": "US", "state": "MA", "display_address": ["90 Pulaski Blvd", "Bellingham, MA 02019"]}, "phone": "+15088831074", "display_phone": "(508) 883-1074", "distance": 7055.955393749971}, {"id": "hcxdGNsNSaQwxwy_dYT8ZQ", "alias": "breakfast-nook-bellingham", "name": "Breakfast Nook", "image_url": "https://s3-media2.fl.yelpcdn.com/bphoto/Vf_WWvcfXwKZ4BJiZV4yHA/o.jpg", "is_closed": false, "url": "https://www.yelp.com/biz/breakfast-nook-bellingham?adjust_creative=HdhkN5EEH6lAqE3kwhsHEQ&utm_campaign=yelp_api_v3&utm_medium=api_v3_business_search&utm_source=HdhkN5EEH6lAqE3kwhsHEQ", "review_count": 48, "categories": [{"alias": "breakfast_brunch", "title": "Breakfast & Brunch"}], "rating": 3.5, "coordinates": {"latitude": 42.04927, "longitude": -71.48607}, "transactions": [], "price": "$", "location": {"address1": "770 S Main St", "address2": "", "address3": "", "city": "Bellingham", "zip_code": "02019", "country": "US", "state": "MA", "display_address": ["770 S Main St", "Bellingham, MA 02019"]}, "phone": "+15088832442", "display_phone": "(508) 883-2442", "distance": 7645.7468842039725}, {"id": "4Hg9SzHXTRHUwnS4FMKZEQ", "alias": "new-hunan-kitchen-bellingham", "name": "New Hunan Kitchen", "image_url": "https://s3-media1.fl.yelpcdn.com/bphoto/ChFtM3SKjw65hlU97Ud36Q/o.jpg", "is_closed": false, "url": "https://www.yelp.com/biz/new-hunan-kitchen-bellingham?adjust_creative=HdhkN5EEH6lAqE3kwhsHEQ&utm_campaign=yelp_api_v3&utm_medium=api_v3_business_search&utm_source=HdhkN5EEH6lAqE3kwhsHEQ", "review_count": 8, "categories": [{"alias": "chinese", "title": "Chinese"}], "rating": 3.0, "coordinates": {"latitude": 42.05164, "longitude": -71.482}, "transactions": [], "location": {"address1": "799 S Main St", "address2": null, "address3": "", "city": "Bellingham", "zip_code": "02019", "country": "US", "state": "MA", "display_address": ["799 S Main St", "Bellingham, MA 02019"]}, "phone": "+15088832088", "display_phone": "(508) 883-2088", "distance": 8030.567825494013}, {"id": "t-OeMtuK5MZrg0rimrj2qQ", "alias": "depot-cafe-uxbridge", "name": "Depot Cafe", "image_url": "https://s3-media3.fl.yelpcdn.com/bphoto/QNZxvPByFQHMv78OJ2RsVA/o.jpg", "is_closed": false, "url": "https://www.yelp.com/biz/depot-cafe-uxbridge?adjust_creative=HdhkN5EEH6lAqE3kwhsHEQ&utm_campaign=yelp_api_v3&utm_medium=api_v3_business_search&utm_source=HdhkN5EEH6lAqE3kwhsHEQ", "review_count": 35, "categories": [{"alias": "breakfast_brunch", "title": "Breakfast & Brunch"}, {"alias": "sandwiches", "title": "Sandwiches"}], "rating": 4.0, "coordinates": {"latitude": 42.075899, "longitude": -71.629256}, "transactions": [], "price": "$", "location": {"address1": "11 S Main St", "address2": null, "address3": "", "city": "Uxbridge", "zip_code": "01569", "country": "US", "state": "MA", "display_address": ["11 S Main St", "Uxbridge, MA 01569"]}, "phone": "+15082788088", "display_phone": "(508) 278-8088", "distance": 5928.6015954749655}, {"id": "pv-XUNhkMT4bH16CbdYxqA", "alias": "aroma-ct-cafe-woonsocket", "name": "Aroma CT Cafe", "image_url": "https://s3-media2.fl.yelpcdn.com/bphoto/gS3ZtBrJgJousqoEJscFYA/o.jpg", "is_closed": false, "url": "https://www.yelp.com/biz/aroma-ct-cafe-woonsocket?adjust_creative=HdhkN5EEH6lAqE3kwhsHEQ&utm_campaign=yelp_api_v3&utm_medium=api_v3_business_search&utm_source=HdhkN5EEH6lAqE3kwhsHEQ", "review_count": 17, "categories": [{"alias": "donuts", "title": "Donuts"}, {"alias": "coffee", "title": "Coffee & Tea"}, {"alias": "breakfast_brunch", "title": "Breakfast & Brunch"}], "rating": 4.0, "coordinates": {"latitude": 42.0020019558317, "longitude": -71.5110990777612}, "transactions": ["pickup", "delivery"], "price": "$", "location": {"address1": "17 Front St", "address2": "", "address3": null, "city": "Woonsocket", "zip_code": "02895", "country": "US", "state": "RI", "display_address": ["17 Front St", "Woonsocket, RI 02895"]}, "phone": "+14017621606", "display_phone": "(401) 762-1606", "distance": 6854.6363521775265}, {"id": "h-xZBfvba5pgzDoqS1QJog", "alias": "mvp-pizzeria-woonsocket-2", "name": "MVP Pizzeria", "image_url": "https://s3-media2.fl.yelpcdn.com/bphoto/weOaCr_eMAtOrATWq897Nw/o.jpg", "is_closed": false, "url": "https://www.yelp.com/biz/mvp-pizzeria-woonsocket-2?adjust_creative=HdhkN5EEH6lAqE3kwhsHEQ&utm_campaign=yelp_api_v3&utm_medium=api_v3_business_search&utm_source=HdhkN5EEH6lAqE3kwhsHEQ", "review_count": 34, "categories": [{"alias": "pizza", "title": "Pizza"}, {"alias": "italian", "title": "Italian"}, {"alias": "sandwiches", "title": "Sandwiches"}], "rating": 4.0, "coordinates": {"latitude": 41.994962, "longitude": -71.486457}, "transactions": ["pickup", "delivery"], "price": "$", "location": {"address1": "840 Cumberland Hill Rd", "address2": "", "address3": "", "city": "Woonsocket", "zip_code": "02895", "country": "US", "state": "RI", "display_address": ["840 Cumberland Hill Rd", "Woonsocket, RI 02895"]}, "phone": "+14017673737", "display_phone": "(401) 767-3737", "distance": 8974.39872301}, {"id": "Z03HJ4kQItWYSbppp1Er8w", "alias": "champs-diner-woonsocket", "name": "Champ's Diner", "image_url": "https://s3-media3.fl.yelpcdn.com/bphoto/Km2T4A6LYyMpwMvjIavIhQ/o.jpg", "is_closed": false, "url": "https://www.yelp.com/biz/champs-diner-woonsocket?adjust_creative=HdhkN5EEH6lAqE3kwhsHEQ&utm_campaign=yelp_api_v3&utm_medium=api_v3_business_search&utm_source=HdhkN5EEH6lAqE3kwhsHEQ", "review_count": 52, "categories": [{"alias": "breakfast_brunch", "title": "Breakfast & Brunch"}], "rating": 4.0, "coordinates": {"latitude": 41.9970703125, "longitude": -71.5176086425781}, "transactions": ["delivery"], "price": "$", "location": {"address1": "719 Front St", "address2": "Ste 111", "address3": "", "city": "Woonsocket", "zip_code": "02895", "country": "US", "state": "RI", "display_address": ["719 Front St", "Ste 111", "Woonsocket, RI 02895"]}, "phone": "+14017666080", "display_phone": "(401) 766-6080", "distance": 6801.286752323588}, {"id": "lCgGE_reDU9D_SzF85sDnA", "alias": "nikos-pizza-house-harrisville", "name": "Nikos Pizza House", "image_url": "https://s3-media3.fl.yelpcdn.com/bphoto/EiF_aJHeEl80gpbil7AxMA/o.jpg", "is_closed": false, "url": "https://www.yelp.com/biz/nikos-pizza-house-harrisville?adjust_creative=HdhkN5EEH6lAqE3kwhsHEQ&utm_campaign=yelp_api_v3&utm_medium=api_v3_business_search&utm_source=HdhkN5EEH6lAqE3kwhsHEQ", "review_count": 29, "categories": [{"alias": "pizza", "title": "Pizza"}], "rating": 4.5, "coordinates": {"latitude": 41.96363, "longitude": -71.67505}, "transactions": [], "price": "$", "location": {"address1": "216 Harrisville Main St", "address2": "", "address3": "", "city": "Harrisville", "zip_code": "02830", "country": "US", "state": "RI", "display_address": ["216 Harrisville Main St", "Harrisville, RI 02830"]}, "phone": "+14015688666", "display_phone": "(401) 568-8666", "distance": 11599.66766713783}, {"id": "YdZPnBD1riY8rvhm1e1R0g", "alias": "modern-bistro-cumberland", "name": "Modern Bistro", "image_url": "https://s3-media2.fl.yelpcdn.com/bphoto/poFWBAIuFaWKqpklWekq2w/o.jpg", "is_closed": false, "url": "https://www.yelp.com/biz/modern-bistro-cumberland?adjust_creative=HdhkN5EEH6lAqE3kwhsHEQ&utm_campaign=yelp_api_v3&utm_medium=api_v3_business_search&utm_source=HdhkN5EEH6lAqE3kwhsHEQ", "review_count": 91, "categories": [{"alias": "breakfast_brunch", "title": "Breakfast & Brunch"}], "rating": 4.0, "coordinates": {"latitude": 41.9852333068848, "longitude": -71.4777755737305}, "transactions": ["delivery"], "price": "$", "location": {"address1": "4077 Mendon Rd", "address2": "", "address3": "", "city": "Cumberland", "zip_code": "02864", "country": "US", "state": "RI", "display_address": ["4077 Mendon Rd", "Cumberland, RI 02864"]}, "phone": "+14016580449", "display_phone": "(401) 658-0449", "distance": 10180.835350675372}, {"id": "UGc9EH9ygwpRnRjAbmtbmA", "alias": "sunrise-pizza-and-grille-woonsocket", "name": "Sunrise Pizza & Grille", "image_url": "https://s3-media4.fl.yelpcdn.com/bphoto/FZT--DYD1JeL44wKFUMdoA/o.jpg", "is_closed": false, "url": "https://www.yelp.com/biz/sunrise-pizza-and-grille-woonsocket?adjust_creative=HdhkN5EEH6lAqE3kwhsHEQ&utm_campaign=yelp_api_v3&utm_medium=api_v3_business_search&utm_source=HdhkN5EEH6lAqE3kwhsHEQ", "review_count": 74, "categories": [{"alias": "pizza", "title": "Pizza"}], "rating": 3.0, "coordinates": {"latitude": 42.00755, "longitude": -71.51024}, "transactions": ["pickup", "delivery"], "price": "$$", "location": {"address1": "180 Social St", "address2": "", "address3": "", "city": "Woonsocket", "zip_code": "02895", "country": "US", "state": "RI", "display_address": ["180 Social St", "Woonsocket, RI 02895"]}, "phone": "+14013561111", "display_phone": "(401) 356-1111", "distance": 6567.964185395077}, {"id": "0DgbZ9mul31T-fNhdMfmKw", "alias": "chelos-hometown-bar-and-grille-woonsocket-2", "name": "Chelo's Hometown Bar & Grille", "image_url": "https://s3-media2.fl.yelpcdn.com/bphoto/5B0xP_zE_P80rH9Zbkw72Q/o.jpg", "is_closed": false, "url": "https://www.yelp.com/biz/chelos-hometown-bar-and-grille-woonsocket-2?adjust_creative=HdhkN5EEH6lAqE3kwhsHEQ&utm_campaign=yelp_api_v3&utm_medium=api_v3_business_search&utm_source=HdhkN5EEH6lAqE3kwhsHEQ", "review_count": 51, "categories": [{"alias": "burgers", "title": "Burgers"}, {"alias": "tradamerican", "title": "American (Traditional)"}], "rating": 3.0, "coordinates": {"latitude": 42.007686, "longitude": -71.506278}, "transactions": ["delivery"], "price": "$$", "location": {"address1": "490 Clinton St", "address2": "", "address3": "", "city": "Woonsocket", "zip_code": "02895", "country": "US", "state": "RI", "display_address": ["490 Clinton St", "Woonsocket, RI 02895"]}, "phone": "+14017696622", "display_phone": "(401) 769-6622", "distance": 6836.913012402434}, {"id": "vc3UQd1asGWc8BeJc6o4yQ", "alias": "ricks-bar-and-grill-woonsocket", "name": "Rick's Bar and Grill", "image_url": "https://s3-media3.fl.yelpcdn.com/bphoto/Zbh2G4AkH4HhH0DnghhPMw/o.jpg", "is_closed": false, "url": "https://www.yelp.com/biz/ricks-bar-and-grill-woonsocket?adjust_creative=HdhkN5EEH6lAqE3kwhsHEQ&utm_campaign=yelp_api_v3&utm_medium=api_v3_business_search&utm_source=HdhkN5EEH6lAqE3kwhsHEQ", "review_count": 6, "categories": [{"alias": "bars", "title": "Bars"}, {"alias": "pizza", "title": "Pizza"}, {"alias": "tradamerican", "title": "American (Traditional)"}], "rating": 4.0, "coordinates": {"latitude": 42.0054615, "longitude": -71.4936115}, "transactions": ["pickup", "delivery"], "location": {"address1": "297 Cass Ave", "address2": null, "address3": null, "city": "Woonsocket", "zip_code": "02895", "country": "US", "state": "RI", "display_address": ["297 Cass Ave", "Woonsocket, RI 02895"]}, "phone": "+14017683444", "display_phone": "(401) 768-3444", "distance": 7885.12609273497}, {"id": "oWOnXsUrsAeYZH1v9oJbBA", "alias": "muffin-house-cafe-mendon", "name": "Muffin House Cafe", "image_url": "https://s3-media1.fl.yelpcdn.com/bphoto/ygrogVtLBZttKq9Bs2wteg/o.jpg", "is_closed": false, "url": "https://www.yelp.com/biz/muffin-house-cafe-mendon?adjust_creative=HdhkN5EEH6lAqE3kwhsHEQ&utm_campaign=yelp_api_v3&utm_medium=api_v3_business_search&utm_source=HdhkN5EEH6lAqE3kwhsHEQ", "review_count": 98, "categories": [{"alias": "cafes", "title": "Cafes"}, {"alias": "coffee", "title": "Coffee & Tea"}, {"alias": "bakeries", "title": "Bakeries"}], "rating": 4.0, "coordinates": {"latitude": 42.10434, "longitude": -71.55735}, "transactions": ["delivery"], "price": "$", "location": {"address1": "32 Hastings St", "address2": "Ste 201", "address3": null, "city": "Mendon", "zip_code": "01756", "country": "US", "state": "MA", "display_address": ["32 Hastings St", "Ste 201", "Mendon, MA 01756"]}, "phone": "+15083810249", "display_phone": "(508) 381-0249", "distance": 7345.845784722901}, {"id": "-5aeb8D7G7OHQ-Gvfl52MQ", "alias": "pegs-diner-whitinsville", "name": "Peg's Diner", "image_url": "https://s3-media1.fl.yelpcdn.com/bphoto/t-C8pvxFWhyNc5WB4tXDgQ/o.jpg", "is_closed": false, "url": "https://www.yelp.com/biz/pegs-diner-whitinsville?adjust_creative=HdhkN5EEH6lAqE3kwhsHEQ&utm_campaign=yelp_api_v3&utm_medium=api_v3_business_search&utm_source=HdhkN5EEH6lAqE3kwhsHEQ", "review_count": 21, "categories": [{"alias": "diners", "title": "Diners"}], "rating": 4.5, "coordinates": {"latitude": 42.1117175527295, "longitude": -71.6611186929159}, "transactions": ["delivery"], "price": "$", "location": {"address1": "87 Church St", "address2": "", "address3": "", "city": "Whitinsville", "zip_code": "01588", "country": "US", "state": "MA", "display_address": ["87 Church St", "Whitinsville, MA 01588"]}, "phone": "+15082340170", "display_phone": "(508) 234-0170", "distance": 10645.168683204593}, {"id": "7NEZVxW463XMK7kVVhBXqA", "alias": "j-and-d-pizza-woonsocket", "name": "J & D Pizza", "image_url": "https://s3-media2.fl.yelpcdn.com/bphoto/vs7qOF7lpq6uBwR4Wdt3TQ/o.jpg", "is_closed": false, "url": "https://www.yelp.com/biz/j-and-d-pizza-woonsocket?adjust_creative=HdhkN5EEH6lAqE3kwhsHEQ&utm_campaign=yelp_api_v3&utm_medium=api_v3_business_search&utm_source=HdhkN5EEH6lAqE3kwhsHEQ", "review_count": 32, "categories": [{"alias": "pizza", "title": "Pizza"}, {"alias": "italian", "title": "Italian"}], "rating": 3.5, "coordinates": {"latitude": 42.01409, "longitude": -71.48028}, "transactions": ["pickup", "delivery"], "price": "$", "location": {"address1": "282-284 Mendon Rd", "address2": "", "address3": "", "city": "Woonsocket", "zip_code": "02895", "country": "US", "state": "RI", "display_address": ["282-284 Mendon Rd", "Woonsocket, RI 02895"]}, "phone": "+14017692020", "display_phone": "(401) 769-2020", "distance": 8464.42771873783}, {"id": "zwJjOQPA2Sw_p4gsM-qGvQ", "alias": "subway-blackstone-3", "name": "Subway", "image_url": "https://s3-media4.fl.yelpcdn.com/bphoto/GnaYsE65ydgZ3bnXIR9Eaw/o.jpg", "is_closed": false, "url": "https://www.yelp.com/biz/subway-blackstone-3?adjust_creative=HdhkN5EEH6lAqE3kwhsHEQ&utm_campaign=yelp_api_v3&utm_medium=api_v3_business_search&utm_source=HdhkN5EEH6lAqE3kwhsHEQ", "review_count": 4, "categories": [{"alias": "sandwiches", "title": "Sandwiches"}], "rating": 4.5, "coordinates": {"latitude": 42.0163839934226, "longitude": -71.5273749116324}, "transactions": [], "price": "$", "location": {"address1": "4 Main St", "address2": null, "address3": null, "city": "Blackstone", "zip_code": "01504", "country": "US", "state": "MA", "display_address": ["4 Main St", "Blackstone, MA 01504"]}, "phone": "+15089282313", "display_phone": "(508) 928-2313", "distance": 4844.431577980333}, {"id": "YOB6sad0NztJdjK9mfSPSQ", "alias": "subway-north-smithfield-5", "name": "Subway", "image_url": "https://s3-media2.fl.yelpcdn.com/bphoto/_x6M3LTScaNbFBUf7idiiw/o.jpg", "is_closed": false, "url": "https://www.yelp.com/biz/subway-north-smithfield-5?adjust_creative=HdhkN5EEH6lAqE3kwhsHEQ&utm_campaign=yelp_api_v3&utm_medium=api_v3_business_search&utm_source=HdhkN5EEH6lAqE3kwhsHEQ", "review_count": 5, "categories": [{"alias": "sandwiches", "title": "Sandwiches"}], "rating": 4.5, "coordinates": {"latitude": 42.0050210413264, "longitude": -71.585678046627}, "transactions": [], "price": "$", "location": {"address1": "900 Victory Hwy", "address2": null, "address3": null, "city": "North Smithfield", "zip_code": "02896", "country": "US", "state": "RI", "display_address": ["900 Victory Hwy", "North Smithfield, RI 02896"]}, "phone": "+14017656400", "display_phone": "(401) 765-6400", "distance": 3817.252397013708}, {"id": "D798R4IHeoy1gX_5IG1cuA", "alias": "nonas-pizza-mendon", "name": "Nona's Pizza", "image_url": "https://s3-media1.fl.yelpcdn.com/bphoto/HwQ2N2N76jJhPt2kxDujdQ/o.jpg", "is_closed": false, "url": "https://www.yelp.com/biz/nonas-pizza-mendon?adjust_creative=HdhkN5EEH6lAqE3kwhsHEQ&utm_campaign=yelp_api_v3&utm_medium=api_v3_business_search&utm_source=HdhkN5EEH6lAqE3kwhsHEQ", "review_count": 12, "categories": [{"alias": "pizza", "title": "Pizza"}], "rating": 3.5, "coordinates": {"latitude": 42.095764, "longitude": -71.501494}, "transactions": ["delivery"], "location": {"address1": "1B Cape Rd Rte 140", "address2": "", "address3": "", "city": "Mendon", "zip_code": "01756", "country": "US", "state": "MA", "display_address": ["1B Cape Rd Rte 140", "Mendon, MA 01756"]}, "phone": "+15086343414", "display_phone": "(508) 634-3414", "distance": 8921.592678089493}, {"id": "yCJye4XcXyBvZcS9IO9t9A", "alias": "elite-pizza-il-harrisville", "name": "Elite Pizza Il", "image_url": "https://s3-media3.fl.yelpcdn.com/bphoto/1JtMYHaz0ExIc_IWBXfKvA/o.jpg", "is_closed": false, "url": "https://www.yelp.com/biz/elite-pizza-il-harrisville?adjust_creative=HdhkN5EEH6lAqE3kwhsHEQ&utm_campaign=yelp_api_v3&utm_medium=api_v3_business_search&utm_source=HdhkN5EEH6lAqE3kwhsHEQ", "review_count": 22, "categories": [{"alias": "pizza", "title": "Pizza"}], "rating": 4.0, "coordinates": {"latitude": 41.9676132202148, "longitude": -71.6445770263672}, "transactions": [], "price": "$$", "location": {"address1": "1452 Broncos Hwy", "address2": "Unit 5", "address3": null, "city": "Harrisville", "zip_code": "02830", "country": "US", "state": "RI", "display_address": ["1452 Broncos Hwy", "Unit 5", "Harrisville, RI 02830"]}, "phone": "+14015677767", "display_phone": "(401) 567-7767", "distance": 9657.257234840576}, {"id": "CfKT3OZwUZNYLViI-9sEeQ", "alias": "missys-family-restaurant-woonsocket", "name": "Missy's Family Restaurant", "image_url": "https://s3-media3.fl.yelpcdn.com/bphoto/y1vrphipvSiVyNIE_klFEA/o.jpg", "is_closed": false, "url": "https://www.yelp.com/biz/missys-family-restaurant-woonsocket?adjust_creative=HdhkN5EEH6lAqE3kwhsHEQ&utm_campaign=yelp_api_v3&utm_medium=api_v3_business_search&utm_source=HdhkN5EEH6lAqE3kwhsHEQ", "review_count": 22, "categories": [{"alias": "breakfast_brunch", "title": "Breakfast & Brunch"}], "rating": 4.0, "coordinates": {"latitude": 42.0092027562116, "longitude": -71.5019413456321}, "transactions": ["pickup", "delivery"], "price": "$$", "location": {"address1": "801 Clinton St", "address2": "", "address3": "", "city": "Woonsocket", "zip_code": "02895", "country": "US", "state": "RI", "display_address": ["801 Clinton St", "Woonsocket, RI 02895"]}, "phone": "+14015976442", "display_phone": "(401) 597-6442", "distance": 7067.865057732782}, {"id": "3icicrZjMcZUfE_P5WR80w", "alias": "barbaras-place-woonsocket", "name": "Barbara's Place", "image_url": "https://s3-media3.fl.yelpcdn.com/bphoto/KfL7qrb8A4FiRVJx2mZGEA/o.jpg", "is_closed": false, "url": "https://www.yelp.com/biz/barbaras-place-woonsocket?adjust_creative=HdhkN5EEH6lAqE3kwhsHEQ&utm_campaign=yelp_api_v3&utm_medium=api_v3_business_search&utm_source=HdhkN5EEH6lAqE3kwhsHEQ", "review_count": 13, "categories": [{"alias": "diners", "title": "Diners"}], "rating": 4.0, "coordinates": {"latitude": 42.0066795349121, "longitude": -71.5130157470703}, "transactions": ["delivery"], "price": "$", "location": {"address1": "79 N Main St", "address2": null, "address3": null, "city": "Woonsocket", "zip_code": "02895", "country": "US", "state": "RI", "display_address": ["79 N Main St", "Woonsocket, RI 02895"]}, "phone": "+14017624730", "display_phone": "(401) 762-4730", "distance": 6424.848320484429}, {"id": "7irn3abXSRNeRohyFcJOxA", "alias": "blackhawk-pizza-bellingham", "name": "Blackhawk Pizza", "image_url": "https://s3-media4.fl.yelpcdn.com/bphoto/gQuc8b6JOVL8hnvaNjLgGQ/o.jpg", "is_closed": false, "url": "https://www.yelp.com/biz/blackhawk-pizza-bellingham?adjust_creative=HdhkN5EEH6lAqE3kwhsHEQ&utm_campaign=yelp_api_v3&utm_medium=api_v3_business_search&utm_source=HdhkN5EEH6lAqE3kwhsHEQ", "review_count": 30, "categories": [{"alias": "pizza", "title": "Pizza"}, {"alias": "hotdogs", "title": "Fast Food"}, {"alias": "greek", "title": "Greek"}], "rating": 4.0, "coordinates": {"latitude": 42.0539970397949, "longitude": -71.4838409423828}, "transactions": ["delivery"], "price": "$$", "location": {"address1": "829 S Main St", "address2": "Unit 1", "address3": "", "city": "Bellingham", "zip_code": "02019", "country": "US", "state": "MA", "display_address": ["829 S Main St", "Unit 1", "Bellingham, MA 02019"]}, "phone": "+15088830055", "display_phone": "(508) 883-0055", "distance": 7908.975321263678}, {"id": "RcTzHkCTD_SDFY43_0HruQ", "alias": "tandoori-restaurant-woonsocket", "name": "Tandoori Restaurant", "image_url": "", "is_closed": false, "url": "https://www.yelp.com/biz/tandoori-restaurant-woonsocket?adjust_creative=HdhkN5EEH6lAqE3kwhsHEQ&utm_campaign=yelp_api_v3&utm_medium=api_v3_business_search&utm_source=HdhkN5EEH6lAqE3kwhsHEQ", "review_count": 9, "categories": [{"alias": "indpak", "title": "Indian"}, {"alias": "pakistani", "title": "Pakistani"}], "rating": 2.0, "coordinates": {"latitude": 42.0022551580312, "longitude": -71.5146380662989}, "transactions": ["pickup"], "price": "$", "location": {"address1": "114 Main St", "address2": "", "address3": "", "city": "Woonsocket", "zip_code": "02895", "country": "US", "state": "RI", "display_address": ["114 Main St", "Woonsocket, RI 02895"]}, "phone": "+14015975050", "display_phone": "(401) 597-5050", "distance": 6595.084619169761}, {"id": "FBxj5aiSH6WvjGnv0oZQGQ", "alias": "sandys-chill-spot-ice-cream-and-seafood-restaurant-bellingham", "name": "Sandy's Chill Spot Ice Cream & Seafood Restaurant", "image_url": "https://s3-media1.fl.yelpcdn.com/bphoto/9I5hExO8v1VhMASwW5JQRw/o.jpg", "is_closed": false, "url": "https://www.yelp.com/biz/sandys-chill-spot-ice-cream-and-seafood-restaurant-bellingham?adjust_creative=HdhkN5EEH6lAqE3kwhsHEQ&utm_campaign=yelp_api_v3&utm_medium=api_v3_business_search&utm_source=HdhkN5EEH6lAqE3kwhsHEQ", "review_count": 28, "categories": [{"alias": "icecream", "title": "Ice Cream & Frozen Yogurt"}, {"alias": "seafood", "title": "Seafood"}, {"alias": "hotdog", "title": "Hot Dogs"}], "rating": 4.5, "coordinates": {"latitude": 42.035896, "longitude": -71.481436}, "transactions": ["delivery"], "price": "$", "location": {"address1": "800 Pulaski Blvd", "address2": "", "address3": "", "city": "Bellingham", "zip_code": "02019", "country": "US", "state": "MA", "display_address": ["800 Pulaski Blvd", "Bellingham, MA 02019"]}, "phone": "+15083489478", "display_phone": "(508) 348-9478", "distance": 7952.080228816605}, {"id": "ot9ck3-nQchZ-Pno9b9y0Q", "alias": "china-house-woonsocket-2", "name": "China House", "image_url": "https://s3-media1.fl.yelpcdn.com/bphoto/jbyCULIGOkDWeyuqJjrQpA/o.jpg", "is_closed": false, "url": "https://www.yelp.com/biz/china-house-woonsocket-2?adjust_creative=HdhkN5EEH6lAqE3kwhsHEQ&utm_campaign=yelp_api_v3&utm_medium=api_v3_business_search&utm_source=HdhkN5EEH6lAqE3kwhsHEQ", "review_count": 6, "categories": [{"alias": "chinese", "title": "Chinese"}], "rating": 3.0, "coordinates": {"latitude": 42.0080699, "longitude": -71.50918}, "transactions": ["delivery"], "location": {"address1": "240 Social St", "address2": "", "address3": null, "city": "Woonsocket", "zip_code": "02895", "country": "US", "state": "RI", "display_address": ["240 Social St", "Woonsocket, RI 02895"]}, "phone": "+14013561443", "display_phone": "(401) 356-1443", "distance": 6606.596269608348}, {"id": "PJgqKP1MVUVor0_edvNVkA", "alias": "marias-pizza-hopedale", "name": "Maria's Pizza", "image_url": "", "is_closed": false, "url": "https://www.yelp.com/biz/marias-pizza-hopedale?adjust_creative=HdhkN5EEH6lAqE3kwhsHEQ&utm_campaign=yelp_api_v3&utm_medium=api_v3_business_search&utm_source=HdhkN5EEH6lAqE3kwhsHEQ", "review_count": 11, "categories": [{"alias": "pizza", "title": "Pizza"}], "rating": 3.0, "coordinates": {"latitude": 42.103663, "longitude": -71.50134}, "transactions": ["pickup", "delivery"], "price": "$$", "location": {"address1": "156 Hartford Ave E", "address2": null, "address3": null, "city": "Hopedale", "zip_code": "01747", "country": "US", "state": "MA", "display_address": ["156 Hartford Ave E", "Hopedale, MA 01747"]}, "phone": "+15084787878", "display_phone": "(508) 478-7878", "distance": 9573.021253578963}, {"id": "CAT9w-IPD_HF4N7mn4cuZg", "alias": "new-hong-kong-woonsocket", "name": "New Hong Kong", "image_url": "https://s3-media1.fl.yelpcdn.com/bphoto/YF9nGCzPAh1mlDvUQffH5A/o.jpg", "is_closed": false, "url": "https://www.yelp.com/biz/new-hong-kong-woonsocket?adjust_creative=HdhkN5EEH6lAqE3kwhsHEQ&utm_campaign=yelp_api_v3&utm_medium=api_v3_business_search&utm_source=HdhkN5EEH6lAqE3kwhsHEQ", "review_count": 8, "categories": [{"alias": "chinese", "title": "Chinese"}], "rating": 3.0, "coordinates": {"latitude": 42.01145, "longitude": -71.50179}, "transactions": ["delivery"], "price": "$", "location": {"address1": "774 Social St", "address2": "", "address3": "", "city": "Woonsocket", "zip_code": "02895", "country": "US", "state": "RI", "display_address": ["774 Social St", "Woonsocket, RI 02895"]}, "phone": "+14017656868", "display_phone": "(401) 765-6868", "distance": 6970.231786636742}, {"id": "gSccetieOarGSndw5ITdSw", "alias": "veg-m-bellingham", "name": "Veg M", "image_url": "https://s3-media3.fl.yelpcdn.com/bphoto/o7qeYsih3jspAyXfglE-MA/o.jpg", "is_closed": false, "url": "https://www.yelp.com/biz/veg-m-bellingham?adjust_creative=HdhkN5EEH6lAqE3kwhsHEQ&utm_campaign=yelp_api_v3&utm_medium=api_v3_business_search&utm_source=HdhkN5EEH6lAqE3kwhsHEQ", "review_count": 3, "categories": [{"alias": "chinese", "title": "Chinese"}], "rating": 1.0, "coordinates": {"latitude": 42.05113, "longitude": -71.48181}, "transactions": [], "location": {"address1": "799 S Main St", "address2": "Ste 7", "address3": "", "city": "Bellingham", "zip_code": "02019", "country": "US", "state": "MA", "display_address": ["799 S Main St", "Ste 7", "Bellingham, MA 02019"]}, "phone": "+15088832088", "display_phone": "(508) 883-2088", "distance": 8030.567825494013}, {"id": "nurGixU5-Cpeq_s6SCVfDA", "alias": "ronzio-pizza-and-subs-woonsocket", "name": "Ronzio Pizza & Subs", "image_url": "https://s3-media2.fl.yelpcdn.com/bphoto/G3tWp-MbguNi4cfCaAVovA/o.jpg", "is_closed": false, "url": "https://www.yelp.com/biz/ronzio-pizza-and-subs-woonsocket?adjust_creative=HdhkN5EEH6lAqE3kwhsHEQ&utm_campaign=yelp_api_v3&utm_medium=api_v3_business_search&utm_source=HdhkN5EEH6lAqE3kwhsHEQ", "review_count": 14, "categories": [{"alias": "pizza", "title": "Pizza"}], "rating": 3.5, "coordinates": {"latitude": 41.9914436340332, "longitude": -71.5214767456055}, "transactions": ["delivery"], "price": "$$", "location": {"address1": "375 Providence St", "address2": "", "address3": "", "city": "Woonsocket", "zip_code": "02895", "country": "US", "state": "RI", "display_address": ["375 Providence St", "Woonsocket, RI 02895"]}, "phone": "+14017672085", "display_phone": "(401) 767-2085", "distance": 7017.540365320452}, {"id": "zJ6ipwDq1PM4T8Qw6j6Z9Q", "alias": "maks-roast-beef-and-pizza-bellingham", "name": "Mak's Roast Beef And Pizza", "image_url": "https://s3-media3.fl.yelpcdn.com/bphoto/HRDXERSN-HssqKv71EvbdQ/o.jpg", "is_closed": false, "url": "https://www.yelp.com/biz/maks-roast-beef-and-pizza-bellingham?adjust_creative=HdhkN5EEH6lAqE3kwhsHEQ&utm_campaign=yelp_api_v3&utm_medium=api_v3_business_search&utm_source=HdhkN5EEH6lAqE3kwhsHEQ", "review_count": 51, "categories": [{"alias": "pizza", "title": "Pizza"}], "rating": 3.5, "coordinates": {"latitude": 42.0269597321749, "longitude": -71.4887546002865}, "transactions": ["delivery"], "price": "$", "location": {"address1": "431 Pulaski Blvd", "address2": "", "address3": "", "city": "Bellingham", "zip_code": "02019", "country": "US", "state": "MA", "display_address": ["431 Pulaski Blvd", "Bellingham, MA 02019"]}, "phone": "+15089282758", "display_phone": "(508) 928-2758", "distance": 7469.742494723149}, {"id": "TsVfT5igXrJU0Twyvc_OAQ", "alias": "miss-mendon-diner-mendon", "name": "Miss Mendon Diner", "image_url": "https://s3-media4.fl.yelpcdn.com/bphoto/BA5a8U--9-_0T_J4wgTiZA/o.jpg", "is_closed": false, "url": "https://www.yelp.com/biz/miss-mendon-diner-mendon?adjust_creative=HdhkN5EEH6lAqE3kwhsHEQ&utm_campaign=yelp_api_v3&utm_medium=api_v3_business_search&utm_source=HdhkN5EEH6lAqE3kwhsHEQ", "review_count": 114, "categories": [{"alias": "diners", "title": "Diners"}, {"alias": "breakfast_brunch", "title": "Breakfast & Brunch"}, {"alias": "tradamerican", "title": "American (Traditional)"}], "rating": 3.0, "coordinates": {"latitude": 42.1022602, "longitude": -71.5634601}, "transactions": ["delivery"], "price": "$", "location": {"address1": "16 Uxbridge Rd", "address2": "", "address3": "", "city": "Mendon", "zip_code": "01756", "country": "US", "state": "MA", "display_address": ["16 Uxbridge Rd", "Mendon, MA 01756"]}, "phone": "+15086343000", "display_phone": "(508) 634-3000", "distance": 7149.875808742599}, {"id": "6k3vtgo5w41xr3h4i4kMFA", "alias": "popeyes-louisiana-kitchen-woonsocket-2", "name": "Popeyes Louisiana Kitchen", "image_url": "https://s3-media1.fl.yelpcdn.com/bphoto/ZhePsupi_V8pwEYmXQtI4g/o.jpg", "is_closed": false, "url": "https://www.yelp.com/biz/popeyes-louisiana-kitchen-woonsocket-2?adjust_creative=HdhkN5EEH6lAqE3kwhsHEQ&utm_campaign=yelp_api_v3&utm_medium=api_v3_business_search&utm_source=HdhkN5EEH6lAqE3kwhsHEQ", "review_count": 28, "categories": [{"alias": "hotdogs", "title": "Fast Food"}, {"alias": "chicken_wings", "title": "Chicken Wings"}], "rating": 2.5, "coordinates": {"latitude": 42.015279, "longitude": -71.478496}, "transactions": ["pickup", "delivery"], "price": "$", "location": {"address1": "1507 Diamond Hill Rd", "address2": null, "address3": "", "city": "Woonsocket", "zip_code": "02895", "country": "US", "state": "RI", "display_address": ["1507 Diamond Hill Rd", "Woonsocket, RI 02895"]}, "phone": "+14013560996", "display_phone": "(401) 356-0996", "distance": 8597.953867369844}, {"id": "ZmHBv7mUAnlvftunnrUYgA", "alias": "little-caesars-pizza-woonsocket", "name": "Little Caesars Pizza", "image_url": "https://s3-media4.fl.yelpcdn.com/bphoto/OprdPWqc86QO20Cx7y9krg/o.jpg", "is_closed": false, "url": "https://www.yelp.com/biz/little-caesars-pizza-woonsocket?adjust_creative=HdhkN5EEH6lAqE3kwhsHEQ&utm_campaign=yelp_api_v3&utm_medium=api_v3_business_search&utm_source=HdhkN5EEH6lAqE3kwhsHEQ", "review_count": 17, "categories": [{"alias": "pizza", "title": "Pizza"}], "rating": 2.0, "coordinates": {"latitude": 42.0152702, "longitude": -71.4781494}, "transactions": [], "price": "$", "location": {"address1": "1551 Diamond Hill Rd", "address2": "", "address3": "", "city": "Woonsocket", "zip_code": "02895", "country": "US", "state": "RI", "display_address": ["1551 Diamond Hill Rd", "Woonsocket, RI 02895"]}, "phone": "+14017621111", "display_phone": "(401) 762-1111", "distance": 8647.860109599118}, {"id": "reApOpm5y34rl_ycGtwckA", "alias": "firehouse-pizza-shop-ii-north-smithfield", "name": "Firehouse Pizza Shop II", "image_url": "https://s3-media1.fl.yelpcdn.com/bphoto/2RKUlXm2_P4k7S2RKaEcTw/o.jpg", "is_closed": false, "url": "https://www.yelp.com/biz/firehouse-pizza-shop-ii-north-smithfield?adjust_creative=HdhkN5EEH6lAqE3kwhsHEQ&utm_campaign=yelp_api_v3&utm_medium=api_v3_business_search&utm_source=HdhkN5EEH6lAqE3kwhsHEQ", "review_count": 15, "categories": [{"alias": "pizza", "title": "Pizza"}, {"alias": "sandwiches", "title": "Sandwiches"}], "rating": 3.0, "coordinates": {"latitude": 41.99982, "longitude": -71.55062}, "transactions": ["delivery"], "price": "$", "location": {"address1": "639 Great Rd", "address2": "", "address3": "", "city": "North Smithfield", "zip_code": "02896", "country": "US", "state": "RI", "display_address": ["639 Great Rd", "North Smithfield, RI 02896"]}, "phone": "+14017667171", "display_phone": "(401) 766-7171", "distance": 4885.038939458508}, {"id": "yAOhnAcY2jiyDZ8UmBQ6Iw", "alias": "subway-bellingham-19", "name": "Subway", "image_url": "https://s3-media1.fl.yelpcdn.com/bphoto/ZbKHaRcFrBV3x4_jVANlAg/o.jpg", "is_closed": false, "url": "https://www.yelp.com/biz/subway-bellingham-19?adjust_creative=HdhkN5EEH6lAqE3kwhsHEQ&utm_campaign=yelp_api_v3&utm_medium=api_v3_business_search&utm_source=HdhkN5EEH6lAqE3kwhsHEQ", "review_count": 1, "categories": [{"alias": "sandwiches", "title": "Sandwiches"}], "rating": 5.0, "coordinates": {"latitude": 42.0205602, "longitude": -71.4948618}, "transactions": [], "price": "$", "location": {"address1": "170 Pulaski Blvd", "address2": "", "address3": "", "city": "Bellingham", "zip_code": "02019", "country": "US", "state": "MA", "display_address": ["170 Pulaski Blvd", "Bellingham, MA 02019"]}, "phone": "+15088836599", "display_phone": "(508) 883-6599", "distance": 7132.787384395309}, {"id": "KVP5An103h9-dE_rRojzHg", "alias": "moonlight-house-of-weiners-woonsocket", "name": "Moonlight House of Weiners", "image_url": "https://s3-media2.fl.yelpcdn.com/bphoto/G5IXEjATlS7xeSDNCdE_EA/o.jpg", "is_closed": false, "url": "https://www.yelp.com/biz/moonlight-house-of-weiners-woonsocket?adjust_creative=HdhkN5EEH6lAqE3kwhsHEQ&utm_campaign=yelp_api_v3&utm_medium=api_v3_business_search&utm_source=HdhkN5EEH6lAqE3kwhsHEQ", "review_count": 30, "categories": [{"alias": "diners", "title": "Diners"}, {"alias": "breakfast_brunch", "title": "Breakfast & Brunch"}, {"alias": "burgers", "title": "Burgers"}], "rating": 3.0, "coordinates": {"latitude": 42.009422, "longitude": -71.503959}, "transactions": ["pickup", "delivery"], "price": "$", "location": {"address1": "32 Rathbun St", "address2": "", "address3": "", "city": "Woonsocket", "zip_code": "02895", "country": "US", "state": "RI", "display_address": ["32 Rathbun St", "Woonsocket, RI 02895"]}, "phone": "+14017665806", "display_phone": "(401) 766-5806", "distance": 6905.608346376262}, {"id": "qfF6FV27qAmgANq3GmXvhQ", "alias": "d-angelo-woonsocket", "name": "D'Angelo", "image_url": "https://s3-media3.fl.yelpcdn.com/bphoto/FJoJnoFan2riacfH25FCtA/o.jpg", "is_closed": false, "url": "https://www.yelp.com/biz/d-angelo-woonsocket?adjust_creative=HdhkN5EEH6lAqE3kwhsHEQ&utm_campaign=yelp_api_v3&utm_medium=api_v3_business_search&utm_source=HdhkN5EEH6lAqE3kwhsHEQ", "review_count": 12, "categories": [{"alias": "sandwiches", "title": "Sandwiches"}], "rating": 2.5, "coordinates": {"latitude": 41.984333, "longitude": -71.515571}, "transactions": ["delivery"], "price": "$$", "location": {"address1": "1396 Park Ave", "address2": "", "address3": "", "city": "Woonsocket", "zip_code": "02895", "country": "US", "state": "RI", "display_address": ["1396 Park Ave", "Woonsocket, RI 02895"]}, "phone": "+14017620390", "display_phone": "(401) 762-0390", "distance": 7934.82343516722}, {"id": "duBbkV1mz80Vi7ysNoAtTQ", "alias": "crystal-catering-whitinsville", "name": "Crystal Catering", "image_url": "", "is_closed": false, "url": "https://www.yelp.com/biz/crystal-catering-whitinsville?adjust_creative=HdhkN5EEH6lAqE3kwhsHEQ&utm_campaign=yelp_api_v3&utm_medium=api_v3_business_search&utm_source=HdhkN5EEH6lAqE3kwhsHEQ", "review_count": 1, "categories": [{"alias": "servicestations", "title": "Gas Stations"}, {"alias": "autorepair", "title": "Auto Repair"}, {"alias": "catering", "title": "Caterers"}, {"alias": "delis", "title": "Delis"}], "rating": 1.0, "coordinates": {"latitude": 42.112919, "longitude": -71.658243}, "transactions": [], "location": {"address1": "175 Church St", "address2": "", "address3": "", "city": "Whitinsville", "zip_code": "01588", "country": "US", "state": "MA", "display_address": ["175 Church St", "Whitinsville, MA 01588"]}, "phone": "+15082341209", "display_phone": "(508) 234-1209", "distance": 10598.49490517353}, {"id": "GM3zCfvIwbsHHrs5wLUbMg", "alias": "deluxe-pizza-mendon", "name": "Deluxe Pizza", "image_url": "https://s3-media4.fl.yelpcdn.com/bphoto/5d_60y_3s-uEso8aMrh6vA/o.jpg", "is_closed": false, "url": "https://www.yelp.com/biz/deluxe-pizza-mendon?adjust_creative=HdhkN5EEH6lAqE3kwhsHEQ&utm_campaign=yelp_api_v3&utm_medium=api_v3_business_search&utm_source=HdhkN5EEH6lAqE3kwhsHEQ", "review_count": 18, "categories": [{"alias": "pizza", "title": "Pizza"}], "rating": 4.0, "coordinates": {"latitude": 42.10434, "longitude": -71.55735}, "transactions": ["delivery"], "price": "$$", "location": {"address1": "32 Hastings St", "address2": "", "address3": "", "city": "Mendon", "zip_code": "01756", "country": "US", "state": "MA", "display_address": ["32 Hastings St", "Mendon, MA 01756"]}, "phone": "+15084784501", "display_phone": "(508) 478-4501", "distance": 7346.627873968074}, {"id": "FqpUGr4StGpcqGKu4kjLsQ", "alias": "famous-house-of-pizza-bellingham", "name": "Famous House of Pizza", "image_url": "https://s3-media2.fl.yelpcdn.com/bphoto/0JbpFDDFqoq1nxvoTZNGXA/o.jpg", "is_closed": false, "url": "https://www.yelp.com/biz/famous-house-of-pizza-bellingham?adjust_creative=HdhkN5EEH6lAqE3kwhsHEQ&utm_campaign=yelp_api_v3&utm_medium=api_v3_business_search&utm_source=HdhkN5EEH6lAqE3kwhsHEQ", "review_count": 41, "categories": [{"alias": "pizza", "title": "Pizza"}], "rating": 4.0, "coordinates": {"latitude": 42.091525, "longitude": -71.47713}, "transactions": ["delivery"], "price": "$", "location": {"address1": "40 N Main St", "address2": "", "address3": "", "city": "Bellingham", "zip_code": "02019", "country": "US", "state": "MA", "display_address": ["40 N Main St", "Bellingham, MA 02019"]}, "phone": "+15089661972", "display_phone": "(508) 966-1972", "distance": 10157.85820990591}, {"id": "uvRX-9ZVB0QDz_geOtG1jw", "alias": "mcdonalds-uxbridge", "name": "McDonald's", "image_url": "https://s3-media2.fl.yelpcdn.com/bphoto/HB1umlj_wluZbTwRy1zgzw/o.jpg", "is_closed": false, "url": "https://www.yelp.com/biz/mcdonalds-uxbridge?adjust_creative=HdhkN5EEH6lAqE3kwhsHEQ&utm_campaign=yelp_api_v3&utm_medium=api_v3_business_search&utm_source=HdhkN5EEH6lAqE3kwhsHEQ", "review_count": 16, "categories": [{"alias": "hotdogs", "title": "Fast Food"}, {"alias": "burgers", "title": "Burgers"}, {"alias": "coffee", "title": "Coffee & Tea"}], "rating": 2.5, "coordinates": {"latitude": 42.0245784448752, "longitude": -71.6028525}, "transactions": [], "price": "$", "location": {"address1": "200 Quaker Hwy", "address2": "", "address3": "", "city": "Uxbridge", "zip_code": "01569", "country": "US", "state": "MA", "display_address": ["200 Quaker Hwy", "Uxbridge, MA 01569"]}, "phone": "+15082789431", "display_phone": "(508) 278-9431", "distance": 2616.3365968844446}, {"id": "VifmfCbrMaPVKD78lFfflA", "alias": "ideal-pizza-blackstone", "name": "Ideal Pizza", "image_url": "https://s3-media1.fl.yelpcdn.com/bphoto/sZ-0w_jT0_OtUqlRLMCcHw/o.jpg", "is_closed": false, "url": "https://www.yelp.com/biz/ideal-pizza-blackstone?adjust_creative=HdhkN5EEH6lAqE3kwhsHEQ&utm_campaign=yelp_api_v3&utm_medium=api_v3_business_search&utm_source=HdhkN5EEH6lAqE3kwhsHEQ", "review_count": 11, "categories": [{"alias": "pizza", "title": "Pizza"}], "rating": 2.5, "coordinates": {"latitude": 42.015372, "longitude": -71.527309}, "transactions": ["delivery"], "price": "$", "location": {"address1": "2 Main St", "address2": "Ste 1", "address3": "", "city": "Blackstone", "zip_code": "01504", "country": "US", "state": "MA", "display_address": ["2 Main St", "Ste 1", "Blackstone, MA 01504"]}, "phone": "+15088834455", "display_phone": "(508) 883-4455", "distance": 4907.988562920537}, {"id": "JmIIyv9etq8gbsUq2XUtOw", "alias": "main-street-cafe-woonsocket", "name": "Main Street Cafe", "image_url": "https://s3-media2.fl.yelpcdn.com/bphoto/-bXaBLwdyugbeVGlkiP9_Q/o.jpg", "is_closed": false, "url": "https://www.yelp.com/biz/main-street-cafe-woonsocket?adjust_creative=HdhkN5EEH6lAqE3kwhsHEQ&utm_campaign=yelp_api_v3&utm_medium=api_v3_business_search&utm_source=HdhkN5EEH6lAqE3kwhsHEQ", "review_count": 13, "categories": [{"alias": "coffee", "title": "Coffee & Tea"}, {"alias": "breakfast_brunch", "title": "Breakfast & Brunch"}], "rating": 4.5, "coordinates": {"latitude": 42.001664, "longitude": -71.5150756}, "transactions": ["delivery"], "price": "$", "location": {"address1": "85 Main St", "address2": null, "address3": null, "city": "Woonsocket", "zip_code": "02895", "country": "US", "state": "RI", "display_address": ["85 Main St", "Woonsocket, RI 02895"]}, "phone": "+14015337166", "display_phone": "(401) 533-7166", "distance": 6617.534108668711}, {"id": "dhcr03qDYhfOV6YCgvKIzg", "alias": "all-star-pizza-woonsocket-2", "name": "All Star Pizza", "image_url": "https://s3-media2.fl.yelpcdn.com/bphoto/kP_RKbPBjmOEMBtKl7V-PQ/o.jpg", "is_closed": false, "url": "https://www.yelp.com/biz/all-star-pizza-woonsocket-2?adjust_creative=HdhkN5EEH6lAqE3kwhsHEQ&utm_campaign=yelp_api_v3&utm_medium=api_v3_business_search&utm_source=HdhkN5EEH6lAqE3kwhsHEQ", "review_count": 25, "categories": [{"alias": "pizza", "title": "Pizza"}, {"alias": "sandwiches", "title": "Sandwiches"}, {"alias": "seafood", "title": "Seafood"}], "rating": 3.5, "coordinates": {"latitude": 41.9856585495591, "longitude": -71.5217283368111}, "transactions": ["delivery"], "price": "$", "location": {"address1": "800 Providence St", "address2": "", "address3": "", "city": "Woonsocket", "zip_code": "02895", "country": "US", "state": "RI", "display_address": ["800 Providence St", "Woonsocket, RI 02895"]}, "phone": "+14017667827", "display_phone": "(401) 766-7827", "distance": 7502.974073145992}, {"id": "aL3d51-T-06r0ZnFZg7Vpg", "alias": "italian-pizza-and-grill-bellingham", "name": "Italian Pizza & Grill", "image_url": "https://s3-media3.fl.yelpcdn.com/bphoto/q7EWk3a8HFaoOiZM3DByaA/o.jpg", "is_closed": false, "url": "https://www.yelp.com/biz/italian-pizza-and-grill-bellingham?adjust_creative=HdhkN5EEH6lAqE3kwhsHEQ&utm_campaign=yelp_api_v3&utm_medium=api_v3_business_search&utm_source=HdhkN5EEH6lAqE3kwhsHEQ", "review_count": 19, "categories": [{"alias": "pizza", "title": "Pizza"}, {"alias": "sandwiches", "title": "Sandwiches"}, {"alias": "italian", "title": "Italian"}], "rating": 3.5, "coordinates": {"latitude": 42.019276, "longitude": -71.495366}, "transactions": ["delivery", "pickup"], "price": "$$", "location": {"address1": "131 Pulaski Blvd", "address2": "", "address3": "", "city": "Bellingham", "zip_code": "02019", "country": "US", "state": "MA", "display_address": ["131 Pulaski Blvd", "Bellingham, MA 02019"]}, "phone": "+15088761020", "display_phone": "(508) 876-1020", "distance": 7135.148187054915}, {"id": "kP0QvQp2CL-peX8e9WvBow", "alias": "papa-ginos-pizzeria-uxbridge", "name": "Papa Gino's Pizzeria", "image_url": "https://s3-media2.fl.yelpcdn.com/bphoto/kGQc6UQ7MEvHoC2jS5ijFg/o.jpg", "is_closed": false, "url": "https://www.yelp.com/biz/papa-ginos-pizzeria-uxbridge?adjust_creative=HdhkN5EEH6lAqE3kwhsHEQ&utm_campaign=yelp_api_v3&utm_medium=api_v3_business_search&utm_source=HdhkN5EEH6lAqE3kwhsHEQ", "review_count": 26, "categories": [{"alias": "pizza", "title": "Pizza"}], "rating": 1.5, "coordinates": {"latitude": 42.081616, "longitude": -71.63828}, "transactions": [], "price": "$$", "location": {"address1": "158 N. Main St.", "address2": "", "address3": "", "city": "Uxbridge", "zip_code": "01569", "country": "US", "state": "MA", "display_address": ["158 N. Main St.", "Uxbridge, MA 01569"]}, "phone": "+15082786881", "display_phone": "(508) 278-6881", "distance": 6906.168570476332}, {"id": "7bFiD9xoSuY2ftHM1ml5zQ", "alias": "the-valley-cafe-whitinsville", "name": "The Valley Cafe", "image_url": "https://s3-media2.fl.yelpcdn.com/bphoto/sFakK7jvXEbFRXLF5_wQHw/o.jpg", "is_closed": false, "url": "https://www.yelp.com/biz/the-valley-cafe-whitinsville?adjust_creative=HdhkN5EEH6lAqE3kwhsHEQ&utm_campaign=yelp_api_v3&utm_medium=api_v3_business_search&utm_source=HdhkN5EEH6lAqE3kwhsHEQ", "review_count": 50, "categories": [{"alias": "breakfast_brunch", "title": "Breakfast & Brunch"}, {"alias": "tradamerican", "title": "American (Traditional)"}, {"alias": "seafood", "title": "Seafood"}], "rating": 3.0, "coordinates": {"latitude": 42.1116334429747, "longitude": -71.660699450045}, "transactions": ["delivery"], "price": "$$", "location": {"address1": "98A Church St", "address2": null, "address3": null, "city": "Whitinsville", "zip_code": "01588", "country": "US", "state": "MA", "display_address": ["98A Church St", "Whitinsville, MA 01588"]}, "phone": "+15082342180", "display_phone": "(508) 234-2180", "distance": 10608.046699842433}, {"id": "v09mSdNmzp1mXlS0ZmU-dw", "alias": "ollys-pizzeria-woonsocket", "name": "Olly's Pizzeria", "image_url": "https://s3-media2.fl.yelpcdn.com/bphoto/X0mA35rp4OcGUnf3BUizwg/o.jpg", "is_closed": false, "url": "https://www.yelp.com/biz/ollys-pizzeria-woonsocket?adjust_creative=HdhkN5EEH6lAqE3kwhsHEQ&utm_campaign=yelp_api_v3&utm_medium=api_v3_business_search&utm_source=HdhkN5EEH6lAqE3kwhsHEQ", "review_count": 45, "categories": [{"alias": "pizza", "title": "Pizza"}, {"alias": "sandwiches", "title": "Sandwiches"}, {"alias": "burgers", "title": "Burgers"}], "rating": 3.0, "coordinates": {"latitude": 41.9979148, "longitude": -71.5193968}, "transactions": ["delivery", "pickup"], "price": "$", "location": {"address1": "204 S Main St", "address2": "", "address3": "", "city": "Woonsocket", "zip_code": "02895", "country": "US", "state": "RI", "display_address": ["204 S Main St", "Woonsocket, RI 02895"]}, "phone": "+14017661157", "display_phone": "(401) 766-1157", "distance": 6642.719643533351}, {"id": "45EAEbIVnzW0QYv_I07DoA", "alias": "debbies-breakfast-place-woonsocket", "name": "Debbie's Breakfast Place", "image_url": "https://s3-media3.fl.yelpcdn.com/bphoto/BFK04bQws7Ey0fIhhbqhkQ/o.jpg", "is_closed": false, "url": "https://www.yelp.com/biz/debbies-breakfast-place-woonsocket?adjust_creative=HdhkN5EEH6lAqE3kwhsHEQ&utm_campaign=yelp_api_v3&utm_medium=api_v3_business_search&utm_source=HdhkN5EEH6lAqE3kwhsHEQ", "review_count": 22, "categories": [{"alias": "breakfast_brunch", "title": "Breakfast & Brunch"}], "rating": 3.5, "coordinates": {"latitude": 41.99224, "longitude": -71.51425}, "transactions": ["delivery"], "price": "$", "location": {"address1": "804 Park Ave", "address2": "", "address3": "", "city": "Woonsocket", "zip_code": "02895", "country": "US", "state": "RI", "display_address": ["804 Park Ave", "Woonsocket, RI 02895"]}, "phone": "+14017697205", "display_phone": "(401) 769-7205", "distance": 7365.1632423553865}, {"id": "BCxykHwS5JVzjevZS_WulA", "alias": "simons-diner-bellingham", "name": "Simon's Diner", "image_url": "https://s3-media2.fl.yelpcdn.com/bphoto/gggY6gXiGaSgp84z0J0euQ/o.jpg", "is_closed": false, "url": "https://www.yelp.com/biz/simons-diner-bellingham?adjust_creative=HdhkN5EEH6lAqE3kwhsHEQ&utm_campaign=yelp_api_v3&utm_medium=api_v3_business_search&utm_source=HdhkN5EEH6lAqE3kwhsHEQ", "review_count": 2, "categories": [{"alias": "diners", "title": "Diners"}], "rating": 1.0, "coordinates": {"latitude": 42.019906193018, "longitude": -71.4950423687696}, "transactions": [], "price": "$", "location": {"address1": "131 Pulaski Blvd", "address2": "", "address3": "", "city": "Bellingham", "zip_code": "02019", "country": "US", "state": "MA", "display_address": ["131 Pulaski Blvd", "Bellingham, MA 02019"]}, "phone": "+15088769444", "display_phone": "(508) 876-9444", "distance": 7150.524131630936}, {"id": "onHWpahWYcgrERz9ChHb6w", "alias": "subway-uxbridge-6", "name": "Subway", "image_url": "https://s3-media4.fl.yelpcdn.com/bphoto/rztSPnjR8ZTPCDFYsU_lPQ/o.jpg", "is_closed": false, "url": "https://www.yelp.com/biz/subway-uxbridge-6?adjust_creative=HdhkN5EEH6lAqE3kwhsHEQ&utm_campaign=yelp_api_v3&utm_medium=api_v3_business_search&utm_source=HdhkN5EEH6lAqE3kwhsHEQ", "review_count": 8, "categories": [{"alias": "sandwiches", "title": "Sandwiches"}], "rating": 2.5, "coordinates": {"latitude": 42.0760286042075, "longitude": -71.6293811725563}, "transactions": [], "price": "$", "location": {"address1": "5 S Main St", "address2": "", "address3": null, "city": "Uxbridge", "zip_code": "01569", "country": "US", "state": "MA", "display_address": ["5 S Main St", "Uxbridge, MA 01569"]}, "phone": "+15082780202", "display_phone": "(508) 278-0202", "distance": 5946.046844018509}, {"id": "Ask85cLMl28aX-mTAkBGUw", "alias": "corner-pizza-and-grill-northbridge", "name": "Corner Pizza and Grill", "image_url": "https://s3-media4.fl.yelpcdn.com/bphoto/WyPEgTw4PzppZ6szHR2PFA/o.jpg", "is_closed": false, "url": "https://www.yelp.com/biz/corner-pizza-and-grill-northbridge?adjust_creative=HdhkN5EEH6lAqE3kwhsHEQ&utm_campaign=yelp_api_v3&utm_medium=api_v3_business_search&utm_source=HdhkN5EEH6lAqE3kwhsHEQ", "review_count": 39, "categories": [{"alias": "pizza", "title": "Pizza"}, {"alias": "hotdogs", "title": "Fast Food"}, {"alias": "sandwiches", "title": "Sandwiches"}], "rating": 2.5, "coordinates": {"latitude": 42.1122409, "longitude": -71.659859}, "transactions": [], "price": "$$", "location": {"address1": "125 Church St", "address2": "", "address3": "", "city": "Northbridge", "zip_code": "01588", "country": "US", "state": "MA", "display_address": ["125 Church St", "Northbridge, MA 01588"]}, "phone": "+15082340001", "display_phone": "(508) 234-0001", "distance": 10615.187686901043}, {"id": "IF564MzVcVL4vpG_ueubhw", "alias": "dominos-pizza-woonsocket", "name": "Domino's Pizza", "image_url": "https://s3-media4.fl.yelpcdn.com/bphoto/I7t9njXA53Piz5YxwjKlrg/o.jpg", "is_closed": false, "url": "https://www.yelp.com/biz/dominos-pizza-woonsocket?adjust_creative=HdhkN5EEH6lAqE3kwhsHEQ&utm_campaign=yelp_api_v3&utm_medium=api_v3_business_search&utm_source=HdhkN5EEH6lAqE3kwhsHEQ", "review_count": 14, "categories": [{"alias": "pizza", "title": "Pizza"}, {"alias": "chicken_wings", "title": "Chicken Wings"}, {"alias": "sandwiches", "title": "Sandwiches"}], "rating": 3.5, "coordinates": {"latitude": 42.003322, "longitude": -71.513321}, "transactions": [], "price": "$", "location": {"address1": "194 Main St", "address2": "", "address3": "", "city": "Woonsocket", "zip_code": "02895", "country": "US", "state": "RI", "display_address": ["194 Main St", "Woonsocket, RI 02895"]}, "phone": "+14017653571", "display_phone": "(401) 765-3571", "distance": 6619.715269684522}, {"id": "1NsHOxcujNJssKy0CrH_oQ", "alias": "subway-whitinsville-4", "name": "Subway", "image_url": "https://s3-media3.fl.yelpcdn.com/bphoto/gRhh_FwqF09CXLuhjxcEaA/o.jpg", "is_closed": false, "url": "https://www.yelp.com/biz/subway-whitinsville-4?adjust_creative=HdhkN5EEH6lAqE3kwhsHEQ&utm_campaign=yelp_api_v3&utm_medium=api_v3_business_search&utm_source=HdhkN5EEH6lAqE3kwhsHEQ", "review_count": 3, "categories": [{"alias": "sandwiches", "title": "Sandwiches"}], "rating": 2.5, "coordinates": {"latitude": 42.1111714, "longitude": -71.6619159499166}, "transactions": [], "price": "$", "location": {"address1": "56 Church St", "address2": "", "address3": "", "city": "Whitinsville", "zip_code": "01588", "country": "US", "state": "MA", "display_address": ["56 Church St", "Whitinsville, MA 01588"]}, "phone": "+15082344007", "display_phone": "(508) 234-4007", "distance": 10634.304686585063}, {"id": "Mo-FLQHmlM0V8ASDrGnoKA", "alias": "burger-king-north-smithfield", "name": "Burger King", "image_url": "https://s3-media3.fl.yelpcdn.com/bphoto/W5ahoyrVKF3Ml0XQ5rtgCQ/o.jpg", "is_closed": false, "url": "https://www.yelp.com/biz/burger-king-north-smithfield?adjust_creative=HdhkN5EEH6lAqE3kwhsHEQ&utm_campaign=yelp_api_v3&utm_medium=api_v3_business_search&utm_source=HdhkN5EEH6lAqE3kwhsHEQ", "review_count": 5, "categories": [{"alias": "burgers", "title": "Burgers"}, {"alias": "hotdogs", "title": "Fast Food"}], "rating": 2.0, "coordinates": {"latitude": 41.98226167, "longitude": -71.51397333}, "transactions": [], "price": "$", "location": {"address1": "66 Eddy Dowling Hwy", "address2": "", "address3": "", "city": "North Smithfield", "zip_code": "02896", "country": "US", "state": "RI", "display_address": ["66 Eddy Dowling Hwy", "North Smithfield, RI 02896"]}, "phone": "", "display_phone": "", "distance": 8197.164030599857}, {"id": "xq8vtOugiBfH09-ljuXTvQ", "alias": "taco-bell-woonsocket", "name": "Taco Bell", "image_url": "https://s3-media3.fl.yelpcdn.com/bphoto/lmkhQif6DWRJ0I3Un86WWg/o.jpg", "is_closed": false, "url": "https://www.yelp.com/biz/taco-bell-woonsocket?adjust_creative=HdhkN5EEH6lAqE3kwhsHEQ&utm_campaign=yelp_api_v3&utm_medium=api_v3_business_search&utm_source=HdhkN5EEH6lAqE3kwhsHEQ", "review_count": 18, "categories": [{"alias": "tacos", "title": "Tacos"}, {"alias": "breakfast_brunch", "title": "Breakfast & Brunch"}], "rating": 3.0, "coordinates": {"latitude": 42.015682, "longitude": -71.477739}, "transactions": ["delivery"], "price": "$", "location": {"address1": "1500 Diamond Hill Rd", "address2": "", "address3": "", "city": "Woonsocket", "zip_code": "02895", "country": "US", "state": "RI", "display_address": ["1500 Diamond Hill Rd", "Woonsocket, RI 02895"]}, "phone": "+14017661082", "display_phone": "(401) 766-1082", "distance": 8644.058988693834}, {"id": "dOPhxPxb5yZQPM_Sl-hl4g", "alias": "honey-dew-donuts-bellingham", "name": "Honey Dew Donuts", "image_url": "https://s3-media3.fl.yelpcdn.com/bphoto/fYudHqmgHPfhV_PJIDJZ2A/o.jpg", "is_closed": false, "url": "https://www.yelp.com/biz/honey-dew-donuts-bellingham?adjust_creative=HdhkN5EEH6lAqE3kwhsHEQ&utm_campaign=yelp_api_v3&utm_medium=api_v3_business_search&utm_source=HdhkN5EEH6lAqE3kwhsHEQ", "review_count": 6, "categories": [{"alias": "donuts", "title": "Donuts"}, {"alias": "sandwiches", "title": "Sandwiches"}], "rating": 3.0, "coordinates": {"latitude": 42.0235557556152, "longitude": -71.4919815063477}, "transactions": [], "location": {"address1": "290 Pulaski Blvd", "address2": "", "address3": "", "city": "Bellingham", "zip_code": "02019", "country": "US", "state": "MA", "display_address": ["290 Pulaski Blvd", "Bellingham, MA 02019"]}, "phone": "+15088834580", "display_phone": "(508) 883-4580", "distance": 7269.229481184574}, {"id": "5zIUKHC0sPjvvEja1hbJwA", "alias": "subway-north-smithfield-4", "name": "Subway", "image_url": "https://s3-media3.fl.yelpcdn.com/bphoto/JnUZXnBVprAUeeigFBdZMw/o.jpg", "is_closed": false, "url": "https://www.yelp.com/biz/subway-north-smithfield-4?adjust_creative=HdhkN5EEH6lAqE3kwhsHEQ&utm_campaign=yelp_api_v3&utm_medium=api_v3_business_search&utm_source=HdhkN5EEH6lAqE3kwhsHEQ", "review_count": 4, "categories": [{"alias": "sandwiches", "title": "Sandwiches"}], "rating": 4.0, "coordinates": {"latitude": 41.9806043, "longitude": -71.5142277}, "transactions": [], "price": "$", "location": {"address1": "99 Eddie Dowling Hwy", "address2": null, "address3": null, "city": "North Smithfield", "zip_code": "02896", "country": "US", "state": "RI", "display_address": ["99 Eddie Dowling Hwy", "North Smithfield, RI 02896"]}, "phone": "+14017665445", "display_phone": "(401) 766-5445", "distance": 8328.713465996321}, {"id": "pQ5z2ZMP0jFuCle9hUAfYA", "alias": "subway-mendon-5", "name": "Subway", "image_url": "https://s3-media4.fl.yelpcdn.com/bphoto/MT0rMrxVOEjrXmMafEzjRg/o.jpg", "is_closed": false, "url": "https://www.yelp.com/biz/subway-mendon-5?adjust_creative=HdhkN5EEH6lAqE3kwhsHEQ&utm_campaign=yelp_api_v3&utm_medium=api_v3_business_search&utm_source=HdhkN5EEH6lAqE3kwhsHEQ", "review_count": 3, "categories": [{"alias": "sandwiches", "title": "Sandwiches"}], "rating": 2.0, "coordinates": {"latitude": 42.1031327230134, "longitude": -71.5590582540693}, "transactions": [], "price": "$", "location": {"address1": "32 Hastings St", "address2": "", "address3": "", "city": "Mendon", "zip_code": "01756", "country": "US", "state": "MA", "display_address": ["32 Hastings St", "Mendon, MA 01756"]}, "phone": "+15084229430", "display_phone": "(508) 422-9430", "distance": 7313.107756097695}, {"id": "6akiug5o-_HWfptrL60g-Q", "alias": "pizza-queen-bellingham", "name": "Pizza Queen", "image_url": "https://s3-media3.fl.yelpcdn.com/bphoto/MVIG1jE-jsmFkid7tbuPrw/o.jpg", "is_closed": false, "url": "https://www.yelp.com/biz/pizza-queen-bellingham?adjust_creative=HdhkN5EEH6lAqE3kwhsHEQ&utm_campaign=yelp_api_v3&utm_medium=api_v3_business_search&utm_source=HdhkN5EEH6lAqE3kwhsHEQ", "review_count": 33, "categories": [{"alias": "hotdogs", "title": "Fast Food"}, {"alias": "pizza", "title": "Pizza"}], "rating": 3.0, "coordinates": {"latitude": 42.0183372, "longitude": -71.4969177}, "transactions": ["delivery", "pickup"], "price": "$$", "location": {"address1": "56 Pulaski Blvd", "address2": null, "address3": null, "city": "Bellingham", "zip_code": "02019", "country": "US", "state": "MA", "display_address": ["56 Pulaski Blvd", "Bellingham, MA 02019"]}, "phone": "+15088762666", "display_phone": "(508) 876-2666", "distance": 6939.18519022475}, {"id": "cyyIZCXunHCQxshKeugLYw", "alias": "burger-king-woonsocket", "name": "Burger King", "image_url": "https://s3-media1.fl.yelpcdn.com/bphoto/ssJ1WuMPIrfZS2hJQ5V7Dw/o.jpg", "is_closed": false, "url": "https://www.yelp.com/biz/burger-king-woonsocket?adjust_creative=HdhkN5EEH6lAqE3kwhsHEQ&utm_campaign=yelp_api_v3&utm_medium=api_v3_business_search&utm_source=HdhkN5EEH6lAqE3kwhsHEQ", "review_count": 5, "categories": [{"alias": "burgers", "title": "Burgers"}, {"alias": "hotdogs", "title": "Fast Food"}], "rating": 1.0, "coordinates": {"latitude": 42.007825, "longitude": -71.507923}, "transactions": [], "price": "$", "location": {"address1": "293 Social Street", "address2": "", "address3": "", "city": "Woonsocket", "zip_code": "02895", "country": "US", "state": "RI", "display_address": ["293 Social Street", "Woonsocket, RI 02895"]}, "phone": "", "display_phone": "", "distance": 6714.162474808309}, {"id": "gKSlmXb7-TqjhbymcYYYlw", "alias": "dairy-queen-bellingham-2", "name": "Dairy Queen Grill & Chill", "image_url": "https://s3-media3.fl.yelpcdn.com/bphoto/8dm-RYbTL26HinDQayxHqA/o.jpg", "is_closed": false, "url": "https://www.yelp.com/biz/dairy-queen-bellingham-2?adjust_creative=HdhkN5EEH6lAqE3kwhsHEQ&utm_campaign=yelp_api_v3&utm_medium=api_v3_business_search&utm_source=HdhkN5EEH6lAqE3kwhsHEQ", "review_count": 22, "categories": [{"alias": "icecream", "title": "Ice Cream & Frozen Yogurt"}, {"alias": "hotdogs", "title": "Fast Food"}, {"alias": "burgers", "title": "Burgers"}], "rating": 3.0, "coordinates": {"latitude": 42.0894508, "longitude": -71.4756587147713}, "transactions": [], "price": "$", "location": {"address1": "21 N Main St", "address2": "", "address3": "", "city": "Bellingham", "zip_code": "02019", "country": "US", "state": "MA", "display_address": ["21 N Main St", "Bellingham, MA 02019"]}, "phone": "+15089660461", "display_phone": "(508) 966-0461", "distance": 10127.432201401}, {"id": "paNYYgT1YJxTGvJZ2GVCuw", "alias": "dragon-garden-woonsocket", "name": "Dragon Garden", "image_url": "", "is_closed": false, "url": "https://www.yelp.com/biz/dragon-garden-woonsocket?adjust_creative=HdhkN5EEH6lAqE3kwhsHEQ&utm_campaign=yelp_api_v3&utm_medium=api_v3_business_search&utm_source=HdhkN5EEH6lAqE3kwhsHEQ", "review_count": 1, "categories": [{"alias": "chinese", "title": "Chinese"}], "rating": 2.0, "coordinates": {"latitude": 42.0080699, "longitude": -71.50918}, "transactions": ["delivery"], "price": "$", "location": {"address1": "240 Social St", "address2": null, "address3": null, "city": "Woonsocket", "zip_code": "02895", "country": "US", "state": "RI", "display_address": ["240 Social St", "Woonsocket, RI 02895"]}, "phone": "+14015976800", "display_phone": "(401) 597-6800", "distance": 6606.596269608348}, {"id": "eyGSmnjRucScmi3Lu_hkKg", "alias": "subway-woonsocket-5", "name": "Subway", "image_url": "https://s3-media1.fl.yelpcdn.com/bphoto/x5ovcbbkA08MqlxxGBQX8A/o.jpg", "is_closed": false, "url": "https://www.yelp.com/biz/subway-woonsocket-5?adjust_creative=HdhkN5EEH6lAqE3kwhsHEQ&utm_campaign=yelp_api_v3&utm_medium=api_v3_business_search&utm_source=HdhkN5EEH6lAqE3kwhsHEQ", "review_count": 5, "categories": [{"alias": "sandwiches", "title": "Sandwiches"}], "rating": 3.0, "coordinates": {"latitude": 42.0067917, "longitude": -71.5053969499363}, "transactions": ["delivery", "pickup"], "price": "$", "location": {"address1": "483 Clinton St", "address2": "", "address3": "", "city": "Woonsocket", "zip_code": "02895", "country": "US", "state": "RI", "display_address": ["483 Clinton St", "Woonsocket, RI 02895"]}, "phone": "+14017656655", "display_phone": "(401) 765-6655", "distance": 6950.239261824144}, {"id": "3t_JyW3vQbhdrVJ8DW7aww", "alias": "elm-street-pizza-woonsocket", "name": "Elm Street Pizza", "image_url": "https://s3-media2.fl.yelpcdn.com/bphoto/4L85VggEfc8aScFZzuKoVg/o.jpg", "is_closed": false, "url": "https://www.yelp.com/biz/elm-street-pizza-woonsocket?adjust_creative=HdhkN5EEH6lAqE3kwhsHEQ&utm_campaign=yelp_api_v3&utm_medium=api_v3_business_search&utm_source=HdhkN5EEH6lAqE3kwhsHEQ", "review_count": 8, "categories": [{"alias": "pizza", "title": "Pizza"}, {"alias": "salad", "title": "Salad"}], "rating": 2.5, "coordinates": {"latitude": 42.007984161377, "longitude": -71.4932022094727}, "transactions": ["delivery"], "price": "$$", "location": {"address1": "596 Elm St", "address2": "", "address3": "", "city": "Woonsocket", "zip_code": "02895", "country": "US", "state": "RI", "display_address": ["596 Elm St", "Woonsocket, RI 02895"]}, "phone": "+14017656000", "display_phone": "(401) 765-6000", "distance": 7773.610827700682}, {"id": "f6jVeg_bOTUxI56vkQCtjQ", "alias": "taco-bell-north-smithfield", "name": "Taco Bell", "image_url": "https://s3-media1.fl.yelpcdn.com/bphoto/JEQriUM0W3kJ-W51QQ6WhA/o.jpg", "is_closed": false, "url": "https://www.yelp.com/biz/taco-bell-north-smithfield?adjust_creative=HdhkN5EEH6lAqE3kwhsHEQ&utm_campaign=yelp_api_v3&utm_medium=api_v3_business_search&utm_source=HdhkN5EEH6lAqE3kwhsHEQ", "review_count": 13, "categories": [{"alias": "tacos", "title": "Tacos"}, {"alias": "breakfast_brunch", "title": "Breakfast & Brunch"}], "rating": 3.0, "coordinates": {"latitude": 41.97403, "longitude": -71.509876}, "transactions": ["delivery"], "price": "$", "location": {"address1": "2 Dowling Village Blvd.", "address2": "", "address3": "", "city": "North Smithfield", "zip_code": "02896", "country": "US", "state": "RI", "display_address": ["2 Dowling Village Blvd.", "North Smithfield, RI 02896"]}, "phone": "+14017621472", "display_phone": "(401) 762-1472", "distance": 9125.109521828663}, {"id": "oWxrQgeUFqkMV8DQ4gyjtg", "alias": "original-house-of-pizza-woonsocket", "name": "original house of pizza", "image_url": "https://s3-media1.fl.yelpcdn.com/bphoto/fZpmYm1jpekTTMULwR3uWg/o.jpg", "is_closed": false, "url": "https://www.yelp.com/biz/original-house-of-pizza-woonsocket?adjust_creative=HdhkN5EEH6lAqE3kwhsHEQ&utm_campaign=yelp_api_v3&utm_medium=api_v3_business_search&utm_source=HdhkN5EEH6lAqE3kwhsHEQ", "review_count": 27, "categories": [{"alias": "pizza", "title": "Pizza"}, {"alias": "burgers", "title": "Burgers"}, {"alias": "sandwiches", "title": "Sandwiches"}], "rating": 2.5, "coordinates": {"latitude": 42.0155471, "longitude": -71.4799658}, "transactions": ["delivery", "pickup"], "price": "$", "location": {"address1": "1431 Diamond Hill Rd", "address2": "", "address3": "", "city": "Woonsocket", "zip_code": "02895", "country": "US", "state": "RI", "display_address": ["1431 Diamond Hill Rd", "Woonsocket, RI 02895"]}, "phone": "+14017666400", "display_phone": "(401) 766-6400", "distance": 8473.226522274004}, {"id": "Qrwxm23Q-uZL9XVi3ko9VQ", "alias": "manville-palace-pizza-manville", "name": "Manville Palace Pizza", "image_url": "https://s3-media4.fl.yelpcdn.com/bphoto/WANjHA_XTD4EdSgLV-a1tw/o.jpg", "is_closed": false, "url": "https://www.yelp.com/biz/manville-palace-pizza-manville?adjust_creative=HdhkN5EEH6lAqE3kwhsHEQ&utm_campaign=yelp_api_v3&utm_medium=api_v3_business_search&utm_source=HdhkN5EEH6lAqE3kwhsHEQ", "review_count": 68, "categories": [{"alias": "pizza", "title": "Pizza"}, {"alias": "hotdogs", "title": "Fast Food"}], "rating": 2.5, "coordinates": {"latitude": 41.9725714, "longitude": -71.4760236}, "transactions": ["delivery", "pickup"], "price": "$", "location": {"address1": "141 Railroad St", "address2": "", "address3": "", "city": "Manville", "zip_code": "02838", "country": "US", "state": "RI", "display_address": ["141 Railroad St", "Manville, RI 02838"]}, "phone": "+14017699777", "display_phone": "(401) 769-9777", "distance": 11186.3821594928}, {"id": "2VZinIb_CQaMEtOrZcBa1g", "alias": "dominos-pizza-whitinsville", "name": "Domino's Pizza", "image_url": "https://s3-media2.fl.yelpcdn.com/bphoto/o6tAg1nvf8x3feSWFHSPRw/o.jpg", "is_closed": false, "url": "https://www.yelp.com/biz/dominos-pizza-whitinsville?adjust_creative=HdhkN5EEH6lAqE3kwhsHEQ&utm_campaign=yelp_api_v3&utm_medium=api_v3_business_search&utm_source=HdhkN5EEH6lAqE3kwhsHEQ", "review_count": 13, "categories": [{"alias": "pizza", "title": "Pizza"}, {"alias": "chicken_wings", "title": "Chicken Wings"}, {"alias": "sandwiches", "title": "Sandwiches"}], "rating": 1.5, "coordinates": {"latitude": 42.1114044, "longitude": -71.6613998}, "transactions": [], "price": "$", "location": {"address1": "72 Church St", "address2": null, "address3": null, "city": "Whitinsville", "zip_code": "01588", "country": "US", "state": "MA", "display_address": ["72 Church St", "Whitinsville, MA 01588"]}, "phone": "+15082662000", "display_phone": "(508) 266-2000", "distance": 10622.80136574413}, {"id": "S2af-p-xvx8jOnYrFtXMlA", "alias": "mcdonalds-north-smithfield", "name": "McDonald's", "image_url": "https://s3-media4.fl.yelpcdn.com/bphoto/3EIvQsl821zl5n5ZvTfgQA/o.jpg", "is_closed": false, "url": "https://www.yelp.com/biz/mcdonalds-north-smithfield?adjust_creative=HdhkN5EEH6lAqE3kwhsHEQ&utm_campaign=yelp_api_v3&utm_medium=api_v3_business_search&utm_source=HdhkN5EEH6lAqE3kwhsHEQ", "review_count": 13, "categories": [{"alias": "burgers", "title": "Burgers"}, {"alias": "hotdogs", "title": "Fast Food"}, {"alias": "coffee", "title": "Coffee & Tea"}], "rating": 1.5, "coordinates": {"latitude": 41.9827742186148, "longitude": -71.5144555346796}, "transactions": [], "price": "$", "location": {"address1": "12 Eddie Dowling Hwy", "address2": "", "address3": "", "city": "North Smithfield", "zip_code": "02896", "country": "US", "state": "RI", "display_address": ["12 Eddie Dowling Hwy", "North Smithfield, RI 02896"]}, "phone": "+14017692624", "display_phone": "(401) 769-2624", "distance": 8130.414758957735}, {"id": "CPpDhrFKK8CIJXcn23EVZQ", "alias": "kfc-woonsocket", "name": "KFC", "image_url": "https://s3-media3.fl.yelpcdn.com/bphoto/FKZNchDuzA-TB3Ew2sLLcQ/o.jpg", "is_closed": false, "url": "https://www.yelp.com/biz/kfc-woonsocket?adjust_creative=HdhkN5EEH6lAqE3kwhsHEQ&utm_campaign=yelp_api_v3&utm_medium=api_v3_business_search&utm_source=HdhkN5EEH6lAqE3kwhsHEQ", "review_count": 9, "categories": [{"alias": "hotdogs", "title": "Fast Food"}, {"alias": "chicken_wings", "title": "Chicken Wings"}, {"alias": "chickenshop", "title": "Chicken Shop"}], "rating": 1.5, "coordinates": {"latitude": 42.004470558156, "longitude": -71.5109498625948}, "transactions": ["delivery", "pickup"], "price": "$", "location": {"address1": "137 Clinton St", "address2": "", "address3": "", "city": "Woonsocket", "zip_code": "02895", "country": "US", "state": "RI", "display_address": ["137 Clinton St", "Woonsocket, RI 02895"]}, "phone": "+14017690022", "display_phone": "(401) 769-0022", "distance": 6704.315932541602}, {"id": "NQdkm_8TEqseBQrJBlZh2Q", "alias": "honey-dew-donuts-bellingham-2", "name": "Honey Dew Donuts", "image_url": "https://s3-media4.fl.yelpcdn.com/bphoto/_ccDRGcAkjd9iSsbEE9KJA/o.jpg", "is_closed": false, "url": "https://www.yelp.com/biz/honey-dew-donuts-bellingham-2?adjust_creative=HdhkN5EEH6lAqE3kwhsHEQ&utm_campaign=yelp_api_v3&utm_medium=api_v3_business_search&utm_source=HdhkN5EEH6lAqE3kwhsHEQ", "review_count": 6, "categories": [{"alias": "coffee", "title": "Coffee & Tea"}, {"alias": "donuts", "title": "Donuts"}, {"alias": "sandwiches", "title": "Sandwiches"}], "rating": 2.0, "coordinates": {"latitude": 42.0890579223633, "longitude": -71.4754180908203}, "transactions": ["delivery"], "price": "$", "location": {"address1": "19 N Main St", "address2": null, "address3": null, "city": "Bellingham", "zip_code": "02019", "country": "US", "state": "MA", "display_address": ["19 N Main St", "Bellingham, MA 02019"]}, "phone": "+15089661500", "display_phone": "(508) 966-1500", "distance": 10125.985445401731}, {"id": "MIsHA0JzI08BqGIx7ihTyw", "alias": "wendys-n-smithfield", "name": "Wendy's", "image_url": "https://s3-media3.fl.yelpcdn.com/bphoto/4bZcStHoybdceExkpalOAg/o.jpg", "is_closed": false, "url": "https://www.yelp.com/biz/wendys-n-smithfield?adjust_creative=HdhkN5EEH6lAqE3kwhsHEQ&utm_campaign=yelp_api_v3&utm_medium=api_v3_business_search&utm_source=HdhkN5EEH6lAqE3kwhsHEQ", "review_count": 12, "categories": [{"alias": "hotdogs", "title": "Fast Food"}, {"alias": "burgers", "title": "Burgers"}], "rating": 2.0, "coordinates": {"latitude": 41.980836, "longitude": -71.514454}, "transactions": ["delivery"], "price": "$", "location": {"address1": "77 Eddie Dowling Hwy", "address2": "", "address3": "", "city": "N.Smithfield", "zip_code": "02896", "country": "US", "state": "RI", "display_address": ["77 Eddie Dowling Hwy", "N.Smithfield, RI 02896"]}, "phone": "+14017651927", "display_phone": "(401) 765-1927", "distance": 8298.017528458022}, {"id": "VjQembHTErT0_scWO5rG9g", "alias": "dennys-north-smithfield-2", "name": "Denny's", "image_url": "https://s3-media3.fl.yelpcdn.com/bphoto/TeWYFLq2RvHKGG-2PHlbqQ/o.jpg", "is_closed": false, "url": "https://www.yelp.com/biz/dennys-north-smithfield-2?adjust_creative=HdhkN5EEH6lAqE3kwhsHEQ&utm_campaign=yelp_api_v3&utm_medium=api_v3_business_search&utm_source=HdhkN5EEH6lAqE3kwhsHEQ", "review_count": 48, "categories": [{"alias": "tradamerican", "title": "American (Traditional)"}, {"alias": "breakfast_brunch", "title": "Breakfast & Brunch"}, {"alias": "diners", "title": "Diners"}], "rating": 2.5, "coordinates": {"latitude": 41.979507030443, "longitude": -71.512028953373}, "transactions": ["delivery", "pickup"], "price": "$", "location": {"address1": "44 Dowling Village Blvd", "address2": "", "address3": "", "city": "North Smithfield", "zip_code": "02896", "country": "US", "state": "RI", "display_address": ["44 Dowling Village Blvd", "North Smithfield, RI 02896"]}, "phone": "+14013561109", "display_phone": "(401) 356-1109", "distance": 8538.112222650634}]