[{"id": "VgmF9wYir0QFy7M_coJspA", "alias": "hazels-kitchen-chicopee", "name": "Hazel's Kitchen", "image_url": "https://s3-media2.fl.yelpcdn.com/bphoto/X7fNNs1MoASaH7TI6JgyvQ/o.jpg", "is_closed": false, "url": "https://www.yelp.com/biz/hazels-kitchen-chicopee?adjust_creative=HdhkN5EEH6lAqE3kwhsHEQ&utm_campaign=yelp_api_v3&utm_medium=api_v3_business_search&utm_source=HdhkN5EEH6lAqE3kwhsHEQ", "review_count": 11, "categories": [{"alias": "caribbean", "title": "Caribbean"}, {"alias": "tradamerican", "title": "American (Traditional)"}], "rating": 4.5, "coordinates": {"latitude": 42.158195, "longitude": -72.583752}, "transactions": ["delivery"], "location": {"address1": "930 Chicopee St", "address2": "", "address3": null, "city": "Chicopee", "zip_code": "01013", "country": "US", "state": "MA", "display_address": ["930 Chicopee St", "Chicopee, MA 01013"]}, "phone": "+14133158261", "display_phone": "(413) 315-8261", "distance": 130.1550681414666}, {"id": "yJSHEKBuyam8y85Y3OzOVw", "alias": "kiyomi-chicopee-2", "name": "Kiyomi", "image_url": "https://s3-media1.fl.yelpcdn.com/bphoto/ym_KBylgAOozV2Y9bvV9vw/o.jpg", "is_closed": false, "url": "https://www.yelp.com/biz/kiyomi-chicopee-2?adjust_creative=HdhkN5EEH6lAqE3kwhsHEQ&utm_campaign=yelp_api_v3&utm_medium=api_v3_business_search&utm_source=HdhkN5EEH6lAqE3kwhsHEQ", "review_count": 12, "categories": [{"alias": "asianfusion", "title": "Asian Fusion"}, {"alias": "bars", "title": "Bars"}, {"alias": "sushi", "title": "Sushi Bars"}], "rating": 3.5, "coordinates": {"latitude": 42.169284, "longitude": -72.595036}, "transactions": [], "price": "$$", "location": {"address1": "481 Grattan St", "address2": null, "address3": "", "city": "Chicopee", "zip_code": "01020", "country": "US", "state": "MA", "display_address": ["481 Grattan St", "Chicopee, MA 01020"]}, "phone": "+14133159909", "display_phone": "(413) 315-9909", "distance": 1448.7691140183845}, {"id": "1o4zhv6Z8SqGfvsRivBQ0g", "alias": "cana-korean-restaurant-chicopee", "name": "Cana Korean Restaurant", "image_url": "https://s3-media3.fl.yelpcdn.com/bphoto/ygx_9UEtZ-u1F_xGnvtMtg/o.jpg", "is_closed": false, "url": "https://www.yelp.com/biz/cana-korean-restaurant-chicopee?adjust_creative=HdhkN5EEH6lAqE3kwhsHEQ&utm_campaign=yelp_api_v3&utm_medium=api_v3_business_search&utm_source=HdhkN5EEH6lAqE3kwhsHEQ", "review_count": 223, "categories": [{"alias": "korean", "title": "Korean"}, {"alias": "soup", "title": "Soup"}, {"alias": "bbq", "title": "Barbeque"}], "rating": 4.5, "coordinates": {"latitude": 42.154492, "longitude": -72.5846364}, "transactions": ["delivery"], "price": "$$", "location": {"address1": "159 Grove St", "address2": "", "address3": "", "city": "Chicopee", "zip_code": "01020", "country": "US", "state": "MA", "display_address": ["159 Grove St", "Chicopee, MA 01020"]}, "phone": "+14135921362", "display_phone": "(413) 592-1362", "distance": 442.13096134350513}, {"id": "9_cGpZLwFYw5JVZaYX3XMQ", "alias": "blue-asian-cuisine-chicopee", "name": "Blue Asian Cuisine", "image_url": "https://s3-media2.fl.yelpcdn.com/bphoto/KKJZkay59ji2mTYWL08J0g/o.jpg", "is_closed": false, "url": "https://www.yelp.com/biz/blue-asian-cuisine-chicopee?adjust_creative=HdhkN5EEH6lAqE3kwhsHEQ&utm_campaign=yelp_api_v3&utm_medium=api_v3_business_search&utm_source=HdhkN5EEH6lAqE3kwhsHEQ", "review_count": 11, "categories": [{"alias": "chinese", "title": "Chinese"}], "rating": 4.0, "coordinates": {"latitude": 42.168886, "longitude": -72.593773}, "transactions": ["delivery"], "location": {"address1": "450 Grattan St", "address2": "", "address3": null, "city": "Chicopee", "zip_code": "01020", "country": "US", "state": "MA", "display_address": ["450 Grattan St", "Chicopee, MA 01020"]}, "phone": "+14133158898", "display_phone": "(413) 315-8898", "distance": 1355.6521605478858}, {"id": "jF3Y1RMN44YVdIixzWaC4Q", "alias": "saz\u00f3n-latino-2019-chicopee", "name": "Saz\u00f3n Latino 2019", "image_url": "https://s3-media1.fl.yelpcdn.com/bphoto/j29LoJRTnRzsVU9OY9mRJA/o.jpg", "is_closed": false, "url": "https://www.yelp.com/biz/saz%C3%B3n-latino-2019-chicopee?adjust_creative=HdhkN5EEH6lAqE3kwhsHEQ&utm_campaign=yelp_api_v3&utm_medium=api_v3_business_search&utm_source=HdhkN5EEH6lAqE3kwhsHEQ", "review_count": 1, "categories": [{"alias": "dominican", "title": "Dominican"}, {"alias": "puertorican", "title": "Puerto Rican"}, {"alias": "spanish", "title": "Spanish"}], "rating": 5.0, "coordinates": {"latitude": 42.15461, "longitude": -72.58028}, "transactions": ["delivery", "pickup"], "location": {"address1": "129 Broadway St", "address2": "", "address3": null, "city": "Chicopee", "zip_code": "01020", "country": "US", "state": "MA", "display_address": ["129 Broadway St", "Chicopee, MA 01020"]}, "phone": "+14133313938", "display_phone": "(413) 331-3938", "distance": 577.963079356597}, {"id": "PZQgCcfOxGo_xPCwCawksA", "alias": "munich-haus-chicopee", "name": "Munich Haus", "image_url": "https://s3-media1.fl.yelpcdn.com/bphoto/EdvRiO49YTzZ2xLRMsCtMw/o.jpg", "is_closed": false, "url": "https://www.yelp.com/biz/munich-haus-chicopee?adjust_creative=HdhkN5EEH6lAqE3kwhsHEQ&utm_campaign=yelp_api_v3&utm_medium=api_v3_business_search&utm_source=HdhkN5EEH6lAqE3kwhsHEQ", "review_count": 268, "categories": [{"alias": "german", "title": "German"}, {"alias": "wine_bars", "title": "Wine Bars"}, {"alias": "beerbar", "title": "Beer Bar"}], "rating": 4.0, "coordinates": {"latitude": 42.1478, "longitude": -72.60667}, "transactions": ["delivery", "pickup"], "price": "$$", "location": {"address1": "13 Center St", "address2": "", "address3": "", "city": "Chicopee", "zip_code": "01013", "country": "US", "state": "MA", "display_address": ["13 Center St", "Chicopee, MA 01013"]}, "phone": "+14135948788", "display_phone": "(413) 594-8788", "distance": 2121.377316836291}, {"id": "ALGLKupbx3-pZC6Dspd04g", "alias": "priya-indian-cuisine-chicopee", "name": "Priya Indian Cuisine", "image_url": "https://s3-media2.fl.yelpcdn.com/bphoto/I0F-2_2W-bV6iQD2tKdbfA/o.jpg", "is_closed": false, "url": "https://www.yelp.com/biz/priya-indian-cuisine-chicopee?adjust_creative=HdhkN5EEH6lAqE3kwhsHEQ&utm_campaign=yelp_api_v3&utm_medium=api_v3_business_search&utm_source=HdhkN5EEH6lAqE3kwhsHEQ", "review_count": 165, "categories": [{"alias": "indpak", "title": "Indian"}, {"alias": "buffets", "title": "Buffets"}, {"alias": "desserts", "title": "Desserts"}], "rating": 4.5, "coordinates": {"latitude": 42.1706892199702, "longitude": -72.5779697022709}, "transactions": ["delivery", "pickup"], "price": "$$", "location": {"address1": "460 Memorial Dr", "address2": "", "address3": "", "city": "Chicopee", "zip_code": "01020", "country": "US", "state": "MA", "display_address": ["460 Memorial Dr", "Chicopee, MA 01020"]}, "phone": "+14135945555", "display_phone": "(413) 594-5555", "distance": 1490.1266276494896}, {"id": "UJjKiEWRvmJ4hW9uG4gsUg", "alias": "milanos-pizzaria-and-restaurant-chicopee", "name": "Milano's Pizzaria & Restaurant", "image_url": "https://s3-media1.fl.yelpcdn.com/bphoto/t6cgkr8f-fjw353JmW1ITg/o.jpg", "is_closed": false, "url": "https://www.yelp.com/biz/milanos-pizzaria-and-restaurant-chicopee?adjust_creative=HdhkN5EEH6lAqE3kwhsHEQ&utm_campaign=yelp_api_v3&utm_medium=api_v3_business_search&utm_source=HdhkN5EEH6lAqE3kwhsHEQ", "review_count": 68, "categories": [{"alias": "pizza", "title": "Pizza"}], "rating": 4.0, "coordinates": {"latitude": 42.14748, "longitude": -72.56495}, "transactions": ["delivery"], "price": "$$", "location": {"address1": "340 Carew St", "address2": "", "address3": "", "city": "Chicopee", "zip_code": "01020", "country": "US", "state": "MA", "display_address": ["340 Carew St", "Chicopee, MA 01020"]}, "phone": "+14135942857", "display_phone": "(413) 594-2857", "distance": 2061.8579573065645}, {"id": "qWDaMz6HTSelLN6sgfxuqQ", "alias": "savor-latino-restaurant-chicopee", "name": "Savor Latino Restaurant", "image_url": "https://s3-media2.fl.yelpcdn.com/bphoto/1MSO3mXnrERAHzC2UdoyNg/o.jpg", "is_closed": false, "url": "https://www.yelp.com/biz/savor-latino-restaurant-chicopee?adjust_creative=HdhkN5EEH6lAqE3kwhsHEQ&utm_campaign=yelp_api_v3&utm_medium=api_v3_business_search&utm_source=HdhkN5EEH6lAqE3kwhsHEQ", "review_count": 9, "categories": [{"alias": "spanish", "title": "Spanish"}], "rating": 4.5, "coordinates": {"latitude": 42.1630898863077, "longitude": -72.6139674335718}, "transactions": ["delivery"], "location": {"address1": "872 Meadow St", "address2": "", "address3": null, "city": "Chicopee", "zip_code": "01013", "country": "US", "state": "MA", "display_address": ["872 Meadow St", "Chicopee, MA 01013"]}, "phone": "+14133312884", "display_phone": "(413) 331-2884", "distance": 2433.4423999073056}, {"id": "N49WTY9ZwUyq0OOl2cZ3_g", "alias": "bottega-cucina-west-springfield", "name": "Bottega Cucina", "image_url": "https://s3-media2.fl.yelpcdn.com/bphoto/DTUveVE3ahTnSgPx9EZNog/o.jpg", "is_closed": false, "url": "https://www.yelp.com/biz/bottega-cucina-west-springfield?adjust_creative=HdhkN5EEH6lAqE3kwhsHEQ&utm_campaign=yelp_api_v3&utm_medium=api_v3_business_search&utm_source=HdhkN5EEH6lAqE3kwhsHEQ", "review_count": 171, "categories": [{"alias": "italian", "title": "Italian"}], "rating": 4.0, "coordinates": {"latitude": 42.1301166, "longitude": -72.6281709}, "transactions": ["delivery"], "price": "$$", "location": {"address1": "46 Morgan Rd", "address2": null, "address3": "", "city": "West Springfield", "zip_code": "01089", "country": "US", "state": "MA", "display_address": ["46 Morgan Rd", "West Springfield, MA 01089"]}, "phone": "+14137322500", "display_phone": "(413) 732-2500", "distance": 4734.167058147825}, {"id": "LtJgv5DArFGfARgH4KyL_Q", "alias": "the-collegian-court-chicopee", "name": "The Collegian Court", "image_url": "https://s3-media1.fl.yelpcdn.com/bphoto/uWW0tYWBMDcYJ79LkKXT-Q/o.jpg", "is_closed": false, "url": "https://www.yelp.com/biz/the-collegian-court-chicopee?adjust_creative=HdhkN5EEH6lAqE3kwhsHEQ&utm_campaign=yelp_api_v3&utm_medium=api_v3_business_search&utm_source=HdhkN5EEH6lAqE3kwhsHEQ", "review_count": 44, "categories": [{"alias": "polish", "title": "Polish"}, {"alias": "tradamerican", "title": "American (Traditional)"}], "rating": 3.5, "coordinates": {"latitude": 42.1456488221884, "longitude": -72.6093392819166}, "transactions": ["delivery", "pickup"], "price": "$$", "location": {"address1": "89 Park St", "address2": null, "address3": null, "city": "Chicopee", "zip_code": "01013", "country": "US", "state": "MA", "display_address": ["89 Park St", "Chicopee, MA 01013"]}, "phone": "+14133314444", "display_phone": "(413) 331-4444", "distance": 2439.3806753003296}, {"id": "QUKEmDdtWZXQ0A-Uq5Mu6Q", "alias": "the-copperline-eatery-chicopee-3", "name": "The Copperline Eatery", "image_url": "https://s3-media4.fl.yelpcdn.com/bphoto/y3f8vFeQZynUPox2DS1BIw/o.jpg", "is_closed": false, "url": "https://www.yelp.com/biz/the-copperline-eatery-chicopee-3?adjust_creative=HdhkN5EEH6lAqE3kwhsHEQ&utm_campaign=yelp_api_v3&utm_medium=api_v3_business_search&utm_source=HdhkN5EEH6lAqE3kwhsHEQ", "review_count": 71, "categories": [{"alias": "breakfast_brunch", "title": "Breakfast & Brunch"}, {"alias": "tradamerican", "title": "American (Traditional)"}, {"alias": "diners", "title": "Diners"}], "rating": 4.0, "coordinates": {"latitude": 42.1467693075963, "longitude": -72.5797014306625}, "transactions": ["delivery"], "price": "$", "location": {"address1": "409 Broadway St", "address2": "", "address3": "", "city": "Chicopee", "zip_code": "01020", "country": "US", "state": "MA", "display_address": ["409 Broadway St", "Chicopee, MA 01020"]}, "phone": "+14135948332", "display_phone": "(413) 594-8332", "distance": 1364.2931194848863}, {"id": "Gf2HBhaLH-g6qsJzyWVEYw", "alias": "eat-springfield-2", "name": "Eat", "image_url": "https://s3-media4.fl.yelpcdn.com/bphoto/6bBTHJwbJKGCUoPCv3NAIQ/o.jpg", "is_closed": false, "url": "https://www.yelp.com/biz/eat-springfield-2?adjust_creative=HdhkN5EEH6lAqE3kwhsHEQ&utm_campaign=yelp_api_v3&utm_medium=api_v3_business_search&utm_source=HdhkN5EEH6lAqE3kwhsHEQ", "review_count": 168, "categories": [{"alias": "breakfast_brunch", "title": "Breakfast & Brunch"}, {"alias": "newamerican", "title": "American (New)"}, {"alias": "sandwiches", "title": "Sandwiches"}], "rating": 4.5, "coordinates": {"latitude": 42.1404, "longitude": -72.55842}, "transactions": ["delivery", "pickup"], "price": "$", "location": {"address1": "609 Page Blvd", "address2": "", "address3": "", "city": "Springfield", "zip_code": "01104", "country": "US", "state": "MA", "display_address": ["609 Page Blvd", "Springfield, MA 01104"]}, "phone": "+14132760040", "display_phone": "(413) 276-0040", "distance": 2979.1064739382928}, {"id": "f4hkM5UYLwqYUzat3NVC4Q", "alias": "chinos-pizzeria-and-grille-chicopee", "name": "Chinos Pizzeria and Grille", "image_url": "https://s3-media1.fl.yelpcdn.com/bphoto/QUp5if6lG3tLvNzrGl4UZQ/o.jpg", "is_closed": false, "url": "https://www.yelp.com/biz/chinos-pizzeria-and-grille-chicopee?adjust_creative=HdhkN5EEH6lAqE3kwhsHEQ&utm_campaign=yelp_api_v3&utm_medium=api_v3_business_search&utm_source=HdhkN5EEH6lAqE3kwhsHEQ", "review_count": 1, "categories": [{"alias": "pizza", "title": "Pizza"}, {"alias": "salad", "title": "Salad"}, {"alias": "sandwiches", "title": "Sandwiches"}], "rating": 2.0, "coordinates": {"latitude": 42.154425, "longitude": -72.580792}, "transactions": [], "location": {"address1": "140 Broadway", "address2": null, "address3": "", "city": "Chicopee", "zip_code": "01020", "country": "US", "state": "MA", "display_address": ["140 Broadway", "Chicopee, MA 01020"]}, "phone": "+14135988488", "display_phone": "(413) 598-8488", "distance": 582.6911089606187}, {"id": "zz2DmnVuM2tE8AEqmFcgpQ", "alias": "tasty-rican-kitchen-chicopee", "name": "Tasty-Rican Kitchen", "image_url": "https://s3-media1.fl.yelpcdn.com/bphoto/O4o330n2UErnkKwgRWLoiQ/o.jpg", "is_closed": false, "url": "https://www.yelp.com/biz/tasty-rican-kitchen-chicopee?adjust_creative=HdhkN5EEH6lAqE3kwhsHEQ&utm_campaign=yelp_api_v3&utm_medium=api_v3_business_search&utm_source=HdhkN5EEH6lAqE3kwhsHEQ", "review_count": 1, "categories": [{"alias": "puertorican", "title": "Puerto Rican"}, {"alias": "tradamerican", "title": "American (Traditional)"}], "rating": 4.0, "coordinates": {"latitude": 42.19008667, "longitude": -72.60306833}, "transactions": [], "location": {"address1": "928-930 Chicopee St", "address2": null, "address3": null, "city": "Chicopee", "zip_code": "01013", "country": "US", "state": "MA", "display_address": ["928-930 Chicopee St", "Chicopee, MA 01013"]}, "phone": "+14133159673", "display_phone": "(413) 315-9673", "distance": 3821.9153013298646}, {"id": "4KBEoOPg9MuspRAo59XadQ", "alias": "cals-wood-fired-grill-and-bar-west-springfield", "name": "Cal's Woodfired Grill and Bar", "image_url": "https://s3-media1.fl.yelpcdn.com/bphoto/LsYAk5P2B-9Dx-kQAm_-zw/o.jpg", "is_closed": false, "url": "https://www.yelp.com/biz/cals-wood-fired-grill-and-bar-west-springfield?adjust_creative=HdhkN5EEH6lAqE3kwhsHEQ&utm_campaign=yelp_api_v3&utm_medium=api_v3_business_search&utm_source=HdhkN5EEH6lAqE3kwhsHEQ", "review_count": 207, "categories": [{"alias": "seafood", "title": "Seafood"}, {"alias": "tradamerican", "title": "American (Traditional)"}, {"alias": "venues", "title": "Venues & Event Spaces"}], "rating": 3.5, "coordinates": {"latitude": 42.13308, "longitude": -72.62641}, "transactions": ["delivery"], "price": "$$", "location": {"address1": "1068 Riverdale St", "address2": null, "address3": null, "city": "West Springfield", "zip_code": "01089", "country": "US", "state": "MA", "display_address": ["1068 Riverdale St", "West Springfield, MA 01089"]}, "phone": "+14138279353", "display_phone": "(413) 827-9353", "distance": 4407.857793680488}, {"id": "q5YmJKFz7LetrJrJYBiifQ", "alias": "homestyle-cafe-chicopee", "name": "Homestyle Cafe", "image_url": "https://s3-media3.fl.yelpcdn.com/bphoto/9oEXPJVFy7ZoyqP4KzeLXw/o.jpg", "is_closed": false, "url": "https://www.yelp.com/biz/homestyle-cafe-chicopee?adjust_creative=HdhkN5EEH6lAqE3kwhsHEQ&utm_campaign=yelp_api_v3&utm_medium=api_v3_business_search&utm_source=HdhkN5EEH6lAqE3kwhsHEQ", "review_count": 18, "categories": [{"alias": "diners", "title": "Diners"}, {"alias": "cafes", "title": "Cafes"}], "rating": 4.5, "coordinates": {"latitude": 42.18248, "longitude": -72.5686}, "transactions": ["delivery"], "price": "$$", "location": {"address1": "1780 Westover Rd", "address2": "", "address3": "", "city": "Chicopee", "zip_code": "01020", "country": "US", "state": "MA", "display_address": ["1780 Westover Rd", "Chicopee, MA 01020"]}, "phone": "+14135933282", "display_phone": "(413) 593-3282", "distance": 2999.6261169460454}, {"id": "_8jUpQ0lA978MMWdSmAccQ", "alias": "bernats-polish-deli-chicopee", "name": "Bernat's Polish Deli", "image_url": "https://s3-media1.fl.yelpcdn.com/bphoto/05s8Gm29vi7kLqZXaMdj3w/o.jpg", "is_closed": false, "url": "https://www.yelp.com/biz/bernats-polish-deli-chicopee?adjust_creative=HdhkN5EEH6lAqE3kwhsHEQ&utm_campaign=yelp_api_v3&utm_medium=api_v3_business_search&utm_source=HdhkN5EEH6lAqE3kwhsHEQ", "review_count": 7, "categories": [{"alias": "delis", "title": "Delis"}, {"alias": "bakeries", "title": "Bakeries"}, {"alias": "polish", "title": "Polish"}], "rating": 5.0, "coordinates": {"latitude": 42.1622993052006, "longitude": -72.6137756556273}, "transactions": [], "price": "$", "location": {"address1": "895 Meadow St", "address2": "", "address3": "", "city": "Chicopee", "zip_code": "01013", "country": "US", "state": "MA", "display_address": ["895 Meadow St", "Chicopee, MA 01013"]}, "phone": "+14135948768", "display_phone": "(413) 594-8768", "distance": 2368.3941804896126}, {"id": "KVOvPk_P_mEoMqiY7VSSfw", "alias": "99-restaurants-chicopee-2", "name": "99 Restaurants", "image_url": "https://s3-media3.fl.yelpcdn.com/bphoto/vURGVc0-Sl2pv286qwuIWw/o.jpg", "is_closed": false, "url": "https://www.yelp.com/biz/99-restaurants-chicopee-2?adjust_creative=HdhkN5EEH6lAqE3kwhsHEQ&utm_campaign=yelp_api_v3&utm_medium=api_v3_business_search&utm_source=HdhkN5EEH6lAqE3kwhsHEQ", "review_count": 22, "categories": [{"alias": "hotdogs", "title": "Fast Food"}], "rating": 3.5, "coordinates": {"latitude": 42.1727982, "longitude": -72.5764923}, "transactions": [], "price": "$$", "location": {"address1": "555 Memorial Dr", "address2": "", "address3": "", "city": "Chicopee", "zip_code": "01020", "country": "US", "state": "MA", "display_address": ["555 Memorial Dr", "Chicopee, MA 01020"]}, "phone": "+14135939909", "display_phone": "(413) 593-9909", "distance": 1788.69381303784}, {"id": "64FEB431hVFw13U8K-reKQ", "alias": "johns-pizzeria-and-restaurant-chicopee-2", "name": "John's Pizzeria & Restaurant", "image_url": "https://s3-media1.fl.yelpcdn.com/bphoto/5G5IjlkPJegDpAicp94uWg/o.jpg", "is_closed": false, "url": "https://www.yelp.com/biz/johns-pizzeria-and-restaurant-chicopee-2?adjust_creative=HdhkN5EEH6lAqE3kwhsHEQ&utm_campaign=yelp_api_v3&utm_medium=api_v3_business_search&utm_source=HdhkN5EEH6lAqE3kwhsHEQ", "review_count": 38, "categories": [{"alias": "pizza", "title": "Pizza"}, {"alias": "italian", "title": "Italian"}, {"alias": "sandwiches", "title": "Sandwiches"}], "rating": 4.0, "coordinates": {"latitude": 42.147989, "longitude": -72.60077}, "transactions": ["delivery", "pickup"], "price": "$$", "location": {"address1": "424 Front St", "address2": "", "address3": "", "city": "Chicopee", "zip_code": "01013", "country": "US", "state": "MA", "display_address": ["424 Front St", "Chicopee, MA 01013"]}, "phone": "+14135921715", "display_phone": "(413) 592-1715", "distance": 1725.381849739238}, {"id": "rBSbu0kghegZKC-K4a2g7A", "alias": "shallot-thai-cuisine-west-springfield", "name": "Shallot Thai Cuisine", "image_url": "https://s3-media2.fl.yelpcdn.com/bphoto/OUK28nkrEVB69x4SPLpdJA/o.jpg", "is_closed": false, "url": "https://www.yelp.com/biz/shallot-thai-cuisine-west-springfield?adjust_creative=HdhkN5EEH6lAqE3kwhsHEQ&utm_campaign=yelp_api_v3&utm_medium=api_v3_business_search&utm_source=HdhkN5EEH6lAqE3kwhsHEQ", "review_count": 135, "categories": [{"alias": "thai", "title": "Thai"}], "rating": 4.0, "coordinates": {"latitude": 42.1433487, "longitude": -72.6280454}, "transactions": ["delivery"], "price": "$$", "location": {"address1": "1455 Riverdale St", "address2": "", "address3": "", "city": "West Springfield", "zip_code": "01089", "country": "US", "state": "MA", "display_address": ["1455 Riverdale St", "West Springfield, MA 01089"]}, "phone": "+14137315221", "display_phone": "(413) 731-5221", "distance": 3897.19984816696}, {"id": "6OU5tZ84LbP6RBDNtUBcFA", "alias": "pulaski-hall-chicopee", "name": "Pulaski Hall", "image_url": "https://s3-media2.fl.yelpcdn.com/bphoto/k73QJU0YindaeXxTPbI4fw/o.jpg", "is_closed": false, "url": "https://www.yelp.com/biz/pulaski-hall-chicopee?adjust_creative=HdhkN5EEH6lAqE3kwhsHEQ&utm_campaign=yelp_api_v3&utm_medium=api_v3_business_search&utm_source=HdhkN5EEH6lAqE3kwhsHEQ", "review_count": 8, "categories": [{"alias": "polish", "title": "Polish"}, {"alias": "tradamerican", "title": "American (Traditional)"}], "rating": 3.5, "coordinates": {"latitude": 42.1823313832283, "longitude": -72.6150839030743}, "transactions": ["delivery"], "price": "$$", "location": {"address1": "13 Norman St", "address2": "", "address3": "", "city": "Chicopee", "zip_code": "01013", "country": "US", "state": "MA", "display_address": ["13 Norman St", "Chicopee, MA 01013"]}, "phone": "+14135347388", "display_phone": "(413) 534-7388", "distance": 3617.7825259311303}, {"id": "JMs-UHlp8eBJahnY74h9Jw", "alias": "red-fez-bar-and-grill-chicopee-2", "name": "Red Fez Bar & Grill", "image_url": "https://s3-media2.fl.yelpcdn.com/bphoto/pIy2FAdFQgUdjzvVIh3tQg/o.jpg", "is_closed": false, "url": "https://www.yelp.com/biz/red-fez-bar-and-grill-chicopee-2?adjust_creative=HdhkN5EEH6lAqE3kwhsHEQ&utm_campaign=yelp_api_v3&utm_medium=api_v3_business_search&utm_source=HdhkN5EEH6lAqE3kwhsHEQ", "review_count": 10, "categories": [{"alias": "bars", "title": "Bars"}, {"alias": "portuguese", "title": "Portuguese"}, {"alias": "tradamerican", "title": "American (Traditional)"}], "rating": 4.0, "coordinates": {"latitude": 42.14566, "longitude": -72.61261}, "transactions": [], "price": "$$", "location": {"address1": "70 Exchange St", "address2": "", "address3": "", "city": "Chicopee", "zip_code": "01013", "country": "US", "state": "MA", "display_address": ["70 Exchange St", "Chicopee, MA 01013"]}, "phone": "+14133313534", "display_phone": "(413) 331-3534", "distance": 2665.496140943788}, {"id": "PqsSDSq31EnyXpMHG4_x8w", "alias": "mesa-buffet-springfield", "name": "Mesa Buffet", "image_url": "https://s3-media3.fl.yelpcdn.com/bphoto/OB8ijhJwR9nP5PN4IxVGuQ/o.jpg", "is_closed": false, "url": "https://www.yelp.com/biz/mesa-buffet-springfield?adjust_creative=HdhkN5EEH6lAqE3kwhsHEQ&utm_campaign=yelp_api_v3&utm_medium=api_v3_business_search&utm_source=HdhkN5EEH6lAqE3kwhsHEQ", "review_count": 47, "categories": [{"alias": "buffets", "title": "Buffets"}, {"alias": "spanish", "title": "Spanish"}], "rating": 3.5, "coordinates": {"latitude": 42.1387376, "longitude": -72.582476}, "transactions": ["delivery", "pickup"], "price": "$$", "location": {"address1": "1301 Liberty St", "address2": "", "address3": null, "city": "Springfield", "zip_code": "01104", "country": "US", "state": "MA", "display_address": ["1301 Liberty St", "Springfield, MA 01104"]}, "phone": "+14134176855", "display_phone": "(413) 417-6855", "distance": 2409.5317738056488}, {"id": "HQLngGuq0iyE0MK9bh754g", "alias": "carrabbas-italian-grill-w-springfield-2", "name": "Carrabba's Italian Grill", "image_url": "https://s3-media2.fl.yelpcdn.com/bphoto/E9puGUX2E3e43JZYuM3L4Q/o.jpg", "is_closed": false, "url": "https://www.yelp.com/biz/carrabbas-italian-grill-w-springfield-2?adjust_creative=HdhkN5EEH6lAqE3kwhsHEQ&utm_campaign=yelp_api_v3&utm_medium=api_v3_business_search&utm_source=HdhkN5EEH6lAqE3kwhsHEQ", "review_count": 76, "categories": [{"alias": "italian", "title": "Italian"}, {"alias": "seafood", "title": "Seafood"}], "rating": 3.5, "coordinates": {"latitude": 42.1299778, "longitude": -72.6260722}, "transactions": ["delivery"], "price": "$$", "location": {"address1": "955 Riverdale St", "address2": "", "address3": "", "city": "W Springfield", "zip_code": "01089", "country": "US", "state": "MA", "display_address": ["955 Riverdale St", "W Springfield, MA 01089"]}, "phone": "+14137333960", "display_phone": "(413) 733-3960", "distance": 4578.683644279522}, {"id": "EtLwVqfMpBT4KcFf_qq8iA", "alias": "falls-pizza-and-grinders-chicopee", "name": "Falls Pizza & Grinders", "image_url": "https://s3-media1.fl.yelpcdn.com/bphoto/jLk0Wihs_CuWTEcNImkQyg/o.jpg", "is_closed": false, "url": "https://www.yelp.com/biz/falls-pizza-and-grinders-chicopee?adjust_creative=HdhkN5EEH6lAqE3kwhsHEQ&utm_campaign=yelp_api_v3&utm_medium=api_v3_business_search&utm_source=HdhkN5EEH6lAqE3kwhsHEQ", "review_count": 24, "categories": [{"alias": "pizza", "title": "Pizza"}], "rating": 2.5, "coordinates": {"latitude": 42.1586214, "longitude": -72.5836589}, "transactions": ["delivery"], "price": "$", "location": {"address1": "103 Main St", "address2": "", "address3": "", "city": "Chicopee", "zip_code": "01020", "country": "US", "state": "MA", "display_address": ["103 Main St", "Chicopee, MA 01020"]}, "phone": "+14135949133", "display_phone": "(413) 594-9133", "distance": 184.18809801857893}, {"id": "9Vn2Ol3v1B3OOm1j8-Bu7g", "alias": "great-wall-chicopee-2", "name": "Great Wall", "image_url": "https://s3-media4.fl.yelpcdn.com/bphoto/zWgdyqnTJvtHNQj0AqqWHg/o.jpg", "is_closed": false, "url": "https://www.yelp.com/biz/great-wall-chicopee-2?adjust_creative=HdhkN5EEH6lAqE3kwhsHEQ&utm_campaign=yelp_api_v3&utm_medium=api_v3_business_search&utm_source=HdhkN5EEH6lAqE3kwhsHEQ", "review_count": 10, "categories": [{"alias": "chinese", "title": "Chinese"}], "rating": 4.0, "coordinates": {"latitude": 42.173807, "longitude": -72.534199}, "transactions": ["delivery"], "price": "$$", "location": {"address1": "27 White Birch Plz", "address2": "", "address3": "", "city": "Chicopee", "zip_code": "01020", "country": "US", "state": "MA", "display_address": ["27 White Birch Plz", "Chicopee, MA 01020"]}, "phone": "+14135924504", "display_phone": "(413) 592-4504", "distance": 4544.890799590071}, {"id": "pFmfdPeudxQ-zijZzOg-Hg", "alias": "chick-e-d-s-springfield", "name": "Chick E. D\u2019s ", "image_url": "https://s3-media3.fl.yelpcdn.com/bphoto/hX02qFC_rahJOfLUPnD3yQ/o.jpg", "is_closed": false, "url": "https://www.yelp.com/biz/chick-e-d-s-springfield?adjust_creative=HdhkN5EEH6lAqE3kwhsHEQ&utm_campaign=yelp_api_v3&utm_medium=api_v3_business_search&utm_source=HdhkN5EEH6lAqE3kwhsHEQ", "review_count": 10, "categories": [{"alias": "wraps", "title": "Wraps"}, {"alias": "tradamerican", "title": "American (Traditional)"}, {"alias": "chicken_wings", "title": "Chicken Wings"}], "rating": 4.5, "coordinates": {"latitude": 42.1371574816286, "longitude": -72.5688110604272}, "transactions": [], "location": {"address1": "1375 Carew St", "address2": "", "address3": null, "city": "Springfield", "zip_code": "01104", "country": "US", "state": "MA", "display_address": ["1375 Carew St", "Springfield, MA 01104"]}, "phone": "+14133018582", "display_phone": "(413) 301-8582", "distance": 2728.811577504026}, {"id": "KI53NtpdG9FurpmDP5r3AA", "alias": "ninety-nine-chicopee", "name": "Ninety Nine", "image_url": "", "is_closed": false, "url": "https://www.yelp.com/biz/ninety-nine-chicopee?adjust_creative=HdhkN5EEH6lAqE3kwhsHEQ&utm_campaign=yelp_api_v3&utm_medium=api_v3_business_search&utm_source=HdhkN5EEH6lAqE3kwhsHEQ", "review_count": 5, "categories": [{"alias": "tradamerican", "title": "American (Traditional)"}], "rating": 5.0, "coordinates": {"latitude": 42.1729378403022, "longitude": -72.5761985778809}, "transactions": [], "price": "$$", "location": {"address1": "555 Memorial Dr", "address2": "", "address3": "", "city": "Chicopee", "zip_code": "01020", "country": "US", "state": "MA", "display_address": ["555 Memorial Dr", "Chicopee, MA 01020"]}, "phone": "", "display_phone": "", "distance": 1778.1514668213872}, {"id": "8LMvnlxsnSt8LY3lWrntgA", "alias": "d-and-g-jamaican-restaurant-springfield", "name": "D&G Jamaican Restaurant", "image_url": "https://s3-media2.fl.yelpcdn.com/bphoto/a9LD3m0obqckcWiwl4u2hw/o.jpg", "is_closed": false, "url": "https://www.yelp.com/biz/d-and-g-jamaican-restaurant-springfield?adjust_creative=HdhkN5EEH6lAqE3kwhsHEQ&utm_campaign=yelp_api_v3&utm_medium=api_v3_business_search&utm_source=HdhkN5EEH6lAqE3kwhsHEQ", "review_count": 7, "categories": [{"alias": "caribbean", "title": "Caribbean"}], "rating": 5.0, "coordinates": {"latitude": 42.125518, "longitude": -72.535415}, "transactions": ["delivery"], "location": {"address1": "5 Preston St", "address2": "", "address3": null, "city": "Springfield", "zip_code": "01109", "country": "US", "state": "MA", "display_address": ["5 Preston St", "Springfield, MA 01109"]}, "phone": "+14137463642", "display_phone": "(413) 746-3642", "distance": 5505.79404155277}, {"id": "WcbtvWUU_7GDZysfKqjHAA", "alias": "royal-buffet-chicopee-2", "name": "Royal Buffet", "image_url": "https://s3-media1.fl.yelpcdn.com/bphoto/4731EEVI_vYeP77GhoZgdg/o.jpg", "is_closed": false, "url": "https://www.yelp.com/biz/royal-buffet-chicopee-2?adjust_creative=HdhkN5EEH6lAqE3kwhsHEQ&utm_campaign=yelp_api_v3&utm_medium=api_v3_business_search&utm_source=HdhkN5EEH6lAqE3kwhsHEQ", "review_count": 32, "categories": [{"alias": "buffets", "title": "Buffets"}, {"alias": "chinese", "title": "Chinese"}], "rating": 2.5, "coordinates": {"latitude": 42.173787, "longitude": -72.571905}, "transactions": [], "price": "$$", "location": {"address1": "591 Memorial Dr", "address2": "Ste G", "address3": "", "city": "Chicopee", "zip_code": "01020", "country": "US", "state": "MA", "display_address": ["591 Memorial Dr", "Ste G", "Chicopee, MA 01020"]}, "phone": "+14135938838", "display_phone": "(413) 593-8838", "distance": 2032.5149863659137}, {"id": "CRYVcsSSZZQ3niPtZ0oh-Q", "alias": "windsor-cafe-chicopee", "name": "Windsor Cafe", "image_url": "https://s3-media1.fl.yelpcdn.com/bphoto/v6chb_trEAu6wPv6F1mhsA/o.jpg", "is_closed": false, "url": "https://www.yelp.com/biz/windsor-cafe-chicopee?adjust_creative=HdhkN5EEH6lAqE3kwhsHEQ&utm_campaign=yelp_api_v3&utm_medium=api_v3_business_search&utm_source=HdhkN5EEH6lAqE3kwhsHEQ", "review_count": 1, "categories": [{"alias": "divebars", "title": "Dive Bars"}, {"alias": "cafes", "title": "Cafes"}], "rating": 5.0, "coordinates": {"latitude": 42.1586266, "longitude": -72.5838547}, "transactions": [], "location": {"address1": "101 Main St", "address2": "", "address3": "", "city": "Chicopee", "zip_code": "01020", "country": "US", "state": "MA", "display_address": ["101 Main St", "Chicopee, MA 01020"]}, "phone": "+14135947221", "display_phone": "(413) 594-7221", "distance": 196.1540548968725}, {"id": "I4lgSBkRb99Sj6O4jx2Y_A", "alias": "masses-american-bistro-chicopee", "name": "Masse's American Bistro", "image_url": "https://s3-media3.fl.yelpcdn.com/bphoto/MECaMAOx0zZaz8ra8Npw3g/o.jpg", "is_closed": false, "url": "https://www.yelp.com/biz/masses-american-bistro-chicopee?adjust_creative=HdhkN5EEH6lAqE3kwhsHEQ&utm_campaign=yelp_api_v3&utm_medium=api_v3_business_search&utm_source=HdhkN5EEH6lAqE3kwhsHEQ", "review_count": 83, "categories": [{"alias": "seafood", "title": "Seafood"}, {"alias": "newamerican", "title": "American (New)"}, {"alias": "cocktailbars", "title": "Cocktail Bars"}], "rating": 3.0, "coordinates": {"latitude": 42.19356, "longitude": -72.5748}, "transactions": ["delivery"], "price": "$$", "location": {"address1": "1329 Memorial Dr", "address2": "", "address3": "", "city": "Chicopee", "zip_code": "01020", "country": "US", "state": "MA", "display_address": ["1329 Memorial Dr", "Chicopee, MA 01020"]}, "phone": "+14133158501", "display_phone": "(413) 315-8501", "distance": 4022.635984061272}, {"id": "erqQ3-F8jVBQMZ1Stg95EQ", "alias": "als-diner-chicopee", "name": "Al's Diner", "image_url": "https://s3-media1.fl.yelpcdn.com/bphoto/hqkeC_WakHOk6o4W8DGInQ/o.jpg", "is_closed": false, "url": "https://www.yelp.com/biz/als-diner-chicopee?adjust_creative=HdhkN5EEH6lAqE3kwhsHEQ&utm_campaign=yelp_api_v3&utm_medium=api_v3_business_search&utm_source=HdhkN5EEH6lAqE3kwhsHEQ", "review_count": 44, "categories": [{"alias": "diners", "title": "Diners"}], "rating": 4.0, "coordinates": {"latitude": 42.1918989, "longitude": -72.5988849}, "transactions": ["delivery"], "price": "$", "location": {"address1": "14 Yelle St", "address2": "", "address3": "", "city": "Chicopee", "zip_code": "01013", "country": "US", "state": "MA", "display_address": ["14 Yelle St", "Chicopee, MA 01013"]}, "phone": "+14135343607", "display_phone": "(413) 534-3607", "distance": 3887.8140493832416}, {"id": "Wi2ErQPmjlBNSnAileL03w", "alias": "fifties-diner-chicopee", "name": "Fifties Diner", "image_url": "https://s3-media1.fl.yelpcdn.com/bphoto/ONsijm4olWGT4dQxNW06IA/o.jpg", "is_closed": false, "url": "https://www.yelp.com/biz/fifties-diner-chicopee?adjust_creative=HdhkN5EEH6lAqE3kwhsHEQ&utm_campaign=yelp_api_v3&utm_medium=api_v3_business_search&utm_source=HdhkN5EEH6lAqE3kwhsHEQ", "review_count": 66, "categories": [{"alias": "tradamerican", "title": "American (Traditional)"}, {"alias": "diners", "title": "Diners"}, {"alias": "breakfast_brunch", "title": "Breakfast & Brunch"}], "rating": 3.0, "coordinates": {"latitude": 42.1660070555322, "longitude": -72.5451809033657}, "transactions": ["delivery"], "price": "$", "location": {"address1": "363 Burnett Rd", "address2": "", "address3": "", "city": "Chicopee", "zip_code": "01020", "country": "US", "state": "MA", "display_address": ["363 Burnett Rd", "Chicopee, MA 01020"]}, "phone": "+14135945436", "display_phone": "(413) 594-5436", "distance": 3411.890413955984}, {"id": "WzPN0PgbX7d7fE_z1uJwuQ", "alias": "outback-steakhouse-west-springfield-2", "name": "Outback Steakhouse", "image_url": "https://s3-media4.fl.yelpcdn.com/bphoto/Pn77AxR4bG9rdUFeQQ48xQ/o.jpg", "is_closed": false, "url": "https://www.yelp.com/biz/outback-steakhouse-west-springfield-2?adjust_creative=HdhkN5EEH6lAqE3kwhsHEQ&utm_campaign=yelp_api_v3&utm_medium=api_v3_business_search&utm_source=HdhkN5EEH6lAqE3kwhsHEQ", "review_count": 41, "categories": [{"alias": "steak", "title": "Steakhouses"}], "rating": 3.5, "coordinates": {"latitude": 42.14542, "longitude": -72.62831}, "transactions": [], "price": "$$", "location": {"address1": "1537 Riverdale St", "address2": "", "address3": "", "city": "West Springfield", "zip_code": "01089", "country": "US", "state": "MA", "display_address": ["1537 Riverdale St", "West Springfield, MA 01089"]}, "phone": "+14137465700", "display_phone": "(413) 746-5700", "distance": 3851.7860012981214}, {"id": "ShvuSSnS0JjKDEGhZS0SUQ", "alias": "jennifers-kitchen-chicopee", "name": "Jennifer's Kitchen", "image_url": "https://s3-media3.fl.yelpcdn.com/bphoto/PqLHLE-VAzbOKgB-kkPffg/o.jpg", "is_closed": false, "url": "https://www.yelp.com/biz/jennifers-kitchen-chicopee?adjust_creative=HdhkN5EEH6lAqE3kwhsHEQ&utm_campaign=yelp_api_v3&utm_medium=api_v3_business_search&utm_source=HdhkN5EEH6lAqE3kwhsHEQ", "review_count": 11, "categories": [{"alias": "breakfast_brunch", "title": "Breakfast & Brunch"}], "rating": 4.0, "coordinates": {"latitude": 42.18266, "longitude": -72.6142}, "transactions": ["delivery"], "price": "$", "location": {"address1": "574 Chicopee St", "address2": "", "address3": "", "city": "Chicopee", "zip_code": "01013", "country": "US", "state": "MA", "display_address": ["574 Chicopee St", "Chicopee, MA 01013"]}, "phone": "+14135327758", "display_phone": "(413) 532-7758", "distance": 3588.394358855957}, {"id": "ZxeY2yXWPWPGk5HPVxn8FA", "alias": "china-star-chicopee", "name": "China Star", "image_url": "https://s3-media2.fl.yelpcdn.com/bphoto/-FyYXvdMRwEZf8y5_SiCxQ/o.jpg", "is_closed": false, "url": "https://www.yelp.com/biz/china-star-chicopee?adjust_creative=HdhkN5EEH6lAqE3kwhsHEQ&utm_campaign=yelp_api_v3&utm_medium=api_v3_business_search&utm_source=HdhkN5EEH6lAqE3kwhsHEQ", "review_count": 12, "categories": [{"alias": "chinese", "title": "Chinese"}], "rating": 2.5, "coordinates": {"latitude": 42.1583531, "longitude": -72.5839692}, "transactions": ["delivery", "pickup"], "location": {"address1": "80 Main St", "address2": "", "address3": "", "city": "Chicopee", "zip_code": "01020", "country": "US", "state": "MA", "display_address": ["80 Main St", "Chicopee, MA 01020"]}, "phone": "+14135980033", "display_phone": "(413) 598-0033", "distance": 156.10113663125696}, {"id": "iA8WqqDFclQ9iBGrnq8GMw", "alias": "doogans-deli-mart-chicopee", "name": "Doogan's Deli Mart", "image_url": "https://s3-media1.fl.yelpcdn.com/bphoto/E2oYOJBz7_C_kTozJy-uWw/o.jpg", "is_closed": false, "url": "https://www.yelp.com/biz/doogans-deli-mart-chicopee?adjust_creative=HdhkN5EEH6lAqE3kwhsHEQ&utm_campaign=yelp_api_v3&utm_medium=api_v3_business_search&utm_source=HdhkN5EEH6lAqE3kwhsHEQ", "review_count": 13, "categories": [{"alias": "pizza", "title": "Pizza"}], "rating": 2.5, "coordinates": {"latitude": 42.1544679, "longitude": -72.5807589}, "transactions": [], "price": "$", "location": {"address1": "140 Broadway St", "address2": "", "address3": "", "city": "Chicopee", "zip_code": "01020", "country": "US", "state": "MA", "display_address": ["140 Broadway St", "Chicopee, MA 01020"]}, "phone": "+14135988488", "display_phone": "(413) 598-8488", "distance": 582.6911089606187}, {"id": "W0RYdButnTP-93nLxXS2_A", "alias": "buffalo-wild-wings-chicopee-4", "name": "Buffalo Wild Wings", "image_url": "https://s3-media2.fl.yelpcdn.com/bphoto/xztcf6o6U3D56PbgDN8ZoA/o.jpg", "is_closed": false, "url": "https://www.yelp.com/biz/buffalo-wild-wings-chicopee-4?adjust_creative=HdhkN5EEH6lAqE3kwhsHEQ&utm_campaign=yelp_api_v3&utm_medium=api_v3_business_search&utm_source=HdhkN5EEH6lAqE3kwhsHEQ", "review_count": 69, "categories": [{"alias": "chicken_wings", "title": "Chicken Wings"}, {"alias": "sportsbars", "title": "Sports Bars"}, {"alias": "tradamerican", "title": "American (Traditional)"}], "rating": 3.0, "coordinates": {"latitude": 42.1720313771595, "longitude": -72.577751}, "transactions": [], "price": "$$", "location": {"address1": "480 Memorial Dr", "address2": "", "address3": "", "city": "Chicopee", "zip_code": "01020", "country": "US", "state": "MA", "display_address": ["480 Memorial Dr", "Chicopee, MA 01020"]}, "phone": "+14133315041", "display_phone": "(413) 331-5041", "distance": 1634.4579035625047}, {"id": "lVxHsAyvK2gVqZCZ7C1J6w", "alias": "chick-fil-a-chicopee", "name": "Chick-fil-A", "image_url": "https://s3-media2.fl.yelpcdn.com/bphoto/i58gwxnDfDTix1OagZLnuA/o.jpg", "is_closed": false, "url": "https://www.yelp.com/biz/chick-fil-a-chicopee?adjust_creative=HdhkN5EEH6lAqE3kwhsHEQ&utm_campaign=yelp_api_v3&utm_medium=api_v3_business_search&utm_source=HdhkN5EEH6lAqE3kwhsHEQ", "review_count": 105, "categories": [{"alias": "hotdogs", "title": "Fast Food"}, {"alias": "catering", "title": "Caterers"}], "rating": 4.5, "coordinates": {"latitude": 42.1712386, "longitude": -72.5765328}, "transactions": [], "price": "$", "location": {"address1": "501 Memorial Dr", "address2": "", "address3": "", "city": "Chicopee", "zip_code": "01020", "country": "US", "state": "MA", "display_address": ["501 Memorial Dr", "Chicopee, MA 01020"]}, "phone": "+14135924500", "display_phone": "(413) 592-4500", "distance": 1596.1526599403844}, {"id": "emyVSz0deVaoNEHcF3bbog", "alias": "bueno-y-sano-west-springfield", "name": "Bueno Y Sano", "image_url": "https://s3-media3.fl.yelpcdn.com/bphoto/etTn39kV1w6xafBDAFJ1xA/o.jpg", "is_closed": false, "url": "https://www.yelp.com/biz/bueno-y-sano-west-springfield?adjust_creative=HdhkN5EEH6lAqE3kwhsHEQ&utm_campaign=yelp_api_v3&utm_medium=api_v3_business_search&utm_source=HdhkN5EEH6lAqE3kwhsHEQ", "review_count": 71, "categories": [{"alias": "mexican", "title": "Mexican"}], "rating": 4.0, "coordinates": {"latitude": 42.128797342, "longitude": -72.6224309115}, "transactions": ["delivery", "pickup"], "price": "$", "location": {"address1": "935 Riverdale St", "address2": "", "address3": "", "city": "West Springfield", "zip_code": "01089", "country": "US", "state": "MA", "display_address": ["935 Riverdale St", "West Springfield, MA 01089"]}, "phone": "+14137371259", "display_phone": "(413) 737-1259", "distance": 4498.478188459252}, {"id": "nrLxUbJiQd6De_8yx7_jIQ", "alias": "crazy-arepas-springfield", "name": "Crazy Arepas", "image_url": "https://s3-media2.fl.yelpcdn.com/bphoto/xBRYNve2vxH1M1iG5Gm4lQ/o.jpg", "is_closed": false, "url": "https://www.yelp.com/biz/crazy-arepas-springfield?adjust_creative=HdhkN5EEH6lAqE3kwhsHEQ&utm_campaign=yelp_api_v3&utm_medium=api_v3_business_search&utm_source=HdhkN5EEH6lAqE3kwhsHEQ", "review_count": 3, "categories": [{"alias": "foodtrucks", "title": "Food Trucks"}, {"alias": "spanish", "title": "Spanish"}, {"alias": "tradamerican", "title": "American (Traditional)"}], "rating": 5.0, "coordinates": {"latitude": 42.1191, "longitude": -72.55044}, "transactions": [], "location": {"address1": null, "address2": null, "address3": null, "city": "Springfield", "zip_code": "01109", "country": "US", "state": "MA", "display_address": ["Springfield, MA 01109"]}, "phone": "+14138888083", "display_phone": "(413) 888-8083", "distance": 4832.025668272961}, {"id": "rO9SREBuV8a2YCUN4XpLSA", "alias": "rumbleseat-chicopee", "name": "Rumbleseat", "image_url": "https://s3-media2.fl.yelpcdn.com/bphoto/9JMYC0Os2maI2_-iiiS_cA/o.jpg", "is_closed": false, "url": "https://www.yelp.com/biz/rumbleseat-chicopee?adjust_creative=HdhkN5EEH6lAqE3kwhsHEQ&utm_campaign=yelp_api_v3&utm_medium=api_v3_business_search&utm_source=HdhkN5EEH6lAqE3kwhsHEQ", "review_count": 20, "categories": [{"alias": "bars", "title": "Bars"}, {"alias": "tradamerican", "title": "American (Traditional)"}], "rating": 2.5, "coordinates": {"latitude": 42.1366545, "longitude": -72.601337}, "transactions": ["delivery"], "price": "$$", "location": {"address1": "482 Springfield St", "address2": "", "address3": "", "city": "Chicopee", "zip_code": "01013", "country": "US", "state": "MA", "display_address": ["482 Springfield St", "Chicopee, MA 01013"]}, "phone": "+14135929025", "display_phone": "(413) 592-9025", "distance": 2748.004694120846}, {"id": "5lexfTbnf_CzbaUPpwFvqg", "alias": "wing-madness-springfield", "name": "Wing Madness", "image_url": "https://s3-media3.fl.yelpcdn.com/bphoto/3EQ_6X6svKu5Y2XV_m9WgA/o.jpg", "is_closed": false, "url": "https://www.yelp.com/biz/wing-madness-springfield?adjust_creative=HdhkN5EEH6lAqE3kwhsHEQ&utm_campaign=yelp_api_v3&utm_medium=api_v3_business_search&utm_source=HdhkN5EEH6lAqE3kwhsHEQ", "review_count": 5, "categories": [{"alias": "chicken_wings", "title": "Chicken Wings"}], "rating": 3.0, "coordinates": {"latitude": 42.13734, "longitude": -72.58073}, "transactions": ["delivery", "pickup"], "location": {"address1": "1287 Liberty St", "address2": null, "address3": "", "city": "Springfield", "zip_code": "01104", "country": "US", "state": "MA", "display_address": ["1287 Liberty St", "Springfield, MA 01104"]}, "phone": "+14132782916", "display_phone": "(413) 278-2916", "distance": 2367.4286954492554}, {"id": "npIyseIpAkihKCEsOucZcg", "alias": "olive-garden-italian-restaurant-west-springfield", "name": "Olive Garden Italian Restaurant", "image_url": "https://s3-media4.fl.yelpcdn.com/bphoto/Io1j4xLk0lP65_YQlwL_UA/o.jpg", "is_closed": false, "url": "https://www.yelp.com/biz/olive-garden-italian-restaurant-west-springfield?adjust_creative=HdhkN5EEH6lAqE3kwhsHEQ&utm_campaign=yelp_api_v3&utm_medium=api_v3_business_search&utm_source=HdhkN5EEH6lAqE3kwhsHEQ", "review_count": 86, "categories": [{"alias": "italian", "title": "Italian"}, {"alias": "salad", "title": "Salad"}, {"alias": "soup", "title": "Soup"}], "rating": 3.0, "coordinates": {"latitude": 42.1287092, "longitude": -72.62648}, "transactions": [], "price": "$$", "location": {"address1": "919 Riverdale St", "address2": null, "address3": null, "city": "West Springfield", "zip_code": "01089", "country": "US", "state": "MA", "display_address": ["919 Riverdale St", "West Springfield, MA 01089"]}, "phone": "+14137505390", "display_phone": "(413) 750-5390", "distance": 4623.093882756912}, {"id": "zd4eEblxwqCawQa0xW78gA", "alias": "lucky-strike-restaurant-chicopee", "name": "Lucky Strike Restaurant", "image_url": "https://s3-media1.fl.yelpcdn.com/bphoto/nix50nZbSZPveSjmYc3W9w/o.jpg", "is_closed": false, "url": "https://www.yelp.com/biz/lucky-strike-restaurant-chicopee?adjust_creative=HdhkN5EEH6lAqE3kwhsHEQ&utm_campaign=yelp_api_v3&utm_medium=api_v3_business_search&utm_source=HdhkN5EEH6lAqE3kwhsHEQ", "review_count": 44, "categories": [{"alias": "breakfast_brunch", "title": "Breakfast & Brunch"}, {"alias": "tradamerican", "title": "American (Traditional)"}], "rating": 3.5, "coordinates": {"latitude": 42.17417, "longitude": -72.59973}, "transactions": ["delivery"], "price": "$$", "location": {"address1": "703 Grattan St", "address2": "", "address3": "", "city": "Chicopee", "zip_code": "01020", "country": "US", "state": "MA", "display_address": ["703 Grattan St", "Chicopee, MA 01020"]}, "phone": "+14135367912", "display_phone": "(413) 536-7912", "distance": 2115.71026037575}, {"id": "e2qOFg7ZyP426BVBIiuh_g", "alias": "russs-springfield", "name": "Russ's", "image_url": "https://s3-media1.fl.yelpcdn.com/bphoto/-LK7bXFZaZ5Kqd3G03X6uA/o.jpg", "is_closed": false, "url": "https://www.yelp.com/biz/russs-springfield?adjust_creative=HdhkN5EEH6lAqE3kwhsHEQ&utm_campaign=yelp_api_v3&utm_medium=api_v3_business_search&utm_source=HdhkN5EEH6lAqE3kwhsHEQ", "review_count": 21, "categories": [{"alias": "diners", "title": "Diners"}, {"alias": "breakfast_brunch", "title": "Breakfast & Brunch"}], "rating": 4.0, "coordinates": {"latitude": 42.1323204040527, "longitude": -72.5996932983398}, "transactions": ["delivery"], "price": "$", "location": {"address1": "5 Rimmon Ave", "address2": "", "address3": "", "city": "Springfield", "zip_code": "01107", "country": "US", "state": "MA", "display_address": ["5 Rimmon Ave", "Springfield, MA 01107"]}, "phone": "+14137369754", "display_phone": "(413) 736-9754", "distance": 3137.324127304272}, {"id": "d1aIkleLYvp44c360dY_2g", "alias": "chicken-queen-chicopee-2", "name": "Chicken Queen", "image_url": "https://s3-media1.fl.yelpcdn.com/bphoto/JwB43P15poee27JVLTexMQ/o.jpg", "is_closed": false, "url": "https://www.yelp.com/biz/chicken-queen-chicopee-2?adjust_creative=HdhkN5EEH6lAqE3kwhsHEQ&utm_campaign=yelp_api_v3&utm_medium=api_v3_business_search&utm_source=HdhkN5EEH6lAqE3kwhsHEQ", "review_count": 11, "categories": [{"alias": "chicken_wings", "title": "Chicken Wings"}], "rating": 3.5, "coordinates": {"latitude": 42.1824989, "longitude": -72.5684128}, "transactions": ["delivery"], "price": "$", "location": {"address1": "1782 Westover Rd", "address2": null, "address3": null, "city": "Chicopee", "zip_code": "01020", "country": "US", "state": "MA", "display_address": ["1782 Westover Rd", "Chicopee, MA 01020"]}, "phone": "+14135931193", "display_phone": "(413) 593-1193", "distance": 3010.4605932984196}, {"id": "qjlYAiX-CyZyQA0pjq5ggg", "alias": "mr-cone-chicopee", "name": "Mr. Cone", "image_url": "https://s3-media4.fl.yelpcdn.com/bphoto/508t_GGQ28kmrjqHs_M6mw/o.jpg", "is_closed": false, "url": "https://www.yelp.com/biz/mr-cone-chicopee?adjust_creative=HdhkN5EEH6lAqE3kwhsHEQ&utm_campaign=yelp_api_v3&utm_medium=api_v3_business_search&utm_source=HdhkN5EEH6lAqE3kwhsHEQ", "review_count": 10, "categories": [{"alias": "hotdogs", "title": "Fast Food"}, {"alias": "icecream", "title": "Ice Cream & Frozen Yogurt"}], "rating": 4.0, "coordinates": {"latitude": 42.1717529296875, "longitude": -72.5900344848633}, "transactions": [], "price": "$", "location": {"address1": "1048 Granby Rd", "address2": null, "address3": null, "city": "Chicopee", "zip_code": "01020", "country": "US", "state": "MA", "display_address": ["1048 Granby Rd", "Chicopee, MA 01020"]}, "phone": "+14133158585", "display_phone": "(413) 315-8585", "distance": 1535.8582425898544}, {"id": "gpDhpHjVqHaXNLBRqOU4pA", "alias": "great-china-restaurant-chicopee", "name": "Great China Restaurant", "image_url": "https://s3-media1.fl.yelpcdn.com/bphoto/nfKOdvh8cxtGx6RNGE4xjg/o.jpg", "is_closed": false, "url": "https://www.yelp.com/biz/great-china-restaurant-chicopee?adjust_creative=HdhkN5EEH6lAqE3kwhsHEQ&utm_campaign=yelp_api_v3&utm_medium=api_v3_business_search&utm_source=HdhkN5EEH6lAqE3kwhsHEQ", "review_count": 12, "categories": [{"alias": "chinese", "title": "Chinese"}], "rating": 2.5, "coordinates": {"latitude": 42.17399, "longitude": -72.59905}, "transactions": ["pickup", "delivery"], "price": "$", "location": {"address1": "690 Grattan St", "address2": "", "address3": "", "city": "Chicopee", "zip_code": "01020", "country": "US", "state": "MA", "display_address": ["690 Grattan St", "Chicopee, MA 01020"]}, "phone": "+14135345600", "display_phone": "(413) 534-5600", "distance": 2065.7401940543295}, {"id": "kyrv9Y1WIhF6nazvie58rg", "alias": "longhorn-steakhouse-west-springfield", "name": "LongHorn Steakhouse", "image_url": "https://s3-media4.fl.yelpcdn.com/bphoto/faVyesixFHVfilniuT16IQ/o.jpg", "is_closed": false, "url": "https://www.yelp.com/biz/longhorn-steakhouse-west-springfield?adjust_creative=HdhkN5EEH6lAqE3kwhsHEQ&utm_campaign=yelp_api_v3&utm_medium=api_v3_business_search&utm_source=HdhkN5EEH6lAqE3kwhsHEQ", "review_count": 55, "categories": [{"alias": "steak", "title": "Steakhouses"}, {"alias": "tradamerican", "title": "American (Traditional)"}, {"alias": "bbq", "title": "Barbeque"}], "rating": 3.0, "coordinates": {"latitude": 42.13333, "longitude": -72.6255}, "transactions": ["delivery"], "price": "$$", "location": {"address1": "1105 Riverdale St", "address2": "", "address3": "", "city": "West Springfield", "zip_code": "01089", "country": "US", "state": "MA", "display_address": ["1105 Riverdale St", "West Springfield, MA 01089"]}, "phone": "+14137478500", "display_phone": "(413) 747-8500", "distance": 4177.492775649039}, {"id": "UKCI7YRH3pAX2J7pc_r4jQ", "alias": "old-school-italian-pizzeria-springfield", "name": "Old School Italian Pizzeria", "image_url": "https://s3-media1.fl.yelpcdn.com/bphoto/Q-JMLtRWOVERFFKkt3agxQ/o.jpg", "is_closed": false, "url": "https://www.yelp.com/biz/old-school-italian-pizzeria-springfield?adjust_creative=HdhkN5EEH6lAqE3kwhsHEQ&utm_campaign=yelp_api_v3&utm_medium=api_v3_business_search&utm_source=HdhkN5EEH6lAqE3kwhsHEQ", "review_count": 3, "categories": [{"alias": "pizza", "title": "Pizza"}, {"alias": "italian", "title": "Italian"}], "rating": 5.0, "coordinates": {"latitude": 42.1277207301376, "longitude": -72.5578570589357}, "transactions": ["pickup", "delivery"], "price": "$", "location": {"address1": "770 Bay St", "address2": "", "address3": "", "city": "Springfield", "zip_code": "01109", "country": "US", "state": "MA", "display_address": ["770 Bay St", "Springfield, MA 01109"]}, "phone": "+14137373333", "display_phone": "(413) 737-3333", "distance": 4096.880815945254}, {"id": "5Y1VFZBPHF9IIOO_IIpnhQ", "alias": "peking-house-chinese-restaurant-springfield", "name": "Peking House Chinese Restaurant", "image_url": "https://s3-media1.fl.yelpcdn.com/bphoto/ud1D26PLXe-J4sVKEASsAQ/o.jpg", "is_closed": false, "url": "https://www.yelp.com/biz/peking-house-chinese-restaurant-springfield?adjust_creative=HdhkN5EEH6lAqE3kwhsHEQ&utm_campaign=yelp_api_v3&utm_medium=api_v3_business_search&utm_source=HdhkN5EEH6lAqE3kwhsHEQ", "review_count": 3, "categories": [{"alias": "chicken_wings", "title": "Chicken Wings"}, {"alias": "chinese", "title": "Chinese"}], "rating": 3.5, "coordinates": {"latitude": 42.126, "longitude": -72.58472}, "transactions": ["delivery"], "price": "$$$", "location": {"address1": "844 Liberty St", "address2": "", "address3": "", "city": "Springfield", "zip_code": "01104", "country": "US", "state": "MA", "display_address": ["844 Liberty St", "Springfield, MA 01104"]}, "phone": "+14137398858", "display_phone": "(413) 739-8858", "distance": 3604.1417638562416}, {"id": "nha2i8VoLnpwMQ9YW9n4hQ", "alias": "pos-chinese-restaurant-chicopee", "name": "Po's Chinese Restaurant", "image_url": "https://s3-media3.fl.yelpcdn.com/bphoto/XQ8V51OC-zUed3EbJzuaJQ/o.jpg", "is_closed": false, "url": "https://www.yelp.com/biz/pos-chinese-restaurant-chicopee?adjust_creative=HdhkN5EEH6lAqE3kwhsHEQ&utm_campaign=yelp_api_v3&utm_medium=api_v3_business_search&utm_source=HdhkN5EEH6lAqE3kwhsHEQ", "review_count": 24, "categories": [{"alias": "chinese", "title": "Chinese"}], "rating": 3.5, "coordinates": {"latitude": 42.1684757620096, "longitude": -72.5429633259773}, "transactions": ["delivery"], "price": "$$", "location": {"address1": "480 Burnett Rd", "address2": "", "address3": "", "city": "Chicopee", "zip_code": "01020", "country": "US", "state": "MA", "display_address": ["480 Burnett Rd", "Chicopee, MA 01020"]}, "phone": "+14135988826", "display_phone": "(413) 598-8826", "distance": 3633.547964733253}, {"id": "TwRfJJSAOATywnZaRdeOsQ", "alias": "pizza-palace-restaurant-chicopee-2", "name": "Pizza Palace Restaurant", "image_url": "https://s3-media4.fl.yelpcdn.com/bphoto/Y2mzCbCsCseh7XUFVwLrZw/o.jpg", "is_closed": false, "url": "https://www.yelp.com/biz/pizza-palace-restaurant-chicopee-2?adjust_creative=HdhkN5EEH6lAqE3kwhsHEQ&utm_campaign=yelp_api_v3&utm_medium=api_v3_business_search&utm_source=HdhkN5EEH6lAqE3kwhsHEQ", "review_count": 13, "categories": [{"alias": "pizza", "title": "Pizza"}, {"alias": "italian", "title": "Italian"}], "rating": 4.0, "coordinates": {"latitude": 42.1739353, "longitude": -72.5341894}, "transactions": ["delivery"], "price": "$", "location": {"address1": "17 White Birch Plz", "address2": "", "address3": "", "city": "Chicopee", "zip_code": "01020", "country": "US", "state": "MA", "display_address": ["17 White Birch Plz", "Chicopee, MA 01020"]}, "phone": "+14135920413", "display_phone": "(413) 592-0413", "distance": 4551.002713605922}, {"id": "dEm-bSk8Lq_CjlWJAG2eUg", "alias": "chicken-queen-chicopee", "name": "Chicken Queen", "image_url": "", "is_closed": false, "url": "https://www.yelp.com/biz/chicken-queen-chicopee?adjust_creative=HdhkN5EEH6lAqE3kwhsHEQ&utm_campaign=yelp_api_v3&utm_medium=api_v3_business_search&utm_source=HdhkN5EEH6lAqE3kwhsHEQ", "review_count": 3, "categories": [{"alias": "chicken_wings", "title": "Chicken Wings"}], "rating": 3.5, "coordinates": {"latitude": 42.16604, "longitude": -72.57785}, "transactions": [], "price": "$", "location": {"address1": "72 Dewey St", "address2": "", "address3": "", "city": "Chicopee", "zip_code": "01020", "country": "US", "state": "MA", "display_address": ["72 Dewey St", "Chicopee, MA 01020"]}, "phone": "+14135922422", "display_phone": "(413) 592-2422", "distance": 1043.9105097046313}, {"id": "_wAM4LqxBTxXDhqONBBwdQ", "alias": "on-the-border-mexican-grill-and-cantina-west-springfield-5", "name": "On The Border Mexican Grill & Cantina", "image_url": "https://s3-media2.fl.yelpcdn.com/bphoto/dBX17rkWxqhsLpGYSV9Qlg/o.jpg", "is_closed": false, "url": "https://www.yelp.com/biz/on-the-border-mexican-grill-and-cantina-west-springfield-5?adjust_creative=HdhkN5EEH6lAqE3kwhsHEQ&utm_campaign=yelp_api_v3&utm_medium=api_v3_business_search&utm_source=HdhkN5EEH6lAqE3kwhsHEQ", "review_count": 118, "categories": [{"alias": "mexican", "title": "Mexican"}, {"alias": "tex-mex", "title": "Tex-Mex"}], "rating": 3.5, "coordinates": {"latitude": 42.137518, "longitude": -72.627235}, "transactions": ["pickup", "delivery"], "price": "$$", "location": {"address1": "33 Border Way", "address2": "", "address3": "", "city": "West Springfield", "zip_code": "01089", "country": "US", "state": "MA", "display_address": ["33 Border Way", "West Springfield, MA 01089"]}, "phone": "+14133043500", "display_phone": "(413) 304-3500", "distance": 4167.153917140667}, {"id": "jafgjkpKBWYXxY96ucrnqg", "alias": "brothers-pizza-chicopee", "name": "Brothers Pizza", "image_url": "https://s3-media4.fl.yelpcdn.com/bphoto/KreFoMvBsZPkrl-Xc2aV0g/o.jpg", "is_closed": false, "url": "https://www.yelp.com/biz/brothers-pizza-chicopee?adjust_creative=HdhkN5EEH6lAqE3kwhsHEQ&utm_campaign=yelp_api_v3&utm_medium=api_v3_business_search&utm_source=HdhkN5EEH6lAqE3kwhsHEQ", "review_count": 23, "categories": [{"alias": "pizza", "title": "Pizza"}], "rating": 3.5, "coordinates": {"latitude": 42.17286, "longitude": -72.599}, "transactions": ["delivery"], "price": "$", "location": {"address1": "653 Grattan St", "address2": "", "address3": "", "city": "Chicopee", "zip_code": "01020", "country": "US", "state": "MA", "display_address": ["653 Grattan St", "Chicopee, MA 01020"]}, "phone": "+14135328452", "display_phone": "(413) 532-8452", "distance": 1956.7516279467252}, {"id": "yOwjX9AzCO5Nu9Rw7i3vdA", "alias": "salerno-pizzeria-springfield", "name": "Salerno Pizzeria", "image_url": "https://s3-media2.fl.yelpcdn.com/bphoto/FZpLYDa84U_ktDH_zv13zg/o.jpg", "is_closed": false, "url": "https://www.yelp.com/biz/salerno-pizzeria-springfield?adjust_creative=HdhkN5EEH6lAqE3kwhsHEQ&utm_campaign=yelp_api_v3&utm_medium=api_v3_business_search&utm_source=HdhkN5EEH6lAqE3kwhsHEQ", "review_count": 33, "categories": [{"alias": "pizza", "title": "Pizza"}], "rating": 4.5, "coordinates": {"latitude": 42.123553, "longitude": -72.584251}, "transactions": ["delivery"], "price": "$", "location": {"address1": "747 Liberty St", "address2": "", "address3": "", "city": "Springfield", "zip_code": "01104", "country": "US", "state": "MA", "display_address": ["747 Liberty St", "Springfield, MA 01104"]}, "phone": "+14137334382", "display_phone": "(413) 733-4382", "distance": 3879.9825949279316}, {"id": "NYOK1a75n68qSQmuGVH8rg", "alias": "cedars-food-mart-and-grill-springfield", "name": "Cedar's Food Mart & Grill", "image_url": "https://s3-media4.fl.yelpcdn.com/bphoto/5A2f0osqzyI1hHIxf8FWzQ/o.jpg", "is_closed": false, "url": "https://www.yelp.com/biz/cedars-food-mart-and-grill-springfield?adjust_creative=HdhkN5EEH6lAqE3kwhsHEQ&utm_campaign=yelp_api_v3&utm_medium=api_v3_business_search&utm_source=HdhkN5EEH6lAqE3kwhsHEQ", "review_count": 25, "categories": [{"alias": "grocery", "title": "Grocery"}, {"alias": "mediterranean", "title": "Mediterranean"}, {"alias": "headshops", "title": "Head Shops"}], "rating": 4.0, "coordinates": {"latitude": 42.12052, "longitude": -72.585797}, "transactions": ["pickup", "delivery"], "price": "$", "location": {"address1": "405 Armory St", "address2": "", "address3": "", "city": "Springfield", "zip_code": "01104", "country": "US", "state": "MA", "display_address": ["405 Armory St", "Springfield, MA 01104"]}, "phone": "+14132731215", "display_phone": "(413) 273-1215", "distance": 4216.480341285139}, {"id": "dRliKAp38ZLJzirz5Gy66Q", "alias": "friendlys-chicopee", "name": "Friendly's", "image_url": "https://s3-media2.fl.yelpcdn.com/bphoto/Rb1UHBPf8ECcWK9DTbLvxg/o.jpg", "is_closed": false, "url": "https://www.yelp.com/biz/friendlys-chicopee?adjust_creative=HdhkN5EEH6lAqE3kwhsHEQ&utm_campaign=yelp_api_v3&utm_medium=api_v3_business_search&utm_source=HdhkN5EEH6lAqE3kwhsHEQ", "review_count": 25, "categories": [{"alias": "burgers", "title": "Burgers"}, {"alias": "icecream", "title": "Ice Cream & Frozen Yogurt"}, {"alias": "tradamerican", "title": "American (Traditional)"}], "rating": 2.0, "coordinates": {"latitude": 42.1719131, "longitude": -72.576767}, "transactions": ["delivery"], "price": "$", "location": {"address1": "529 Memorial Dr", "address2": null, "address3": null, "city": "Chicopee", "zip_code": "01020", "country": "US", "state": "MA", "display_address": ["529 Memorial Dr", "Chicopee, MA 01020"]}, "phone": "+14135924221", "display_phone": "(413) 592-4221", "distance": 1720.9408413340461}, {"id": "29e2DQrQzYrqKnzuXYoE2Q", "alias": "applebees-grill-bar-chicopee", "name": "Applebee's Grill + Bar", "image_url": "https://s3-media2.fl.yelpcdn.com/bphoto/TJ20FOV7xWnGcytr8ivdtw/o.jpg", "is_closed": false, "url": "https://www.yelp.com/biz/applebees-grill-bar-chicopee?adjust_creative=HdhkN5EEH6lAqE3kwhsHEQ&utm_campaign=yelp_api_v3&utm_medium=api_v3_business_search&utm_source=HdhkN5EEH6lAqE3kwhsHEQ", "review_count": 23, "categories": [{"alias": "tradamerican", "title": "American (Traditional)"}, {"alias": "sportsbars", "title": "Sports Bars"}, {"alias": "burgers", "title": "Burgers"}], "rating": 3.0, "coordinates": {"latitude": 42.1735, "longitude": -72.5756}, "transactions": ["delivery"], "price": "$$", "location": {"address1": "597 Memorial Dr", "address2": null, "address3": null, "city": "Chicopee", "zip_code": "01020", "country": "US", "state": "MA", "display_address": ["597 Memorial Dr", "Chicopee, MA 01020"]}, "phone": "+14135930134", "display_phone": "(413) 593-0134", "distance": 1855.7242863696379}, {"id": "PyLrEZT7jxD0xtMRNGNx0A", "alias": "moes-southwest-grill-chicopee-2", "name": "Moe's Southwest Grill", "image_url": "https://s3-media2.fl.yelpcdn.com/bphoto/UnsGNthY_T90TF3M_ig9pg/o.jpg", "is_closed": false, "url": "https://www.yelp.com/biz/moes-southwest-grill-chicopee-2?adjust_creative=HdhkN5EEH6lAqE3kwhsHEQ&utm_campaign=yelp_api_v3&utm_medium=api_v3_business_search&utm_source=HdhkN5EEH6lAqE3kwhsHEQ", "review_count": 8, "categories": [{"alias": "tex-mex", "title": "Tex-Mex"}, {"alias": "mexican", "title": "Mexican"}], "rating": 3.0, "coordinates": {"latitude": 42.1741901, "longitude": -72.5762951}, "transactions": [], "price": "$", "location": {"address1": "601 Memorial Dr", "address2": null, "address3": null, "city": "Chicopee", "zip_code": "01020", "country": "US", "state": "MA", "display_address": ["601 Memorial Dr", "Chicopee, MA 01020"]}, "phone": "+14133314983", "display_phone": "(413) 331-4983", "distance": 1931.4399867757745}, {"id": "hpsVZWw9Jx7l6VUCkJvUoA", "alias": "petros-breakfast-and-lunch-chicopee", "name": "Petros Breakfast & Lunch", "image_url": "https://s3-media4.fl.yelpcdn.com/bphoto/8M6Bb5PaBMLnqgrxX57ekg/o.jpg", "is_closed": false, "url": "https://www.yelp.com/biz/petros-breakfast-and-lunch-chicopee?adjust_creative=HdhkN5EEH6lAqE3kwhsHEQ&utm_campaign=yelp_api_v3&utm_medium=api_v3_business_search&utm_source=HdhkN5EEH6lAqE3kwhsHEQ", "review_count": 35, "categories": [{"alias": "breakfast_brunch", "title": "Breakfast & Brunch"}, {"alias": "sandwiches", "title": "Sandwiches"}, {"alias": "burgers", "title": "Burgers"}], "rating": 4.0, "coordinates": {"latitude": 42.148460592641, "longitude": -72.603321386947}, "transactions": ["delivery"], "price": "$", "location": {"address1": "351 Front St", "address2": "", "address3": "", "city": "Chicopee", "zip_code": "01013", "country": "US", "state": "MA", "display_address": ["351 Front St", "Chicopee, MA 01013"]}, "phone": "+14133314422", "display_phone": "(413) 331-4422", "distance": 1854.348331429514}, {"id": "PS7x5L3NOLdDZZVBydCJgA", "alias": "wings-over-chicopee-chicopee", "name": "Wings Over Chicopee", "image_url": "https://s3-media4.fl.yelpcdn.com/bphoto/X_eEHf3thxIkp8yNwRG7iw/o.jpg", "is_closed": false, "url": "https://www.yelp.com/biz/wings-over-chicopee-chicopee?adjust_creative=HdhkN5EEH6lAqE3kwhsHEQ&utm_campaign=yelp_api_v3&utm_medium=api_v3_business_search&utm_source=HdhkN5EEH6lAqE3kwhsHEQ", "review_count": 24, "categories": [{"alias": "chicken_wings", "title": "Chicken Wings"}, {"alias": "hotdogs", "title": "Fast Food"}, {"alias": "sandwiches", "title": "Sandwiches"}], "rating": 2.5, "coordinates": {"latitude": 42.1960501, "longitude": -72.5747773}, "transactions": [], "price": "$$", "location": {"address1": "1408 Memorial Dr", "address2": "", "address3": "", "city": "Chicopee", "zip_code": "01020", "country": "US", "state": "MA", "display_address": ["1408 Memorial Dr", "Chicopee, MA 01020"]}, "phone": "+14135399464", "display_phone": "(413) 539-9464", "distance": 4299.252551738253}, {"id": "vSmLod1Tvbq4QpfdLCYGeA", "alias": "chilis-w-springfield", "name": "Chili's", "image_url": "https://s3-media1.fl.yelpcdn.com/bphoto/X3Ik7G6R7SoBAEiY2i10mw/o.jpg", "is_closed": false, "url": "https://www.yelp.com/biz/chilis-w-springfield?adjust_creative=HdhkN5EEH6lAqE3kwhsHEQ&utm_campaign=yelp_api_v3&utm_medium=api_v3_business_search&utm_source=HdhkN5EEH6lAqE3kwhsHEQ", "review_count": 65, "categories": [{"alias": "bars", "title": "Bars"}, {"alias": "tex-mex", "title": "Tex-Mex"}, {"alias": "tradamerican", "title": "American (Traditional)"}], "rating": 2.5, "coordinates": {"latitude": 42.1351262, "longitude": -72.6255245}, "transactions": [], "price": "$$", "location": {"address1": "1175 Riverdale St", "address2": "", "address3": "", "city": "W Springfield", "zip_code": "01089", "country": "US", "state": "MA", "display_address": ["1175 Riverdale St", "W Springfield, MA 01089"]}, "phone": "+14137468827", "display_phone": "(413) 746-8827", "distance": 4163.157185147235}, {"id": "EKHfQcuswfkPv3Y6VUpULg", "alias": "five-guys-chicopee-2", "name": "Five Guys", "image_url": "https://s3-media2.fl.yelpcdn.com/bphoto/VjbJ1oYKGqsZreMkC6CRzQ/o.jpg", "is_closed": false, "url": "https://www.yelp.com/biz/five-guys-chicopee-2?adjust_creative=HdhkN5EEH6lAqE3kwhsHEQ&utm_campaign=yelp_api_v3&utm_medium=api_v3_business_search&utm_source=HdhkN5EEH6lAqE3kwhsHEQ", "review_count": 4, "categories": [{"alias": "burgers", "title": "Burgers"}], "rating": 3.5, "coordinates": {"latitude": 42.171875, "longitude": -72.577848}, "transactions": ["pickup", "delivery"], "location": {"address1": "474 Memorial Dr", "address2": "", "address3": null, "city": "Chicopee", "zip_code": "01020", "country": "US", "state": "MA", "display_address": ["474 Memorial Dr", "Chicopee, MA 01020"]}, "phone": "+14133312227", "display_phone": "(413) 331-2227", "distance": 1615.3360307983023}, {"id": "j9jmpDaHxfIHW_zW5r9wmw", "alias": "manna-chinese-restaurant-springfield", "name": "Manna Chinese Restaurant", "image_url": "https://s3-media4.fl.yelpcdn.com/bphoto/LC3I7JdM3noDpJ8IO4O5BQ/o.jpg", "is_closed": false, "url": "https://www.yelp.com/biz/manna-chinese-restaurant-springfield?adjust_creative=HdhkN5EEH6lAqE3kwhsHEQ&utm_campaign=yelp_api_v3&utm_medium=api_v3_business_search&utm_source=HdhkN5EEH6lAqE3kwhsHEQ", "review_count": 13, "categories": [{"alias": "chinese", "title": "Chinese"}], "rating": 3.5, "coordinates": {"latitude": 42.1326, "longitude": -72.59991}, "transactions": ["delivery"], "price": "$", "location": {"address1": "441 Springfield St", "address2": null, "address3": null, "city": "Springfield", "zip_code": "01107", "country": "US", "state": "MA", "display_address": ["441 Springfield St", "Springfield, MA 01107"]}, "phone": "+14137468880", "display_phone": "(413) 746-8880", "distance": 3111.2948708779504}, {"id": "5SuhGlGF6FzdKrfWGuUoBA", "alias": "el-morro-bakery-and-restaurant-springfield", "name": "El Morro Bakery and Restaurant", "image_url": "https://s3-media2.fl.yelpcdn.com/bphoto/CTTYB9i8_uFa1uVLiMLTfQ/o.jpg", "is_closed": false, "url": "https://www.yelp.com/biz/el-morro-bakery-and-restaurant-springfield?adjust_creative=HdhkN5EEH6lAqE3kwhsHEQ&utm_campaign=yelp_api_v3&utm_medium=api_v3_business_search&utm_source=HdhkN5EEH6lAqE3kwhsHEQ", "review_count": 17, "categories": [{"alias": "bakeries", "title": "Bakeries"}, {"alias": "newamerican", "title": "American (New)"}, {"alias": "puertorican", "title": "Puerto Rican"}], "rating": 3.0, "coordinates": {"latitude": 42.1404252201319, "longitude": -72.5588674843311}, "transactions": ["pickup", "delivery"], "price": "$", "location": {"address1": "599 Page Blvd", "address2": null, "address3": null, "city": "Springfield", "zip_code": "01104", "country": "US", "state": "MA", "display_address": ["599 Page Blvd", "Springfield, MA 01104"]}, "phone": "+14137371418", "display_phone": "(413) 737-1418", "distance": 2960.690823939974}, {"id": "jK40SlN459S34psCzLn1iQ", "alias": "cavalier-banquet-hall-chicopee", "name": "Cavalier Banquet Hall", "image_url": "https://s3-media3.fl.yelpcdn.com/bphoto/NIv7kj5fQHMaLxRj-gtKlA/o.jpg", "is_closed": false, "url": "https://www.yelp.com/biz/cavalier-banquet-hall-chicopee?adjust_creative=HdhkN5EEH6lAqE3kwhsHEQ&utm_campaign=yelp_api_v3&utm_medium=api_v3_business_search&utm_source=HdhkN5EEH6lAqE3kwhsHEQ", "review_count": 20, "categories": [{"alias": "portuguese", "title": "Portuguese"}, {"alias": "venues", "title": "Venues & Event Spaces"}, {"alias": "bars", "title": "Bars"}], "rating": 3.0, "coordinates": {"latitude": 42.1711858703906, "longitude": -72.6239132371885}, "transactions": [], "price": "$$", "location": {"address1": "366 Chicopee St", "address2": "", "address3": "", "city": "Chicopee", "zip_code": "01013", "country": "US", "state": "MA", "display_address": ["366 Chicopee St", "Chicopee, MA 01013"]}, "phone": "+14135339195", "display_phone": "(413) 533-9195", "distance": 3484.1468082761644}, {"id": "RWmE_GBO39oX4Yk8rp7F7Q", "alias": "five-guys-west-springfield-2", "name": "Five Guys", "image_url": "https://s3-media2.fl.yelpcdn.com/bphoto/FCpPsyWrGPPCqtuUcZhqeQ/o.jpg", "is_closed": false, "url": "https://www.yelp.com/biz/five-guys-west-springfield-2?adjust_creative=HdhkN5EEH6lAqE3kwhsHEQ&utm_campaign=yelp_api_v3&utm_medium=api_v3_business_search&utm_source=HdhkN5EEH6lAqE3kwhsHEQ", "review_count": 43, "categories": [{"alias": "burgers", "title": "Burgers"}, {"alias": "hotdogs", "title": "Fast Food"}], "rating": 4.0, "coordinates": {"latitude": 42.1383166, "longitude": -72.6265141}, "transactions": ["delivery"], "price": "$$", "location": {"address1": "1268 Riverdale St", "address2": "", "address3": "", "city": "West Springfield", "zip_code": "01085", "country": "US", "state": "MA", "display_address": ["1268 Riverdale St", "West Springfield, MA 01085"]}, "phone": "+14133065353", "display_phone": "(413) 306-5353", "distance": 4068.4572573713067}, {"id": "iRpB9gWZO8vl2OCYIMEyng", "alias": "panera-bread-chicopee", "name": "Panera Bread", "image_url": "https://s3-media2.fl.yelpcdn.com/bphoto/275W7cUbZ1yUri_ORxDkdQ/o.jpg", "is_closed": false, "url": "https://www.yelp.com/biz/panera-bread-chicopee?adjust_creative=HdhkN5EEH6lAqE3kwhsHEQ&utm_campaign=yelp_api_v3&utm_medium=api_v3_business_search&utm_source=HdhkN5EEH6lAqE3kwhsHEQ", "review_count": 14, "categories": [{"alias": "sandwiches", "title": "Sandwiches"}, {"alias": "salad", "title": "Salad"}, {"alias": "soup", "title": "Soup"}], "rating": 3.0, "coordinates": {"latitude": 42.174626, "longitude": -72.575755}, "transactions": ["delivery"], "price": "$", "location": {"address1": "601 Memorial Dr", "address2": "Ste G", "address3": null, "city": "Chicopee", "zip_code": "01020", "country": "US", "state": "MA", "display_address": ["601 Memorial Dr", "Ste G", "Chicopee, MA 01020"]}, "phone": "+14135931800", "display_phone": "(413) 593-1800", "distance": 1964.3105567737493}, {"id": "OrWwZCoxAK_L9C2NklzKfg", "alias": "dennys-chicopee-falls", "name": "Denny's", "image_url": "https://s3-media4.fl.yelpcdn.com/bphoto/QT9ndE76GmEvjEAvs3xHhg/o.jpg", "is_closed": false, "url": "https://www.yelp.com/biz/dennys-chicopee-falls?adjust_creative=HdhkN5EEH6lAqE3kwhsHEQ&utm_campaign=yelp_api_v3&utm_medium=api_v3_business_search&utm_source=HdhkN5EEH6lAqE3kwhsHEQ", "review_count": 34, "categories": [{"alias": "diners", "title": "Diners"}, {"alias": "breakfast_brunch", "title": "Breakfast & Brunch"}, {"alias": "tradamerican", "title": "American (Traditional)"}], "rating": 2.5, "coordinates": {"latitude": 42.1706596966572, "longitude": -72.5768126588628}, "transactions": ["pickup", "delivery"], "price": "$$", "location": {"address1": "467 Memorial Dr", "address2": "", "address3": "", "city": "Chicopee Falls", "zip_code": "01020", "country": "US", "state": "MA", "display_address": ["467 Memorial Dr", "Chicopee Falls, MA 01020"]}, "phone": "+14135926059", "display_phone": "(413) 592-6059", "distance": 1528.337323452225}, {"id": "LDm-e3fwlKkfy_9lUqHRvw", "alias": "petes-restaurant-chicopee", "name": "Pete's Restaurant", "image_url": "", "is_closed": false, "url": "https://www.yelp.com/biz/petes-restaurant-chicopee?adjust_creative=HdhkN5EEH6lAqE3kwhsHEQ&utm_campaign=yelp_api_v3&utm_medium=api_v3_business_search&utm_source=HdhkN5EEH6lAqE3kwhsHEQ", "review_count": 1, "categories": [{"alias": "restaurants", "title": "Restaurants"}], "rating": 4.0, "coordinates": {"latitude": 42.1482591, "longitude": -72.6030698}, "transactions": ["delivery"], "location": {"address1": "353 Front St", "address2": "", "address3": "", "city": "Chicopee", "zip_code": "01013", "country": "US", "state": "MA", "display_address": ["353 Front St", "Chicopee, MA 01013"]}, "phone": "+14135920113", "display_phone": "(413) 592-0113", "distance": 1828.1739392682764}, {"id": "85HozFBpDVl-pUpJHRfv0Q", "alias": "lucky-cheng-chicopee", "name": "Lucky Cheng", "image_url": "https://s3-media4.fl.yelpcdn.com/bphoto/ayE67YpEdYBdz6GX7a8c5g/o.jpg", "is_closed": false, "url": "https://www.yelp.com/biz/lucky-cheng-chicopee?adjust_creative=HdhkN5EEH6lAqE3kwhsHEQ&utm_campaign=yelp_api_v3&utm_medium=api_v3_business_search&utm_source=HdhkN5EEH6lAqE3kwhsHEQ", "review_count": 6, "categories": [{"alias": "chinese", "title": "Chinese"}], "rating": 1.5, "coordinates": {"latitude": 42.1622102, "longitude": -72.6138342}, "transactions": ["delivery"], "location": {"address1": "920 Meadow St", "address2": "", "address3": "", "city": "Chicopee", "zip_code": "01013", "country": "US", "state": "MA", "display_address": ["920 Meadow St", "Chicopee, MA 01013"]}, "phone": "+14135925699", "display_phone": "(413) 592-5699", "distance": 2389.3249722223736}, {"id": "WJDPbSUSiSohQ6R6Ku4wFA", "alias": "99-restaurants-springfield", "name": "99 Restaurants", "image_url": "https://s3-media4.fl.yelpcdn.com/bphoto/9c_VhMoxnPTRj1p-ZLfdRA/o.jpg", "is_closed": false, "url": "https://www.yelp.com/biz/99-restaurants-springfield?adjust_creative=HdhkN5EEH6lAqE3kwhsHEQ&utm_campaign=yelp_api_v3&utm_medium=api_v3_business_search&utm_source=HdhkN5EEH6lAqE3kwhsHEQ", "review_count": 18, "categories": [{"alias": "tradamerican", "title": "American (Traditional)"}, {"alias": "pubs", "title": "Pubs"}], "rating": 4.0, "coordinates": {"latitude": 42.13959, "longitude": -72.58195}, "transactions": [], "price": "$$", "location": {"address1": "1371 Liberty St", "address2": "", "address3": "", "city": "Springfield", "zip_code": "01104", "country": "US", "state": "MA", "display_address": ["1371 Liberty St", "Springfield, MA 01104"]}, "phone": "+14137319999", "display_phone": "(413) 731-9999", "distance": 2141.7177476452994}, {"id": "KeUtE3Da2gjyFA7TglAuew", "alias": "popeyes-louisiana-kitchen-chicopee", "name": "Popeyes Louisiana Kitchen", "image_url": "https://s3-media1.fl.yelpcdn.com/bphoto/II7DKvUD7MW8-1a1ATcsxQ/o.jpg", "is_closed": false, "url": "https://www.yelp.com/biz/popeyes-louisiana-kitchen-chicopee?adjust_creative=HdhkN5EEH6lAqE3kwhsHEQ&utm_campaign=yelp_api_v3&utm_medium=api_v3_business_search&utm_source=HdhkN5EEH6lAqE3kwhsHEQ", "review_count": 33, "categories": [{"alias": "hotdogs", "title": "Fast Food"}, {"alias": "chicken_wings", "title": "Chicken Wings"}], "rating": 2.0, "coordinates": {"latitude": 42.178456, "longitude": -72.5763723349876}, "transactions": ["pickup", "delivery"], "price": "$", "location": {"address1": "753 Memorial Dr", "address2": "", "address3": "", "city": "Chicopee", "zip_code": "01020", "country": "US", "state": "MA", "display_address": ["753 Memorial Dr", "Chicopee, MA 01020"]}, "phone": "+14135933088", "display_phone": "(413) 593-3088", "distance": 2344.2691177364727}, {"id": "4aD-UpB9gs0BKSie7J3JEw", "alias": "dam-cafe-holyoke", "name": "Dam Cafe", "image_url": "https://s3-media1.fl.yelpcdn.com/bphoto/5KD30y-sQ6WYVDWhCqH87A/o.jpg", "is_closed": false, "url": "https://www.yelp.com/biz/dam-cafe-holyoke?adjust_creative=HdhkN5EEH6lAqE3kwhsHEQ&utm_campaign=yelp_api_v3&utm_medium=api_v3_business_search&utm_source=HdhkN5EEH6lAqE3kwhsHEQ", "review_count": 70, "categories": [{"alias": "cafes", "title": "Cafes"}], "rating": 3.5, "coordinates": {"latitude": 42.1934757, "longitude": -72.629631}, "transactions": ["pickup", "delivery"], "price": "$", "location": {"address1": "2014 Northampton St", "address2": "", "address3": "", "city": "Holyoke", "zip_code": "01040", "country": "US", "state": "MA", "display_address": ["2014 Northampton St", "Holyoke, MA 01040"]}, "phone": "+14135331866", "display_phone": "(413) 533-1866", "distance": 5347.123442532927}, {"id": "oVNgpmnjWvDkFgRbudqBjw", "alias": "dugout-cafe-chicopee", "name": "Dugout Cafe", "image_url": "https://s3-media2.fl.yelpcdn.com/bphoto/pVS9ULqTe3rTzfPkZ1u6fQ/o.jpg", "is_closed": false, "url": "https://www.yelp.com/biz/dugout-cafe-chicopee?adjust_creative=HdhkN5EEH6lAqE3kwhsHEQ&utm_campaign=yelp_api_v3&utm_medium=api_v3_business_search&utm_source=HdhkN5EEH6lAqE3kwhsHEQ", "review_count": 4, "categories": [{"alias": "pizza", "title": "Pizza"}], "rating": 3.5, "coordinates": {"latitude": 42.18304, "longitude": -72.611173}, "transactions": ["pickup", "delivery"], "location": {"address1": "134 Meadow St", "address2": "", "address3": "", "city": "Chicopee", "zip_code": "01013", "country": "US", "state": "MA", "display_address": ["134 Meadow St", "Chicopee, MA 01013"]}, "phone": "+14135331799", "display_phone": "(413) 533-1799", "distance": 3476.5491273535968}, {"id": "AL6zPUinFNiV367CbyLNbw", "alias": "dough-makers-chicopee", "name": "Dough Makers", "image_url": "", "is_closed": false, "url": "https://www.yelp.com/biz/dough-makers-chicopee?adjust_creative=HdhkN5EEH6lAqE3kwhsHEQ&utm_campaign=yelp_api_v3&utm_medium=api_v3_business_search&utm_source=HdhkN5EEH6lAqE3kwhsHEQ", "review_count": 1, "categories": [{"alias": "pizza", "title": "Pizza"}], "rating": 5.0, "coordinates": {"latitude": 42.16961, "longitude": -72.6236799}, "transactions": ["delivery"], "location": {"address1": "345 Chicopee St", "address2": "", "address3": "", "city": "Chicopee", "zip_code": "01013", "country": "US", "state": "MA", "display_address": ["345 Chicopee St", "Chicopee, MA 01013"]}, "phone": "+14135945988", "display_phone": "(413) 594-5988", "distance": 3399.1495245245032}, {"id": "3YHNQXII_Vs_v3Z6TUHEgw", "alias": "paradise-pizza-chicopee", "name": "Paradise Pizza", "image_url": "https://s3-media4.fl.yelpcdn.com/bphoto/JQxX-rreoEHasuG30kzXaQ/o.jpg", "is_closed": false, "url": "https://www.yelp.com/biz/paradise-pizza-chicopee?adjust_creative=HdhkN5EEH6lAqE3kwhsHEQ&utm_campaign=yelp_api_v3&utm_medium=api_v3_business_search&utm_source=HdhkN5EEH6lAqE3kwhsHEQ", "review_count": 15, "categories": [{"alias": "pizza", "title": "Pizza"}, {"alias": "italian", "title": "Italian"}], "rating": 3.0, "coordinates": {"latitude": 42.1469555, "longitude": -72.6109659}, "transactions": ["pickup", "delivery"], "price": "$", "location": {"address1": "140 Exchange St", "address2": "", "address3": "", "city": "Chicopee", "zip_code": "01013", "country": "US", "state": "MA", "display_address": ["140 Exchange St", "Chicopee, MA 01013"]}, "phone": "+14135989901", "display_phone": "(413) 598-9901", "distance": 2471.4100919227617}, {"id": "Lff5fb8TZKIaY1PhnvuadQ", "alias": "north-garden-chinese-restaurant-west-springfield-2", "name": "North Garden Chinese Restaurant", "image_url": "https://s3-media1.fl.yelpcdn.com/bphoto/mvo2bQmiALx7Z1Vmu4ri8A/o.jpg", "is_closed": false, "url": "https://www.yelp.com/biz/north-garden-chinese-restaurant-west-springfield-2?adjust_creative=HdhkN5EEH6lAqE3kwhsHEQ&utm_campaign=yelp_api_v3&utm_medium=api_v3_business_search&utm_source=HdhkN5EEH6lAqE3kwhsHEQ", "review_count": 47, "categories": [{"alias": "chinese", "title": "Chinese"}, {"alias": "seafood", "title": "Seafood"}, {"alias": "soup", "title": "Soup"}], "rating": 3.5, "coordinates": {"latitude": 42.13329, "longitude": -72.62745}, "transactions": ["delivery"], "price": "$$", "location": {"address1": "42 Myron St", "address2": "", "address3": "", "city": "West Springfield", "zip_code": "01089", "country": "US", "state": "MA", "display_address": ["42 Myron St", "West Springfield, MA 01089"]}, "phone": "+14137320338", "display_phone": "(413) 732-0338", "distance": 4477.008957630866}, {"id": "s10eoL5D6Q1bmIzS7zXD8g", "alias": "chipotle-mexican-grill-chicopee", "name": "Chipotle Mexican Grill", "image_url": "https://s3-media3.fl.yelpcdn.com/bphoto/vQdhDyxFMdPJw8tne8v81A/o.jpg", "is_closed": false, "url": "https://www.yelp.com/biz/chipotle-mexican-grill-chicopee?adjust_creative=HdhkN5EEH6lAqE3kwhsHEQ&utm_campaign=yelp_api_v3&utm_medium=api_v3_business_search&utm_source=HdhkN5EEH6lAqE3kwhsHEQ", "review_count": 35, "categories": [{"alias": "mexican", "title": "Mexican"}, {"alias": "hotdogs", "title": "Fast Food"}], "rating": 3.5, "coordinates": {"latitude": 42.1727036515862, "longitude": -72.5775907980462}, "transactions": ["delivery"], "price": "$", "location": {"address1": "530 Memorial Dr", "address2": "Ste A", "address3": "", "city": "Chicopee", "zip_code": "01020", "country": "US", "state": "MA", "display_address": ["530 Memorial Dr", "Ste A", "Chicopee, MA 01020"]}, "phone": "+14135925455", "display_phone": "(413) 592-5455", "distance": 1708.6883846394105}, {"id": "Fv2wbCAMbpPQNigK-G7GSA", "alias": "boston-bay-pizza-chicopee-3", "name": "Boston Bay Pizza", "image_url": "https://s3-media2.fl.yelpcdn.com/bphoto/xj1dFJ7H-3Y51Fi5Qn4SZg/o.jpg", "is_closed": false, "url": "https://www.yelp.com/biz/boston-bay-pizza-chicopee-3?adjust_creative=HdhkN5EEH6lAqE3kwhsHEQ&utm_campaign=yelp_api_v3&utm_medium=api_v3_business_search&utm_source=HdhkN5EEH6lAqE3kwhsHEQ", "review_count": 32, "categories": [{"alias": "pizza", "title": "Pizza"}], "rating": 2.5, "coordinates": {"latitude": 42.173596, "longitude": -72.5870064}, "transactions": ["pickup", "delivery"], "price": "$", "location": {"address1": "515 Montgomery St", "address2": "", "address3": "", "city": "Chicopee", "zip_code": "01020", "country": "US", "state": "MA", "display_address": ["515 Montgomery St", "Chicopee, MA 01020"]}, "phone": "+14138883000", "display_phone": "(413) 888-3000", "distance": 1691.3772357952612}, {"id": "Zu1IJhC_-aZMsil7ahnb8A", "alias": "kennedy-fried-chicken-springfield-3", "name": "Kennedy Fried Chicken", "image_url": "https://s3-media1.fl.yelpcdn.com/bphoto/mKtgAwHs70_3rAZ-PWcQDQ/o.jpg", "is_closed": false, "url": "https://www.yelp.com/biz/kennedy-fried-chicken-springfield-3?adjust_creative=HdhkN5EEH6lAqE3kwhsHEQ&utm_campaign=yelp_api_v3&utm_medium=api_v3_business_search&utm_source=HdhkN5EEH6lAqE3kwhsHEQ", "review_count": 4, "categories": [{"alias": "mediterranean", "title": "Mediterranean"}, {"alias": "halal", "title": "Halal"}], "rating": 3.0, "coordinates": {"latitude": 42.136065, "longitude": -72.56849}, "transactions": ["pickup", "delivery"], "price": "$", "location": {"address1": "1003 St James Ave", "address2": null, "address3": "", "city": "Springfield", "zip_code": "01104", "country": "US", "state": "MA", "display_address": ["1003 St James Ave", "Springfield, MA 01104"]}, "phone": "+14137334205", "display_phone": "(413) 733-4205", "distance": 2852.55139931641}, {"id": "Oxl9N7e8El0PaERKNQwMPg", "alias": "o-briens-corner-springfield", "name": "O'Brien's Corner", "image_url": "https://s3-media2.fl.yelpcdn.com/bphoto/lxOE8w_1QajTQAk4cT6gGw/o.jpg", "is_closed": false, "url": "https://www.yelp.com/biz/o-briens-corner-springfield?adjust_creative=HdhkN5EEH6lAqE3kwhsHEQ&utm_campaign=yelp_api_v3&utm_medium=api_v3_business_search&utm_source=HdhkN5EEH6lAqE3kwhsHEQ", "review_count": 13, "categories": [{"alias": "sportsbars", "title": "Sports Bars"}, {"alias": "breakfast_brunch", "title": "Breakfast & Brunch"}], "rating": 3.5, "coordinates": {"latitude": 42.14762, "longitude": -72.54379}, "transactions": ["delivery"], "price": "$$", "location": {"address1": "1082 Page Blvd", "address2": "", "address3": "", "city": "Springfield", "zip_code": "01104", "country": "US", "state": "MA", "display_address": ["1082 Page Blvd", "Springfield, MA 01104"]}, "phone": "+14137349832", "display_phone": "(413) 734-9832", "distance": 3626.527928053299}, {"id": "0qHWeyGnzSw7-A3O3RGurw", "alias": "chesters-chicken-shamrock-market-springfield-2", "name": "Chesters Chicken Shamrock Market", "image_url": "https://s3-media1.fl.yelpcdn.com/bphoto/1C7J2zjcDSi7Qf2Obh8DMg/o.jpg", "is_closed": false, "url": "https://www.yelp.com/biz/chesters-chicken-shamrock-market-springfield-2?adjust_creative=HdhkN5EEH6lAqE3kwhsHEQ&utm_campaign=yelp_api_v3&utm_medium=api_v3_business_search&utm_source=HdhkN5EEH6lAqE3kwhsHEQ", "review_count": 3, "categories": [{"alias": "convenience", "title": "Convenience Stores"}, {"alias": "hotdogs", "title": "Fast Food"}, {"alias": "chicken_wings", "title": "Chicken Wings"}], "rating": 4.0, "coordinates": {"latitude": 42.138489, "longitude": -72.571226}, "transactions": ["pickup", "delivery"], "location": {"address1": "1116 StJames Ave", "address2": null, "address3": "", "city": "Springfield", "zip_code": "01104", "country": "US", "state": "MA", "display_address": ["1116 StJames Ave", "Springfield, MA 01104"]}, "phone": "+14134177982", "display_phone": "(413) 417-7982", "distance": 2503.21416018609}, {"id": "oUbyiJndgjktz849THJskw", "alias": "nippon-grill-and-seafood-buffet-west-springfield", "name": "Nippon Grill and Seafood Buffet", "image_url": "https://s3-media4.fl.yelpcdn.com/bphoto/OH8MrH4z6ySE7E2R6oHTbw/o.jpg", "is_closed": false, "url": "https://www.yelp.com/biz/nippon-grill-and-seafood-buffet-west-springfield?adjust_creative=HdhkN5EEH6lAqE3kwhsHEQ&utm_campaign=yelp_api_v3&utm_medium=api_v3_business_search&utm_source=HdhkN5EEH6lAqE3kwhsHEQ", "review_count": 77, "categories": [{"alias": "seafood", "title": "Seafood"}, {"alias": "chinese", "title": "Chinese"}, {"alias": "japanese", "title": "Japanese"}], "rating": 2.5, "coordinates": {"latitude": 42.1293009, "longitude": -72.6218453}, "transactions": [], "price": "$$", "location": {"address1": "935 Riverdale St", "address2": "", "address3": "", "city": "West Springfield", "zip_code": "01089", "country": "US", "state": "MA", "display_address": ["935 Riverdale St", "West Springfield, MA 01089"]}, "phone": "+14138588168", "display_phone": "(413) 858-8168", "distance": 4424.586545770101}, {"id": "aqZfI8TpQYKazEUfzk1Pvg", "alias": "tokyo-asian-cuisine-west-springfield", "name": "Tokyo Asian Cuisine", "image_url": "https://s3-media1.fl.yelpcdn.com/bphoto/PwDVL5Qphxv9ewJLfnr1Xw/o.jpg", "is_closed": false, "url": "https://www.yelp.com/biz/tokyo-asian-cuisine-west-springfield?adjust_creative=HdhkN5EEH6lAqE3kwhsHEQ&utm_campaign=yelp_api_v3&utm_medium=api_v3_business_search&utm_source=HdhkN5EEH6lAqE3kwhsHEQ", "review_count": 91, "categories": [{"alias": "japanese", "title": "Japanese"}, {"alias": "sushi", "title": "Sushi Bars"}, {"alias": "asianfusion", "title": "Asian Fusion"}], "rating": 3.5, "coordinates": {"latitude": 42.1351233, "longitude": -72.625889}, "transactions": ["pickup", "delivery"], "price": "$$", "location": {"address1": "1152 Riverdale St", "address2": null, "address3": null, "city": "West Springfield", "zip_code": "01089", "country": "US", "state": "MA", "display_address": ["1152 Riverdale St", "West Springfield, MA 01089"]}, "phone": "+14137887788", "display_phone": "(413) 788-7788", "distance": 4253.680851607659}, {"id": "7eCWkaqkGr6e2ysBrxdxhg", "alias": "route-66-diner-springfield", "name": "Route 66 Diner", "image_url": "https://s3-media3.fl.yelpcdn.com/bphoto/9uvzf5SqjEMeVu0ZaUlQ9Q/o.jpg", "is_closed": false, "url": "https://www.yelp.com/biz/route-66-diner-springfield?adjust_creative=HdhkN5EEH6lAqE3kwhsHEQ&utm_campaign=yelp_api_v3&utm_medium=api_v3_business_search&utm_source=HdhkN5EEH6lAqE3kwhsHEQ", "review_count": 26, "categories": [{"alias": "diners", "title": "Diners"}], "rating": 3.5, "coordinates": {"latitude": 42.13104352355, "longitude": -72.5534433871508}, "transactions": ["delivery"], "price": "$", "location": {"address1": "950 Bay St", "address2": "", "address3": "", "city": "Springfield", "zip_code": "01109", "country": "US", "state": "MA", "display_address": ["950 Bay St", "Springfield, MA 01109"]}, "phone": "+14137374921", "display_phone": "(413) 737-4921", "distance": 4015.1661676689814}, {"id": "Ma1E7yQEhfAKe-YGxO4cdA", "alias": "liberty-pizza-springfield", "name": "Liberty Pizza", "image_url": "https://s3-media2.fl.yelpcdn.com/bphoto/mdG18wHkV3E3R7rp3Qg8ug/o.jpg", "is_closed": false, "url": "https://www.yelp.com/biz/liberty-pizza-springfield?adjust_creative=HdhkN5EEH6lAqE3kwhsHEQ&utm_campaign=yelp_api_v3&utm_medium=api_v3_business_search&utm_source=HdhkN5EEH6lAqE3kwhsHEQ", "review_count": 5, "categories": [{"alias": "pizza", "title": "Pizza"}, {"alias": "tradamerican", "title": "American (Traditional)"}], "rating": 3.5, "coordinates": {"latitude": 42.140197, "longitude": -72.581172}, "transactions": ["delivery"], "price": "$", "location": {"address1": "1383 Liberty St", "address2": "", "address3": "", "city": "Springfield", "zip_code": "01104", "country": "US", "state": "MA", "display_address": ["1383 Liberty St", "Springfield, MA 01104"]}, "phone": "+14137374444", "display_phone": "(413) 737-4444", "distance": 2079.541832573263}, {"id": "OQuKSStQfYL9-iGhgZj7Wg", "alias": "holyoke-turn-verein-holyoke", "name": "Holyoke Turn Verein", "image_url": "https://s3-media1.fl.yelpcdn.com/bphoto/H3ixf_NYhpsKc7Q1HhktVg/o.jpg", "is_closed": false, "url": "https://www.yelp.com/biz/holyoke-turn-verein-holyoke?adjust_creative=HdhkN5EEH6lAqE3kwhsHEQ&utm_campaign=yelp_api_v3&utm_medium=api_v3_business_search&utm_source=HdhkN5EEH6lAqE3kwhsHEQ", "review_count": 4, "categories": [{"alias": "bowling", "title": "Bowling"}, {"alias": "bbq", "title": "Barbeque"}, {"alias": "sportsbars", "title": "Sports Bars"}], "rating": 4.0, "coordinates": {"latitude": 42.1953, "longitude": -72.60923}, "transactions": [], "location": {"address1": "624 S Bridge St", "address2": "", "address3": "", "city": "Holyoke", "zip_code": "01040", "country": "US", "state": "MA", "display_address": ["624 S Bridge St", "Holyoke, MA 01040"]}, "phone": "+14135399412", "display_phone": "(413) 539-9412", "distance": 4549.920311947842}, {"id": "E-GBzX-_puSiAIQBHf5XTA", "alias": "holyoke-hummus-company-holyoke", "name": "Holyoke Hummus Company", "image_url": "https://s3-media2.fl.yelpcdn.com/bphoto/K-RvwwHMrU-8EFC9r_j1bw/o.jpg", "is_closed": false, "url": "https://www.yelp.com/biz/holyoke-hummus-company-holyoke?adjust_creative=HdhkN5EEH6lAqE3kwhsHEQ&utm_campaign=yelp_api_v3&utm_medium=api_v3_business_search&utm_source=HdhkN5EEH6lAqE3kwhsHEQ", "review_count": 65, "categories": [{"alias": "mideastern", "title": "Middle Eastern"}, {"alias": "foodtrucks", "title": "Food Trucks"}, {"alias": "breakfast_brunch", "title": "Breakfast & Brunch"}], "rating": 4.5, "coordinates": {"latitude": 42.206426, "longitude": -72.6086119}, "transactions": ["pickup", "delivery"], "price": "$", "location": {"address1": "285 High St", "address2": null, "address3": "", "city": "Holyoke", "zip_code": "01040", "country": "US", "state": "MA", "display_address": ["285 High St", "Holyoke, MA 01040"]}, "phone": "+14132251755", "display_phone": "(413) 225-1755", "distance": 5671.309088172665}, {"id": "eHnDYRZqJpiqbom9XwTKgQ", "alias": "hooters-west-springfield", "name": "Hooters", "image_url": "https://s3-media3.fl.yelpcdn.com/bphoto/k7Z1SSgVtHmR6akJRsM5pg/o.jpg", "is_closed": false, "url": "https://www.yelp.com/biz/hooters-west-springfield?adjust_creative=HdhkN5EEH6lAqE3kwhsHEQ&utm_campaign=yelp_api_v3&utm_medium=api_v3_business_search&utm_source=HdhkN5EEH6lAqE3kwhsHEQ", "review_count": 65, "categories": [{"alias": "tradamerican", "title": "American (Traditional)"}, {"alias": "sportsbars", "title": "Sports Bars"}, {"alias": "chicken_wings", "title": "Chicken Wings"}], "rating": 3.5, "coordinates": {"latitude": 42.1388972, "longitude": -72.6268324202204}, "transactions": ["pickup", "delivery"], "price": "$$", "location": {"address1": "1290 Riverdale St", "address2": "", "address3": "", "city": "West Springfield", "zip_code": "01089", "country": "US", "state": "MA", "display_address": ["1290 Riverdale St", "West Springfield, MA 01089"]}, "phone": "+14133019741", "display_phone": "(413) 301-9741", "distance": 4055.434398462979}, {"id": "4n43gGjPAlAfQX5CNaZTow", "alias": "los-bravos-springfield-2", "name": "Los Bravos", "image_url": "https://s3-media1.fl.yelpcdn.com/bphoto/K4Tsl46R-xC5ZakzJTkpsQ/o.jpg", "is_closed": false, "url": "https://www.yelp.com/biz/los-bravos-springfield-2?adjust_creative=HdhkN5EEH6lAqE3kwhsHEQ&utm_campaign=yelp_api_v3&utm_medium=api_v3_business_search&utm_source=HdhkN5EEH6lAqE3kwhsHEQ", "review_count": 6, "categories": [{"alias": "spanish", "title": "Spanish"}], "rating": 2.5, "coordinates": {"latitude": 42.136097, "longitude": -72.568507}, "transactions": ["delivery"], "price": "$", "location": {"address1": "1003 St James Ave", "address2": null, "address3": null, "city": "Springfield", "zip_code": "01104", "country": "US", "state": "MA", "display_address": ["1003 St James Ave", "Springfield, MA 01104"]}, "phone": "+14133630572", "display_phone": "(413) 363-0572", "distance": 2843.796554484114}, {"id": "RXOR-UOJ9xM6NjvltpRCiA", "alias": "pizza-chop-chicopee-2", "name": "Pizza Chop", "image_url": "https://s3-media2.fl.yelpcdn.com/bphoto/3IwtvqS4JYda-iu775N_xA/o.jpg", "is_closed": false, "url": "https://www.yelp.com/biz/pizza-chop-chicopee-2?adjust_creative=HdhkN5EEH6lAqE3kwhsHEQ&utm_campaign=yelp_api_v3&utm_medium=api_v3_business_search&utm_source=HdhkN5EEH6lAqE3kwhsHEQ", "review_count": 10, "categories": [{"alias": "pizza", "title": "Pizza"}], "rating": 3.5, "coordinates": {"latitude": 42.13662, "longitude": -72.60135}, "transactions": ["pickup", "delivery"], "price": "$", "location": {"address1": "486 Springfield St", "address2": "", "address3": "", "city": "Chicopee", "zip_code": "01013", "country": "US", "state": "MA", "display_address": ["486 Springfield St", "Chicopee, MA 01013"]}, "phone": "+14133313636", "display_phone": "(413) 331-3636", "distance": 2761.1665322677704}, {"id": "bAcfGfqu5EQTZOY3p_HE4g", "alias": "westover-club-chicopee", "name": "Westover Club", "image_url": "https://s3-media2.fl.yelpcdn.com/bphoto/0umWD5mLa5fN0dBRU-sVOg/o.jpg", "is_closed": false, "url": "https://www.yelp.com/biz/westover-club-chicopee?adjust_creative=HdhkN5EEH6lAqE3kwhsHEQ&utm_campaign=yelp_api_v3&utm_medium=api_v3_business_search&utm_source=HdhkN5EEH6lAqE3kwhsHEQ", "review_count": 3, "categories": [{"alias": "bars", "title": "Bars"}, {"alias": "tradamerican", "title": "American (Traditional)"}], "rating": 3.5, "coordinates": {"latitude": 42.189655, "longitude": -72.557623}, "transactions": ["delivery"], "price": "$$", "location": {"address1": "130 Galaxy Rd", "address2": "Bldg 6640", "address3": "", "city": "Chicopee", "zip_code": "01022", "country": "US", "state": "MA", "display_address": ["130 Galaxy Rd", "Bldg 6640", "Chicopee, MA 01022"]}, "phone": "+14135572039", "display_phone": "(413) 557-2039", "distance": 4153.286740498163}, {"id": "i7eIjrsbNDoKUSwmulG6xw", "alias": "99-restaurants-west-springfield", "name": "99 Restaurants", "image_url": "https://s3-media3.fl.yelpcdn.com/bphoto/E5ugiqSvdzRzjqiYvP1AWA/o.jpg", "is_closed": false, "url": "https://www.yelp.com/biz/99-restaurants-west-springfield?adjust_creative=HdhkN5EEH6lAqE3kwhsHEQ&utm_campaign=yelp_api_v3&utm_medium=api_v3_business_search&utm_source=HdhkN5EEH6lAqE3kwhsHEQ", "review_count": 26, "categories": [{"alias": "pubs", "title": "Pubs"}, {"alias": "tradamerican", "title": "American (Traditional)"}], "rating": 2.5, "coordinates": {"latitude": 42.1325989387383, "longitude": -72.625226662162}, "transactions": [], "price": "$$", "location": {"address1": "1053 Riverdale St", "address2": "Unit A", "address3": "", "city": "West Springfield", "zip_code": "01089", "country": "US", "state": "MA", "display_address": ["1053 Riverdale St", "Unit A", "West Springfield, MA 01089"]}, "phone": "+14138581995", "display_phone": "(413) 858-1995", "distance": 4369.488996737123}, {"id": "ZP_USBUpSVsalAlzC5d1dA", "alias": "main-wok-springfield", "name": "Main Wok", "image_url": "https://s3-media4.fl.yelpcdn.com/bphoto/isMSMHtT7SsU_-0hJuhriw/o.jpg", "is_closed": false, "url": "https://www.yelp.com/biz/main-wok-springfield?adjust_creative=HdhkN5EEH6lAqE3kwhsHEQ&utm_campaign=yelp_api_v3&utm_medium=api_v3_business_search&utm_source=HdhkN5EEH6lAqE3kwhsHEQ", "review_count": 16, "categories": [{"alias": "chinese", "title": "Chinese"}], "rating": 2.5, "coordinates": {"latitude": 42.140431, "longitude": -72.559208}, "transactions": ["pickup", "delivery"], "price": "$", "location": {"address1": "590 Page Blvd", "address2": "", "address3": "", "city": "Springfield", "zip_code": "01104", "country": "US", "state": "MA", "display_address": ["590 Page Blvd", "Springfield, MA 01104"]}, "phone": "+14137318888", "display_phone": "(413) 731-8888", "distance": 2917.479626425863}, {"id": "NbBNp6dIE3XhMAlpiW3oGA", "alias": "house-of-huang-springfield", "name": "House of Huang", "image_url": "", "is_closed": false, "url": "https://www.yelp.com/biz/house-of-huang-springfield?adjust_creative=HdhkN5EEH6lAqE3kwhsHEQ&utm_campaign=yelp_api_v3&utm_medium=api_v3_business_search&utm_source=HdhkN5EEH6lAqE3kwhsHEQ", "review_count": 1, "categories": [{"alias": "restaurants", "title": "Restaurants"}], "rating": 1.0, "coordinates": {"latitude": 42.1220566, "longitude": -72.5889694}, "transactions": [], "location": {"address1": "506 Armory St", "address2": "", "address3": "", "city": "Springfield", "zip_code": "01104", "country": "US", "state": "MA", "display_address": ["506 Armory St", "Springfield, MA 01104"]}, "phone": "+14137888967", "display_phone": "(413) 788-8967", "distance": 4052.53791303674}, {"id": "Ze7qsC-B8vNO1pZZk2GnUA", "alias": "romanos-pizza-restaurant-chicopee", "name": "Romano's Pizza Restaurant", "image_url": "https://s3-media2.fl.yelpcdn.com/bphoto/0G-LmbDDg9Ew30zjN8NWQw/o.jpg", "is_closed": false, "url": "https://www.yelp.com/biz/romanos-pizza-restaurant-chicopee?adjust_creative=HdhkN5EEH6lAqE3kwhsHEQ&utm_campaign=yelp_api_v3&utm_medium=api_v3_business_search&utm_source=HdhkN5EEH6lAqE3kwhsHEQ", "review_count": 9, "categories": [{"alias": "pizza", "title": "Pizza"}], "rating": 3.0, "coordinates": {"latitude": 42.147915, "longitude": -72.6096904}, "transactions": ["pickup", "delivery"], "price": "$$$$", "location": {"address1": "191 Exchange St", "address2": "", "address3": "", "city": "Chicopee", "zip_code": "01013", "country": "US", "state": "MA", "display_address": ["191 Exchange St", "Chicopee, MA 01013"]}, "phone": "+14135947777", "display_phone": "(413) 594-7777", "distance": 2326.5448477723485}, {"id": "p-E7esOKcieVFFYdUlV8LQ", "alias": "springdale-lunch-holyoke", "name": "Springdale Lunch", "image_url": "https://s3-media3.fl.yelpcdn.com/bphoto/fRI7KnbPHWa-8nX-OCr5nA/o.jpg", "is_closed": false, "url": "https://www.yelp.com/biz/springdale-lunch-holyoke?adjust_creative=HdhkN5EEH6lAqE3kwhsHEQ&utm_campaign=yelp_api_v3&utm_medium=api_v3_business_search&utm_source=HdhkN5EEH6lAqE3kwhsHEQ", "review_count": 1, "categories": [{"alias": "tradamerican", "title": "American (Traditional)"}], "rating": 5.0, "coordinates": {"latitude": 42.1899637, "longitude": -72.6207873}, "transactions": [], "location": {"address1": "827 Main St", "address2": "", "address3": "", "city": "Holyoke", "zip_code": "01040", "country": "US", "state": "MA", "display_address": ["827 Main St", "Holyoke, MA 01040"]}, "phone": "+14135338372", "display_phone": "(413) 533-8372", "distance": 4565.3402256258305}, {"id": "d7U5nZ08x-x55HwDmDK31w", "alias": "the-new-county-kettle-chicopee", "name": "The New County Kettle", "image_url": "https://s3-media2.fl.yelpcdn.com/bphoto/_qGYXJCVIzaKj9vFsZAXFQ/o.jpg", "is_closed": false, "url": "https://www.yelp.com/biz/the-new-county-kettle-chicopee?adjust_creative=HdhkN5EEH6lAqE3kwhsHEQ&utm_campaign=yelp_api_v3&utm_medium=api_v3_business_search&utm_source=HdhkN5EEH6lAqE3kwhsHEQ", "review_count": 2, "categories": [{"alias": "tradamerican", "title": "American (Traditional)"}], "rating": 2.5, "coordinates": {"latitude": 42.1497084, "longitude": -72.5800127}, "transactions": [], "price": "$", "location": {"address1": "129 Broadway St", "address2": "", "address3": "", "city": "Chicopee", "zip_code": "01020", "country": "US", "state": "MA", "display_address": ["129 Broadway St", "Chicopee, MA 01020"]}, "phone": "+14133313988", "display_phone": "(413) 331-3988", "distance": 1063.928315301845}, {"id": "WDPo2-YrOixWiFzOCnKIsg", "alias": "bella-milano-springfield-2", "name": "Bella Milano", "image_url": "https://s3-media3.fl.yelpcdn.com/bphoto/9AqnWSPcFi2rGb5CHbQJhA/o.jpg", "is_closed": false, "url": "https://www.yelp.com/biz/bella-milano-springfield-2?adjust_creative=HdhkN5EEH6lAqE3kwhsHEQ&utm_campaign=yelp_api_v3&utm_medium=api_v3_business_search&utm_source=HdhkN5EEH6lAqE3kwhsHEQ", "review_count": 8, "categories": [{"alias": "pizza", "title": "Pizza"}], "rating": 3.0, "coordinates": {"latitude": 42.1345219, "longitude": -72.569765}, "transactions": ["pickup", "delivery"], "price": "$$", "location": {"address1": "27 St James Blvd", "address2": "", "address3": "", "city": "Springfield", "zip_code": "01104", "country": "US", "state": "MA", "display_address": ["27 St James Blvd", "Springfield, MA 01104"]}, "phone": "+14137464700", "display_phone": "(413) 746-4700", "distance": 2951.561866921813}, {"id": "_qhFJpA9dOt1YiTjUfnMlg", "alias": "dominos-pizza-springfield-4", "name": "Domino's Pizza", "image_url": "", "is_closed": false, "url": "https://www.yelp.com/biz/dominos-pizza-springfield-4?adjust_creative=HdhkN5EEH6lAqE3kwhsHEQ&utm_campaign=yelp_api_v3&utm_medium=api_v3_business_search&utm_source=HdhkN5EEH6lAqE3kwhsHEQ", "review_count": 10, "categories": [{"alias": "pizza", "title": "Pizza"}], "rating": 2.0, "coordinates": {"latitude": 42.1245, "longitude": -72.58459}, "transactions": [], "price": "$", "location": {"address1": "790 Liberty St", "address2": "", "address3": "", "city": "Springfield", "zip_code": "01104", "country": "US", "state": "MA", "display_address": ["790 Liberty St", "Springfield, MA 01104"]}, "phone": "+14138278400", "display_phone": "(413) 827-8400", "distance": 3758.364803458608}, {"id": "1wlKUD5iIB4daJyPxPU_TA", "alias": "china-garden-springfield", "name": "China Garden", "image_url": "https://s3-media3.fl.yelpcdn.com/bphoto/mbYA-jY741E-bOkaxtSgMQ/o.jpg", "is_closed": false, "url": "https://www.yelp.com/biz/china-garden-springfield?adjust_creative=HdhkN5EEH6lAqE3kwhsHEQ&utm_campaign=yelp_api_v3&utm_medium=api_v3_business_search&utm_source=HdhkN5EEH6lAqE3kwhsHEQ", "review_count": 5, "categories": [{"alias": "chinese", "title": "Chinese"}], "rating": 3.0, "coordinates": {"latitude": 42.1251278, "longitude": -72.5353376}, "transactions": [], "location": {"address1": "133 Boston Rd", "address2": "", "address3": "", "city": "Springfield", "zip_code": "01109", "country": "US", "state": "MA", "display_address": ["133 Boston Rd", "Springfield, MA 01109"]}, "phone": "+14137838848", "display_phone": "(413) 783-8848", "distance": 5540.364799631414}, {"id": "P3Zd1y8I7tNAIVMqCCphEw", "alias": "tonys-pizza-springfield-2", "name": "Tony's Pizza", "image_url": "https://s3-media1.fl.yelpcdn.com/bphoto/54y0u0h4m15jhttlIO3Y8w/o.jpg", "is_closed": false, "url": "https://www.yelp.com/biz/tonys-pizza-springfield-2?adjust_creative=HdhkN5EEH6lAqE3kwhsHEQ&utm_campaign=yelp_api_v3&utm_medium=api_v3_business_search&utm_source=HdhkN5EEH6lAqE3kwhsHEQ", "review_count": 24, "categories": [{"alias": "pizza", "title": "Pizza"}, {"alias": "italian", "title": "Italian"}], "rating": 4.5, "coordinates": {"latitude": 42.12516, "longitude": -72.53664}, "transactions": ["delivery"], "price": "$$", "location": {"address1": "108 Boston Rd", "address2": "", "address3": "", "city": "Springfield", "zip_code": "01109", "country": "US", "state": "MA", "display_address": ["108 Boston Rd", "Springfield, MA 01109"]}, "phone": "+14137326600", "display_phone": "(413) 732-6600", "distance": 5453.149651689272}, {"id": "FLXxNUfDO8JFkNhgWGg1Ug", "alias": "bamboo-house-holyoke", "name": "Bamboo House", "image_url": "https://s3-media2.fl.yelpcdn.com/bphoto/C5eyaFVm6egy66s9Q3G72Q/o.jpg", "is_closed": false, "url": "https://www.yelp.com/biz/bamboo-house-holyoke?adjust_creative=HdhkN5EEH6lAqE3kwhsHEQ&utm_campaign=yelp_api_v3&utm_medium=api_v3_business_search&utm_source=HdhkN5EEH6lAqE3kwhsHEQ", "review_count": 19, "categories": [{"alias": "chinese", "title": "Chinese"}], "rating": 3.0, "coordinates": {"latitude": 42.1859909, "longitude": -72.6306179}, "transactions": ["delivery"], "price": "$", "location": {"address1": "2223 Northampton St", "address2": "", "address3": "", "city": "Holyoke", "zip_code": "01040", "country": "US", "state": "MA", "display_address": ["2223 Northampton St", "Holyoke, MA 01040"]}, "phone": "+14135364299", "display_phone": "(413) 536-4299", "distance": 4924.008841995626}, {"id": "_KpFszaYzoyf77B0FC3yrg", "alias": "c-and-t-pizza-chicopee", "name": "C and T Pizza", "image_url": "https://s3-media2.fl.yelpcdn.com/bphoto/4IyVYz_KKygmo_WkwcnAig/o.jpg", "is_closed": false, "url": "https://www.yelp.com/biz/c-and-t-pizza-chicopee?adjust_creative=HdhkN5EEH6lAqE3kwhsHEQ&utm_campaign=yelp_api_v3&utm_medium=api_v3_business_search&utm_source=HdhkN5EEH6lAqE3kwhsHEQ", "review_count": 4, "categories": [{"alias": "pizza", "title": "Pizza"}], "rating": 3.5, "coordinates": {"latitude": 42.1914, "longitude": -72.60181}, "transactions": ["delivery"], "price": "$", "location": {"address1": "982 Chicopee St", "address2": "", "address3": "", "city": "Chicopee", "zip_code": "01013", "country": "US", "state": "MA", "display_address": ["982 Chicopee St", "Chicopee, MA 01013"]}, "phone": "+14135340736", "display_phone": "(413) 534-0736", "distance": 3912.1924265232915}, {"id": "KrAA8btBrdkfqOQYaxlnMw", "alias": "mi-isla-bakery-and-restaurant-chicopee-2", "name": "Mi Isla Bakery & Restaurant", "image_url": "", "is_closed": false, "url": "https://www.yelp.com/biz/mi-isla-bakery-and-restaurant-chicopee-2?adjust_creative=HdhkN5EEH6lAqE3kwhsHEQ&utm_campaign=yelp_api_v3&utm_medium=api_v3_business_search&utm_source=HdhkN5EEH6lAqE3kwhsHEQ", "review_count": 2, "categories": [{"alias": "latin", "title": "Latin American"}, {"alias": "bakeries", "title": "Bakeries"}, {"alias": "breakfast_brunch", "title": "Breakfast & Brunch"}], "rating": 5.0, "coordinates": {"latitude": 42.1867979, "longitude": -72.6083284}, "transactions": [], "location": {"address1": "738 Chicopee St", "address2": "", "address3": null, "city": "Chicopee", "zip_code": "01013", "country": "US", "state": "MA", "display_address": ["738 Chicopee St", "Chicopee, MA 01013"]}, "phone": "+14134378501", "display_phone": "(413) 437-8501", "distance": 3680.908924519468}, {"id": "jgyT9FHSrwxutR2v8M-BjA", "alias": "arbys-chicopee", "name": "Arby's", "image_url": "https://s3-media3.fl.yelpcdn.com/bphoto/RgOROcPwrx2WgXyOEsIuRw/o.jpg", "is_closed": false, "url": "https://www.yelp.com/biz/arbys-chicopee?adjust_creative=HdhkN5EEH6lAqE3kwhsHEQ&utm_campaign=yelp_api_v3&utm_medium=api_v3_business_search&utm_source=HdhkN5EEH6lAqE3kwhsHEQ", "review_count": 9, "categories": [{"alias": "hotdogs", "title": "Fast Food"}, {"alias": "sandwiches", "title": "Sandwiches"}], "rating": 3.0, "coordinates": {"latitude": 42.17996, "longitude": -72.57829}, "transactions": [], "price": "$", "location": {"address1": "1483 Granby Rd", "address2": "", "address3": "", "city": "Chicopee", "zip_code": "01020", "country": "US", "state": "MA", "display_address": ["1483 Granby Rd", "Chicopee, MA 01020"]}, "phone": "+14135931437", "display_phone": "(413) 593-1437", "distance": 2448.7502334855694}, {"id": "pLjOAgjjRl8MBSf_0_KnvA", "alias": "wendys-springfield-25", "name": "Wendy's", "image_url": "https://s3-media4.fl.yelpcdn.com/bphoto/U7fp63dIp55pWD5tIbn-bA/o.jpg", "is_closed": false, "url": "https://www.yelp.com/biz/wendys-springfield-25?adjust_creative=HdhkN5EEH6lAqE3kwhsHEQ&utm_campaign=yelp_api_v3&utm_medium=api_v3_business_search&utm_source=HdhkN5EEH6lAqE3kwhsHEQ", "review_count": 5, "categories": [{"alias": "burgers", "title": "Burgers"}, {"alias": "hotdogs", "title": "Fast Food"}], "rating": 3.0, "coordinates": {"latitude": 42.14209, "longitude": -72.57606}, "transactions": ["delivery"], "price": "$", "location": {"address1": "1290 Saint James Ave", "address2": "", "address3": "", "city": "Springfield", "zip_code": "01104", "country": "US", "state": "MA", "display_address": ["1290 Saint James Ave", "Springfield, MA 01104"]}, "phone": "+14132093186", "display_phone": "(413) 209-3186", "distance": 1955.0979042644522}, {"id": "-tYd2nzZ-hDUdWqE7ogyLw", "alias": "lucky-kitchen-springfield", "name": "Lucky Kitchen", "image_url": "https://s3-media3.fl.yelpcdn.com/bphoto/-VmPPvDsorDSMtFnGIztwQ/o.jpg", "is_closed": false, "url": "https://www.yelp.com/biz/lucky-kitchen-springfield?adjust_creative=HdhkN5EEH6lAqE3kwhsHEQ&utm_campaign=yelp_api_v3&utm_medium=api_v3_business_search&utm_source=HdhkN5EEH6lAqE3kwhsHEQ", "review_count": 2, "categories": [{"alias": "chinese", "title": "Chinese"}], "rating": 3.5, "coordinates": {"latitude": 42.1248589, "longitude": -72.5392914}, "transactions": ["delivery"], "price": "$", "location": {"address1": "42 Berkshire Ave", "address2": null, "address3": null, "city": "Springfield", "zip_code": "01109", "country": "US", "state": "MA", "display_address": ["42 Berkshire Ave", "Springfield, MA 01109"]}, "phone": "+14137461999", "display_phone": "(413) 746-1999", "distance": 5324.014018004358}, {"id": "1qbyTaa1uIL5cO7QH8y7UQ", "alias": "pride-stores-west-springfield", "name": "Pride Stores", "image_url": "https://s3-media2.fl.yelpcdn.com/bphoto/3XxmqUCaYQpFHq4Y2ZeESA/o.jpg", "is_closed": false, "url": "https://www.yelp.com/biz/pride-stores-west-springfield?adjust_creative=HdhkN5EEH6lAqE3kwhsHEQ&utm_campaign=yelp_api_v3&utm_medium=api_v3_business_search&utm_source=HdhkN5EEH6lAqE3kwhsHEQ", "review_count": 2, "categories": [{"alias": "servicestations", "title": "Gas Stations"}, {"alias": "hotdogs", "title": "Fast Food"}], "rating": 5.0, "coordinates": {"latitude": 42.1255, "longitude": -72.62584}, "transactions": [], "location": {"address1": "757 Riverdale St", "address2": null, "address3": "", "city": "West Springfield", "zip_code": "01089", "country": "US", "state": "MA", "display_address": ["757 Riverdale St", "West Springfield, MA 01089"]}, "phone": "+14134553398", "display_phone": "(413) 455-3398", "distance": 5011.247684143293}, {"id": "y1BC-G_QMxMWbBvmQnazqg", "alias": "wendys-chicopee-3", "name": "Wendy's", "image_url": "https://s3-media3.fl.yelpcdn.com/bphoto/K683o5Dx3Ts5CXy20OUlbg/o.jpg", "is_closed": false, "url": "https://www.yelp.com/biz/wendys-chicopee-3?adjust_creative=HdhkN5EEH6lAqE3kwhsHEQ&utm_campaign=yelp_api_v3&utm_medium=api_v3_business_search&utm_source=HdhkN5EEH6lAqE3kwhsHEQ", "review_count": 9, "categories": [{"alias": "burgers", "title": "Burgers"}, {"alias": "hotdogs", "title": "Fast Food"}], "rating": 1.5, "coordinates": {"latitude": 42.17923, "longitude": -72.57775}, "transactions": ["delivery"], "price": "$", "location": {"address1": "786 Memorial Dr.", "address2": "", "address3": "", "city": "Chicopee", "zip_code": "01020", "country": "US", "state": "MA", "display_address": ["786 Memorial Dr.", "Chicopee, MA 01020"]}, "phone": "+14135936529", "display_phone": "(413) 593-6529", "distance": 2396.7571066174646}, {"id": "u88GRo9FygDrzojb4ok6JQ", "alias": "2-guys-pizzeria-springfield", "name": "2 Guys Pizzeria", "image_url": "", "is_closed": false, "url": "https://www.yelp.com/biz/2-guys-pizzeria-springfield?adjust_creative=HdhkN5EEH6lAqE3kwhsHEQ&utm_campaign=yelp_api_v3&utm_medium=api_v3_business_search&utm_source=HdhkN5EEH6lAqE3kwhsHEQ", "review_count": 9, "categories": [{"alias": "pizza", "title": "Pizza"}], "rating": 3.5, "coordinates": {"latitude": 42.13852, "longitude": -72.56216}, "transactions": ["delivery"], "price": "$$", "location": {"address1": "477 Page Blvd", "address2": "", "address3": "", "city": "Springfield", "zip_code": "01104", "country": "US", "state": "MA", "display_address": ["477 Page Blvd", "Springfield, MA 01104"]}, "phone": "+14137360422", "display_phone": "(413) 736-0422", "distance": 2932.1532057954505}, {"id": "FdfZpw2dowUEtWD4pYfZ4A", "alias": "pizza-hut-west-springfield-2", "name": "Pizza Hut", "image_url": "https://s3-media1.fl.yelpcdn.com/bphoto/Xq-rQihLNqEy-XxQKBYgJg/o.jpg", "is_closed": false, "url": "https://www.yelp.com/biz/pizza-hut-west-springfield-2?adjust_creative=HdhkN5EEH6lAqE3kwhsHEQ&utm_campaign=yelp_api_v3&utm_medium=api_v3_business_search&utm_source=HdhkN5EEH6lAqE3kwhsHEQ", "review_count": 17, "categories": [{"alias": "pizza", "title": "Pizza"}, {"alias": "italian", "title": "Italian"}, {"alias": "chicken_wings", "title": "Chicken Wings"}], "rating": 2.5, "coordinates": {"latitude": 42.132380789365, "longitude": -72.6263880729676}, "transactions": ["pickup", "delivery"], "price": "$", "location": {"address1": "1048 Riverdale St", "address2": "", "address3": "", "city": "West Springfield", "zip_code": "01089", "country": "US", "state": "MA", "display_address": ["1048 Riverdale St", "West Springfield, MA 01089"]}, "phone": "+14137334098", "display_phone": "(413) 733-4098", "distance": 4457.808214526494}, {"id": "vtImstqahtr-cAxLRgO2VA", "alias": "main-kitchen-springfield", "name": "Main Kitchen", "image_url": "https://s3-media1.fl.yelpcdn.com/bphoto/sV8UJVx3vsORS_iw_8Fu5A/o.jpg", "is_closed": false, "url": "https://www.yelp.com/biz/main-kitchen-springfield?adjust_creative=HdhkN5EEH6lAqE3kwhsHEQ&utm_campaign=yelp_api_v3&utm_medium=api_v3_business_search&utm_source=HdhkN5EEH6lAqE3kwhsHEQ", "review_count": 9, "categories": [{"alias": "chinese", "title": "Chinese"}], "rating": 2.5, "coordinates": {"latitude": 42.13594, "longitude": -72.56922}, "transactions": ["delivery"], "price": "$", "location": {"address1": "1343 Carew St", "address2": "", "address3": "", "city": "Springfield", "zip_code": "01104", "country": "US", "state": "MA", "display_address": ["1343 Carew St", "Springfield, MA 01104"]}, "phone": "+14137887770", "display_phone": "(413) 788-7770", "distance": 2841.730247376074}, {"id": "b17C84AfrFoO7eFCP3mxWg", "alias": "mcdonalds-chicopee-4", "name": "McDonald's", "image_url": "https://s3-media4.fl.yelpcdn.com/bphoto/zMUBR3tF-0Dg1xpGMsIJzg/o.jpg", "is_closed": false, "url": "https://www.yelp.com/biz/mcdonalds-chicopee-4?adjust_creative=HdhkN5EEH6lAqE3kwhsHEQ&utm_campaign=yelp_api_v3&utm_medium=api_v3_business_search&utm_source=HdhkN5EEH6lAqE3kwhsHEQ", "review_count": 2, "categories": [{"alias": "hotdogs", "title": "Fast Food"}, {"alias": "burgers", "title": "Burgers"}, {"alias": "coffee", "title": "Coffee & Tea"}], "rating": 3.0, "coordinates": {"latitude": 42.17513, "longitude": -72.57584}, "transactions": ["delivery"], "price": "$", "location": {"address1": "639 Memorial Dr", "address2": "", "address3": "", "city": "Chicopee", "zip_code": "01020", "country": "US", "state": "MA", "display_address": ["639 Memorial Dr", "Chicopee, MA 01020"]}, "phone": "+14135933110", "display_phone": "(413) 593-3110", "distance": 2015.8945829221093}, {"id": "GQPzSlxOX-eTpeHsbZgzlw", "alias": "kfc-west-springfield", "name": "KFC", "image_url": "https://s3-media1.fl.yelpcdn.com/bphoto/Fx39QQJD8pWMV3tZwN0_FA/o.jpg", "is_closed": false, "url": "https://www.yelp.com/biz/kfc-west-springfield?adjust_creative=HdhkN5EEH6lAqE3kwhsHEQ&utm_campaign=yelp_api_v3&utm_medium=api_v3_business_search&utm_source=HdhkN5EEH6lAqE3kwhsHEQ", "review_count": 13, "categories": [{"alias": "hotdogs", "title": "Fast Food"}, {"alias": "chicken_wings", "title": "Chicken Wings"}, {"alias": "chickenshop", "title": "Chicken Shop"}], "rating": 3.5, "coordinates": {"latitude": 42.129241, "longitude": -72.6245549883432}, "transactions": ["pickup", "delivery"], "price": "$", "location": {"address1": "931 Riverdale St", "address2": "", "address3": "", "city": "West Springfield", "zip_code": "01089", "country": "US", "state": "MA", "display_address": ["931 Riverdale St", "West Springfield, MA 01089"]}, "phone": "+14137373460", "display_phone": "(413) 737-3460", "distance": 4584.37238996819}, {"id": "Sd_5U2xx6VW9BtHobh4YJQ", "alias": "dominos-pizza-chicopee", "name": "Domino's Pizza", "image_url": "https://s3-media4.fl.yelpcdn.com/bphoto/QyWmkrex2E0l1CFsom4fXQ/o.jpg", "is_closed": false, "url": "https://www.yelp.com/biz/dominos-pizza-chicopee?adjust_creative=HdhkN5EEH6lAqE3kwhsHEQ&utm_campaign=yelp_api_v3&utm_medium=api_v3_business_search&utm_source=HdhkN5EEH6lAqE3kwhsHEQ", "review_count": 5, "categories": [{"alias": "pizza", "title": "Pizza"}, {"alias": "chicken_wings", "title": "Chicken Wings"}, {"alias": "sandwiches", "title": "Sandwiches"}], "rating": 4.0, "coordinates": {"latitude": 42.192439, "longitude": -72.575484}, "transactions": [], "price": "$", "location": {"address1": "1273 Memorial Dr", "address2": null, "address3": null, "city": "Chicopee", "zip_code": "01020", "country": "US", "state": "MA", "display_address": ["1273 Memorial Dr", "Chicopee, MA 01020"]}, "phone": "+14135939500", "display_phone": "(413) 593-9500", "distance": 3866.246120869908}, {"id": "qGXL1cSj4KLuw4FY59nu2w", "alias": "auroras-pizzeria-chicopee", "name": "Aurora's Pizzeria", "image_url": "https://s3-media2.fl.yelpcdn.com/bphoto/fZRFKZJhwG_Sg_rVe_u7Jg/o.jpg", "is_closed": false, "url": "https://www.yelp.com/biz/auroras-pizzeria-chicopee?adjust_creative=HdhkN5EEH6lAqE3kwhsHEQ&utm_campaign=yelp_api_v3&utm_medium=api_v3_business_search&utm_source=HdhkN5EEH6lAqE3kwhsHEQ", "review_count": 13, "categories": [{"alias": "pizza", "title": "Pizza"}], "rating": 2.5, "coordinates": {"latitude": 42.18238, "longitude": -72.57037}, "transactions": ["pickup", "delivery"], "price": "$", "location": {"address1": "1720 Westover Rd", "address2": "", "address3": "", "city": "Chicopee", "zip_code": "01020", "country": "US", "state": "MA", "display_address": ["1720 Westover Rd", "Chicopee, MA 01020"]}, "phone": "+14135933222", "display_phone": "(413) 593-3222", "distance": 2895.906044709391}, {"id": "VEVKh6tMiPf6cqLDcXyKzw", "alias": "ihop-west-springfield", "name": "IHOP", "image_url": "https://s3-media4.fl.yelpcdn.com/bphoto/lNE5DYAmM1xgFsg3npYzLA/o.jpg", "is_closed": false, "url": "https://www.yelp.com/biz/ihop-west-springfield?adjust_creative=HdhkN5EEH6lAqE3kwhsHEQ&utm_campaign=yelp_api_v3&utm_medium=api_v3_business_search&utm_source=HdhkN5EEH6lAqE3kwhsHEQ", "review_count": 48, "categories": [{"alias": "breakfast_brunch", "title": "Breakfast & Brunch"}, {"alias": "tradamerican", "title": "American (Traditional)"}, {"alias": "burgers", "title": "Burgers"}], "rating": 3.0, "coordinates": {"latitude": 42.1232, "longitude": -72.6263}, "transactions": [], "price": "$$", "location": {"address1": "640 Riverdale St", "address2": "", "address3": "", "city": "West Springfield", "zip_code": "01089", "country": "US", "state": "MA", "display_address": ["640 Riverdale St", "West Springfield, MA 01089"]}, "phone": "+14137363854", "display_phone": "(413) 736-3854", "distance": 5175.172514449649}, {"id": "xj8p8qH3EdxJkDqZe4Ywng", "alias": "panera-bread-west-springfield", "name": "Panera Bread", "image_url": "https://s3-media3.fl.yelpcdn.com/bphoto/VZiV5ifcvDCiTjTPbEsYgw/o.jpg", "is_closed": false, "url": "https://www.yelp.com/biz/panera-bread-west-springfield?adjust_creative=HdhkN5EEH6lAqE3kwhsHEQ&utm_campaign=yelp_api_v3&utm_medium=api_v3_business_search&utm_source=HdhkN5EEH6lAqE3kwhsHEQ", "review_count": 34, "categories": [{"alias": "sandwiches", "title": "Sandwiches"}, {"alias": "salad", "title": "Salad"}, {"alias": "soup", "title": "Soup"}], "rating": 3.5, "coordinates": {"latitude": 42.1301954, "longitude": -72.6215687}, "transactions": ["delivery"], "price": "$", "location": {"address1": "935 Riverdale St", "address2": null, "address3": null, "city": "West Springfield", "zip_code": "01089", "country": "US", "state": "MA", "display_address": ["935 Riverdale St", "West Springfield, MA 01089"]}, "phone": "+14132146333", "display_phone": "(413) 214-6333", "distance": 4336.5094194767935}, {"id": "oqAZyreTSkvUFZoXUZ8f0w", "alias": "jackies-pizza-springfield", "name": "Jackie's Pizza", "image_url": "https://s3-media4.fl.yelpcdn.com/bphoto/bE58iQXwH-Vf5QmKccJDsg/o.jpg", "is_closed": false, "url": "https://www.yelp.com/biz/jackies-pizza-springfield?adjust_creative=HdhkN5EEH6lAqE3kwhsHEQ&utm_campaign=yelp_api_v3&utm_medium=api_v3_business_search&utm_source=HdhkN5EEH6lAqE3kwhsHEQ", "review_count": 2, "categories": [{"alias": "pizza", "title": "Pizza"}], "rating": 1.0, "coordinates": {"latitude": 42.1245123012406, "longitude": -72.5841953539148}, "transactions": ["delivery"], "location": {"address1": "4 Kendall St", "address2": "", "address3": "", "city": "Springfield", "zip_code": "01104", "country": "US", "state": "MA", "display_address": ["4 Kendall St", "Springfield, MA 01104"]}, "phone": "+14137347301", "display_phone": "(413) 734-7301", "distance": 3764.8428227974314}, {"id": "NiyAPoAV2ygeqhCw0g7I-w", "alias": "paramount-pizza-slices-holyoke", "name": "Paramount Pizza Slices", "image_url": "https://s3-media1.fl.yelpcdn.com/bphoto/PbHHqR-e67C2W9mAWQomVQ/o.jpg", "is_closed": false, "url": "https://www.yelp.com/biz/paramount-pizza-slices-holyoke?adjust_creative=HdhkN5EEH6lAqE3kwhsHEQ&utm_campaign=yelp_api_v3&utm_medium=api_v3_business_search&utm_source=HdhkN5EEH6lAqE3kwhsHEQ", "review_count": 18, "categories": [{"alias": "pizza", "title": "Pizza"}], "rating": 3.5, "coordinates": {"latitude": 42.1831291, "longitude": -72.6314449}, "transactions": ["delivery"], "price": "$", "location": {"address1": "2287 Northampton St", "address2": "", "address3": "", "city": "Holyoke", "zip_code": "01040", "country": "US", "state": "MA", "display_address": ["2287 Northampton St", "Holyoke, MA 01040"]}, "phone": "+14135385544", "display_phone": "(413) 538-5544", "distance": 4767.743573494621}, {"id": "THsWUgLFPCojB5k3wlyYRA", "alias": "colonial-cafe-chicopee", "name": "Colonial Cafe", "image_url": "https://s3-media2.fl.yelpcdn.com/bphoto/J8sbrNuqhY6QF502xspGyQ/o.jpg", "is_closed": false, "url": "https://www.yelp.com/biz/colonial-cafe-chicopee?adjust_creative=HdhkN5EEH6lAqE3kwhsHEQ&utm_campaign=yelp_api_v3&utm_medium=api_v3_business_search&utm_source=HdhkN5EEH6lAqE3kwhsHEQ", "review_count": 2, "categories": [{"alias": "burgers", "title": "Burgers"}, {"alias": "mexican", "title": "Mexican"}, {"alias": "bars", "title": "Bars"}], "rating": 1.0, "coordinates": {"latitude": 42.1816360453872, "longitude": -72.6153182610869}, "transactions": [], "price": "$", "location": {"address1": "550 Chicopee St", "address2": "", "address3": "", "city": "Chicopee", "zip_code": "01013", "country": "US", "state": "MA", "display_address": ["550 Chicopee St", "Chicopee, MA 01013"]}, "phone": "+14135361935", "display_phone": "(413) 536-1935", "distance": 3574.2611965666483}, {"id": "ChIXGcfb7KwHe1Cz1bAJ9g", "alias": "kfc-chicopee", "name": "KFC", "image_url": "https://s3-media2.fl.yelpcdn.com/bphoto/xWQfONYGBcu9SO-pxxq2vw/o.jpg", "is_closed": false, "url": "https://www.yelp.com/biz/kfc-chicopee?adjust_creative=HdhkN5EEH6lAqE3kwhsHEQ&utm_campaign=yelp_api_v3&utm_medium=api_v3_business_search&utm_source=HdhkN5EEH6lAqE3kwhsHEQ", "review_count": 5, "categories": [{"alias": "hotdogs", "title": "Fast Food"}, {"alias": "chicken_wings", "title": "Chicken Wings"}, {"alias": "chickenshop", "title": "Chicken Shop"}], "rating": 3.0, "coordinates": {"latitude": 42.1930974804244, "longitude": -72.5753182844268}, "transactions": ["pickup", "delivery"], "price": "$", "location": {"address1": "1307 Memorial Dr", "address2": null, "address3": null, "city": "Chicopee", "zip_code": "01020", "country": "US", "state": "MA", "display_address": ["1307 Memorial Dr", "Chicopee, MA 01020"]}, "phone": "+14135323014", "display_phone": "(413) 532-3014", "distance": 3940.7020952649186}, {"id": "CfABbW2CXgLPF2j-gQGgMg", "alias": "maggios-pizza-chicopee", "name": "Maggio's Pizza", "image_url": "https://s3-media1.fl.yelpcdn.com/bphoto/qefyd_TPuO7l20llkd7UHg/o.jpg", "is_closed": false, "url": "https://www.yelp.com/biz/maggios-pizza-chicopee?adjust_creative=HdhkN5EEH6lAqE3kwhsHEQ&utm_campaign=yelp_api_v3&utm_medium=api_v3_business_search&utm_source=HdhkN5EEH6lAqE3kwhsHEQ", "review_count": 13, "categories": [{"alias": "pizza", "title": "Pizza"}], "rating": 3.0, "coordinates": {"latitude": 42.1831031888723, "longitude": -72.6132720708847}, "transactions": ["delivery"], "price": "$$", "location": {"address1": "582 Chicopee St", "address2": "", "address3": "", "city": "Chicopee", "zip_code": "01013", "country": "US", "state": "MA", "display_address": ["582 Chicopee St", "Chicopee, MA 01013"]}, "phone": "+14133159015", "display_phone": "(413) 315-9015", "distance": 3587.618936915872}, {"id": "6P4QXEPF6LlOapSRenAaRQ", "alias": "country-trading-and-restaurant-chicopee", "name": "Country Trading & Restaurant", "image_url": "https://s3-media1.fl.yelpcdn.com/bphoto/Ln9w6WgiSc3rvqffYAf5gQ/o.jpg", "is_closed": false, "url": "https://www.yelp.com/biz/country-trading-and-restaurant-chicopee?adjust_creative=HdhkN5EEH6lAqE3kwhsHEQ&utm_campaign=yelp_api_v3&utm_medium=api_v3_business_search&utm_source=HdhkN5EEH6lAqE3kwhsHEQ", "review_count": 9, "categories": [{"alias": "breakfast_brunch", "title": "Breakfast & Brunch"}], "rating": 3.0, "coordinates": {"latitude": 42.17407, "longitude": -72.53474}, "transactions": ["delivery"], "price": "$", "location": {"address1": "771 Burnett Rd", "address2": "", "address3": "", "city": "Chicopee", "zip_code": "01020", "country": "US", "state": "MA", "display_address": ["771 Burnett Rd", "Chicopee, MA 01020"]}, "phone": "+14135921641", "display_phone": "(413) 592-1641", "distance": 4516.485538034721}, {"id": "k_A4zra7Zt7rRtXWtMLCIQ", "alias": "d-angelo-holyoke", "name": "D'Angelo", "image_url": "https://s3-media4.fl.yelpcdn.com/bphoto/_NnQ8xZ0hO2gTN0LCmzAGg/o.jpg", "is_closed": false, "url": "https://www.yelp.com/biz/d-angelo-holyoke?adjust_creative=HdhkN5EEH6lAqE3kwhsHEQ&utm_campaign=yelp_api_v3&utm_medium=api_v3_business_search&utm_source=HdhkN5EEH6lAqE3kwhsHEQ", "review_count": 7, "categories": [{"alias": "sandwiches", "title": "Sandwiches"}], "rating": 3.5, "coordinates": {"latitude": 42.1879512, "longitude": -72.6301609}, "transactions": ["delivery"], "price": "$", "location": {"address1": "2175 Northampton St", "address2": "", "address3": "", "city": "Holyoke", "zip_code": "01040", "country": "US", "state": "MA", "display_address": ["2175 Northampton St", "Holyoke, MA 01040"]}, "phone": "+14135327370", "display_phone": "(413) 532-7370", "distance": 5039.716284938997}, {"id": "qMHpxAwyBZm_nlVYPdTcvA", "alias": "wendys-w-springfield-2", "name": "Wendy's", "image_url": "https://s3-media3.fl.yelpcdn.com/bphoto/QTCYJGCxHa7I8kDnaF144Q/o.jpg", "is_closed": false, "url": "https://www.yelp.com/biz/wendys-w-springfield-2?adjust_creative=HdhkN5EEH6lAqE3kwhsHEQ&utm_campaign=yelp_api_v3&utm_medium=api_v3_business_search&utm_source=HdhkN5EEH6lAqE3kwhsHEQ", "review_count": 5, "categories": [{"alias": "hotdogs", "title": "Fast Food"}, {"alias": "burgers", "title": "Burgers"}], "rating": 2.0, "coordinates": {"latitude": 42.1238939876179, "longitude": -72.6258858183137}, "transactions": ["delivery"], "price": "$", "location": {"address1": "644 Riverdale Street", "address2": "", "address3": null, "city": "W.Springfield", "zip_code": "01089", "country": "US", "state": "MA", "display_address": ["644 Riverdale Street", "W.Springfield, MA 01089"]}, "phone": "+14137361314", "display_phone": "(413) 736-1314", "distance": 5094.484897086969}, {"id": "q7Sg9Er4M0xGogN0lxBctg", "alias": "burger-king-holyoke-2", "name": "Burger King", "image_url": "https://s3-media2.fl.yelpcdn.com/bphoto/0eUrPesh6XLc9DTL0SnrEQ/o.jpg", "is_closed": false, "url": "https://www.yelp.com/biz/burger-king-holyoke-2?adjust_creative=HdhkN5EEH6lAqE3kwhsHEQ&utm_campaign=yelp_api_v3&utm_medium=api_v3_business_search&utm_source=HdhkN5EEH6lAqE3kwhsHEQ", "review_count": 6, "categories": [{"alias": "burgers", "title": "Burgers"}, {"alias": "hotdogs", "title": "Fast Food"}], "rating": 2.0, "coordinates": {"latitude": 42.187238, "longitude": -72.630743}, "transactions": [], "price": "$", "location": {"address1": "2177 NORTHAMPTON ST", "address2": "", "address3": "", "city": "Holyoke", "zip_code": "01040", "country": "US", "state": "MA", "display_address": ["2177 NORTHAMPTON ST", "Holyoke, MA 01040"]}, "phone": "", "display_phone": "", "distance": 4928.796823091593}, {"id": "w1A6eJRKkOn-zN_qi4W4Mw", "alias": "sarahs-place-breakfast-and-lunch-chicopee", "name": "Sarah's Place Breakfast & Lunch", "image_url": "https://s3-media2.fl.yelpcdn.com/bphoto/_lEGrcN9k2mMqJBrOfIvww/o.jpg", "is_closed": false, "url": "https://www.yelp.com/biz/sarahs-place-breakfast-and-lunch-chicopee?adjust_creative=HdhkN5EEH6lAqE3kwhsHEQ&utm_campaign=yelp_api_v3&utm_medium=api_v3_business_search&utm_source=HdhkN5EEH6lAqE3kwhsHEQ", "review_count": 2, "categories": [{"alias": "tradamerican", "title": "American (Traditional)"}, {"alias": "soup", "title": "Soup"}], "rating": 2.0, "coordinates": {"latitude": 42.1902403, "longitude": -72.6029117}, "transactions": ["delivery"], "price": "$", "location": {"address1": "930 Chicopee St", "address2": null, "address3": "", "city": "Chicopee", "zip_code": "01013", "country": "US", "state": "MA", "display_address": ["930 Chicopee St", "Chicopee, MA 01013"]}, "phone": "+14134378100", "display_phone": "(413) 437-8100", "distance": 3818.3046779318774}, {"id": "ly1CRwzgRhR4P6i8DwWYWA", "alias": "burger-king-w-springfield", "name": "Burger King", "image_url": "https://s3-media3.fl.yelpcdn.com/bphoto/iIHPU2HQTR1Zb7vWrOb8xw/o.jpg", "is_closed": false, "url": "https://www.yelp.com/biz/burger-king-w-springfield?adjust_creative=HdhkN5EEH6lAqE3kwhsHEQ&utm_campaign=yelp_api_v3&utm_medium=api_v3_business_search&utm_source=HdhkN5EEH6lAqE3kwhsHEQ", "review_count": 13, "categories": [{"alias": "burgers", "title": "Burgers"}, {"alias": "hotdogs", "title": "Fast Food"}], "rating": 2.0, "coordinates": {"latitude": 42.130686, "longitude": -72.625302}, "transactions": [], "price": "$", "location": {"address1": "983 Riverdale Street", "address2": "", "address3": "", "city": "W Springfield", "zip_code": "01089", "country": "US", "state": "MA", "display_address": ["983 Riverdale Street", "W Springfield, MA 01089"]}, "phone": "+14137371343", "display_phone": "(413) 737-1343", "distance": 4512.917448125555}, {"id": "DouCHYOwUc1KzZzE-AK-4w", "alias": "dennys-holyoke", "name": "Denny's", "image_url": "https://s3-media1.fl.yelpcdn.com/bphoto/K6PNk6vtO4W2hM5u8oqh4g/o.jpg", "is_closed": false, "url": "https://www.yelp.com/biz/dennys-holyoke?adjust_creative=HdhkN5EEH6lAqE3kwhsHEQ&utm_campaign=yelp_api_v3&utm_medium=api_v3_business_search&utm_source=HdhkN5EEH6lAqE3kwhsHEQ", "review_count": 25, "categories": [{"alias": "tradamerican", "title": "American (Traditional)"}, {"alias": "breakfast_brunch", "title": "Breakfast & Brunch"}, {"alias": "diners", "title": "Diners"}], "rating": 2.0, "coordinates": {"latitude": 42.187850871717, "longitude": -72.6305562257767}, "transactions": ["pickup", "delivery"], "price": "$", "location": {"address1": "2173 Northampton St", "address2": "", "address3": "", "city": "Holyoke", "zip_code": "01040", "country": "US", "state": "MA", "display_address": ["2173 Northampton St", "Holyoke, MA 01040"]}, "phone": "+14135327554", "display_phone": "(413) 532-7554", "distance": 4960.63062001238}, {"id": "nOLDX7QV4c62QA67x0lPvg", "alias": "burger-king-chicopee", "name": "Burger King", "image_url": "https://s3-media3.fl.yelpcdn.com/bphoto/e4zDdmLDekQUCO3JTODlFA/o.jpg", "is_closed": false, "url": "https://www.yelp.com/biz/burger-king-chicopee?adjust_creative=HdhkN5EEH6lAqE3kwhsHEQ&utm_campaign=yelp_api_v3&utm_medium=api_v3_business_search&utm_source=HdhkN5EEH6lAqE3kwhsHEQ", "review_count": 2, "categories": [{"alias": "burgers", "title": "Burgers"}, {"alias": "hotdogs", "title": "Fast Food"}], "rating": 1.5, "coordinates": {"latitude": 42.1929398, "longitude": -72.5765991}, "transactions": ["delivery"], "price": "$", "location": {"address1": "1284 Memorial Dr", "address2": null, "address3": null, "city": "Chicopee", "zip_code": "01020", "country": "US", "state": "MA", "display_address": ["1284 Memorial Dr", "Chicopee, MA 01020"]}, "phone": "", "display_phone": "", "distance": 3911.671879131064}, {"id": "QaqMEKjf1j8IGFCKlSD2BA", "alias": "hibiscus-holyoke-2", "name": "Hibiscus", "image_url": "https://s3-media4.fl.yelpcdn.com/bphoto/XHS7RdZiANAs6vU9d0Wj-g/o.jpg", "is_closed": false, "url": "https://www.yelp.com/biz/hibiscus-holyoke-2?adjust_creative=HdhkN5EEH6lAqE3kwhsHEQ&utm_campaign=yelp_api_v3&utm_medium=api_v3_business_search&utm_source=HdhkN5EEH6lAqE3kwhsHEQ", "review_count": 18, "categories": [{"alias": "japanese", "title": "Japanese"}, {"alias": "sushi", "title": "Sushi Bars"}, {"alias": "chinese", "title": "Chinese"}], "rating": 3.0, "coordinates": {"latitude": 42.19498, "longitude": -72.62495}, "transactions": ["delivery"], "price": "$", "location": {"address1": "455 South St", "address2": null, "address3": "", "city": "Holyoke", "zip_code": "01040", "country": "US", "state": "MA", "display_address": ["455 South St", "Holyoke, MA 01040"]}, "phone": "+14135327700", "display_phone": "(413) 532-7700", "distance": 5213.919969639288}, {"id": "PYFerQnW4ZMzOarocvQ26g", "alias": "little-caesars-pizza-springfield-11", "name": "Little Caesars Pizza", "image_url": "https://s3-media3.fl.yelpcdn.com/bphoto/pbI2VCAz9FLnweEOfGalMg/o.jpg", "is_closed": false, "url": "https://www.yelp.com/biz/little-caesars-pizza-springfield-11?adjust_creative=HdhkN5EEH6lAqE3kwhsHEQ&utm_campaign=yelp_api_v3&utm_medium=api_v3_business_search&utm_source=HdhkN5EEH6lAqE3kwhsHEQ", "review_count": 4, "categories": [{"alias": "pizza", "title": "Pizza"}], "rating": 4.0, "coordinates": {"latitude": 42.1380621, "longitude": -72.5706239}, "transactions": [], "price": "$", "location": {"address1": "1090 St James Ave", "address2": "", "address3": "", "city": "Springfield", "zip_code": "01104", "country": "US", "state": "MA", "display_address": ["1090 St James Ave", "Springfield, MA 01104"]}, "phone": "+14137888880", "display_phone": "(413) 788-8880", "distance": 2630.872004432948}, {"id": "hh7hDzORHgtnkjM1dyExqA", "alias": "taco-bell-holyoke-2", "name": "Taco Bell", "image_url": "https://s3-media4.fl.yelpcdn.com/bphoto/_hAuaMeFm5om3fWdOS3P8g/o.jpg", "is_closed": false, "url": "https://www.yelp.com/biz/taco-bell-holyoke-2?adjust_creative=HdhkN5EEH6lAqE3kwhsHEQ&utm_campaign=yelp_api_v3&utm_medium=api_v3_business_search&utm_source=HdhkN5EEH6lAqE3kwhsHEQ", "review_count": 11, "categories": [{"alias": "hotdogs", "title": "Fast Food"}, {"alias": "tacos", "title": "Tacos"}], "rating": 3.0, "coordinates": {"latitude": 42.18561, "longitude": -72.630847}, "transactions": ["delivery"], "price": "$", "location": {"address1": "2199 Northampton St", "address2": "", "address3": "", "city": "Holyoke", "zip_code": "01040", "country": "US", "state": "MA", "display_address": ["2199 Northampton St", "Holyoke, MA 01040"]}, "phone": "+14135365863", "display_phone": "(413) 536-5863", "distance": 4818.702175390214}, {"id": "PXmYANZ0sWkmK9IyDesf8A", "alias": "subway-chicopee-15", "name": "Subway", "image_url": "https://s3-media2.fl.yelpcdn.com/bphoto/9uaXbjZFGOxKKHrgGCOgPg/o.jpg", "is_closed": false, "url": "https://www.yelp.com/biz/subway-chicopee-15?adjust_creative=HdhkN5EEH6lAqE3kwhsHEQ&utm_campaign=yelp_api_v3&utm_medium=api_v3_business_search&utm_source=HdhkN5EEH6lAqE3kwhsHEQ", "review_count": 2, "categories": [{"alias": "sandwiches", "title": "Sandwiches"}], "rating": 2.0, "coordinates": {"latitude": 42.175551532654, "longitude": -72.5759231284999}, "transactions": ["pickup", "delivery"], "price": "$", "location": {"address1": "645 Memorial Dr", "address2": "Store FS2", "address3": null, "city": "Chicopee", "zip_code": "01020", "country": "US", "state": "MA", "display_address": ["645 Memorial Dr", "Store FS2", "Chicopee, MA 01020"]}, "phone": "+14135938820", "display_phone": "(413) 593-8820", "distance": 2053.775680857835}, {"id": "1vncwXUUyxATQmSHlT9uTQ", "alias": "taco-bell-springfield-42", "name": "Taco Bell", "image_url": "https://s3-media1.fl.yelpcdn.com/bphoto/0_nY3JqSd_v_B_vaMkyUXQ/o.jpg", "is_closed": false, "url": "https://www.yelp.com/biz/taco-bell-springfield-42?adjust_creative=HdhkN5EEH6lAqE3kwhsHEQ&utm_campaign=yelp_api_v3&utm_medium=api_v3_business_search&utm_source=HdhkN5EEH6lAqE3kwhsHEQ", "review_count": 3, "categories": [{"alias": "hotdogs", "title": "Fast Food"}, {"alias": "tacos", "title": "Tacos"}], "rating": 1.5, "coordinates": {"latitude": 42.121334, "longitude": -72.584161}, "transactions": ["delivery"], "price": "$", "location": {"address1": "633 Liberty St.", "address2": "", "address3": "", "city": "Springfield", "zip_code": "01104", "country": "US", "state": "MA", "display_address": ["633 Liberty St.", "Springfield, MA 01104"]}, "phone": "+14137348586", "display_phone": "(413) 734-8586", "distance": 4126.828320057931}, {"id": "uukF53PJgTvQXcZ6JTDSAQ", "alias": "i-love-my-jojos-west-springfield", "name": "I Love My Jojo's", "image_url": "", "is_closed": false, "url": "https://www.yelp.com/biz/i-love-my-jojos-west-springfield?adjust_creative=HdhkN5EEH6lAqE3kwhsHEQ&utm_campaign=yelp_api_v3&utm_medium=api_v3_business_search&utm_source=HdhkN5EEH6lAqE3kwhsHEQ", "review_count": 2, "categories": [{"alias": "grocery", "title": "Grocery"}, {"alias": "hotdog", "title": "Hot Dogs"}, {"alias": "sandwiches", "title": "Sandwiches"}], "rating": 2.5, "coordinates": {"latitude": 42.1345098554415, "longitude": -72.619422711432}, "transactions": [], "location": {"address1": "179 Daggett Dr", "address2": "", "address3": "", "city": "West Springfield", "zip_code": "01089", "country": "US", "state": "MA", "display_address": ["179 Daggett Dr", "West Springfield, MA 01089"]}, "phone": "+14136269270", "display_phone": "(413) 626-9270", "distance": 3872.314637584853}, {"id": "91_CbICmLlb4Cdat8BpXlA", "alias": "fortune-cookie-chinese-restaurant-springfield", "name": "Fortune Cookie Chinese Restaurant", "image_url": "https://s3-media1.fl.yelpcdn.com/bphoto/zmhQcxpS_mqA_N24kgLUnQ/o.jpg", "is_closed": false, "url": "https://www.yelp.com/biz/fortune-cookie-chinese-restaurant-springfield?adjust_creative=HdhkN5EEH6lAqE3kwhsHEQ&utm_campaign=yelp_api_v3&utm_medium=api_v3_business_search&utm_source=HdhkN5EEH6lAqE3kwhsHEQ", "review_count": 5, "categories": [{"alias": "chinese", "title": "Chinese"}], "rating": 2.0, "coordinates": {"latitude": 42.12798, "longitude": -72.58081}, "transactions": ["delivery"], "price": "$$", "location": {"address1": "907 Carew St", "address2": "", "address3": "", "city": "Springfield", "zip_code": "01104", "country": "US", "state": "MA", "display_address": ["907 Carew St", "Springfield, MA 01104"]}, "phone": "+14137870034", "display_phone": "(413) 787-0034", "distance": 3407.517027255467}, {"id": "RHEEajggYZeqzBfBFgU5jw", "alias": "friendlys-west-springfield", "name": "Friendly's", "image_url": "https://s3-media2.fl.yelpcdn.com/bphoto/igKQjLIvdoIfseORE-LhRg/o.jpg", "is_closed": false, "url": "https://www.yelp.com/biz/friendlys-west-springfield?adjust_creative=HdhkN5EEH6lAqE3kwhsHEQ&utm_campaign=yelp_api_v3&utm_medium=api_v3_business_search&utm_source=HdhkN5EEH6lAqE3kwhsHEQ", "review_count": 46, "categories": [{"alias": "tradamerican", "title": "American (Traditional)"}, {"alias": "icecream", "title": "Ice Cream & Frozen Yogurt"}, {"alias": "burgers", "title": "Burgers"}], "rating": 2.0, "coordinates": {"latitude": 42.1338920593262, "longitude": -72.6264877319336}, "transactions": ["delivery"], "price": "$$", "location": {"address1": "1094 Riverdale Rd", "address2": "", "address3": "", "city": "West Springfield", "zip_code": "01089", "country": "US", "state": "MA", "display_address": ["1094 Riverdale Rd", "West Springfield, MA 01089"]}, "phone": "+14137339062", "display_phone": "(413) 733-9062", "distance": 4355.899796237267}, {"id": "_3xTdaqbqW0FjJRMBxPbQA", "alias": "subway-chicopee-11", "name": "Subway", "image_url": "https://s3-media1.fl.yelpcdn.com/bphoto/DFZx_6iev2xAkbtaTbNzqg/o.jpg", "is_closed": false, "url": "https://www.yelp.com/biz/subway-chicopee-11?adjust_creative=HdhkN5EEH6lAqE3kwhsHEQ&utm_campaign=yelp_api_v3&utm_medium=api_v3_business_search&utm_source=HdhkN5EEH6lAqE3kwhsHEQ", "review_count": 3, "categories": [{"alias": "sandwiches", "title": "Sandwiches"}], "rating": 1.0, "coordinates": {"latitude": 42.1454963684082, "longitude": -72.6080474853516}, "transactions": ["pickup", "delivery"], "price": "$", "location": {"address1": "105 Center St", "address2": "", "address3": "", "city": "Chicopee", "zip_code": "01013", "country": "US", "state": "MA", "display_address": ["105 Center St", "Chicopee, MA 01013"]}, "phone": "+14135920500", "display_phone": "(413) 592-0500", "distance": 2360.6369887089663}, {"id": "8icwrxRMn02Iax6hxd7kYg", "alias": "subway-springfield-194", "name": "Subway", "image_url": "https://s3-media3.fl.yelpcdn.com/bphoto/mNaIAUe2F06FaW3Mv7ciZw/o.jpg", "is_closed": false, "url": "https://www.yelp.com/biz/subway-springfield-194?adjust_creative=HdhkN5EEH6lAqE3kwhsHEQ&utm_campaign=yelp_api_v3&utm_medium=api_v3_business_search&utm_source=HdhkN5EEH6lAqE3kwhsHEQ", "review_count": 2, "categories": [{"alias": "sandwiches", "title": "Sandwiches"}], "rating": 4.0, "coordinates": {"latitude": 42.1207038276463, "longitude": -72.5854319278571}, "transactions": ["delivery"], "price": "$", "location": {"address1": "405 Armory St", "address2": null, "address3": null, "city": "Springfield", "zip_code": "01104", "country": "US", "state": "MA", "display_address": ["405 Armory St", "Springfield, MA 01104"]}, "phone": "+14137340200", "display_phone": "(413) 734-0200", "distance": 4195.852646720356}, {"id": "SPK1-4LzOpNKrAQFsrS6eQ", "alias": "mcdonalds-chicopee", "name": "McDonald's", "image_url": "https://s3-media1.fl.yelpcdn.com/bphoto/xiehwryvO_ZDfZEAbX4Hfg/o.jpg", "is_closed": false, "url": "https://www.yelp.com/biz/mcdonalds-chicopee?adjust_creative=HdhkN5EEH6lAqE3kwhsHEQ&utm_campaign=yelp_api_v3&utm_medium=api_v3_business_search&utm_source=HdhkN5EEH6lAqE3kwhsHEQ", "review_count": 5, "categories": [{"alias": "hotdogs", "title": "Fast Food"}, {"alias": "burgers", "title": "Burgers"}, {"alias": "coffee", "title": "Coffee & Tea"}], "rating": 2.5, "coordinates": {"latitude": 42.16678, "longitude": -72.54605}, "transactions": ["delivery"], "price": "$", "location": {"address1": "350 Burnett Rd", "address2": "", "address3": "", "city": "Chicopee", "zip_code": "01020", "country": "US", "state": "MA", "display_address": ["350 Burnett Rd", "Chicopee, MA 01020"]}, "phone": "+14135920646", "display_phone": "(413) 592-0646", "distance": 3357.7110777757994}, {"id": "dJY0NohjVSTpiiOebo5tgw", "alias": "golden-china-restaurant-holyoke", "name": "Golden China Restaurant", "image_url": "", "is_closed": false, "url": "https://www.yelp.com/biz/golden-china-restaurant-holyoke?adjust_creative=HdhkN5EEH6lAqE3kwhsHEQ&utm_campaign=yelp_api_v3&utm_medium=api_v3_business_search&utm_source=HdhkN5EEH6lAqE3kwhsHEQ", "review_count": 1, "categories": [{"alias": "chinese", "title": "Chinese"}], "rating": 1.0, "coordinates": {"latitude": 42.1859894, "longitude": -72.6306152}, "transactions": ["delivery"], "location": {"address1": "2223 Northampton St", "address2": "", "address3": "", "city": "Holyoke", "zip_code": "01040", "country": "US", "state": "MA", "display_address": ["2223 Northampton St", "Holyoke, MA 01040"]}, "phone": "+14135364299", "display_phone": "(413) 536-4299", "distance": 4808.650998780774}, {"id": "Bpif7O3ImKLgPD5CoNdeoQ", "alias": "palace-pizza-springfield", "name": "Palace Pizza", "image_url": "https://s3-media3.fl.yelpcdn.com/bphoto/woYpTYc3cPw6EyR4ocTTyQ/o.jpg", "is_closed": false, "url": "https://www.yelp.com/biz/palace-pizza-springfield?adjust_creative=HdhkN5EEH6lAqE3kwhsHEQ&utm_campaign=yelp_api_v3&utm_medium=api_v3_business_search&utm_source=HdhkN5EEH6lAqE3kwhsHEQ", "review_count": 7, "categories": [{"alias": "pizza", "title": "Pizza"}], "rating": 2.5, "coordinates": {"latitude": 42.14085, "longitude": -72.55866}, "transactions": ["delivery", "pickup"], "price": "$", "location": {"address1": "608 Page Blvd", "address2": "", "address3": "", "city": "Springfield", "zip_code": "01104", "country": "US", "state": "MA", "display_address": ["608 Page Blvd", "Springfield, MA 01104"]}, "phone": "+14137815587", "display_phone": "(413) 781-5587", "distance": 2944.5464148295778}, {"id": "zR9eHxIZAZhPPaMxUUGuvw", "alias": "a-1-pizza-chicopee", "name": "A-1 Pizza", "image_url": "", "is_closed": false, "url": "https://www.yelp.com/biz/a-1-pizza-chicopee?adjust_creative=HdhkN5EEH6lAqE3kwhsHEQ&utm_campaign=yelp_api_v3&utm_medium=api_v3_business_search&utm_source=HdhkN5EEH6lAqE3kwhsHEQ", "review_count": 1, "categories": [{"alias": "pizza", "title": "Pizza"}], "rating": 2.0, "coordinates": {"latitude": 42.1366196, "longitude": -72.6013489}, "transactions": [], "location": {"address1": "486 Springfield St", "address2": "", "address3": "", "city": "Chicopee", "zip_code": "01013", "country": "US", "state": "MA", "display_address": ["486 Springfield St", "Chicopee, MA 01013"]}, "phone": "+14135946767", "display_phone": "(413) 594-6767", "distance": 2761.093472277693}, {"id": "DN6sXoqT1V35njwI-FQI_g", "alias": "mcdonalds-holyoke-2", "name": "McDonald's", "image_url": "https://s3-media3.fl.yelpcdn.com/bphoto/uIGEUrDKeZR_2lAqEe7VMA/o.jpg", "is_closed": false, "url": "https://www.yelp.com/biz/mcdonalds-holyoke-2?adjust_creative=HdhkN5EEH6lAqE3kwhsHEQ&utm_campaign=yelp_api_v3&utm_medium=api_v3_business_search&utm_source=HdhkN5EEH6lAqE3kwhsHEQ", "review_count": 7, "categories": [{"alias": "hotdogs", "title": "Fast Food"}, {"alias": "burgers", "title": "Burgers"}, {"alias": "coffee", "title": "Coffee & Tea"}], "rating": 2.5, "coordinates": {"latitude": 42.1866149, "longitude": -72.6298706851412}, "transactions": ["delivery"], "price": "$", "location": {"address1": "2194 N Hampton St", "address2": "", "address3": "", "city": "Holyoke", "zip_code": "01040", "country": "US", "state": "MA", "display_address": ["2194 N Hampton St", "Holyoke, MA 01040"]}, "phone": "+14135325116", "display_phone": "(413) 532-5116", "distance": 4828.0228415771435}, {"id": "j04qVeHsjX42FdRNbwEDdA", "alias": "mcdonalds-springfield-4", "name": "McDonald's", "image_url": "https://s3-media2.fl.yelpcdn.com/bphoto/bE9drwnYxAuIYsybyqmVrg/o.jpg", "is_closed": false, "url": "https://www.yelp.com/biz/mcdonalds-springfield-4?adjust_creative=HdhkN5EEH6lAqE3kwhsHEQ&utm_campaign=yelp_api_v3&utm_medium=api_v3_business_search&utm_source=HdhkN5EEH6lAqE3kwhsHEQ", "review_count": 1, "categories": [{"alias": "burgers", "title": "Burgers"}, {"alias": "hotdogs", "title": "Fast Food"}, {"alias": "coffee", "title": "Coffee & Tea"}], "rating": 2.0, "coordinates": {"latitude": 42.12084, "longitude": -72.58484}, "transactions": ["delivery"], "price": "$", "location": {"address1": "660 Liberty St", "address2": "", "address3": "", "city": "Springfield", "zip_code": "01103", "country": "US", "state": "MA", "display_address": ["660 Liberty St", "Springfield, MA 01103"]}, "phone": "+14137311529", "display_phone": "(413) 731-1529", "distance": 4179.621780532513}, {"id": "WKGnSP6idKjVNVvZvlbT0Q", "alias": "pizza-royal-springfield", "name": "Pizza Royal", "image_url": "", "is_closed": false, "url": "https://www.yelp.com/biz/pizza-royal-springfield?adjust_creative=HdhkN5EEH6lAqE3kwhsHEQ&utm_campaign=yelp_api_v3&utm_medium=api_v3_business_search&utm_source=HdhkN5EEH6lAqE3kwhsHEQ", "review_count": 5, "categories": [{"alias": "pizza", "title": "Pizza"}, {"alias": "italian", "title": "Italian"}], "rating": 2.5, "coordinates": {"latitude": 42.1254565408418, "longitude": -72.5343815982342}, "transactions": ["delivery", "pickup"], "price": "$$", "location": {"address1": "161 Boston Rd", "address2": "", "address3": "", "city": "Springfield", "zip_code": "01109", "country": "US", "state": "MA", "display_address": ["161 Boston Rd", "Springfield, MA 01109"]}, "phone": "+14137837710", "display_phone": "(413) 783-7710", "distance": 5574.222215961179}, {"id": "F2P5BwCrSKr0BGHkBCrxug", "alias": "mcdonalds-chicopee-3", "name": "McDonald's", "image_url": "https://s3-media3.fl.yelpcdn.com/bphoto/PfvGo45JAb0WYsfpw1jCPg/o.jpg", "is_closed": false, "url": "https://www.yelp.com/biz/mcdonalds-chicopee-3?adjust_creative=HdhkN5EEH6lAqE3kwhsHEQ&utm_campaign=yelp_api_v3&utm_medium=api_v3_business_search&utm_source=HdhkN5EEH6lAqE3kwhsHEQ", "review_count": 4, "categories": [{"alias": "hotdogs", "title": "Fast Food"}, {"alias": "burgers", "title": "Burgers"}, {"alias": "coffee", "title": "Coffee & Tea"}], "rating": 1.5, "coordinates": {"latitude": 42.16467, "longitude": -72.61351}, "transactions": ["delivery"], "price": "$", "location": {"address1": "777 Meadow St", "address2": "", "address3": "", "city": "Chicopee", "zip_code": "01013", "country": "US", "state": "MA", "display_address": ["777 Meadow St", "Chicopee, MA 01013"]}, "phone": "+14135925345", "display_phone": "(413) 592-5345", "distance": 2434.8441841108424}, {"id": "rsc2WA_Nhx4rk9QJrx1U4w", "alias": "mcdonalds-springfield-50", "name": "McDonald's", "image_url": "https://s3-media1.fl.yelpcdn.com/bphoto/wnzWmWKdA-YgUdoQCX3rlQ/o.jpg", "is_closed": false, "url": "https://www.yelp.com/biz/mcdonalds-springfield-50?adjust_creative=HdhkN5EEH6lAqE3kwhsHEQ&utm_campaign=yelp_api_v3&utm_medium=api_v3_business_search&utm_source=HdhkN5EEH6lAqE3kwhsHEQ", "review_count": 8, "categories": [{"alias": "burgers", "title": "Burgers"}, {"alias": "hotdogs", "title": "Fast Food"}, {"alias": "coffee", "title": "Coffee & Tea"}], "rating": 1.0, "coordinates": {"latitude": 42.1428307204992, "longitude": -72.5534723780584}, "transactions": ["delivery"], "price": "$", "location": {"address1": "771 Page Blvd", "address2": "", "address3": "", "city": "Springfield", "zip_code": "01104", "country": "US", "state": "MA", "display_address": ["771 Page Blvd", "Springfield, MA 01104"]}, "phone": "+14137395529", "display_phone": "(413) 739-5529", "distance": 3145.5760143963084}, {"id": "nS7TW7kw4PIBfNnrG0L-yw", "alias": "kfc-holyoke", "name": "KFC", "image_url": "https://s3-media1.fl.yelpcdn.com/bphoto/s7N8_p1VDNIyXV2LPOsD2g/o.jpg", "is_closed": false, "url": "https://www.yelp.com/biz/kfc-holyoke?adjust_creative=HdhkN5EEH6lAqE3kwhsHEQ&utm_campaign=yelp_api_v3&utm_medium=api_v3_business_search&utm_source=HdhkN5EEH6lAqE3kwhsHEQ", "review_count": 3, "categories": [{"alias": "hotdogs", "title": "Fast Food"}, {"alias": "chicken_wings", "title": "Chicken Wings"}, {"alias": "chickenshop", "title": "Chicken Shop"}], "rating": 2.0, "coordinates": {"latitude": 42.1829517, "longitude": -72.6322322760748}, "transactions": ["delivery", "pickup"], "price": "$", "location": {"address1": "2241 N Hampton St", "address2": "", "address3": "", "city": "Holyoke", "zip_code": "01040", "country": "US", "state": "MA", "display_address": ["2241 N Hampton St", "Holyoke, MA 01040"]}, "phone": "+14135367731", "display_phone": "(413) 536-7731", "distance": 4731.999514021358}, {"id": "kxO14lPSKCklBSGTljZQmQ", "alias": "subway-restaurants-west-springfield", "name": "Subway Restaurants", "image_url": "https://s3-media1.fl.yelpcdn.com/bphoto/HNMb_BlL8mLdK2BYn_m8xA/o.jpg", "is_closed": false, "url": "https://www.yelp.com/biz/subway-restaurants-west-springfield?adjust_creative=HdhkN5EEH6lAqE3kwhsHEQ&utm_campaign=yelp_api_v3&utm_medium=api_v3_business_search&utm_source=HdhkN5EEH6lAqE3kwhsHEQ", "review_count": 7, "categories": [{"alias": "sandwiches", "title": "Sandwiches"}], "rating": 2.5, "coordinates": {"latitude": 42.1400704362991, "longitude": -72.6264317944747}, "transactions": ["delivery", "pickup"], "price": "$", "location": {"address1": "1329 Riverdale St", "address2": "", "address3": "", "city": "West Springfield", "zip_code": "01089", "country": "US", "state": "MA", "display_address": ["1329 Riverdale St", "West Springfield, MA 01089"]}, "phone": "+14137810092", "display_phone": "(413) 781-0092", "distance": 3958.7031418051747}, {"id": "j0PnSEcMczIc5knOeR1Fow", "alias": "little-caesers-chicopee", "name": "Little Caesers", "image_url": "https://s3-media1.fl.yelpcdn.com/bphoto/HnMBEUgPopbBcAWzr0skVA/o.jpg", "is_closed": false, "url": "https://www.yelp.com/biz/little-caesers-chicopee?adjust_creative=HdhkN5EEH6lAqE3kwhsHEQ&utm_campaign=yelp_api_v3&utm_medium=api_v3_business_search&utm_source=HdhkN5EEH6lAqE3kwhsHEQ", "review_count": 1, "categories": [{"alias": "pizza", "title": "Pizza"}], "rating": 2.0, "coordinates": {"latitude": 42.1782285130349, "longitude": -72.5764433294535}, "transactions": [], "price": "$", "location": {"address1": "749 Memorial Dr", "address2": "", "address3": null, "city": "Chicopee", "zip_code": "01020", "country": "US", "state": "MA", "display_address": ["749 Memorial Dr", "Chicopee, MA 01020"]}, "phone": "+14135939990", "display_phone": "(413) 593-9990", "distance": 2318.416887751972}, {"id": "wkGF-5x3ZXOpVo18fdv37Q", "alias": "burger-king-springfield-23", "name": "Burger King", "image_url": "https://s3-media1.fl.yelpcdn.com/bphoto/Mm_khpR54KGBnaFb-Y6L9Q/o.jpg", "is_closed": false, "url": "https://www.yelp.com/biz/burger-king-springfield-23?adjust_creative=HdhkN5EEH6lAqE3kwhsHEQ&utm_campaign=yelp_api_v3&utm_medium=api_v3_business_search&utm_source=HdhkN5EEH6lAqE3kwhsHEQ", "review_count": 2, "categories": [{"alias": "burgers", "title": "Burgers"}, {"alias": "hotdogs", "title": "Fast Food"}], "rating": 2.0, "coordinates": {"latitude": 42.14256, "longitude": -72.554}, "transactions": ["delivery"], "price": "$", "location": {"address1": "755 Page Blvd", "address2": "", "address3": "", "city": "Springfield", "zip_code": "01104", "country": "US", "state": "MA", "display_address": ["755 Page Blvd", "Springfield, MA 01104"]}, "phone": "", "display_phone": "", "distance": 3131.5569465364747}, {"id": "o58FD7CHY_dNBbZLgqMItQ", "alias": "subway-chicopee-13", "name": "Subway", "image_url": "https://s3-media4.fl.yelpcdn.com/bphoto/VTCzKaQJ3sz5etSkuxgfLw/o.jpg", "is_closed": false, "url": "https://www.yelp.com/biz/subway-chicopee-13?adjust_creative=HdhkN5EEH6lAqE3kwhsHEQ&utm_campaign=yelp_api_v3&utm_medium=api_v3_business_search&utm_source=HdhkN5EEH6lAqE3kwhsHEQ", "review_count": 2, "categories": [{"alias": "sandwiches", "title": "Sandwiches"}], "rating": 1.0, "coordinates": {"latitude": 42.1610084, "longitude": -72.6141451}, "transactions": ["delivery"], "price": "$", "location": {"address1": "167 Chicopee St", "address2": "", "address3": "", "city": "Chicopee", "zip_code": "01020", "country": "US", "state": "MA", "display_address": ["167 Chicopee St", "Chicopee, MA 01020"]}, "phone": "+14133315573", "display_phone": "(413) 331-5573", "distance": 2394.9833255123403}, {"id": "E4hZwZcVsx7Mi5b-AdvKSA", "alias": "burger-king-springfield", "name": "Burger King", "image_url": "https://s3-media2.fl.yelpcdn.com/bphoto/wHZUPTo88E3mehB5GUSSUw/o.jpg", "is_closed": false, "url": "https://www.yelp.com/biz/burger-king-springfield?adjust_creative=HdhkN5EEH6lAqE3kwhsHEQ&utm_campaign=yelp_api_v3&utm_medium=api_v3_business_search&utm_source=HdhkN5EEH6lAqE3kwhsHEQ", "review_count": 1, "categories": [{"alias": "burgers", "title": "Burgers"}, {"alias": "hotdogs", "title": "Fast Food"}], "rating": 1.0, "coordinates": {"latitude": 42.140055, "longitude": -72.581672}, "transactions": ["delivery"], "price": "$", "location": {"address1": "1395 Liberty Street", "address2": "", "address3": "", "city": "Springfield", "zip_code": "01104", "country": "US", "state": "MA", "display_address": ["1395 Liberty Street", "Springfield, MA 01104"]}, "phone": "", "display_phone": "", "distance": 2067.787926152261}, {"id": "Io4C5tUwnb_YzeaMXHBqBA", "alias": "shuckin-truck-narragansett-2", "name": "Shuckin Truck", "image_url": "https://s3-media2.fl.yelpcdn.com/bphoto/r7QRORfe9UYVS7GGzUm9DQ/o.jpg", "is_closed": false, "url": "https://www.yelp.com/biz/shuckin-truck-narragansett-2?adjust_creative=HdhkN5EEH6lAqE3kwhsHEQ&utm_campaign=yelp_api_v3&utm_medium=api_v3_business_search&utm_source=HdhkN5EEH6lAqE3kwhsHEQ", "review_count": 24, "categories": [{"alias": "foodtrucks", "title": "Food Trucks"}, {"alias": "seafood", "title": "Seafood"}], "rating": 4.5, "coordinates": {"latitude": 41.4274482727051, "longitude": -71.4597778320313}, "transactions": [], "price": "$$", "location": {"address1": "", "address2": "", "address3": "", "city": "Narragansett", "zip_code": "02882", "country": "US", "state": "RI", "display_address": ["Narragansett, RI 02882"]}, "phone": "+14017415953", "display_phone": "(401) 741-5953", "distance": 124105.94444227005}, {"id": "qqA8YX58xnmEXLyanHfdUg", "alias": "stufd-food-truck-brooklyn", "name": "Stuf'd Food Truck", "image_url": "https://s3-media2.fl.yelpcdn.com/bphoto/_Wn0i-tLIOFinw8BPAqxPA/o.jpg", "is_closed": false, "url": "https://www.yelp.com/biz/stufd-food-truck-brooklyn?adjust_creative=HdhkN5EEH6lAqE3kwhsHEQ&utm_campaign=yelp_api_v3&utm_medium=api_v3_business_search&utm_source=HdhkN5EEH6lAqE3kwhsHEQ", "review_count": 4, "categories": [{"alias": "sandwiches", "title": "Sandwiches"}, {"alias": "foodtrucks", "title": "Food Trucks"}], "rating": 4.0, "coordinates": {"latitude": 40.7124539, "longitude": -73.9287374}, "transactions": [], "location": {"address1": "178 Varick Ave", "address2": "", "address3": null, "city": "Brooklyn", "zip_code": "11237", "country": "US", "state": "NY", "display_address": ["178 Varick Ave", "Brooklyn, NY 11237"]}, "phone": "+18457091808", "display_phone": "(845) 709-1808", "distance": 195939.04119130396}]