[{"id": "LHP2JAuE1TK-XXxy-xJ1HQ", "alias": "j-anthonys-italian-grill-auburn", "name": "J Anthony's Italian Grill", "image_url": "https://s3-media2.fl.yelpcdn.com/bphoto/zajxnM2tzf3rkWRgSrdIdA/o.jpg", "is_closed": false, "url": "https://www.yelp.com/biz/j-anthonys-italian-grill-auburn?adjust_creative=HdhkN5EEH6lAqE3kwhsHEQ&utm_campaign=yelp_api_v3&utm_medium=api_v3_business_search&utm_source=HdhkN5EEH6lAqE3kwhsHEQ", "review_count": 98, "categories": [{"alias": "italian", "title": "Italian"}, {"alias": "venues", "title": "Venues & Event Spaces"}], "rating": 3.0, "coordinates": {"latitude": 42.17315, "longitude": -71.87819}, "transactions": ["delivery"], "price": "$$", "location": {"address1": "917 Southbridge St", "address2": null, "address3": "", "city": "Auburn", "zip_code": "01501", "country": "US", "state": "MA", "display_address": ["917 Southbridge St", "Auburn, MA 01501"]}, "phone": "+15088329705", "display_phone": "(508) 832-9705", "distance": 1294.0328116663684}, {"id": "BJ8YqdD3ozBPszHV5wK6cA", "alias": "ronnies-seafood-and-ice-cream-auburn", "name": "Ronnies Seafood and Ice Cream", "image_url": "https://s3-media2.fl.yelpcdn.com/bphoto/e_bQkDaAR_4n9ZAlaBUm8w/o.jpg", "is_closed": false, "url": "https://www.yelp.com/biz/ronnies-seafood-and-ice-cream-auburn?adjust_creative=HdhkN5EEH6lAqE3kwhsHEQ&utm_campaign=yelp_api_v3&utm_medium=api_v3_business_search&utm_source=HdhkN5EEH6lAqE3kwhsHEQ", "review_count": 161, "categories": [{"alias": "seafood", "title": "Seafood"}, {"alias": "icecream", "title": "Ice Cream & Frozen Yogurt"}], "rating": 4.0, "coordinates": {"latitude": 42.176257, "longitude": -71.874036}, "transactions": ["delivery"], "price": "$$", "location": {"address1": "871 Southbridge St", "address2": "", "address3": "", "city": "Auburn", "zip_code": "01501", "country": "US", "state": "MA", "display_address": ["871 Southbridge St", "Auburn, MA 01501"]}, "phone": "+15088329068", "display_phone": "(508) 832-9068", "distance": 1691.0950582406256}, {"id": "pJ0SnpWnkw-AJ2__-89gAg", "alias": "bentley-pub-auburn", "name": "Bentley Pub", "image_url": "https://s3-media3.fl.yelpcdn.com/bphoto/2vwe7EinQA81JC-MFwif5w/o.jpg", "is_closed": false, "url": "https://www.yelp.com/biz/bentley-pub-auburn?adjust_creative=HdhkN5EEH6lAqE3kwhsHEQ&utm_campaign=yelp_api_v3&utm_medium=api_v3_business_search&utm_source=HdhkN5EEH6lAqE3kwhsHEQ", "review_count": 147, "categories": [{"alias": "pubs", "title": "Pubs"}, {"alias": "tradamerican", "title": "American (Traditional)"}], "rating": 3.5, "coordinates": {"latitude": 42.1895871634234, "longitude": -71.8482809997238}, "transactions": ["delivery"], "price": "$$", "location": {"address1": "602 Southbridge St", "address2": "", "address3": "", "city": "Auburn", "zip_code": "01501", "country": "US", "state": "MA", "display_address": ["602 Southbridge St", "Auburn, MA 01501"]}, "phone": "+15084078880", "display_phone": "(508) 407-8880", "distance": 4275.140913476934}, {"id": "ZrccFWIGcH3YEsu1sS5Efw", "alias": "meiji-asian-cuisine-north-oxford", "name": "Meiji Asian Cuisine", "image_url": "https://s3-media4.fl.yelpcdn.com/bphoto/eT0AvhVVvqIP8-y2P_f8ew/o.jpg", "is_closed": false, "url": "https://www.yelp.com/biz/meiji-asian-cuisine-north-oxford?adjust_creative=HdhkN5EEH6lAqE3kwhsHEQ&utm_campaign=yelp_api_v3&utm_medium=api_v3_business_search&utm_source=HdhkN5EEH6lAqE3kwhsHEQ", "review_count": 51, "categories": [{"alias": "japanese", "title": "Japanese"}, {"alias": "sushi", "title": "Sushi Bars"}, {"alias": "chinese", "title": "Chinese"}], "rating": 3.5, "coordinates": {"latitude": 42.1646220982075, "longitude": -71.8916565924883}, "transactions": ["delivery", "pickup"], "price": "$$", "location": {"address1": "24 Leicester St", "address2": "", "address3": "", "city": "North Oxford", "zip_code": "01537", "country": "US", "state": "MA", "display_address": ["24 Leicester St", "North Oxford, MA 01537"]}, "phone": "+15087310120", "display_phone": "(508) 731-0120", "distance": 513.1594230688695}, {"id": "ZwPq9JsbyBllJs1l_V6PuA", "alias": "oxfords-casual-dining-oxford-3", "name": "Oxfords Casual Dining", "image_url": "https://s3-media1.fl.yelpcdn.com/bphoto/B5v_I7UnYKLy9WESiCKp-Q/o.jpg", "is_closed": false, "url": "https://www.yelp.com/biz/oxfords-casual-dining-oxford-3?adjust_creative=HdhkN5EEH6lAqE3kwhsHEQ&utm_campaign=yelp_api_v3&utm_medium=api_v3_business_search&utm_source=HdhkN5EEH6lAqE3kwhsHEQ", "review_count": 53, "categories": [{"alias": "tradamerican", "title": "American (Traditional)"}, {"alias": "desserts", "title": "Desserts"}, {"alias": "italian", "title": "Italian"}], "rating": 4.0, "coordinates": {"latitude": 42.133, "longitude": -71.86407}, "transactions": [], "price": "$$", "location": {"address1": "2 Millbury Blvd", "address2": "", "address3": "", "city": "Oxford", "zip_code": "01540", "country": "US", "state": "MA", "display_address": ["2 Millbury Blvd", "Oxford, MA 01540"]}, "phone": "+15089871567", "display_phone": "(508) 987-1567", "distance": 3781.022234107187}, {"id": "JdRbrWoqrruaFNaKmlDfcQ", "alias": "ox-bar-and-grill-oxford-2", "name": "Ox Bar & Grill", "image_url": "https://s3-media1.fl.yelpcdn.com/bphoto/UHkxdcaemq--So8r9IGEjQ/o.jpg", "is_closed": false, "url": "https://www.yelp.com/biz/ox-bar-and-grill-oxford-2?adjust_creative=HdhkN5EEH6lAqE3kwhsHEQ&utm_campaign=yelp_api_v3&utm_medium=api_v3_business_search&utm_source=HdhkN5EEH6lAqE3kwhsHEQ", "review_count": 21, "categories": [{"alias": "sportsbars", "title": "Sports Bars"}, {"alias": "tradamerican", "title": "American (Traditional)"}, {"alias": "cocktailbars", "title": "Cocktail Bars"}], "rating": 3.0, "coordinates": {"latitude": 42.1149466028443, "longitude": -71.8479865252582}, "transactions": [], "location": {"address1": "111 Sutton Ave", "address2": null, "address3": "", "city": "Oxford", "zip_code": "01540", "country": "US", "state": "MA", "display_address": ["111 Sutton Ave", "Oxford, MA 01540"]}, "phone": "+15085710111", "display_phone": "(508) 571-0111", "distance": 6344.694627607778}, {"id": "CQ3cd6hWaPGm8JuLvTAgfg", "alias": "oxford-market-north-oxford-2", "name": "Oxford Market", "image_url": "https://s3-media3.fl.yelpcdn.com/bphoto/3zueavCiQ3SUinF0_l_uIA/o.jpg", "is_closed": false, "url": "https://www.yelp.com/biz/oxford-market-north-oxford-2?adjust_creative=HdhkN5EEH6lAqE3kwhsHEQ&utm_campaign=yelp_api_v3&utm_medium=api_v3_business_search&utm_source=HdhkN5EEH6lAqE3kwhsHEQ", "review_count": 5, "categories": [{"alias": "delis", "title": "Delis"}, {"alias": "convenience", "title": "Convenience Stores"}], "rating": 4.0, "coordinates": {"latitude": 42.1600687786239, "longitude": -71.8837795780417}, "transactions": [], "location": {"address1": "676 N Main St", "address2": "", "address3": null, "city": "North Oxford", "zip_code": "01537", "country": "US", "state": "MA", "display_address": ["676 N Main St", "North Oxford, MA 01537"]}, "phone": "+15087316042", "display_phone": "(508) 731-6042", "distance": 347.20791841801156}, {"id": "ZFfb0pPfIbio2geND2E4vw", "alias": "jasmine-auburn", "name": "Jasmine", "image_url": "https://s3-media4.fl.yelpcdn.com/bphoto/q0ZILuQtiOcu3CTcFo57JA/o.jpg", "is_closed": false, "url": "https://www.yelp.com/biz/jasmine-auburn?adjust_creative=HdhkN5EEH6lAqE3kwhsHEQ&utm_campaign=yelp_api_v3&utm_medium=api_v3_business_search&utm_source=HdhkN5EEH6lAqE3kwhsHEQ", "review_count": 179, "categories": [{"alias": "asianfusion", "title": "Asian Fusion"}], "rating": 3.0, "coordinates": {"latitude": 42.18262, "longitude": -71.85862}, "transactions": ["delivery"], "price": "$$", "location": {"address1": "711 Southbridge St", "address2": "", "address3": "", "city": "Auburn", "zip_code": "01501", "country": "US", "state": "MA", "display_address": ["711 Southbridge St", "Auburn, MA 01501"]}, "phone": "+15088328868", "display_phone": "(508) 832-8868", "distance": 3040.3624137176575}, {"id": "lnzZXMUr7dkLjHA5lTM8iQ", "alias": "chucks-steak-house-auburn", "name": "Chuck's Steak House", "image_url": "https://s3-media4.fl.yelpcdn.com/bphoto/gZFNOnEQ-pqNts6U8ZyGHA/o.jpg", "is_closed": false, "url": "https://www.yelp.com/biz/chucks-steak-house-auburn?adjust_creative=HdhkN5EEH6lAqE3kwhsHEQ&utm_campaign=yelp_api_v3&utm_medium=api_v3_business_search&utm_source=HdhkN5EEH6lAqE3kwhsHEQ", "review_count": 125, "categories": [{"alias": "steak", "title": "Steakhouses"}, {"alias": "mexican", "title": "Mexican"}], "rating": 3.0, "coordinates": {"latitude": 42.182286, "longitude": -71.8608661}, "transactions": ["delivery", "pickup"], "price": "$$", "location": {"address1": "10 Prospect St", "address2": "", "address3": "", "city": "Auburn", "zip_code": "01501", "country": "US", "state": "MA", "display_address": ["10 Prospect St", "Auburn, MA 01501"]}, "phone": "+15088322553", "display_phone": "(508) 832-2553", "distance": 2852.876522613335}, {"id": "AsuubMrNDlkdp74-T-8gqg", "alias": "99-restaurants-auburn-2", "name": "99 Restaurants", "image_url": "https://s3-media1.fl.yelpcdn.com/bphoto/WBYuj30oTul2SGGcXKdOaQ/o.jpg", "is_closed": false, "url": "https://www.yelp.com/biz/99-restaurants-auburn-2?adjust_creative=HdhkN5EEH6lAqE3kwhsHEQ&utm_campaign=yelp_api_v3&utm_medium=api_v3_business_search&utm_source=HdhkN5EEH6lAqE3kwhsHEQ", "review_count": 52, "categories": [{"alias": "pubs", "title": "Pubs"}, {"alias": "seafood", "title": "Seafood"}, {"alias": "burgers", "title": "Burgers"}], "rating": 3.5, "coordinates": {"latitude": 42.18095, "longitude": -71.86796}, "transactions": [], "price": "$$", "location": {"address1": "793 Southbridge St", "address2": "", "address3": "", "city": "Auburn", "zip_code": "01501", "country": "US", "state": "MA", "display_address": ["793 Southbridge St", "Auburn, MA 01501"]}, "phone": "+15088320999", "display_phone": "(508) 832-0999", "distance": 2457.669078664963}, {"id": "QsOPMKwwJWkf9Sya6VJJ-w", "alias": "capt-loui-auburn", "name": "Cap't Loui", "image_url": "https://s3-media2.fl.yelpcdn.com/bphoto/fMTHNeGX0eRTP-2qVoVeOQ/o.jpg", "is_closed": false, "url": "https://www.yelp.com/biz/capt-loui-auburn?adjust_creative=HdhkN5EEH6lAqE3kwhsHEQ&utm_campaign=yelp_api_v3&utm_medium=api_v3_business_search&utm_source=HdhkN5EEH6lAqE3kwhsHEQ", "review_count": 17, "categories": [{"alias": "cajun", "title": "Cajun/Creole"}, {"alias": "seafood", "title": "Seafood"}, {"alias": "southern", "title": "Southern"}], "rating": 4.5, "coordinates": {"latitude": 42.202192, "longitude": -71.835798}, "transactions": ["delivery", "pickup"], "location": {"address1": "385 Southbridge St", "address2": null, "address3": "", "city": "Auburn", "zip_code": "01501", "country": "US", "state": "MA", "display_address": ["385 Southbridge St", "Auburn, MA 01501"]}, "phone": "+15084078781", "display_phone": "(508) 407-8781", "distance": 6049.884611687341}, {"id": "8h0O9M3ZRtgAyoiFFdvTMw", "alias": "major-league-roast-beef-and-wings-auburn-2", "name": "Major League Roast Beef & Wings", "image_url": "https://s3-media3.fl.yelpcdn.com/bphoto/eueegLUJ8wHSTcXazroHIw/o.jpg", "is_closed": false, "url": "https://www.yelp.com/biz/major-league-roast-beef-and-wings-auburn-2?adjust_creative=HdhkN5EEH6lAqE3kwhsHEQ&utm_campaign=yelp_api_v3&utm_medium=api_v3_business_search&utm_source=HdhkN5EEH6lAqE3kwhsHEQ", "review_count": 130, "categories": [{"alias": "tradamerican", "title": "American (Traditional)"}, {"alias": "chicken_wings", "title": "Chicken Wings"}, {"alias": "sandwiches", "title": "Sandwiches"}], "rating": 4.0, "coordinates": {"latitude": 42.1867, "longitude": -71.8344}, "transactions": ["delivery", "pickup"], "price": "$$", "location": {"address1": "503 Washington St", "address2": "", "address3": "", "city": "Auburn", "zip_code": "01501", "country": "US", "state": "MA", "display_address": ["503 Washington St", "Auburn, MA 01501"]}, "phone": "+15088324300", "display_phone": "(508) 832-4300", "distance": 4992.602082560353}, {"id": "NCvVGUSfazdB2jnCsQxueQ", "alias": "asia-kitchen-oxford", "name": "Asia Kitchen", "image_url": "https://s3-media4.fl.yelpcdn.com/bphoto/Qn1o9QPpbiPvruWLywt7Ng/o.jpg", "is_closed": false, "url": "https://www.yelp.com/biz/asia-kitchen-oxford?adjust_creative=HdhkN5EEH6lAqE3kwhsHEQ&utm_campaign=yelp_api_v3&utm_medium=api_v3_business_search&utm_source=HdhkN5EEH6lAqE3kwhsHEQ", "review_count": 15, "categories": [{"alias": "asianfusion", "title": "Asian Fusion"}], "rating": 4.5, "coordinates": {"latitude": 42.12652, "longitude": -71.86364}, "transactions": ["delivery"], "location": {"address1": "390 Main St", "address2": "", "address3": null, "city": "Oxford", "zip_code": "01540", "country": "US", "state": "MA", "display_address": ["390 Main St", "Oxford, MA 01540"]}, "phone": "+15087316918", "display_phone": "(508) 731-6918", "distance": 4440.817778464557}, {"id": "ASqs5IuqWyJLaWwaup9O9A", "alias": "ronnies-seafood-charlton", "name": "Ronnie's Seafood", "image_url": "https://s3-media3.fl.yelpcdn.com/bphoto/ygwuQVkT925ZrZe9DXdPcg/o.jpg", "is_closed": false, "url": "https://www.yelp.com/biz/ronnies-seafood-charlton?adjust_creative=HdhkN5EEH6lAqE3kwhsHEQ&utm_campaign=yelp_api_v3&utm_medium=api_v3_business_search&utm_source=HdhkN5EEH6lAqE3kwhsHEQ", "review_count": 40, "categories": [{"alias": "seafood", "title": "Seafood"}], "rating": 4.0, "coordinates": {"latitude": 42.171999, "longitude": -71.977685}, "transactions": ["delivery"], "price": "$$", "location": {"address1": "208 City Depot Rd", "address2": "", "address3": "", "city": "Charlton", "zip_code": "01507", "country": "US", "state": "MA", "display_address": ["208 City Depot Rd", "Charlton, MA 01507"]}, "phone": "+15082485024", "display_phone": "(508) 248-5024", "distance": 7656.28003308188}, {"id": "EKey5gaZpb5NorUarnZjGg", "alias": "the-whistle-stop-bar-and-grill-oxford", "name": "The Whistle Stop Bar & Grill", "image_url": "https://s3-media1.fl.yelpcdn.com/bphoto/9kXHnshMMf0lR94bmPsGAw/o.jpg", "is_closed": false, "url": "https://www.yelp.com/biz/the-whistle-stop-bar-and-grill-oxford?adjust_creative=HdhkN5EEH6lAqE3kwhsHEQ&utm_campaign=yelp_api_v3&utm_medium=api_v3_business_search&utm_source=HdhkN5EEH6lAqE3kwhsHEQ", "review_count": 61, "categories": [{"alias": "pubs", "title": "Pubs"}, {"alias": "tradamerican", "title": "American (Traditional)"}], "rating": 3.5, "coordinates": {"latitude": 42.092687, "longitude": -71.872206}, "transactions": ["delivery"], "price": "$$", "location": {"address1": "85 Main St", "address2": "", "address3": "", "city": "Oxford", "zip_code": "01540", "country": "US", "state": "MA", "display_address": ["85 Main St", "Oxford, MA 01540"]}, "phone": "+15089873087", "display_phone": "(508) 987-3087", "distance": 7883.248607104686}, {"id": "88QJEF9XwLJnBIQxEmAMVg", "alias": "racha-thai-worcester", "name": "Racha Thai", "image_url": "https://s3-media2.fl.yelpcdn.com/bphoto/c_HExCj1K0HlgYfma8eAbw/o.jpg", "is_closed": false, "url": "https://www.yelp.com/biz/racha-thai-worcester?adjust_creative=HdhkN5EEH6lAqE3kwhsHEQ&utm_campaign=yelp_api_v3&utm_medium=api_v3_business_search&utm_source=HdhkN5EEH6lAqE3kwhsHEQ", "review_count": 119, "categories": [{"alias": "thai", "title": "Thai"}, {"alias": "seafood", "title": "Seafood"}], "rating": 4.0, "coordinates": {"latitude": 42.21129, "longitude": -71.79662}, "transactions": ["delivery"], "price": "$$", "location": {"address1": "545 SW Cutoff", "address2": "", "address3": "", "city": "Worcester", "zip_code": "01607", "country": "US", "state": "MA", "display_address": ["545 SW Cutoff", "Worcester, MA 01607"]}, "phone": "+15087578884", "display_phone": "(508) 757-8884", "distance": 9105.632310132813}, {"id": "kF3P6nL9V-OmpPhOfHSdgQ", "alias": "dads-charlton", "name": "Dad's", "image_url": "https://s3-media1.fl.yelpcdn.com/bphoto/dfnn0SCQNovFuQNlIXDnSA/o.jpg", "is_closed": false, "url": "https://www.yelp.com/biz/dads-charlton?adjust_creative=HdhkN5EEH6lAqE3kwhsHEQ&utm_campaign=yelp_api_v3&utm_medium=api_v3_business_search&utm_source=HdhkN5EEH6lAqE3kwhsHEQ", "review_count": 33, "categories": [{"alias": "diners", "title": "Diners"}, {"alias": "breakfast_brunch", "title": "Breakfast & Brunch"}, {"alias": "tradamerican", "title": "American (Traditional)"}], "rating": 4.5, "coordinates": {"latitude": 42.152759552002, "longitude": -71.9210891723633}, "transactions": [], "price": "$", "location": {"address1": "417 Worcester Rd", "address2": "", "address3": "", "city": "Charlton", "zip_code": "01507", "country": "US", "state": "MA", "display_address": ["417 Worcester Rd", "Charlton, MA 01507"]}, "phone": "+15082489774", "display_phone": "(508) 248-9774", "distance": 3114.893923575708}, {"id": "vFGICdfuLUFXC6iQT3yhpw", "alias": "ghost-chicken-auburn", "name": "Ghost Chicken", "image_url": "https://s3-media4.fl.yelpcdn.com/bphoto/BYkvUKmFVYRY8LT64QWr7A/o.jpg", "is_closed": false, "url": "https://www.yelp.com/biz/ghost-chicken-auburn?adjust_creative=HdhkN5EEH6lAqE3kwhsHEQ&utm_campaign=yelp_api_v3&utm_medium=api_v3_business_search&utm_source=HdhkN5EEH6lAqE3kwhsHEQ", "review_count": 2, "categories": [{"alias": "chicken_wings", "title": "Chicken Wings"}], "rating": 5.0, "coordinates": {"latitude": 42.202137, "longitude": -71.835473}, "transactions": ["delivery"], "location": {"address1": "385 Southbridge St", "address2": "", "address3": "Food court", "city": "Auburn", "zip_code": "01501", "country": "US", "state": "MA", "display_address": ["385 Southbridge St", "Food court", "Auburn, MA 01501"]}, "phone": "+18572312687", "display_phone": "(857) 231-2687", "distance": 6049.884611687341}, {"id": "TvsFdBulU0ABKhRJuOsbig", "alias": "outback-steakhouse-auburn", "name": "Outback Steakhouse", "image_url": "https://s3-media3.fl.yelpcdn.com/bphoto/vBEbIWXEvfjIpPUwFOb7zg/o.jpg", "is_closed": false, "url": "https://www.yelp.com/biz/outback-steakhouse-auburn?adjust_creative=HdhkN5EEH6lAqE3kwhsHEQ&utm_campaign=yelp_api_v3&utm_medium=api_v3_business_search&utm_source=HdhkN5EEH6lAqE3kwhsHEQ", "review_count": 115, "categories": [{"alias": "steak", "title": "Steakhouses"}], "rating": 2.5, "coordinates": {"latitude": 42.19917, "longitude": -71.841698}, "transactions": [], "price": "$$", "location": {"address1": "452 Southbridge St", "address2": "", "address3": "", "city": "Auburn", "zip_code": "01501", "country": "US", "state": "MA", "display_address": ["452 Southbridge St", "Auburn, MA 01501"]}, "phone": "+15087219799", "display_phone": "(508) 721-9799", "distance": 5419.366641875494}, {"id": "5IZFgYz6DyePQmLgLc5d-A", "alias": "quarter-keg-pub-charlton", "name": "Quarter Keg Pub", "image_url": "", "is_closed": false, "url": "https://www.yelp.com/biz/quarter-keg-pub-charlton?adjust_creative=HdhkN5EEH6lAqE3kwhsHEQ&utm_campaign=yelp_api_v3&utm_medium=api_v3_business_search&utm_source=HdhkN5EEH6lAqE3kwhsHEQ", "review_count": 1, "categories": [{"alias": "restaurants", "title": "Restaurants"}], "rating": 3.0, "coordinates": {"latitude": 42.1543617248535, "longitude": -71.9163665771484}, "transactions": [], "price": "$", "location": {"address1": "443 Worcester Rd", "address2": "", "address3": "", "city": "Charlton", "zip_code": "01507", "country": "US", "state": "MA", "display_address": ["443 Worcester Rd", "Charlton, MA 01507"]}, "phone": "+15082483191", "display_phone": "(508) 248-3191", "distance": 2712.774942205096}, {"id": "Y74BzWf_rrs8Uab23O_smg", "alias": "chilis-auburn-4", "name": "Chili's", "image_url": "https://s3-media4.fl.yelpcdn.com/bphoto/QeCwP5M5oLUZnvs_pM5D2g/o.jpg", "is_closed": false, "url": "https://www.yelp.com/biz/chilis-auburn-4?adjust_creative=HdhkN5EEH6lAqE3kwhsHEQ&utm_campaign=yelp_api_v3&utm_medium=api_v3_business_search&utm_source=HdhkN5EEH6lAqE3kwhsHEQ", "review_count": 64, "categories": [{"alias": "tex-mex", "title": "Tex-Mex"}, {"alias": "tradamerican", "title": "American (Traditional)"}, {"alias": "bars", "title": "Bars"}], "rating": 2.5, "coordinates": {"latitude": 42.179081, "longitude": -71.871564}, "transactions": ["delivery", "pickup"], "price": "$$", "location": {"address1": "826 Southbridge St", "address2": null, "address3": null, "city": "Auburn", "zip_code": "01501", "country": "US", "state": "MA", "display_address": ["826 Southbridge St", "Auburn, MA 01501"]}, "phone": "+15088324093", "display_phone": "(508) 832-4093", "distance": 2140.8055454790087}, {"id": "yEi0DP1-BFmdBExeYBZZxQ", "alias": "uncle-chucks-pizza-auburn", "name": "Uncle Chucks Pizza", "image_url": "https://s3-media4.fl.yelpcdn.com/bphoto/-eo3b3MSXCRBpiXQR5GIwQ/o.jpg", "is_closed": false, "url": "https://www.yelp.com/biz/uncle-chucks-pizza-auburn?adjust_creative=HdhkN5EEH6lAqE3kwhsHEQ&utm_campaign=yelp_api_v3&utm_medium=api_v3_business_search&utm_source=HdhkN5EEH6lAqE3kwhsHEQ", "review_count": 16, "categories": [{"alias": "pizza", "title": "Pizza"}], "rating": 4.5, "coordinates": {"latitude": 42.217663, "longitude": -71.845112}, "transactions": [], "price": "$$", "location": {"address1": "147 Oxford St N", "address2": null, "address3": null, "city": "Auburn", "zip_code": "01501", "country": "US", "state": "MA", "display_address": ["147 Oxford St N", "Auburn, MA 01501"]}, "phone": "+15088327310", "display_phone": "(508) 832-7310", "distance": 6944.976075147536}, {"id": "sD7EcSHA6GOCSGg0p7qhIw", "alias": "holiday-pizza-of-auburn-auburn", "name": "Holiday Pizza of Auburn", "image_url": "https://s3-media2.fl.yelpcdn.com/bphoto/syj1O2TNaTqVDKqqzE3iEg/o.jpg", "is_closed": false, "url": "https://www.yelp.com/biz/holiday-pizza-of-auburn-auburn?adjust_creative=HdhkN5EEH6lAqE3kwhsHEQ&utm_campaign=yelp_api_v3&utm_medium=api_v3_business_search&utm_source=HdhkN5EEH6lAqE3kwhsHEQ", "review_count": 28, "categories": [{"alias": "pizza", "title": "Pizza"}], "rating": 3.5, "coordinates": {"latitude": 42.1835632324219, "longitude": -71.8604049682617}, "transactions": ["delivery"], "price": "$", "location": {"address1": "714 Southbridge St", "address2": "", "address3": "", "city": "Auburn", "zip_code": "01501", "country": "US", "state": "MA", "display_address": ["714 Southbridge St", "Auburn, MA 01501"]}, "phone": "+15088325169", "display_phone": "(508) 832-5169", "distance": 3097.0664561660305}, {"id": "1BQIsvcnPv1TLVkejwesyw", "alias": "herbies-worcester", "name": "Herbie's", "image_url": "https://s3-media2.fl.yelpcdn.com/bphoto/LkYkK4TzrAUIUH42cB6IpQ/o.jpg", "is_closed": false, "url": "https://www.yelp.com/biz/herbies-worcester?adjust_creative=HdhkN5EEH6lAqE3kwhsHEQ&utm_campaign=yelp_api_v3&utm_medium=api_v3_business_search&utm_source=HdhkN5EEH6lAqE3kwhsHEQ", "review_count": 98, "categories": [{"alias": "tradamerican", "title": "American (Traditional)"}], "rating": 4.0, "coordinates": {"latitude": 42.231626399333, "longitude": -71.818962115253}, "transactions": ["delivery"], "price": "$", "location": {"address1": "1030 Southbridge St", "address2": "", "address3": "", "city": "Worcester", "zip_code": "01610", "country": "US", "state": "MA", "display_address": ["1030 Southbridge St", "Worcester, MA 01610"]}, "phone": "+15087575083", "display_phone": "(508) 757-5083", "distance": 9423.535434612691}, {"id": "RKCXhKqwMOj3cAQl6wWOfA", "alias": "carolos-pizza-oxford-2", "name": "Carolos Pizza", "image_url": "https://s3-media3.fl.yelpcdn.com/bphoto/Ybcly4JiGdXHCjPXI8y_SQ/o.jpg", "is_closed": false, "url": "https://www.yelp.com/biz/carolos-pizza-oxford-2?adjust_creative=HdhkN5EEH6lAqE3kwhsHEQ&utm_campaign=yelp_api_v3&utm_medium=api_v3_business_search&utm_source=HdhkN5EEH6lAqE3kwhsHEQ", "review_count": 14, "categories": [{"alias": "pizza", "title": "Pizza"}], "rating": 4.0, "coordinates": {"latitude": 42.1319186, "longitude": -71.8648416}, "transactions": ["delivery"], "price": "$$", "location": {"address1": "448 Main St", "address2": "Ste 2", "address3": null, "city": "Oxford", "zip_code": "01540", "country": "US", "state": "MA", "display_address": ["448 Main St", "Ste 2", "Oxford, MA 01540"]}, "phone": "+15089873777", "display_phone": "(508) 987-3777", "distance": 3846.9037040517587}, {"id": "lYNU4LeoWeuhrWE24rKDAA", "alias": "tacos-mexico-auburn", "name": "Tacos Mexico", "image_url": "https://s3-media2.fl.yelpcdn.com/bphoto/rQeSJ52TLFQA_b_Ppzn2VA/o.jpg", "is_closed": false, "url": "https://www.yelp.com/biz/tacos-mexico-auburn?adjust_creative=HdhkN5EEH6lAqE3kwhsHEQ&utm_campaign=yelp_api_v3&utm_medium=api_v3_business_search&utm_source=HdhkN5EEH6lAqE3kwhsHEQ", "review_count": 17, "categories": [{"alias": "tacos", "title": "Tacos"}], "rating": 3.5, "coordinates": {"latitude": 42.202192, "longitude": -71.835798}, "transactions": ["delivery", "pickup"], "price": "$", "location": {"address1": "385 Southbridge St", "address2": "", "address3": null, "city": "Auburn", "zip_code": "01501", "country": "US", "state": "MA", "display_address": ["385 Southbridge St", "Auburn, MA 01501"]}, "phone": "+17743216530", "display_phone": "(774) 321-6530", "distance": 6049.884611687341}, {"id": "Ouv6_8SKJqbVpZRklWy5Qg", "alias": "isadors-organics-oxford-2", "name": "Isador's Organics", "image_url": "https://s3-media2.fl.yelpcdn.com/bphoto/j4U-ozyWIjju9yxDzyq1Aw/o.jpg", "is_closed": false, "url": "https://www.yelp.com/biz/isadors-organics-oxford-2?adjust_creative=HdhkN5EEH6lAqE3kwhsHEQ&utm_campaign=yelp_api_v3&utm_medium=api_v3_business_search&utm_source=HdhkN5EEH6lAqE3kwhsHEQ", "review_count": 45, "categories": [{"alias": "juicebars", "title": "Juice Bars & Smoothies"}, {"alias": "delis", "title": "Delis"}, {"alias": "sandwiches", "title": "Sandwiches"}], "rating": 4.0, "coordinates": {"latitude": 42.113887, "longitude": -71.865664}, "transactions": ["delivery"], "price": "$$", "location": {"address1": "261 Main St", "address2": "", "address3": "", "city": "Oxford", "zip_code": "01540", "country": "US", "state": "MA", "display_address": ["261 Main St", "Oxford, MA 01540"]}, "phone": "+15089871211", "display_phone": "(508) 987-1211", "distance": 5690.793263721794}, {"id": "084tdDpmmKCnmRQxsoFgxA", "alias": "nuestra-worcester", "name": "Nuestra", "image_url": "https://s3-media3.fl.yelpcdn.com/bphoto/k8wY1kuRTahGnv4sYNfPAw/o.jpg", "is_closed": false, "url": "https://www.yelp.com/biz/nuestra-worcester?adjust_creative=HdhkN5EEH6lAqE3kwhsHEQ&utm_campaign=yelp_api_v3&utm_medium=api_v3_business_search&utm_source=HdhkN5EEH6lAqE3kwhsHEQ", "review_count": 3, "categories": [{"alias": "puertorican", "title": "Puerto Rican"}], "rating": 5.0, "coordinates": {"latitude": 42.2370224, "longitude": -71.8475191}, "transactions": [], "location": {"address1": "153 Stafford St", "address2": null, "address3": "", "city": "Worcester", "zip_code": "01603", "country": "US", "state": "MA", "display_address": ["153 Stafford St", "Worcester, MA 01603"]}, "phone": "+15089268885", "display_phone": "(508) 926-8885", "distance": 8838.80172360789}, {"id": "Dil4FmeRNISpRXD3INpznA", "alias": "tiny-tims-cafe-auburn", "name": "Tiny Tim's Cafe", "image_url": "https://s3-media4.fl.yelpcdn.com/bphoto/v3l3tKmoIVD8NkmzjorK0A/o.jpg", "is_closed": false, "url": "https://www.yelp.com/biz/tiny-tims-cafe-auburn?adjust_creative=HdhkN5EEH6lAqE3kwhsHEQ&utm_campaign=yelp_api_v3&utm_medium=api_v3_business_search&utm_source=HdhkN5EEH6lAqE3kwhsHEQ", "review_count": 63, "categories": [{"alias": "breakfast_brunch", "title": "Breakfast & Brunch"}, {"alias": "waffles", "title": "Waffles"}, {"alias": "sandwiches", "title": "Sandwiches"}], "rating": 4.5, "coordinates": {"latitude": 42.18755, "longitude": -71.83366}, "transactions": ["delivery"], "price": "$$", "location": {"address1": "85 South St", "address2": "", "address3": null, "city": "Auburn", "zip_code": "01501", "country": "US", "state": "MA", "display_address": ["85 South St", "Auburn, MA 01501"]}, "phone": "+15088322300", "display_phone": "(508) 832-2300", "distance": 5079.650500563042}, {"id": "O4OYntTQgZMwafiTEBeRQw", "alias": "the-twisted-fork-bistro-cherry-valley-2", "name": "The Twisted Fork Bistro", "image_url": "https://s3-media4.fl.yelpcdn.com/bphoto/euVUjS5Hh3mtfcXgMb0l9g/o.jpg", "is_closed": false, "url": "https://www.yelp.com/biz/the-twisted-fork-bistro-cherry-valley-2?adjust_creative=HdhkN5EEH6lAqE3kwhsHEQ&utm_campaign=yelp_api_v3&utm_medium=api_v3_business_search&utm_source=HdhkN5EEH6lAqE3kwhsHEQ", "review_count": 273, "categories": [{"alias": "breakfast_brunch", "title": "Breakfast & Brunch"}, {"alias": "french", "title": "French"}, {"alias": "italian", "title": "Italian"}], "rating": 4.0, "coordinates": {"latitude": 42.2209710128652, "longitude": -71.8746339317707}, "transactions": ["delivery"], "price": "$$", "location": {"address1": "509 Stafford St", "address2": "", "address3": "", "city": "Cherry Valley", "zip_code": "01611", "country": "US", "state": "MA", "display_address": ["509 Stafford St", "Cherry Valley, MA 01611"]}, "phone": "+15088925437", "display_phone": "(508) 892-5437", "distance": 6522.022170492499}, {"id": "6HDT-gW5R03cobgopkGJ_A", "alias": "happy-garden-restaurant-oxford", "name": "Happy Garden Restaurant", "image_url": "https://s3-media2.fl.yelpcdn.com/bphoto/TB-alTMS2MUAcGj4nC3tZg/o.jpg", "is_closed": false, "url": "https://www.yelp.com/biz/happy-garden-restaurant-oxford?adjust_creative=HdhkN5EEH6lAqE3kwhsHEQ&utm_campaign=yelp_api_v3&utm_medium=api_v3_business_search&utm_source=HdhkN5EEH6lAqE3kwhsHEQ", "review_count": 31, "categories": [{"alias": "chinese", "title": "Chinese"}, {"alias": "seafood", "title": "Seafood"}, {"alias": "sportsbars", "title": "Sports Bars"}], "rating": 3.5, "coordinates": {"latitude": 42.10779, "longitude": -71.86657}, "transactions": ["delivery", "pickup"], "price": "$$", "location": {"address1": "211 Main St", "address2": "", "address3": "", "city": "Oxford", "zip_code": "01540", "country": "US", "state": "MA", "display_address": ["211 Main St", "Oxford, MA 01540"]}, "phone": "+15089870271", "display_phone": "(508) 987-0271", "distance": 6342.03076333425}, {"id": "Sp5WHVKSTpYujXPBqdsvlw", "alias": "weepin-willies-auburn", "name": "Weepin' Willies", "image_url": "https://s3-media3.fl.yelpcdn.com/bphoto/87lKI957Lh_myvSjKJdYpQ/o.jpg", "is_closed": false, "url": "https://www.yelp.com/biz/weepin-willies-auburn?adjust_creative=HdhkN5EEH6lAqE3kwhsHEQ&utm_campaign=yelp_api_v3&utm_medium=api_v3_business_search&utm_source=HdhkN5EEH6lAqE3kwhsHEQ", "review_count": 23, "categories": [{"alias": "delis", "title": "Delis"}, {"alias": "markets", "title": "Fruits & Veggies"}, {"alias": "meats", "title": "Meat Shops"}], "rating": 3.5, "coordinates": {"latitude": 42.2076119, "longitude": -71.834422}, "transactions": ["delivery"], "price": "$", "location": {"address1": "64 Auburn St", "address2": "", "address3": "", "city": "Auburn", "zip_code": "01501", "country": "US", "state": "MA", "display_address": ["64 Auburn St", "Auburn, MA 01501"]}, "phone": "+15088329455", "display_phone": "(508) 832-9455", "distance": 6520.80625494531}, {"id": "rfRQQvkTcwbJ3Ro4tOPoKQ", "alias": "yong-shing-restaurant-auburn", "name": "Yong Shing Restaurant", "image_url": "https://s3-media1.fl.yelpcdn.com/bphoto/A9SDKJZJsMsedu2e5OidYw/o.jpg", "is_closed": false, "url": "https://www.yelp.com/biz/yong-shing-restaurant-auburn?adjust_creative=HdhkN5EEH6lAqE3kwhsHEQ&utm_campaign=yelp_api_v3&utm_medium=api_v3_business_search&utm_source=HdhkN5EEH6lAqE3kwhsHEQ", "review_count": 94, "categories": [{"alias": "chinese", "title": "Chinese"}, {"alias": "japanese", "title": "Japanese"}, {"alias": "buffets", "title": "Buffets"}], "rating": 2.5, "coordinates": {"latitude": 42.209248, "longitude": -71.836112}, "transactions": ["delivery"], "price": "$$", "location": {"address1": "90 Auburn St", "address2": "", "address3": "", "city": "Auburn", "zip_code": "01501", "country": "US", "state": "MA", "display_address": ["90 Auburn St", "Auburn, MA 01501"]}, "phone": "+15088320622", "display_phone": "(508) 832-0622", "distance": 6541.606502198512}, {"id": "Ay7B2SryhZxP4t3CdQYQNg", "alias": "slice-of-heaven-oxford", "name": "Slice of Heaven", "image_url": "https://s3-media2.fl.yelpcdn.com/bphoto/ZZTItgLpi5vN9D9arWrLWg/o.jpg", "is_closed": false, "url": "https://www.yelp.com/biz/slice-of-heaven-oxford?adjust_creative=HdhkN5EEH6lAqE3kwhsHEQ&utm_campaign=yelp_api_v3&utm_medium=api_v3_business_search&utm_source=HdhkN5EEH6lAqE3kwhsHEQ", "review_count": 17, "categories": [{"alias": "pizza", "title": "Pizza"}], "rating": 3.0, "coordinates": {"latitude": 42.11523, "longitude": -71.86549}, "transactions": ["delivery"], "location": {"address1": "273 Main St", "address2": "", "address3": null, "city": "Oxford", "zip_code": "01540", "country": "US", "state": "MA", "display_address": ["273 Main St", "Oxford, MA 01540"]}, "phone": "+15089877172", "display_phone": "(508) 987-7172", "distance": 5547.678146331791}, {"id": "z6cvHJggaAuK_Y1vgiYC2A", "alias": "applebees-grill-bar-auburn-9", "name": "Applebee's Grill + Bar", "image_url": "https://s3-media1.fl.yelpcdn.com/bphoto/eI-F_zFf3-5qJcxVDZmCng/o.jpg", "is_closed": false, "url": "https://www.yelp.com/biz/applebees-grill-bar-auburn-9?adjust_creative=HdhkN5EEH6lAqE3kwhsHEQ&utm_campaign=yelp_api_v3&utm_medium=api_v3_business_search&utm_source=HdhkN5EEH6lAqE3kwhsHEQ", "review_count": 29, "categories": [{"alias": "sportsbars", "title": "Sports Bars"}, {"alias": "burgers", "title": "Burgers"}, {"alias": "tradamerican", "title": "American (Traditional)"}], "rating": 2.5, "coordinates": {"latitude": 42.1845, "longitude": -71.8583}, "transactions": ["delivery"], "price": "$$", "location": {"address1": "680 Southbridge St", "address2": "", "address3": "", "city": "Auburn", "zip_code": "01501", "country": "US", "state": "MA", "display_address": ["680 Southbridge St", "Auburn, MA 01501"]}, "phone": "+15087217817", "display_phone": "(508) 721-7817", "distance": 3292.553456823233}, {"id": "UP47x1auB-PfbtfdKrvzoA", "alias": "buddys-leicester", "name": "Buddy's", "image_url": "https://s3-media2.fl.yelpcdn.com/bphoto/nuOnR8z2P-OGmlZVTV6dgg/o.jpg", "is_closed": false, "url": "https://www.yelp.com/biz/buddys-leicester?adjust_creative=HdhkN5EEH6lAqE3kwhsHEQ&utm_campaign=yelp_api_v3&utm_medium=api_v3_business_search&utm_source=HdhkN5EEH6lAqE3kwhsHEQ", "review_count": 6, "categories": [{"alias": "tradamerican", "title": "American (Traditional)"}], "rating": 3.0, "coordinates": {"latitude": 42.19471, "longitude": -71.90606}, "transactions": [], "price": "$", "location": {"address1": "1080 Stafford St", "address2": "", "address3": null, "city": "Leicester", "zip_code": "01542", "country": "US", "state": "MA", "display_address": ["1080 Stafford St", "Leicester, MA 01542"]}, "phone": "+15088929087", "display_phone": "(508) 892-9087", "distance": 3936.4520957752065}, {"id": "4scHmyhC2Unfx7MTTpfC_g", "alias": "cocos-tropical-ice-auburn", "name": "CoCo's Tropical Ice", "image_url": "https://s3-media2.fl.yelpcdn.com/bphoto/PzcycIFivmcDAXVph81WPA/o.jpg", "is_closed": false, "url": "https://www.yelp.com/biz/cocos-tropical-ice-auburn?adjust_creative=HdhkN5EEH6lAqE3kwhsHEQ&utm_campaign=yelp_api_v3&utm_medium=api_v3_business_search&utm_source=HdhkN5EEH6lAqE3kwhsHEQ", "review_count": 36, "categories": [{"alias": "icecream", "title": "Ice Cream & Frozen Yogurt"}, {"alias": "hotdog", "title": "Hot Dogs"}, {"alias": "gelato", "title": "Gelato"}], "rating": 4.5, "coordinates": {"latitude": 42.2042339, "longitude": -71.8368334}, "transactions": [], "price": "$", "location": {"address1": "1 Swanson Rd", "address2": null, "address3": "", "city": "Auburn", "zip_code": "01501", "country": "US", "state": "MA", "display_address": ["1 Swanson Rd", "Auburn, MA 01501"]}, "phone": "+17742765006", "display_phone": "(774) 276-5006", "distance": 6082.021152363154}, {"id": "9lYjQdxEdm61F6Iv93IgIQ", "alias": "p-and-d-oxford-house-of-pizza-oxford", "name": "P&D Oxford House of Pizza", "image_url": "https://s3-media1.fl.yelpcdn.com/bphoto/Y0jS4mag-Pqr4w8mcpQL0Q/o.jpg", "is_closed": false, "url": "https://www.yelp.com/biz/p-and-d-oxford-house-of-pizza-oxford?adjust_creative=HdhkN5EEH6lAqE3kwhsHEQ&utm_campaign=yelp_api_v3&utm_medium=api_v3_business_search&utm_source=HdhkN5EEH6lAqE3kwhsHEQ", "review_count": 18, "categories": [{"alias": "pizza", "title": "Pizza"}, {"alias": "seafood", "title": "Seafood"}, {"alias": "sandwiches", "title": "Sandwiches"}], "rating": 3.5, "coordinates": {"latitude": 42.131183, "longitude": -71.86489}, "transactions": ["delivery"], "price": "$", "location": {"address1": "440 Main St", "address2": "", "address3": "", "city": "Oxford", "zip_code": "01540", "country": "US", "state": "MA", "display_address": ["440 Main St", "Oxford, MA 01540"]}, "phone": "+15089875798", "display_phone": "(508) 987-5798", "distance": 3897.346755812666}, {"id": "ScTKz5L0CDzYMVUv8ZnWDA", "alias": "d-angelo-auburn", "name": "D'Angelo", "image_url": "https://s3-media4.fl.yelpcdn.com/bphoto/-ZKf4-3AedLBcHwfgrvwTA/o.jpg", "is_closed": false, "url": "https://www.yelp.com/biz/d-angelo-auburn?adjust_creative=HdhkN5EEH6lAqE3kwhsHEQ&utm_campaign=yelp_api_v3&utm_medium=api_v3_business_search&utm_source=HdhkN5EEH6lAqE3kwhsHEQ", "review_count": 16, "categories": [{"alias": "sandwiches", "title": "Sandwiches"}], "rating": 2.5, "coordinates": {"latitude": 42.1835746765137, "longitude": -71.8580780029297}, "transactions": ["delivery"], "price": "$$", "location": {"address1": "695 Southbridge St", "address2": "", "address3": "", "city": "Auburn", "zip_code": "01501", "country": "US", "state": "MA", "display_address": ["695 Southbridge St", "Auburn, MA 01501"]}, "phone": "+15088325698", "display_phone": "(508) 832-5698", "distance": 3237.0731501230553}, {"id": "A14Eypr5kImN1lKqXeiMKQ", "alias": "charlton-house-of-pizza-and-seafood-charlton", "name": "Charlton House Of Pizza & Seafood", "image_url": "https://s3-media4.fl.yelpcdn.com/bphoto/JDkb410WWA3TZIPJ_DegqQ/o.jpg", "is_closed": false, "url": "https://www.yelp.com/biz/charlton-house-of-pizza-and-seafood-charlton?adjust_creative=HdhkN5EEH6lAqE3kwhsHEQ&utm_campaign=yelp_api_v3&utm_medium=api_v3_business_search&utm_source=HdhkN5EEH6lAqE3kwhsHEQ", "review_count": 6, "categories": [{"alias": "pizza", "title": "Pizza"}, {"alias": "seafood", "title": "Seafood"}], "rating": 3.5, "coordinates": {"latitude": 42.13713, "longitude": -71.97024}, "transactions": ["delivery"], "location": {"address1": "109 Masonic Home Rd", "address2": null, "address3": "", "city": "Charlton", "zip_code": "01507", "country": "US", "state": "MA", "display_address": ["109 Masonic Home Rd", "Charlton, MA 01507"]}, "phone": "+15084341666", "display_phone": "(508) 434-1666", "distance": 7570.404370968673}, {"id": "3jPIQDpRowKZ0lsY6BzIrA", "alias": "auburn-town-pizza-auburn", "name": "Auburn Town Pizza", "image_url": "https://s3-media2.fl.yelpcdn.com/bphoto/r2gEVmWwL1HNCCwMEQg66A/o.jpg", "is_closed": false, "url": "https://www.yelp.com/biz/auburn-town-pizza-auburn?adjust_creative=HdhkN5EEH6lAqE3kwhsHEQ&utm_campaign=yelp_api_v3&utm_medium=api_v3_business_search&utm_source=HdhkN5EEH6lAqE3kwhsHEQ", "review_count": 45, "categories": [{"alias": "pizza", "title": "Pizza"}], "rating": 3.0, "coordinates": {"latitude": 42.2072155, "longitude": -71.8344609}, "transactions": ["delivery"], "price": "$$", "location": {"address1": "69 Auburn St", "address2": "", "address3": "", "city": "Auburn", "zip_code": "01501", "country": "US", "state": "MA", "display_address": ["69 Auburn St", "Auburn, MA 01501"]}, "phone": "+15088325210", "display_phone": "(508) 832-5210", "distance": 6485.175022351255}, {"id": "etAdGY4PWS5OX6FGTwzodw", "alias": "el-rincon-criollo-worcester", "name": "El Rincon Criollo", "image_url": "https://s3-media1.fl.yelpcdn.com/bphoto/yNVAoETHt6zZwmgrIMH_Yw/o.jpg", "is_closed": false, "url": "https://www.yelp.com/biz/el-rincon-criollo-worcester?adjust_creative=HdhkN5EEH6lAqE3kwhsHEQ&utm_campaign=yelp_api_v3&utm_medium=api_v3_business_search&utm_source=HdhkN5EEH6lAqE3kwhsHEQ", "review_count": 31, "categories": [{"alias": "spanish", "title": "Spanish"}, {"alias": "latin", "title": "Latin American"}, {"alias": "puertorican", "title": "Puerto Rican"}], "rating": 3.5, "coordinates": {"latitude": 42.2319584, "longitude": -71.8328586}, "transactions": ["delivery"], "price": "$", "location": {"address1": "205 Hope Ave", "address2": "", "address3": "", "city": "Worcester", "zip_code": "01603", "country": "US", "state": "MA", "display_address": ["205 Hope Ave", "Worcester, MA 01603"]}, "phone": "+15089812818", "display_phone": "(508) 981-2818", "distance": 8824.673965276868}, {"id": "RZ5uAo46TWQu9Goj4ftJOg", "alias": "galway-bay-irish-pub-worcester", "name": "Galway Bay Irish Pub", "image_url": "https://s3-media1.fl.yelpcdn.com/bphoto/hV8j1JHWGdou0grOOrPEdA/o.jpg", "is_closed": false, "url": "https://www.yelp.com/biz/galway-bay-irish-pub-worcester?adjust_creative=HdhkN5EEH6lAqE3kwhsHEQ&utm_campaign=yelp_api_v3&utm_medium=api_v3_business_search&utm_source=HdhkN5EEH6lAqE3kwhsHEQ", "review_count": 5, "categories": [{"alias": "newamerican", "title": "American (New)"}, {"alias": "beer_and_wine", "title": "Beer, Wine & Spirits"}, {"alias": "tradamerican", "title": "American (Traditional)"}], "rating": 3.5, "coordinates": {"latitude": 42.2359962463379, "longitude": -71.85009765625}, "transactions": [], "price": "$$", "location": {"address1": "186 Stafford St", "address2": "", "address3": "", "city": "Worcester", "zip_code": "01603", "country": "US", "state": "MA", "display_address": ["186 Stafford St", "Worcester, MA 01603"]}, "phone": "+15087538909", "display_phone": "(508) 753-8909", "distance": 8642.73336970012}, {"id": "vqp0j29yDKzpeSm-qPXAJQ", "alias": "bills-pizza-rochdale", "name": "Bill's Pizza", "image_url": "https://s3-media4.fl.yelpcdn.com/bphoto/bZ0bsdXPWToC5E7Ke_jLIg/o.jpg", "is_closed": false, "url": "https://www.yelp.com/biz/bills-pizza-rochdale?adjust_creative=HdhkN5EEH6lAqE3kwhsHEQ&utm_campaign=yelp_api_v3&utm_medium=api_v3_business_search&utm_source=HdhkN5EEH6lAqE3kwhsHEQ", "review_count": 22, "categories": [{"alias": "pizza", "title": "Pizza"}, {"alias": "beer_and_wine", "title": "Beer, Wine & Spirits"}], "rating": 3.0, "coordinates": {"latitude": 42.1917114, "longitude": -71.9091873}, "transactions": ["delivery"], "price": "$", "location": {"address1": "1141 Stafford St", "address2": null, "address3": null, "city": "Rochdale", "zip_code": "01542", "country": "US", "state": "MA", "display_address": ["1141 Stafford St", "Rochdale, MA 01542"]}, "phone": "+15088920082", "display_phone": "(508) 892-0082", "distance": 3741.0428034911506}, {"id": "D18DKMr9zJDtCd54tdURkg", "alias": "carls-oxford-diner-oxford", "name": "Carl's Oxford Diner", "image_url": "https://s3-media1.fl.yelpcdn.com/bphoto/baoRN59Nx9cFRTtP-ioXLg/o.jpg", "is_closed": false, "url": "https://www.yelp.com/biz/carls-oxford-diner-oxford?adjust_creative=HdhkN5EEH6lAqE3kwhsHEQ&utm_campaign=yelp_api_v3&utm_medium=api_v3_business_search&utm_source=HdhkN5EEH6lAqE3kwhsHEQ", "review_count": 150, "categories": [{"alias": "diners", "title": "Diners"}, {"alias": "sandwiches", "title": "Sandwiches"}, {"alias": "coffee", "title": "Coffee & Tea"}], "rating": 4.0, "coordinates": {"latitude": 42.11646, "longitude": -71.86518}, "transactions": ["delivery"], "price": "$", "location": {"address1": "291 Main St", "address2": "", "address3": "", "city": "Oxford", "zip_code": "01540", "country": "US", "state": "MA", "display_address": ["291 Main St", "Oxford, MA 01540"]}, "phone": "+15089878770", "display_phone": "(508) 987-8770", "distance": 5425.295724150654}, {"id": "eMEqCa3a9dtG1O28M2XIEQ", "alias": "friendlys-auburn", "name": "Friendly's", "image_url": "https://s3-media1.fl.yelpcdn.com/bphoto/eRn160WX4iPRtikczQ6W-g/o.jpg", "is_closed": false, "url": "https://www.yelp.com/biz/friendlys-auburn?adjust_creative=HdhkN5EEH6lAqE3kwhsHEQ&utm_campaign=yelp_api_v3&utm_medium=api_v3_business_search&utm_source=HdhkN5EEH6lAqE3kwhsHEQ", "review_count": 27, "categories": [{"alias": "icecream", "title": "Ice Cream & Frozen Yogurt"}, {"alias": "burgers", "title": "Burgers"}, {"alias": "tradamerican", "title": "American (Traditional)"}], "rating": 3.0, "coordinates": {"latitude": 42.1833381652832, "longitude": -71.8585357666016}, "transactions": ["delivery"], "price": "$$", "location": {"address1": "697 Southbridge St", "address2": null, "address3": null, "city": "Auburn", "zip_code": "01501", "country": "US", "state": "MA", "display_address": ["697 Southbridge St", "Auburn, MA 01501"]}, "phone": "+15088323102", "display_phone": "(508) 832-3102", "distance": 3191.2704635469277}, {"id": "yPfQkwaI5cC1esqqMjSkbg", "alias": "shooters-bar-and-billiards-worcester", "name": "Shooter's Bar & Billiards", "image_url": "https://s3-media4.fl.yelpcdn.com/bphoto/laenGD8lzS61XzGa_vximw/o.jpg", "is_closed": false, "url": "https://www.yelp.com/biz/shooters-bar-and-billiards-worcester?adjust_creative=HdhkN5EEH6lAqE3kwhsHEQ&utm_campaign=yelp_api_v3&utm_medium=api_v3_business_search&utm_source=HdhkN5EEH6lAqE3kwhsHEQ", "review_count": 4, "categories": [{"alias": "sportsbars", "title": "Sports Bars"}, {"alias": "poolbilliards", "title": "Pool & Billiards"}, {"alias": "chicken_wings", "title": "Chicken Wings"}], "rating": 4.0, "coordinates": {"latitude": 42.23283, "longitude": -71.85055}, "transactions": [], "location": {"address1": "70 James St", "address2": null, "address3": "", "city": "Worcester", "zip_code": "01603", "country": "US", "state": "MA", "display_address": ["70 James St", "Worcester, MA 01603"]}, "phone": "+17744207665", "display_phone": "(774) 420-7665", "distance": 8276.297744263742}, {"id": "26hXKbLi0LAmAm308nIylQ", "alias": "fratellis-corner-crust-pizzeria-worcester-2", "name": "Fratelli's Corner Crust Pizzeria", "image_url": "https://s3-media3.fl.yelpcdn.com/bphoto/hEvM60anUJLCWY7hP8f1LA/o.jpg", "is_closed": false, "url": "https://www.yelp.com/biz/fratellis-corner-crust-pizzeria-worcester-2?adjust_creative=HdhkN5EEH6lAqE3kwhsHEQ&utm_campaign=yelp_api_v3&utm_medium=api_v3_business_search&utm_source=HdhkN5EEH6lAqE3kwhsHEQ", "review_count": 96, "categories": [{"alias": "pizza", "title": "Pizza"}, {"alias": "sandwiches", "title": "Sandwiches"}, {"alias": "italian", "title": "Italian"}], "rating": 4.0, "coordinates": {"latitude": 42.235997, "longitude": -71.850095}, "transactions": ["delivery", "pickup"], "price": "$", "location": {"address1": "186 Stafford St", "address2": "", "address3": "", "city": "Worcester", "zip_code": "01603", "country": "US", "state": "MA", "display_address": ["186 Stafford St", "Worcester, MA 01603"]}, "phone": "+15087992500", "display_phone": "(508) 799-2500", "distance": 8640.112385586146}, {"id": "dldFb4PGgAxtbTmUtbbsLQ", "alias": "teds-pizza-house-worcester", "name": "Ted's Pizza House", "image_url": "https://s3-media2.fl.yelpcdn.com/bphoto/f03U6xhlyqlDlmq_Qgtpwg/o.jpg", "is_closed": false, "url": "https://www.yelp.com/biz/teds-pizza-house-worcester?adjust_creative=HdhkN5EEH6lAqE3kwhsHEQ&utm_campaign=yelp_api_v3&utm_medium=api_v3_business_search&utm_source=HdhkN5EEH6lAqE3kwhsHEQ", "review_count": 21, "categories": [{"alias": "pizza", "title": "Pizza"}, {"alias": "sandwiches", "title": "Sandwiches"}, {"alias": "greek", "title": "Greek"}], "rating": 4.0, "coordinates": {"latitude": 42.2127228, "longitude": -71.7959671}, "transactions": ["delivery"], "price": "$$", "location": {"address1": "346 Greenwood St", "address2": "", "address3": "", "city": "Worcester", "zip_code": "01607", "country": "US", "state": "MA", "display_address": ["346 Greenwood St", "Worcester, MA 01607"]}, "phone": "+15087521909", "display_phone": "(508) 752-1909", "distance": 9307.496935752046}, {"id": "YT1O-rmplFlxHbPo1t8Vng", "alias": "golden-star-chinese-restaurant-worcester-2", "name": "Golden Star Chinese Restaurant", "image_url": "https://s3-media4.fl.yelpcdn.com/bphoto/jVWwJwg8UDf1zXh8MLtxSA/o.jpg", "is_closed": false, "url": "https://www.yelp.com/biz/golden-star-chinese-restaurant-worcester-2?adjust_creative=HdhkN5EEH6lAqE3kwhsHEQ&utm_campaign=yelp_api_v3&utm_medium=api_v3_business_search&utm_source=HdhkN5EEH6lAqE3kwhsHEQ", "review_count": 4, "categories": [{"alias": "chinese", "title": "Chinese"}], "rating": 3.5, "coordinates": {"latitude": 42.23261, "longitude": -71.84913}, "transactions": ["delivery"], "location": {"address1": "65 James St", "address2": "", "address3": null, "city": "Worcester", "zip_code": "01603", "country": "US", "state": "MA", "display_address": ["65 James St", "Worcester, MA 01603"]}, "phone": "+15087556768", "display_phone": "(508) 755-6768", "distance": 8365.419410550041}, {"id": "Z0-OVloiiicUx54Q_NlXeg", "alias": "papa-ginos-charlton-2", "name": "Papa Gino's", "image_url": "https://s3-media1.fl.yelpcdn.com/bphoto/XMfmh_v23h5Tf8FRb7jx4g/o.jpg", "is_closed": false, "url": "https://www.yelp.com/biz/papa-ginos-charlton-2?adjust_creative=HdhkN5EEH6lAqE3kwhsHEQ&utm_campaign=yelp_api_v3&utm_medium=api_v3_business_search&utm_source=HdhkN5EEH6lAqE3kwhsHEQ", "review_count": 5, "categories": [{"alias": "pizza", "title": "Pizza"}], "rating": 3.0, "coordinates": {"latitude": 42.1565865558527, "longitude": -71.9640472644289}, "transactions": ["delivery"], "location": {"address1": "Massachusetts Tpke", "address2": "", "address3": "", "city": "Charlton", "zip_code": "", "country": "US", "state": "MA", "display_address": ["Massachusetts Tpke", "Charlton, MA"]}, "phone": "", "display_phone": "", "distance": 6503.496077841099}, {"id": "l5EE7aSMsfHiXSu2f9l9Vw", "alias": "fresh-city-charlton", "name": "Fresh City", "image_url": "https://s3-media4.fl.yelpcdn.com/bphoto/nNL4HZRNF-wqCvZI5czxNw/o.jpg", "is_closed": false, "url": "https://www.yelp.com/biz/fresh-city-charlton?adjust_creative=HdhkN5EEH6lAqE3kwhsHEQ&utm_campaign=yelp_api_v3&utm_medium=api_v3_business_search&utm_source=HdhkN5EEH6lAqE3kwhsHEQ", "review_count": 31, "categories": [{"alias": "newamerican", "title": "American (New)"}], "rating": 2.0, "coordinates": {"latitude": 42.156628, "longitude": -71.964096}, "transactions": [], "price": "$", "location": {"address1": "1-90 Massachusetts Turnpike", "address2": "Charlton Mass Pike E", "address3": "", "city": "Charlton", "zip_code": "01507", "country": "US", "state": "MA", "display_address": ["1-90 Massachusetts Turnpike", "Charlton Mass Pike E", "Charlton, MA 01507"]}, "phone": "+15082480663", "display_phone": "(508) 248-0663", "distance": 6506.9935314850245}, {"id": "Re6CkuWyfR_P1BwbUt9jqg", "alias": "pressn-it-millbury", "name": "Press'n It", "image_url": "https://s3-media4.fl.yelpcdn.com/bphoto/AWpVNC2hA9YtwQYam1vlRg/o.jpg", "is_closed": false, "url": "https://www.yelp.com/biz/pressn-it-millbury?adjust_creative=HdhkN5EEH6lAqE3kwhsHEQ&utm_campaign=yelp_api_v3&utm_medium=api_v3_business_search&utm_source=HdhkN5EEH6lAqE3kwhsHEQ", "review_count": 5, "categories": [{"alias": "foodtrucks", "title": "Food Trucks"}, {"alias": "sandwiches", "title": "Sandwiches"}, {"alias": "salad", "title": "Salad"}], "rating": 3.0, "coordinates": {"latitude": 42.1819152832031, "longitude": -71.8026351928711}, "transactions": [], "location": {"address1": "14 Stowe Rd", "address2": "", "address3": null, "city": "Millbury", "zip_code": "01527", "country": "US", "state": "MA", "display_address": ["14 Stowe Rd", "Millbury, MA 01527"]}, "phone": "+15083352786", "display_phone": "(508) 335-2786", "distance": 7120.185600260163}, {"id": "G1n0dLtKr20N1SnTcT7DPg", "alias": "olive-garden-to-go-and-delivery-available-worcester", "name": "Olive Garden - To Go & Delivery Available", "image_url": "https://s3-media1.fl.yelpcdn.com/bphoto/qP_CzCz66JLONn4eKI1D4w/o.jpg", "is_closed": false, "url": "https://www.yelp.com/biz/olive-garden-to-go-and-delivery-available-worcester?adjust_creative=HdhkN5EEH6lAqE3kwhsHEQ&utm_campaign=yelp_api_v3&utm_medium=api_v3_business_search&utm_source=HdhkN5EEH6lAqE3kwhsHEQ", "review_count": 89, "categories": [{"alias": "italian", "title": "Italian"}, {"alias": "salad", "title": "Salad"}, {"alias": "soup", "title": "Soup"}], "rating": 3.0, "coordinates": {"latitude": 42.23163, "longitude": -71.78927}, "transactions": [], "price": "$$", "location": {"address1": "7 Tobias Boland Way", "address2": "", "address3": "", "city": "Worcester", "zip_code": "01607", "country": "US", "state": "MA", "display_address": ["7 Tobias Boland Way", "Worcester, MA 01607"]}, "phone": "+15087555268", "display_phone": "(508) 755-5268", "distance": 11095.98642083548}, {"id": "BUQWiir9z58KTnMhGIRINQ", "alias": "china-sea-worcester", "name": "China Sea", "image_url": "https://s3-media3.fl.yelpcdn.com/bphoto/QVBwTIyGn6ejKm4sxYhyOQ/o.jpg", "is_closed": false, "url": "https://www.yelp.com/biz/china-sea-worcester?adjust_creative=HdhkN5EEH6lAqE3kwhsHEQ&utm_campaign=yelp_api_v3&utm_medium=api_v3_business_search&utm_source=HdhkN5EEH6lAqE3kwhsHEQ", "review_count": 26, "categories": [{"alias": "chinese", "title": "Chinese"}], "rating": 3.5, "coordinates": {"latitude": 42.213142, "longitude": -71.798939}, "transactions": ["delivery"], "price": "$$$", "location": {"address1": "566 SW Cutoff", "address2": "Ste C", "address3": "", "city": "Worcester", "zip_code": "01607", "country": "US", "state": "MA", "display_address": ["566 SW Cutoff", "Ste C", "Worcester, MA 01607"]}, "phone": "+15087918882", "display_phone": "(508) 791-8882", "distance": 9067.31558948884}, {"id": "vo8fRF_8ljHzO0PLBakp6Q", "alias": "the-coffee-mug-auburn", "name": "The Coffee Mug", "image_url": "https://s3-media2.fl.yelpcdn.com/bphoto/aC-7W1zfymM83RdnlWtZlQ/o.jpg", "is_closed": false, "url": "https://www.yelp.com/biz/the-coffee-mug-auburn?adjust_creative=HdhkN5EEH6lAqE3kwhsHEQ&utm_campaign=yelp_api_v3&utm_medium=api_v3_business_search&utm_source=HdhkN5EEH6lAqE3kwhsHEQ", "review_count": 55, "categories": [{"alias": "diners", "title": "Diners"}, {"alias": "breakfast_brunch", "title": "Breakfast & Brunch"}], "rating": 3.5, "coordinates": {"latitude": 42.2091522216797, "longitude": -71.8306427001953}, "transactions": ["delivery"], "price": "$", "location": {"address1": "286 Southbridge St", "address2": "", "address3": "", "city": "Auburn", "zip_code": "01501", "country": "US", "state": "MA", "display_address": ["286 Southbridge St", "Auburn, MA 01501"]}, "phone": "+15088323616", "display_phone": "(508) 832-3616", "distance": 6872.844820110994}, {"id": "a337zkmoaGIJGUApn46wGA", "alias": "d-angelo-natick-2", "name": "D'Angelo", "image_url": "https://s3-media1.fl.yelpcdn.com/bphoto/uS3563JIhI5YPG4UJJNZHw/o.jpg", "is_closed": false, "url": "https://www.yelp.com/biz/d-angelo-natick-2?adjust_creative=HdhkN5EEH6lAqE3kwhsHEQ&utm_campaign=yelp_api_v3&utm_medium=api_v3_business_search&utm_source=HdhkN5EEH6lAqE3kwhsHEQ", "review_count": 2, "categories": [{"alias": "sandwiches", "title": "Sandwiches"}], "rating": 3.0, "coordinates": {"latitude": 42.1565304953665, "longitude": -71.9640567173507}, "transactions": [], "location": {"address1": "117 Mass Turnpike W", "address2": "", "address3": "", "city": "Natick", "zip_code": "02062", "country": "US", "state": "MA", "display_address": ["117 Mass Turnpike W", "Natick, MA 02062"]}, "phone": "+15086552958", "display_phone": "(508) 655-2958", "distance": 6504.947511028639}, {"id": "_u3yG_0NUWIyEriRRbY9dA", "alias": "sisters-restaurant-worcester", "name": "Sisters Restaurant", "image_url": "https://s3-media3.fl.yelpcdn.com/bphoto/EhFi29LFFp2B2LHZMVxP_g/o.jpg", "is_closed": false, "url": "https://www.yelp.com/biz/sisters-restaurant-worcester?adjust_creative=HdhkN5EEH6lAqE3kwhsHEQ&utm_campaign=yelp_api_v3&utm_medium=api_v3_business_search&utm_source=HdhkN5EEH6lAqE3kwhsHEQ", "review_count": 58, "categories": [{"alias": "breakfast_brunch", "title": "Breakfast & Brunch"}], "rating": 4.5, "coordinates": {"latitude": 42.23643, "longitude": -71.84856}, "transactions": ["delivery"], "price": "$", "location": {"address1": "171 Stafford St", "address2": "", "address3": "", "city": "Worcester", "zip_code": "01603", "country": "US", "state": "MA", "display_address": ["171 Stafford St", "Worcester, MA 01603"]}, "phone": "+15087552604", "display_phone": "(508) 755-2604", "distance": 8721.886214411345}, {"id": "-yxssJ0-w3YY3hT2rMxDKA", "alias": "margarita-grill-auburn", "name": "Margarita Grill", "image_url": "https://s3-media4.fl.yelpcdn.com/bphoto/jW7H5WBW8NFlzzAAnDMp9Q/o.jpg", "is_closed": false, "url": "https://www.yelp.com/biz/margarita-grill-auburn?adjust_creative=HdhkN5EEH6lAqE3kwhsHEQ&utm_campaign=yelp_api_v3&utm_medium=api_v3_business_search&utm_source=HdhkN5EEH6lAqE3kwhsHEQ", "review_count": 8, "categories": [{"alias": "mexican", "title": "Mexican"}], "rating": 1.5, "coordinates": {"latitude": 42.182286, "longitude": -71.8608661}, "transactions": [], "price": "$$", "location": {"address1": "10 Prospect St", "address2": "", "address3": "", "city": "Auburn", "zip_code": "01501", "country": "US", "state": "MA", "display_address": ["10 Prospect St", "Auburn, MA 01501"]}, "phone": "+15088322553", "display_phone": "(508) 832-2553", "distance": 2852.876522613335}, {"id": "IwsUFHa8Bdx-yzvltxFxkw", "alias": "anokye-krom-african-american-restaurant-worcester", "name": "Anokye Krom African American Restaurant", "image_url": "https://s3-media3.fl.yelpcdn.com/bphoto/9Ycx_bM25yfA7nNRKCVOrg/o.jpg", "is_closed": false, "url": "https://www.yelp.com/biz/anokye-krom-african-american-restaurant-worcester?adjust_creative=HdhkN5EEH6lAqE3kwhsHEQ&utm_campaign=yelp_api_v3&utm_medium=api_v3_business_search&utm_source=HdhkN5EEH6lAqE3kwhsHEQ", "review_count": 34, "categories": [{"alias": "african", "title": "African"}], "rating": 3.5, "coordinates": {"latitude": 42.23837, "longitude": -71.79799}, "transactions": ["delivery"], "price": "$$", "location": {"address1": "687 Millbury St", "address2": "", "address3": "", "city": "Worcester", "zip_code": "01607", "country": "US", "state": "MA", "display_address": ["687 Millbury St", "Worcester, MA 01607"]}, "phone": "+15087538471", "display_phone": "(508) 753-8471", "distance": 11070.516564241592}, {"id": "cW9IPKZX6E2RUltAKdxy_g", "alias": "heritage-coffee-shoppe-auburn-2", "name": "Heritage Coffee Shoppe", "image_url": "https://s3-media3.fl.yelpcdn.com/bphoto/DWZ77rUWSJuBBUO_rbs24Q/o.jpg", "is_closed": false, "url": "https://www.yelp.com/biz/heritage-coffee-shoppe-auburn-2?adjust_creative=HdhkN5EEH6lAqE3kwhsHEQ&utm_campaign=yelp_api_v3&utm_medium=api_v3_business_search&utm_source=HdhkN5EEH6lAqE3kwhsHEQ", "review_count": 42, "categories": [{"alias": "salad", "title": "Salad"}, {"alias": "breakfast_brunch", "title": "Breakfast & Brunch"}, {"alias": "sandwiches", "title": "Sandwiches"}], "rating": 3.0, "coordinates": {"latitude": 42.19112, "longitude": -71.84465}, "transactions": ["delivery"], "price": "$$", "location": {"address1": "567 Southbridge St", "address2": "", "address3": "", "city": "Auburn", "zip_code": "01501", "country": "US", "state": "MA", "display_address": ["567 Southbridge St", "Auburn, MA 01501"]}, "phone": "+15088329297", "display_phone": "(508) 832-9297", "distance": 4598.347866065946}, {"id": "CiP70-iF4QaBAd7ItObY5Q", "alias": "papa-ginos-pizzeria-auburn-2", "name": "Papa Gino's Pizzeria", "image_url": "https://s3-media2.fl.yelpcdn.com/bphoto/TlXDZZXzi-mhLUqq86-PZw/o.jpg", "is_closed": false, "url": "https://www.yelp.com/biz/papa-ginos-pizzeria-auburn-2?adjust_creative=HdhkN5EEH6lAqE3kwhsHEQ&utm_campaign=yelp_api_v3&utm_medium=api_v3_business_search&utm_source=HdhkN5EEH6lAqE3kwhsHEQ", "review_count": 17, "categories": [{"alias": "pizza", "title": "Pizza"}], "rating": 3.0, "coordinates": {"latitude": 42.19868, "longitude": -71.84153}, "transactions": ["delivery"], "price": "$", "location": {"address1": "459 Southbridge St", "address2": "", "address3": "", "city": "Auburn", "zip_code": "01501", "country": "US", "state": "MA", "display_address": ["459 Southbridge St", "Auburn, MA 01501"]}, "phone": "+15088326583", "display_phone": "(508) 832-6583", "distance": 5387.928966844601}, {"id": "rMDu31LazmoZeQUkdn8-4g", "alias": "new-england-pizza-oxford-2", "name": "New England Pizza", "image_url": "", "is_closed": false, "url": "https://www.yelp.com/biz/new-england-pizza-oxford-2?adjust_creative=HdhkN5EEH6lAqE3kwhsHEQ&utm_campaign=yelp_api_v3&utm_medium=api_v3_business_search&utm_source=HdhkN5EEH6lAqE3kwhsHEQ", "review_count": 5, "categories": [{"alias": "salad", "title": "Salad"}, {"alias": "pizza", "title": "Pizza"}], "rating": 3.0, "coordinates": {"latitude": 42.1169451624155, "longitude": -71.8653421103954}, "transactions": [], "price": "$$", "location": {"address1": "4 Charlton St", "address2": "", "address3": "", "city": "Oxford", "zip_code": "01540", "country": "US", "state": "MA", "display_address": ["4 Charlton St", "Oxford, MA 01540"]}, "phone": "+15089871999", "display_phone": "(508) 987-1999", "distance": 5345.5110002627025}, {"id": "TWIAviiZtMlhFIZoOELwRA", "alias": "palace-pizza-worcester", "name": "Palace Pizza", "image_url": "https://s3-media1.fl.yelpcdn.com/bphoto/Z9pPFqBy1b1XZ8_SO9nuOQ/o.jpg", "is_closed": false, "url": "https://www.yelp.com/biz/palace-pizza-worcester?adjust_creative=HdhkN5EEH6lAqE3kwhsHEQ&utm_campaign=yelp_api_v3&utm_medium=api_v3_business_search&utm_source=HdhkN5EEH6lAqE3kwhsHEQ", "review_count": 38, "categories": [{"alias": "pizza", "title": "Pizza"}, {"alias": "italian", "title": "Italian"}, {"alias": "salad", "title": "Salad"}], "rating": 4.0, "coordinates": {"latitude": 42.23131, "longitude": -71.81881}, "transactions": ["delivery"], "price": "$", "location": {"address1": "1032 Southbridge St", "address2": "", "address3": "", "city": "Worcester", "zip_code": "01610", "country": "US", "state": "MA", "display_address": ["1032 Southbridge St", "Worcester, MA 01610"]}, "phone": "+15087926222", "display_phone": "(508) 792-6222", "distance": 9388.130442498717}, {"id": "EFpZHYF6TjVrXTXaWzjQ7A", "alias": "family-house-of-pizza-and-seafood-charlton", "name": "Family House of Pizza & Seafood", "image_url": "https://s3-media3.fl.yelpcdn.com/bphoto/Iz30Dowh5etAodvEKZrpdQ/o.jpg", "is_closed": false, "url": "https://www.yelp.com/biz/family-house-of-pizza-and-seafood-charlton?adjust_creative=HdhkN5EEH6lAqE3kwhsHEQ&utm_campaign=yelp_api_v3&utm_medium=api_v3_business_search&utm_source=HdhkN5EEH6lAqE3kwhsHEQ", "review_count": 10, "categories": [{"alias": "seafood", "title": "Seafood"}], "rating": 2.5, "coordinates": {"latitude": 42.1375465393066, "longitude": -71.9712905883789}, "transactions": ["delivery"], "price": "$$", "location": {"address1": "105 Masonic Home Rd", "address2": "", "address3": "", "city": "Charlton", "zip_code": "01507", "country": "US", "state": "MA", "display_address": ["105 Masonic Home Rd", "Charlton, MA 01507"]}, "phone": "+15082480666", "display_phone": "(508) 248-0666", "distance": 7608.897405597889}, {"id": "ufrdyLOqcs0rJ9O6f1sxvA", "alias": "dairy-express-oxford", "name": "Dairy Express", "image_url": "https://s3-media2.fl.yelpcdn.com/bphoto/KYvb8_dmYP5XAiwcM5e8fQ/o.jpg", "is_closed": false, "url": "https://www.yelp.com/biz/dairy-express-oxford?adjust_creative=HdhkN5EEH6lAqE3kwhsHEQ&utm_campaign=yelp_api_v3&utm_medium=api_v3_business_search&utm_source=HdhkN5EEH6lAqE3kwhsHEQ", "review_count": 13, "categories": [{"alias": "pizza", "title": "Pizza"}, {"alias": "seafood", "title": "Seafood"}, {"alias": "icecream", "title": "Ice Cream & Frozen Yogurt"}], "rating": 3.0, "coordinates": {"latitude": 42.117153, "longitude": -71.864334}, "transactions": ["delivery"], "price": "$", "location": {"address1": "2 Sutton Ave", "address2": "", "address3": "", "city": "Oxford", "zip_code": "01540", "country": "US", "state": "MA", "display_address": ["2 Sutton Ave", "Oxford, MA 01540"]}, "phone": "+15089871151", "display_phone": "(508) 987-1151", "distance": 5372.518709395911}, {"id": "m_pzXAuoGKp8uxbwNZr9Wg", "alias": "wendys-auburn", "name": "Wendy's", "image_url": "https://s3-media4.fl.yelpcdn.com/bphoto/CRl-k9ll3KVjfA5FX_ROSg/o.jpg", "is_closed": false, "url": "https://www.yelp.com/biz/wendys-auburn?adjust_creative=HdhkN5EEH6lAqE3kwhsHEQ&utm_campaign=yelp_api_v3&utm_medium=api_v3_business_search&utm_source=HdhkN5EEH6lAqE3kwhsHEQ", "review_count": 18, "categories": [{"alias": "burgers", "title": "Burgers"}, {"alias": "hotdogs", "title": "Fast Food"}], "rating": 2.5, "coordinates": {"latitude": 42.18441, "longitude": -71.85793}, "transactions": ["delivery"], "price": "$", "location": {"address1": "688 South Bridge Street", "address2": "", "address3": "", "city": "Auburn", "zip_code": "01501", "country": "US", "state": "MA", "display_address": ["688 South Bridge Street", "Auburn, MA 01501"]}, "phone": "+15088329830", "display_phone": "(508) 832-9830", "distance": 3253.7055276760743}, {"id": "xbzt3HZHX6qJuEMZcrMWqg", "alias": "the-original-village-pizza-worcester", "name": "The Original Village Pizza", "image_url": "https://s3-media2.fl.yelpcdn.com/bphoto/rafNyOnwxRxPMTjIEPf20Q/o.jpg", "is_closed": false, "url": "https://www.yelp.com/biz/the-original-village-pizza-worcester?adjust_creative=HdhkN5EEH6lAqE3kwhsHEQ&utm_campaign=yelp_api_v3&utm_medium=api_v3_business_search&utm_source=HdhkN5EEH6lAqE3kwhsHEQ", "review_count": 32, "categories": [{"alias": "pizza", "title": "Pizza"}, {"alias": "sandwiches", "title": "Sandwiches"}], "rating": 4.0, "coordinates": {"latitude": 42.230087, "longitude": -71.793365}, "transactions": ["delivery"], "price": "$", "location": {"address1": "50 Greenwood St", "address2": null, "address3": "", "city": "Worcester", "zip_code": "01607", "country": "US", "state": "MA", "display_address": ["50 Greenwood St", "Worcester, MA 01607"]}, "phone": "+15089268383", "display_phone": "(508) 926-8383", "distance": 10657.13186930207}, {"id": "LfGNiYd7Bdpt1np7DKYDyw", "alias": "dresser-hills-clam-box-charlton", "name": "Dresser Hill's Clam Box", "image_url": "https://s3-media3.fl.yelpcdn.com/bphoto/czkfVQ39jYuRaabjsCaBmw/o.jpg", "is_closed": false, "url": "https://www.yelp.com/biz/dresser-hills-clam-box-charlton?adjust_creative=HdhkN5EEH6lAqE3kwhsHEQ&utm_campaign=yelp_api_v3&utm_medium=api_v3_business_search&utm_source=HdhkN5EEH6lAqE3kwhsHEQ", "review_count": 30, "categories": [{"alias": "seafood", "title": "Seafood"}, {"alias": "icecream", "title": "Ice Cream & Frozen Yogurt"}, {"alias": "hotdog", "title": "Hot Dogs"}], "rating": 2.5, "coordinates": {"latitude": 42.09208, "longitude": -71.97001}, "transactions": ["delivery"], "price": "$$", "location": {"address1": "290 Dresser Hill Rd", "address2": "", "address3": "", "city": "Charlton", "zip_code": "01507", "country": "US", "state": "MA", "display_address": ["290 Dresser Hill Rd", "Charlton, MA 01507"]}, "phone": "+15082487870", "display_phone": "(508) 248-7870", "distance": 10510.681869800184}, {"id": "_9jZKvap7IfPL31Y5jsVDA", "alias": "wayback-burgers-worcester-2", "name": "Wayback Burgers", "image_url": "https://s3-media3.fl.yelpcdn.com/bphoto/GLXMmpRc43rBPutxOEoIGg/o.jpg", "is_closed": false, "url": "https://www.yelp.com/biz/wayback-burgers-worcester-2?adjust_creative=HdhkN5EEH6lAqE3kwhsHEQ&utm_campaign=yelp_api_v3&utm_medium=api_v3_business_search&utm_source=HdhkN5EEH6lAqE3kwhsHEQ", "review_count": 54, "categories": [{"alias": "burgers", "title": "Burgers"}, {"alias": "tradamerican", "title": "American (Traditional)"}, {"alias": "hotdog", "title": "Hot Dogs"}], "rating": 3.5, "coordinates": {"latitude": 42.2323298, "longitude": -71.7889595}, "transactions": ["delivery", "pickup"], "price": "$$", "location": {"address1": "11 Tobias Boland Way", "address2": "", "address3": "", "city": "Worcester", "zip_code": "01607", "country": "US", "state": "MA", "display_address": ["11 Tobias Boland Way", "Worcester, MA 01607"]}, "phone": "+15087559300", "display_phone": "(508) 755-9300", "distance": 11091.168743989425}, {"id": "emrPq2DHSPdONufWqv3z8w", "alias": "kfc-auburn-11", "name": "KFC", "image_url": "https://s3-media4.fl.yelpcdn.com/bphoto/3h60bWikbWp9K64hzXxGEQ/o.jpg", "is_closed": false, "url": "https://www.yelp.com/biz/kfc-auburn-11?adjust_creative=HdhkN5EEH6lAqE3kwhsHEQ&utm_campaign=yelp_api_v3&utm_medium=api_v3_business_search&utm_source=HdhkN5EEH6lAqE3kwhsHEQ", "review_count": 6, "categories": [{"alias": "hotdogs", "title": "Fast Food"}, {"alias": "chicken_wings", "title": "Chicken Wings"}, {"alias": "chickenshop", "title": "Chicken Shop"}], "rating": 1.0, "coordinates": {"latitude": 42.1798288425248, "longitude": -71.8704731801768}, "transactions": [], "price": "$", "location": {"address1": "820 Southbridge St", "address2": "", "address3": "", "city": "Auburn", "zip_code": "01501", "country": "US", "state": "MA", "display_address": ["820 Southbridge St", "Auburn, MA 01501"]}, "phone": "+15088325943", "display_phone": "(508) 832-5943", "distance": 2259.562004113074}, {"id": "26zyRG-ioe5nUAWwEMwAlQ", "alias": "burger-king-auburn", "name": "Burger King", "image_url": "https://s3-media2.fl.yelpcdn.com/bphoto/gihqYjnQFNo5x-VaMEXH-Q/o.jpg", "is_closed": false, "url": "https://www.yelp.com/biz/burger-king-auburn?adjust_creative=HdhkN5EEH6lAqE3kwhsHEQ&utm_campaign=yelp_api_v3&utm_medium=api_v3_business_search&utm_source=HdhkN5EEH6lAqE3kwhsHEQ", "review_count": 12, "categories": [{"alias": "hotdogs", "title": "Fast Food"}, {"alias": "burgers", "title": "Burgers"}], "rating": 1.5, "coordinates": {"latitude": 42.17866, "longitude": -71.87205}, "transactions": ["delivery"], "price": "$", "location": {"address1": "830 Southbridge Street", "address2": "", "address3": "", "city": "Auburn", "zip_code": "01501", "country": "US", "state": "MA", "display_address": ["830 Southbridge Street", "Auburn, MA 01501"]}, "phone": "", "display_phone": "", "distance": 2070.9765115947393}, {"id": "DOSpqS6n4EqOugzdli-pkQ", "alias": "uncle-marks-auburn", "name": "Uncle Mark's", "image_url": "https://s3-media1.fl.yelpcdn.com/bphoto/hw7WPCIroive_J67x-nlpg/o.jpg", "is_closed": false, "url": "https://www.yelp.com/biz/uncle-marks-auburn?adjust_creative=HdhkN5EEH6lAqE3kwhsHEQ&utm_campaign=yelp_api_v3&utm_medium=api_v3_business_search&utm_source=HdhkN5EEH6lAqE3kwhsHEQ", "review_count": 13, "categories": [{"alias": "diners", "title": "Diners"}, {"alias": "breakfast_brunch", "title": "Breakfast & Brunch"}, {"alias": "coffee", "title": "Coffee & Tea"}], "rating": 3.5, "coordinates": {"latitude": 42.212832, "longitude": -71.8007952}, "transactions": [], "price": "$", "location": {"address1": "17 Washington St", "address2": "", "address3": "", "city": "Auburn", "zip_code": "01501", "country": "US", "state": "MA", "display_address": ["17 Washington St", "Auburn, MA 01501"]}, "phone": "+15087552860", "display_phone": "(508) 755-2860", "distance": 8925.905770888381}, {"id": "80yK3Vu4KM6Lrugp3FDL0Q", "alias": "paradise-pizza-worcester", "name": "Paradise Pizza", "image_url": "", "is_closed": false, "url": "https://www.yelp.com/biz/paradise-pizza-worcester?adjust_creative=HdhkN5EEH6lAqE3kwhsHEQ&utm_campaign=yelp_api_v3&utm_medium=api_v3_business_search&utm_source=HdhkN5EEH6lAqE3kwhsHEQ", "review_count": 17, "categories": [{"alias": "pizza", "title": "Pizza"}], "rating": 4.0, "coordinates": {"latitude": 42.230687, "longitude": -71.849688}, "transactions": ["delivery"], "price": "$", "location": {"address1": "60 S Ludlow St", "address2": "", "address3": "", "city": "Worcester", "zip_code": "01603", "country": "US", "state": "MA", "display_address": ["60 S Ludlow St", "Worcester, MA 01603"]}, "phone": "+15087556820", "display_phone": "(508) 755-6820", "distance": 8099.237675424028}, {"id": "GevCzGJJNY7wggXDp-bdkg", "alias": "d-angelo-sandwich-shops-charlton", "name": "D'Angelo Sandwich Shops", "image_url": "https://s3-media2.fl.yelpcdn.com/bphoto/DOv0KrDMhZbPlp_qQIypuw/o.jpg", "is_closed": false, "url": "https://www.yelp.com/biz/d-angelo-sandwich-shops-charlton?adjust_creative=HdhkN5EEH6lAqE3kwhsHEQ&utm_campaign=yelp_api_v3&utm_medium=api_v3_business_search&utm_source=HdhkN5EEH6lAqE3kwhsHEQ", "review_count": 4, "categories": [{"alias": "sandwiches", "title": "Sandwiches"}], "rating": 2.0, "coordinates": {"latitude": 42.158604, "longitude": -71.965294}, "transactions": [], "location": {"address1": "Mass Pike Westbound", "address2": "", "address3": "", "city": "Charlton", "zip_code": "01507", "country": "US", "state": "MA", "display_address": ["Mass Pike Westbound", "Charlton, MA 01507"]}, "phone": "+15082485216", "display_phone": "(508) 248-5216", "distance": 6585.569745191699}, {"id": "8KaYZfZlMvOTAKefV27s0Q", "alias": "golden-pizza-in-auburn-auburn", "name": "Golden Pizza In Auburn", "image_url": "", "is_closed": false, "url": "https://www.yelp.com/biz/golden-pizza-in-auburn-auburn?adjust_creative=HdhkN5EEH6lAqE3kwhsHEQ&utm_campaign=yelp_api_v3&utm_medium=api_v3_business_search&utm_source=HdhkN5EEH6lAqE3kwhsHEQ", "review_count": 13, "categories": [{"alias": "pizza", "title": "Pizza"}], "rating": 2.5, "coordinates": {"latitude": 42.2038307189941, "longitude": -71.831901550293}, "transactions": ["delivery"], "price": "$", "location": {"address1": "20 Auburn St", "address2": "", "address3": "", "city": "Auburn", "zip_code": "01501", "country": "US", "state": "MA", "display_address": ["20 Auburn St", "Auburn, MA 01501"]}, "phone": "+15087211271", "display_phone": "(508) 721-1271", "distance": 6368.335564398008}, {"id": "dRry03LTJJuUwUMXbUX0TQ", "alias": "arbys-auburn-8", "name": "Arby's", "image_url": "https://s3-media3.fl.yelpcdn.com/bphoto/7zduACxJYV1RzaaBhqHJdA/o.jpg", "is_closed": false, "url": "https://www.yelp.com/biz/arbys-auburn-8?adjust_creative=HdhkN5EEH6lAqE3kwhsHEQ&utm_campaign=yelp_api_v3&utm_medium=api_v3_business_search&utm_source=HdhkN5EEH6lAqE3kwhsHEQ", "review_count": 18, "categories": [{"alias": "hotdogs", "title": "Fast Food"}, {"alias": "sandwiches", "title": "Sandwiches"}], "rating": 3.5, "coordinates": {"latitude": 42.202926, "longitude": -71.838554}, "transactions": [], "price": "$", "location": {"address1": "406 Southbridge St", "address2": "", "address3": "", "city": "Auburn", "zip_code": "01501", "country": "US", "state": "MA", "display_address": ["406 Southbridge St", "Auburn, MA 01501"]}, "phone": "+15088329764", "display_phone": "(508) 832-9764", "distance": 5896.690559084347}, {"id": "tvRhb4dXverm3watzDLtGw", "alias": "fresh-city-charlton-2", "name": "Fresh City", "image_url": "https://s3-media1.fl.yelpcdn.com/bphoto/qwDfueXdJ_j9rEKdRCaAVQ/o.jpg", "is_closed": false, "url": "https://www.yelp.com/biz/fresh-city-charlton-2?adjust_creative=HdhkN5EEH6lAqE3kwhsHEQ&utm_campaign=yelp_api_v3&utm_medium=api_v3_business_search&utm_source=HdhkN5EEH6lAqE3kwhsHEQ", "review_count": 14, "categories": [{"alias": "delis", "title": "Delis"}, {"alias": "sandwiches", "title": "Sandwiches"}], "rating": 1.5, "coordinates": {"latitude": 42.156434463791, "longitude": -71.9642174128566}, "transactions": [], "price": "$", "location": {"address1": "Massachusetts Turnpike", "address2": "", "address3": "", "city": "Charlton", "zip_code": "01508", "country": "US", "state": "MA", "display_address": ["Massachusetts Turnpike", "Charlton, MA 01508"]}, "phone": "+15082480663", "display_phone": "(508) 248-0663", "distance": 6519.285566115563}, {"id": "lfA4CC_m7K1eE0Hg9dcABQ", "alias": "dominos-pizza-auburn-15", "name": "Domino's Pizza", "image_url": "https://s3-media1.fl.yelpcdn.com/bphoto/Bqvj5P4ouZQMkdxnRGqX3w/o.jpg", "is_closed": false, "url": "https://www.yelp.com/biz/dominos-pizza-auburn-15?adjust_creative=HdhkN5EEH6lAqE3kwhsHEQ&utm_campaign=yelp_api_v3&utm_medium=api_v3_business_search&utm_source=HdhkN5EEH6lAqE3kwhsHEQ", "review_count": 2, "categories": [{"alias": "pizza", "title": "Pizza"}, {"alias": "chicken_wings", "title": "Chicken Wings"}, {"alias": "sandwiches", "title": "Sandwiches"}], "rating": 4.0, "coordinates": {"latitude": 42.182255, "longitude": -71.859452}, "transactions": [], "location": {"address1": "711 Southbridge St", "address2": null, "address3": "", "city": "Auburn", "zip_code": "01501", "country": "US", "state": "MA", "display_address": ["711 Southbridge St", "Auburn, MA 01501"]}, "phone": "+15089363030", "display_phone": "(508) 936-3030", "distance": 3040.3624137176575}, {"id": "46JoUmJKjGhiCpsB9Dy-Kg", "alias": "taco-bell-auburn-14", "name": "Taco Bell", "image_url": "https://s3-media3.fl.yelpcdn.com/bphoto/_NrWwdB7l-kXsSDMmhlwuQ/o.jpg", "is_closed": false, "url": "https://www.yelp.com/biz/taco-bell-auburn-14?adjust_creative=HdhkN5EEH6lAqE3kwhsHEQ&utm_campaign=yelp_api_v3&utm_medium=api_v3_business_search&utm_source=HdhkN5EEH6lAqE3kwhsHEQ", "review_count": 15, "categories": [{"alias": "hotdogs", "title": "Fast Food"}, {"alias": "tacos", "title": "Tacos"}], "rating": 2.5, "coordinates": {"latitude": 42.179, "longitude": -71.87115}, "transactions": ["delivery"], "price": "$", "location": {"address1": "820 Southbridge St.", "address2": "", "address3": "", "city": "Auburn", "zip_code": "01501", "country": "US", "state": "MA", "display_address": ["820 Southbridge St.", "Auburn, MA 01501"]}, "phone": "+15088325943", "display_phone": "(508) 832-5943", "distance": 2151.9314495689578}, {"id": "LtCwcvjmjXvEYnjnPtkNoA", "alias": "mcdonalds-charlton-8", "name": "McDonald's", "image_url": "https://s3-media1.fl.yelpcdn.com/bphoto/_kT0RkE8Ml38lP5xNfSOxA/o.jpg", "is_closed": false, "url": "https://www.yelp.com/biz/mcdonalds-charlton-8?adjust_creative=HdhkN5EEH6lAqE3kwhsHEQ&utm_campaign=yelp_api_v3&utm_medium=api_v3_business_search&utm_source=HdhkN5EEH6lAqE3kwhsHEQ", "review_count": 24, "categories": [{"alias": "hotdogs", "title": "Fast Food"}, {"alias": "burgers", "title": "Burgers"}, {"alias": "coffee", "title": "Coffee & Tea"}], "rating": 1.5, "coordinates": {"latitude": 42.15299, "longitude": -71.97941}, "transactions": [], "price": "$", "location": {"address1": "Mass Pike I-90 Service Area Milepost 89", "address2": null, "address3": null, "city": "Charlton", "zip_code": "01507", "country": "US", "state": "MA", "display_address": ["Mass Pike I-90 Service Area Milepost 89", "Charlton, MA 01507"]}, "phone": "+15082486788", "display_phone": "(508) 248-6788", "distance": 6534.251691822287}, {"id": "BU6RpebYFrKuP8xfwXRubg", "alias": "franks-franks-auburn", "name": "Frank'S Franks", "image_url": "https://s3-media4.fl.yelpcdn.com/bphoto/c-KZD08a_4u9QaqoupEdlg/o.jpg", "is_closed": false, "url": "https://www.yelp.com/biz/franks-franks-auburn?adjust_creative=HdhkN5EEH6lAqE3kwhsHEQ&utm_campaign=yelp_api_v3&utm_medium=api_v3_business_search&utm_source=HdhkN5EEH6lAqE3kwhsHEQ", "review_count": 1, "categories": [{"alias": "newamerican", "title": "American (New)"}], "rating": 2.0, "coordinates": {"latitude": 42.1749534606934, "longitude": -71.8760375976562}, "transactions": [], "price": "$", "location": {"address1": "879-889 Southbridge Rd", "address2": "", "address3": "", "city": "Auburn", "zip_code": "01501", "country": "US", "state": "MA", "display_address": ["879-889 Southbridge Rd", "Auburn, MA 01501"]}, "phone": "", "display_phone": "", "distance": 1556.644123662041}, {"id": "nc7LALtOrsW0Yla6mpKKLw", "alias": "mcdonalds-auburn-8", "name": "McDonald's", "image_url": "https://s3-media4.fl.yelpcdn.com/bphoto/F9gpQGQbUg-XT6DTJuzi3g/o.jpg", "is_closed": false, "url": "https://www.yelp.com/biz/mcdonalds-auburn-8?adjust_creative=HdhkN5EEH6lAqE3kwhsHEQ&utm_campaign=yelp_api_v3&utm_medium=api_v3_business_search&utm_source=HdhkN5EEH6lAqE3kwhsHEQ", "review_count": 14, "categories": [{"alias": "burgers", "title": "Burgers"}, {"alias": "hotdogs", "title": "Fast Food"}, {"alias": "coffee", "title": "Coffee & Tea"}], "rating": 3.5, "coordinates": {"latitude": 42.2083487, "longitude": -71.8351756}, "transactions": ["delivery"], "price": "$", "location": {"address1": "72 Auburn St", "address2": null, "address3": null, "city": "Auburn", "zip_code": "01501", "country": "US", "state": "MA", "display_address": ["72 Auburn St", "Auburn, MA 01501"]}, "phone": "+15088323744", "display_phone": "(508) 832-3744", "distance": 6565.816213438437}, {"id": "HkZzTRJqfeRTC41hLFdoNw", "alias": "subway-worcester-35", "name": "Subway", "image_url": "https://s3-media3.fl.yelpcdn.com/bphoto/9hCRrKY5WB6Z0v71SidEbQ/o.jpg", "is_closed": false, "url": "https://www.yelp.com/biz/subway-worcester-35?adjust_creative=HdhkN5EEH6lAqE3kwhsHEQ&utm_campaign=yelp_api_v3&utm_medium=api_v3_business_search&utm_source=HdhkN5EEH6lAqE3kwhsHEQ", "review_count": 3, "categories": [{"alias": "sandwiches", "title": "Sandwiches"}], "rating": 3.5, "coordinates": {"latitude": 42.233324, "longitude": -71.791581}, "transactions": [], "price": "$", "location": {"address1": "25 Tobias Boland Way", "address2": "", "address3": "", "city": "Worcester", "zip_code": "01607", "country": "US", "state": "MA", "display_address": ["25 Tobias Boland Way", "Worcester, MA 01607"]}, "phone": "+15087548590", "display_phone": "(508) 754-8590", "distance": 11015.47957471671}, {"id": "A-4jFO13I-KD-96u1KtdVA", "alias": "northeast-pizza-worcester", "name": "Northeast Pizza", "image_url": "https://s3-media2.fl.yelpcdn.com/bphoto/vdK5JY6gmacYlxacVyJyxA/o.jpg", "is_closed": false, "url": "https://www.yelp.com/biz/northeast-pizza-worcester?adjust_creative=HdhkN5EEH6lAqE3kwhsHEQ&utm_campaign=yelp_api_v3&utm_medium=api_v3_business_search&utm_source=HdhkN5EEH6lAqE3kwhsHEQ", "review_count": 25, "categories": [{"alias": "pizza", "title": "Pizza"}, {"alias": "sandwiches", "title": "Sandwiches"}], "rating": 2.5, "coordinates": {"latitude": 42.2296486, "longitude": -71.8355865}, "transactions": ["delivery"], "price": "$", "location": {"address1": "267 Webster St", "address2": "", "address3": "", "city": "Worcester", "zip_code": "01603", "country": "US", "state": "MA", "display_address": ["267 Webster St", "Worcester, MA 01603"]}, "phone": "+15087983111", "display_phone": "(508) 798-3111", "distance": 8497.065431216053}, {"id": "9abOmbhk9AlllXYOqStwOQ", "alias": "subway-worcester-29", "name": "Subway", "image_url": "https://s3-media2.fl.yelpcdn.com/bphoto/IhgX7aTs86-2siaNCU0fJw/o.jpg", "is_closed": false, "url": "https://www.yelp.com/biz/subway-worcester-29?adjust_creative=HdhkN5EEH6lAqE3kwhsHEQ&utm_campaign=yelp_api_v3&utm_medium=api_v3_business_search&utm_source=HdhkN5EEH6lAqE3kwhsHEQ", "review_count": 2, "categories": [{"alias": "sandwiches", "title": "Sandwiches"}], "rating": 2.0, "coordinates": {"latitude": 42.237795, "longitude": -71.792819}, "transactions": ["delivery", "pickup"], "price": "$", "location": {"address1": "280 Providence St", "address2": null, "address3": null, "city": "Worcester", "zip_code": "01607", "country": "US", "state": "MA", "display_address": ["280 Providence St", "Worcester, MA 01607"]}, "phone": "+15084595797", "display_phone": "(508) 459-5797", "distance": 11299.510713485468}, {"id": "kNxcxjYk1c3IpxXZ6OmG-g", "alias": "mcdonalds-oxford-10", "name": "McDonald's", "image_url": "https://s3-media2.fl.yelpcdn.com/bphoto/kWJAImPOxo0zzr73sWxO7w/o.jpg", "is_closed": false, "url": "https://www.yelp.com/biz/mcdonalds-oxford-10?adjust_creative=HdhkN5EEH6lAqE3kwhsHEQ&utm_campaign=yelp_api_v3&utm_medium=api_v3_business_search&utm_source=HdhkN5EEH6lAqE3kwhsHEQ", "review_count": 9, "categories": [{"alias": "burgers", "title": "Burgers"}, {"alias": "hotdogs", "title": "Fast Food"}, {"alias": "coffee", "title": "Coffee & Tea"}], "rating": 3.0, "coordinates": {"latitude": 42.1170527832476, "longitude": -71.8599253892899}, "transactions": [], "price": "$", "location": {"address1": "26 A Sutton Ave", "address2": "", "address3": "", "city": "Oxford", "zip_code": "01540", "country": "US", "state": "MA", "display_address": ["26 A Sutton Ave", "Oxford, MA 01540"]}, "phone": "+15089872047", "display_phone": "(508) 987-2047", "distance": 5518.426055799401}, {"id": "l7ptvyuJXYxJisg_s6ztJg", "alias": "subway-worcester-36", "name": "Subway", "image_url": "https://s3-media1.fl.yelpcdn.com/bphoto/_tvjXIXtkzeu-wfj0RFY4g/o.jpg", "is_closed": false, "url": "https://www.yelp.com/biz/subway-worcester-36?adjust_creative=HdhkN5EEH6lAqE3kwhsHEQ&utm_campaign=yelp_api_v3&utm_medium=api_v3_business_search&utm_source=HdhkN5EEH6lAqE3kwhsHEQ", "review_count": 4, "categories": [{"alias": "sandwiches", "title": "Sandwiches"}], "rating": 2.0, "coordinates": {"latitude": 42.213152490052, "longitude": -71.7988515889549}, "transactions": ["delivery", "pickup"], "price": "$", "location": {"address1": "545 SW Cutoff", "address2": "Unit 1", "address3": null, "city": "Worcester", "zip_code": "01607", "country": "US", "state": "MA", "display_address": ["545 SW Cutoff", "Unit 1", "Worcester, MA 01607"]}, "phone": "+15083634001", "display_phone": "(508) 363-4001", "distance": 9073.705947958375}, {"id": "8-OIHA8eQcsC_p4ttdzcqQ", "alias": "wendys-worcester-2", "name": "Wendy's", "image_url": "https://s3-media3.fl.yelpcdn.com/bphoto/8aZ0mgBpNmH_n9i-F6bpTQ/o.jpg", "is_closed": false, "url": "https://www.yelp.com/biz/wendys-worcester-2?adjust_creative=HdhkN5EEH6lAqE3kwhsHEQ&utm_campaign=yelp_api_v3&utm_medium=api_v3_business_search&utm_source=HdhkN5EEH6lAqE3kwhsHEQ", "review_count": 14, "categories": [{"alias": "burgers", "title": "Burgers"}, {"alias": "hotdogs", "title": "Fast Food"}], "rating": 1.5, "coordinates": {"latitude": 42.21249, "longitude": -71.7969}, "transactions": ["delivery"], "price": "$", "location": {"address1": "560 Southwest Cutoff", "address2": "", "address3": "", "city": "Worcester", "zip_code": "01607", "country": "US", "state": "MA", "display_address": ["560 Southwest Cutoff", "Worcester, MA 01607"]}, "phone": "+15087931601", "display_phone": "(508) 793-1601", "distance": 9146.276153159812}, {"id": "QRYb653_lWE9Hf1KlzykNg", "alias": "mcdonalds-charlton-7", "name": "McDonald's", "image_url": "https://s3-media4.fl.yelpcdn.com/bphoto/KuCRqa0z50L4TM1QrE6L8A/o.jpg", "is_closed": false, "url": "https://www.yelp.com/biz/mcdonalds-charlton-7?adjust_creative=HdhkN5EEH6lAqE3kwhsHEQ&utm_campaign=yelp_api_v3&utm_medium=api_v3_business_search&utm_source=HdhkN5EEH6lAqE3kwhsHEQ", "review_count": 9, "categories": [{"alias": "hotdogs", "title": "Fast Food"}, {"alias": "burgers", "title": "Burgers"}, {"alias": "coffee", "title": "Coffee & Tea"}], "rating": 1.5, "coordinates": {"latitude": 42.15299, "longitude": -71.97941}, "transactions": [], "price": "$", "location": {"address1": "Mass Pike I-90 Service Area Eastbound", "address2": "", "address3": "", "city": "Charlton", "zip_code": "01508", "country": "US", "state": "MA", "display_address": ["Mass Pike I-90 Service Area Eastbound", "Charlton, MA 01508"]}, "phone": "+15082480517", "display_phone": "(508) 248-0517", "distance": 8616.81581200074}, {"id": "W84Be-TGzND8-MIfmwT8ow", "alias": "mcdonalds-charlton-2", "name": "McDonald's", "image_url": "https://s3-media4.fl.yelpcdn.com/bphoto/Pffw3GCKc7MDT7_30eHitA/o.jpg", "is_closed": false, "url": "https://www.yelp.com/biz/mcdonalds-charlton-2?adjust_creative=HdhkN5EEH6lAqE3kwhsHEQ&utm_campaign=yelp_api_v3&utm_medium=api_v3_business_search&utm_source=HdhkN5EEH6lAqE3kwhsHEQ", "review_count": 11, "categories": [{"alias": "hotdogs", "title": "Fast Food"}, {"alias": "burgers", "title": "Burgers"}, {"alias": "coffee", "title": "Coffee & Tea"}], "rating": 2.0, "coordinates": {"latitude": 42.145532, "longitude": -71.9873243}, "transactions": [], "price": "$", "location": {"address1": "38 Worcester Rd", "address2": "", "address3": "", "city": "Charlton", "zip_code": "01507", "country": "US", "state": "MA", "display_address": ["38 Worcester Rd", "Charlton, MA 01507"]}, "phone": "+15082487040", "display_phone": "(508) 248-7040", "distance": 8614.485204986127}, {"id": "hR8Hqsc0iih2VAXGVqddTw", "alias": "mcdonalds-worcester-4", "name": "McDonald's", "image_url": "https://s3-media1.fl.yelpcdn.com/bphoto/RUxgF8BmTOmKYKEqb2aTdw/o.jpg", "is_closed": false, "url": "https://www.yelp.com/biz/mcdonalds-worcester-4?adjust_creative=HdhkN5EEH6lAqE3kwhsHEQ&utm_campaign=yelp_api_v3&utm_medium=api_v3_business_search&utm_source=HdhkN5EEH6lAqE3kwhsHEQ", "review_count": 14, "categories": [{"alias": "hotdogs", "title": "Fast Food"}, {"alias": "burgers", "title": "Burgers"}, {"alias": "coffee", "title": "Coffee & Tea"}], "rating": 2.0, "coordinates": {"latitude": 42.21132, "longitude": -71.79593}, "transactions": ["delivery"], "price": "$", "location": {"address1": "529 SW Cutoff", "address2": "", "address3": "", "city": "Worcester", "zip_code": "01607", "country": "US", "state": "MA", "display_address": ["529 SW Cutoff", "Worcester, MA 01607"]}, "phone": "+15087521097", "display_phone": "(508) 752-1097", "distance": 9148.5086963772}]