[{"id": "KvDsKP3pvTjryvkzyibs-Q", "alias": "cantina-229-new-marlborough", "name": "Cantina 229", "image_url": "https://s3-media3.fl.yelpcdn.com/bphoto/Hw1Rq3WEBuXL4bUR_0T4hQ/o.jpg", "is_closed": false, "url": "https://www.yelp.com/biz/cantina-229-new-marlborough?adjust_creative=ywY5UnLZrNrRl2b93Ruy_g&utm_campaign=yelp_api_v3&utm_medium=api_v3_business_search&utm_source=ywY5UnLZrNrRl2b93Ruy_g", "review_count": 54, "categories": [{"alias": "tapas", "title": "Tapas Bars"}, {"alias": "vegetarian", "title": "Vegetarian"}, {"alias": "asianfusion", "title": "Asian Fusion"}], "rating": 4.5, "coordinates": {"latitude": 42.123587790542, "longitude": -73.2348696057758}, "transactions": [], "price": "$$", "location": {"address1": "229 Hartsville New Marlboro Rd", "address2": "", "address3": null, "city": "New Marlborough", "zip_code": "01230", "country": "US", "state": "MA", "display_address": ["229 Hartsville New Marlboro Rd", "New Marlborough, MA 01230"]}, "phone": "+14132293276", "display_phone": "(413) 229-3276", "distance": 7240.963786001172}, {"id": "yPkj61cAEjbbqNO0k7FBKQ", "alias": "prairie-whale-great-barrington", "name": "Prairie Whale", "image_url": "https://s3-media2.fl.yelpcdn.com/bphoto/6MIo4IvcImgzwAQ9krpRnQ/o.jpg", "is_closed": false, "url": "https://www.yelp.com/biz/prairie-whale-great-barrington?adjust_creative=ywY5UnLZrNrRl2b93Ruy_g&utm_campaign=yelp_api_v3&utm_medium=api_v3_business_search&utm_source=ywY5UnLZrNrRl2b93Ruy_g", "review_count": 268, "categories": [{"alias": "newamerican", "title": "American (New)"}], "rating": 4.0, "coordinates": {"latitude": 42.1976194, "longitude": -73.3612805}, "transactions": [], "price": "$$", "location": {"address1": "178 Main St", "address2": "", "address3": "", "city": "Great Barrington", "zip_code": "01230", "country": "US", "state": "MA", "display_address": ["178 Main St", "Great Barrington, MA 01230"]}, "phone": "+14135285050", "display_phone": "(413) 528-5050", "distance": 12228.058181862278}, {"id": "E0wk9-VkuKMY6TKHReKETw", "alias": "the-grouse-house-otis", "name": "The Grouse House", "image_url": "https://s3-media4.fl.yelpcdn.com/bphoto/87Fh7pVCqwvC2JYJXj0GPA/o.jpg", "is_closed": false, "url": "https://www.yelp.com/biz/the-grouse-house-otis?adjust_creative=ywY5UnLZrNrRl2b93Ruy_g&utm_campaign=yelp_api_v3&utm_medium=api_v3_business_search&utm_source=ywY5UnLZrNrRl2b93Ruy_g", "review_count": 20, "categories": [{"alias": "bbq", "title": "Barbeque"}, {"alias": "tradamerican", "title": "American (Traditional)"}], "rating": 4.0, "coordinates": {"latitude": 42.196707, "longitude": -73.100016}, "transactions": [], "price": "$", "location": {"address1": "195 Monterey Rd", "address2": null, "address3": null, "city": "Otis", "zip_code": "01253", "country": "US", "state": "MA", "display_address": ["195 Monterey Rd", "Otis, MA 01253"]}, "phone": "+14132694446", "display_phone": "(413) 269-4446", "distance": 9420.758758459418}, {"id": "2Xp8K5kCnUIEYFKFfTokZQ", "alias": "once-upon-a-table-stockbridge", "name": "Once Upon A Table", "image_url": "https://s3-media3.fl.yelpcdn.com/bphoto/vR4uWZ3rfBiwfKYSaB-e6Q/o.jpg", "is_closed": false, "url": "https://www.yelp.com/biz/once-upon-a-table-stockbridge?adjust_creative=ywY5UnLZrNrRl2b93Ruy_g&utm_campaign=yelp_api_v3&utm_medium=api_v3_business_search&utm_source=ywY5UnLZrNrRl2b93Ruy_g", "review_count": 170, "categories": [{"alias": "tradamerican", "title": "American (Traditional)"}], "rating": 4.0, "coordinates": {"latitude": 42.28175, "longitude": -73.31132}, "transactions": ["delivery"], "price": "$$", "location": {"address1": "36 Main St", "address2": "", "address3": "", "city": "Stockbridge", "zip_code": "01262", "country": "US", "state": "MA", "display_address": ["36 Main St", "Stockbridge, MA 01262"]}, "phone": "+14132983870", "display_phone": "(413) 298-3870", "distance": 13277.3079750772}, {"id": "k0cxsbUUhNq8ukwyKiuOug", "alias": "the-bridge-restaurant-sheffield", "name": "The Bridge Restaurant", "image_url": "https://s3-media2.fl.yelpcdn.com/bphoto/xJt0rNtMmqk6h2FdOQglYw/o.jpg", "is_closed": false, "url": "https://www.yelp.com/biz/the-bridge-restaurant-sheffield?adjust_creative=ywY5UnLZrNrRl2b93Ruy_g&utm_campaign=yelp_api_v3&utm_medium=api_v3_business_search&utm_source=ywY5UnLZrNrRl2b93Ruy_g", "review_count": 29, "categories": [{"alias": "tradamerican", "title": "American (Traditional)"}], "rating": 4.5, "coordinates": {"latitude": 42.123809, "longitude": -73.356906}, "transactions": [], "price": "$$", "location": {"address1": "650 N Main St", "address2": "", "address3": "", "city": "Sheffield", "zip_code": "01257", "country": "US", "state": "MA", "display_address": ["650 N Main St", "Sheffield, MA 01257"]}, "phone": "+14132299000", "display_phone": "(413) 229-9000", "distance": 13733.052015056355}, {"id": "o972aKqdzYGiCzWWZx6vWQ", "alias": "chez-nous-lee", "name": "Chez Nous", "image_url": "https://s3-media3.fl.yelpcdn.com/bphoto/iBqQB-SYonf87TmSaxy4XA/o.jpg", "is_closed": false, "url": "https://www.yelp.com/biz/chez-nous-lee?adjust_creative=ywY5UnLZrNrRl2b93Ruy_g&utm_campaign=yelp_api_v3&utm_medium=api_v3_business_search&utm_source=ywY5UnLZrNrRl2b93Ruy_g", "review_count": 195, "categories": [{"alias": "french", "title": "French"}], "rating": 4.5, "coordinates": {"latitude": 42.30769, "longitude": -73.25031}, "transactions": ["delivery", "restaurant_reservation", "pickup"], "price": "$$$", "location": {"address1": "150 Main St", "address2": "", "address3": "", "city": "Lee", "zip_code": "01238", "country": "US", "state": "MA", "display_address": ["150 Main St", "Lee, MA 01238"]}, "phone": "+14132436397", "display_phone": "(413) 243-6397", "distance": 13792.05999206401}, {"id": "dP6zXo-o6Z5SYcBHiPZQlQ", "alias": "stagecoach-tavern-sheffield", "name": "Stagecoach Tavern", "image_url": "https://s3-media2.fl.yelpcdn.com/bphoto/UGJktwFIjl9k-_dk9SNrWA/o.jpg", "is_closed": false, "url": "https://www.yelp.com/biz/stagecoach-tavern-sheffield?adjust_creative=ywY5UnLZrNrRl2b93Ruy_g&utm_campaign=yelp_api_v3&utm_medium=api_v3_business_search&utm_source=ywY5UnLZrNrRl2b93Ruy_g", "review_count": 45, "categories": [{"alias": "tradamerican", "title": "American (Traditional)"}], "rating": 4.0, "coordinates": {"latitude": 42.08495, "longitude": -73.41214}, "transactions": [], "price": "$$", "location": {"address1": "854 S Undermountain Rd", "address2": "", "address3": "", "city": "Sheffield", "zip_code": "01257", "country": "US", "state": "MA", "display_address": ["854 S Undermountain Rd", "Sheffield, MA 01257"]}, "phone": "+14132298585", "display_phone": "(413) 229-8585", "distance": 19928.05625685802}, {"id": "8IM2TsvuoHvJkYm18PunmQ", "alias": "donaji-mexican-restaurant-great-barrington-2", "name": "Donaji Mexican Restaurant", "image_url": "https://s3-media1.fl.yelpcdn.com/bphoto/tU-u8f7XG_lVHlSAcNK98Q/o.jpg", "is_closed": false, "url": "https://www.yelp.com/biz/donaji-mexican-restaurant-great-barrington-2?adjust_creative=ywY5UnLZrNrRl2b93Ruy_g&utm_campaign=yelp_api_v3&utm_medium=api_v3_business_search&utm_source=ywY5UnLZrNrRl2b93Ruy_g", "review_count": 99, "categories": [{"alias": "mexican", "title": "Mexican"}], "rating": 4.5, "coordinates": {"latitude": 42.2117375825877, "longitude": -73.3457401022315}, "transactions": [], "price": "$$", "location": {"address1": "389 Stockbridge Rd", "address2": "", "address3": null, "city": "Great Barrington", "zip_code": "01230", "country": "US", "state": "MA", "display_address": ["389 Stockbridge Rd", "Great Barrington, MA 01230"]}, "phone": "+14137174220", "display_phone": "(413) 717-4220", "distance": 11235.398526787138}, {"id": "1rI6pNcpm187YIP4Q1kIkw", "alias": "51-park-restaurant-and-tavern-lee", "name": "51 Park Restaurant & Tavern", "image_url": "https://s3-media4.fl.yelpcdn.com/bphoto/i8pfpWfkKcDreIreT5F80Q/o.jpg", "is_closed": false, "url": "https://www.yelp.com/biz/51-park-restaurant-and-tavern-lee?adjust_creative=ywY5UnLZrNrRl2b93Ruy_g&utm_campaign=yelp_api_v3&utm_medium=api_v3_business_search&utm_source=ywY5UnLZrNrRl2b93Ruy_g", "review_count": 293, "categories": [{"alias": "pizza", "title": "Pizza"}, {"alias": "bars", "title": "Bars"}, {"alias": "tradamerican", "title": "American (Traditional)"}], "rating": 4.0, "coordinates": {"latitude": 42.3041968750153, "longitude": -73.2482657867333}, "transactions": ["delivery"], "price": "$$", "location": {"address1": "51 Park St", "address2": "", "address3": "", "city": "Lee", "zip_code": "01238", "country": "US", "state": "MA", "display_address": ["51 Park St", "Lee, MA 01238"]}, "phone": "+14132432153", "display_phone": "(413) 243-2153", "distance": 13366.316765278922}, {"id": "DmetKxKYhXoqaI_R5DwyJQ", "alias": "gedney-farm-new-marlborough", "name": "Gedney Farm", "image_url": "https://s3-media2.fl.yelpcdn.com/bphoto/nLWn288VzwTefgTsWAeQfA/o.jpg", "is_closed": false, "url": "https://www.yelp.com/biz/gedney-farm-new-marlborough?adjust_creative=ywY5UnLZrNrRl2b93Ruy_g&utm_campaign=yelp_api_v3&utm_medium=api_v3_business_search&utm_source=ywY5UnLZrNrRl2b93Ruy_g", "review_count": 28, "categories": [{"alias": "venues", "title": "Venues & Event Spaces"}, {"alias": "vegetarian", "title": "Vegetarian"}, {"alias": "tradamerican", "title": "American (Traditional)"}], "rating": 4.0, "coordinates": {"latitude": 42.1218836220813, "longitude": -73.2255731630722}, "transactions": [], "price": "$$$", "location": {"address1": "34 Hartsville-New Marlboro Rd", "address2": "", "address3": "", "city": "New Marlborough", "zip_code": "01230", "country": "US", "state": "MA", "display_address": ["34 Hartsville-New Marlboro Rd", "New Marlborough, MA 01230"]}, "phone": "+14132293131", "display_phone": "(413) 229-3131", "distance": 7281.970422356673}, {"id": "g7e9bxRkS-QEORLUl1VyrA", "alias": "old-mill-south-egremont", "name": "Old Mill", "image_url": "https://s3-media2.fl.yelpcdn.com/bphoto/KtMbm6Q9hNWXFE5y9NTExw/o.jpg", "is_closed": false, "url": "https://www.yelp.com/biz/old-mill-south-egremont?adjust_creative=ywY5UnLZrNrRl2b93Ruy_g&utm_campaign=yelp_api_v3&utm_medium=api_v3_business_search&utm_source=ywY5UnLZrNrRl2b93Ruy_g", "review_count": 55, "categories": [{"alias": "newamerican", "title": "American (New)"}], "rating": 4.5, "coordinates": {"latitude": 42.16043, "longitude": -73.41692}, "transactions": [], "price": "$$$", "location": {"address1": "53 Main St", "address2": "", "address3": "Rt 23", "city": "South Egremont", "zip_code": "01258", "country": "US", "state": "MA", "display_address": ["53 Main St", "Rt 23", "South Egremont, MA 01258"]}, "phone": "+14135281421", "display_phone": "(413) 528-1421", "distance": 17014.164705218027}, {"id": "aLQjKHWKHyUI4EC_Z1ySQA", "alias": "brick-house-pub-housatonic", "name": "Brick House Pub", "image_url": "https://s3-media4.fl.yelpcdn.com/bphoto/2tvL1uWe0EyfcJ0fh5BfmQ/o.jpg", "is_closed": false, "url": "https://www.yelp.com/biz/brick-house-pub-housatonic?adjust_creative=ywY5UnLZrNrRl2b93Ruy_g&utm_campaign=yelp_api_v3&utm_medium=api_v3_business_search&utm_source=ywY5UnLZrNrRl2b93Ruy_g", "review_count": 91, "categories": [{"alias": "tradamerican", "title": "American (Traditional)"}, {"alias": "pubs", "title": "Pubs"}, {"alias": "musicvenues", "title": "Music Venues"}], "rating": 4.0, "coordinates": {"latitude": 42.254366, "longitude": -73.36588}, "transactions": [], "price": "$$", "location": {"address1": "425 Park St", "address2": "", "address3": "", "city": "Housatonic", "zip_code": "01236", "country": "US", "state": "MA", "display_address": ["425 Park St", "Housatonic, MA 01236"]}, "phone": "+14132740020", "display_phone": "(413) 274-0020", "distance": 14624.358238008368}, {"id": "bPB51VTWLgvlO_afOXGfVg", "alias": "lucias-latin-kitchen-lee", "name": "Lucia's Latin Kitchen", "image_url": "https://s3-media2.fl.yelpcdn.com/bphoto/m7K8y3UcSnE_wc6EZBkDJQ/o.jpg", "is_closed": false, "url": "https://www.yelp.com/biz/lucias-latin-kitchen-lee?adjust_creative=ywY5UnLZrNrRl2b93Ruy_g&utm_campaign=yelp_api_v3&utm_medium=api_v3_business_search&utm_source=ywY5UnLZrNrRl2b93Ruy_g", "review_count": 17, "categories": [{"alias": "latin", "title": "Latin American"}], "rating": 4.5, "coordinates": {"latitude": 42.30863, "longitude": -73.25241}, "transactions": ["delivery"], "location": {"address1": "109 Railroad St", "address2": "", "address3": null, "city": "Lee", "zip_code": "01238", "country": "US", "state": "MA", "display_address": ["109 Railroad St", "Lee, MA 01238"]}, "phone": "+14133945009", "display_phone": "(413) 394-5009", "distance": 13912.390574732068}, {"id": "zYfLzClfWhxKE9wWRaDXfA", "alias": "roadside-store-and-cafe-monterey", "name": "Roadside Store & Cafe", "image_url": "https://s3-media4.fl.yelpcdn.com/bphoto/74glu4fj8UUTK6suaeBTBg/o.jpg", "is_closed": false, "url": "https://www.yelp.com/biz/roadside-store-and-cafe-monterey?adjust_creative=ywY5UnLZrNrRl2b93Ruy_g&utm_campaign=yelp_api_v3&utm_medium=api_v3_business_search&utm_source=ywY5UnLZrNrRl2b93Ruy_g", "review_count": 16, "categories": [{"alias": "breakfast_brunch", "title": "Breakfast & Brunch"}], "rating": 4.5, "coordinates": {"latitude": 42.18406, "longitude": -73.24207}, "transactions": [], "price": "$", "location": {"address1": "275 Main Rd", "address2": null, "address3": "", "city": "Monterey", "zip_code": "01245", "country": "US", "state": "MA", "display_address": ["275 Main Rd", "Monterey, MA 01245"]}, "phone": "+14135282633", "display_phone": "(413) 528-2633", "distance": 2349.6141379749397}, {"id": "HnQB5vTsco_llR1czcoCtA", "alias": "aroma-bar-and-grill-great-barrington", "name": "Aroma Bar & Grill", "image_url": "https://s3-media2.fl.yelpcdn.com/bphoto/R3WHX4K-ifdDrR6NI7h6pA/o.jpg", "is_closed": false, "url": "https://www.yelp.com/biz/aroma-bar-and-grill-great-barrington?adjust_creative=ywY5UnLZrNrRl2b93Ruy_g&utm_campaign=yelp_api_v3&utm_medium=api_v3_business_search&utm_source=ywY5UnLZrNrRl2b93Ruy_g", "review_count": 79, "categories": [{"alias": "indpak", "title": "Indian"}], "rating": 4.0, "coordinates": {"latitude": 42.1887550354004, "longitude": -73.3641128540039}, "transactions": [], "price": "$$", "location": {"address1": "485 Main St", "address2": "", "address3": "", "city": "Great Barrington", "zip_code": "01230", "country": "US", "state": "MA", "display_address": ["485 Main St", "Great Barrington, MA 01230"]}, "phone": "+14135283116", "display_phone": "(413) 528-3116", "distance": 12411.042477963556}, {"id": "NQILKfW2PMwlWb1V-ppJMQ", "alias": "morgan-house-lee", "name": "Morgan House", "image_url": "https://s3-media3.fl.yelpcdn.com/bphoto/AWQ6KBz-N19MXaHmW_2BiQ/o.jpg", "is_closed": false, "url": "https://www.yelp.com/biz/morgan-house-lee?adjust_creative=ywY5UnLZrNrRl2b93Ruy_g&utm_campaign=yelp_api_v3&utm_medium=api_v3_business_search&utm_source=ywY5UnLZrNrRl2b93Ruy_g", "review_count": 110, "categories": [{"alias": "bedbreakfast", "title": "Bed & Breakfast"}, {"alias": "newamerican", "title": "American (New)"}, {"alias": "tradamerican", "title": "American (Traditional)"}], "rating": 4.0, "coordinates": {"latitude": 42.30484, "longitude": -73.24921}, "transactions": ["delivery"], "price": "$$", "location": {"address1": "33 Main St", "address2": "", "address3": "", "city": "Lee", "zip_code": "01238", "country": "US", "state": "MA", "display_address": ["33 Main St", "Lee, MA 01238"]}, "phone": "+14132433661", "display_phone": "(413) 243-3661", "distance": 13476.685517548596}, {"id": "Rr4cVS2LhKTmPM8bozHf_A", "alias": "post-eatery-and-bar-lee", "name": "Post Eatery & Bar", "image_url": "https://s3-media3.fl.yelpcdn.com/bphoto/UaHbdUfgC0rrX2R43_mKDQ/o.jpg", "is_closed": false, "url": "https://www.yelp.com/biz/post-eatery-and-bar-lee?adjust_creative=ywY5UnLZrNrRl2b93Ruy_g&utm_campaign=yelp_api_v3&utm_medium=api_v3_business_search&utm_source=ywY5UnLZrNrRl2b93Ruy_g", "review_count": 42, "categories": [{"alias": "newamerican", "title": "American (New)"}], "rating": 4.5, "coordinates": {"latitude": 42.30537, "longitude": -73.24988}, "transactions": [], "location": {"address1": "5 Railroad St", "address2": "", "address3": null, "city": "Lee", "zip_code": "01238", "country": "US", "state": "MA", "display_address": ["5 Railroad St", "Lee, MA 01238"]}, "phone": "+14133944275", "display_phone": "(413) 394-4275", "distance": 13529.749030273644}, {"id": "tEn0qxPRMtXBOY8R2Vn4kw", "alias": "cafe-adam-great-barrington-3", "name": "Cafe Adam", "image_url": "https://s3-media3.fl.yelpcdn.com/bphoto/8biwPGlv0l6_1n-JvzQREw/o.jpg", "is_closed": false, "url": "https://www.yelp.com/biz/cafe-adam-great-barrington-3?adjust_creative=ywY5UnLZrNrRl2b93Ruy_g&utm_campaign=yelp_api_v3&utm_medium=api_v3_business_search&utm_source=ywY5UnLZrNrRl2b93Ruy_g", "review_count": 43, "categories": [{"alias": "modern_european", "title": "Modern European"}], "rating": 4.0, "coordinates": {"latitude": 42.2134577, "longitude": -73.3444292}, "transactions": [], "price": "$$$", "location": {"address1": "420 Stockbridge Rd", "address2": "Ste 3", "address3": "", "city": "Great Barrington", "zip_code": "01230", "country": "US", "state": "MA", "display_address": ["420 Stockbridge Rd", "Ste 3", "Great Barrington, MA 01230"]}, "phone": "+14135287786", "display_phone": "(413) 528-7786", "distance": 11179.903550612102}, {"id": "UE7ZoJkkX3Enq8MS5X4ASw", "alias": "alpamayo-restaurant-lee-2", "name": "Alpamayo Restaurant", "image_url": "https://s3-media2.fl.yelpcdn.com/bphoto/5jIxLQ4LXaiJPpyTnJ1d9g/o.jpg", "is_closed": false, "url": "https://www.yelp.com/biz/alpamayo-restaurant-lee-2?adjust_creative=ywY5UnLZrNrRl2b93Ruy_g&utm_campaign=yelp_api_v3&utm_medium=api_v3_business_search&utm_source=ywY5UnLZrNrRl2b93Ruy_g", "review_count": 120, "categories": [{"alias": "peruvian", "title": "Peruvian"}, {"alias": "seafood", "title": "Seafood"}, {"alias": "soup", "title": "Soup"}], "rating": 4.0, "coordinates": {"latitude": 42.3056, "longitude": -73.249264}, "transactions": ["delivery"], "price": "$$", "location": {"address1": "60 Main St", "address2": "", "address3": "", "city": "Lee", "zip_code": "01238", "country": "US", "state": "MA", "display_address": ["60 Main St", "Lee, MA 01238"]}, "phone": "+14132436000", "display_phone": "(413) 243-6000", "distance": 13536.362544089041}, {"id": "g9CgWN7yYafTHVOTvE5idQ", "alias": "fiddleheads-grille-great-barrington", "name": "Fiddleheads Grille", "image_url": "https://s3-media1.fl.yelpcdn.com/bphoto/tFYsxj5L_FOq_FqY3vTDUA/o.jpg", "is_closed": false, "url": "https://www.yelp.com/biz/fiddleheads-grille-great-barrington?adjust_creative=ywY5UnLZrNrRl2b93Ruy_g&utm_campaign=yelp_api_v3&utm_medium=api_v3_business_search&utm_source=ywY5UnLZrNrRl2b93Ruy_g", "review_count": 10, "categories": [{"alias": "bbq", "title": "Barbeque"}, {"alias": "bars", "title": "Bars"}, {"alias": "tradamerican", "title": "American (Traditional)"}], "rating": 4.0, "coordinates": {"latitude": 42.16155, "longitude": -73.36452}, "transactions": [], "location": {"address1": "999 South Main St", "address2": null, "address3": "", "city": "Great Barrington", "zip_code": "01230", "country": "US", "state": "MA", "display_address": ["999 South Main St", "Great Barrington, MA 01230"]}, "phone": "+14136442999", "display_phone": "(413) 644-2999", "distance": 12794.056155595072}, {"id": "lttv5T8QO4ORAuuc3scf6g", "alias": "steam-noodle-cafe-great-barrington", "name": "Steam Noodle Cafe", "image_url": "https://s3-media2.fl.yelpcdn.com/bphoto/AWbFlr4Jb_0evrjqn6ZyNw/o.jpg", "is_closed": false, "url": "https://www.yelp.com/biz/steam-noodle-cafe-great-barrington?adjust_creative=ywY5UnLZrNrRl2b93Ruy_g&utm_campaign=yelp_api_v3&utm_medium=api_v3_business_search&utm_source=ywY5UnLZrNrRl2b93Ruy_g", "review_count": 25, "categories": [{"alias": "noodles", "title": "Noodles"}, {"alias": "thai", "title": "Thai"}], "rating": 5.0, "coordinates": {"latitude": 42.19492, "longitude": -73.36254}, "transactions": [], "location": {"address1": "284 Main St Store", "address2": "Inside Barrington House", "address3": null, "city": "Great Barrington", "zip_code": "01230", "country": "US", "state": "MA", "display_address": ["284 Main St Store", "Inside Barrington House", "Great Barrington, MA 01230"]}, "phone": "+14135666353", "display_phone": "(413) 566-6353", "distance": 12296.612158640339}, {"id": "yjoE7dKa-FC51WJ4XvcDwQ", "alias": "fratellis-restaurant-and-pizza-otis", "name": "Fratelli's Restaurant & Pizza", "image_url": "https://s3-media3.fl.yelpcdn.com/bphoto/q2Vymqd4Szn0S-cdT4CKMw/o.jpg", "is_closed": false, "url": "https://www.yelp.com/biz/fratellis-restaurant-and-pizza-otis?adjust_creative=ywY5UnLZrNrRl2b93Ruy_g&utm_campaign=yelp_api_v3&utm_medium=api_v3_business_search&utm_source=ywY5UnLZrNrRl2b93Ruy_g", "review_count": 34, "categories": [{"alias": "italian", "title": "Italian"}, {"alias": "pizza", "title": "Pizza"}], "rating": 4.0, "coordinates": {"latitude": 42.19269, "longitude": -73.09249}, "transactions": [], "price": "$$", "location": {"address1": "8 S Main Rd", "address2": "", "address3": "", "city": "Otis", "zip_code": "01253", "country": "US", "state": "MA", "display_address": ["8 S Main Rd", "Otis, MA 01253"]}, "phone": "+14132694900", "display_phone": "(413) 269-4900", "distance": 10015.146970734993}, {"id": "Ij8RafJOGZno1-M4ueMrdQ", "alias": "salmon-run-fish-house-lee", "name": "Salmon Run Fish House", "image_url": "https://s3-media2.fl.yelpcdn.com/bphoto/HHwT3NihuQCFUc2ba2-8uQ/o.jpg", "is_closed": false, "url": "https://www.yelp.com/biz/salmon-run-fish-house-lee?adjust_creative=ywY5UnLZrNrRl2b93Ruy_g&utm_campaign=yelp_api_v3&utm_medium=api_v3_business_search&utm_source=ywY5UnLZrNrRl2b93Ruy_g", "review_count": 146, "categories": [{"alias": "seafood", "title": "Seafood"}], "rating": 3.5, "coordinates": {"latitude": 42.3060492, "longitude": -73.2495023}, "transactions": ["delivery", "pickup"], "price": "$$", "location": {"address1": "78 Main St", "address2": "", "address3": "", "city": "Lee", "zip_code": "01238", "country": "US", "state": "MA", "display_address": ["78 Main St", "Lee, MA 01238"]}, "phone": "+14132433900", "display_phone": "(413) 243-3900", "distance": 13578.255126193168}, {"id": "8_7Jvr4OEO_rgf1M4V88FA", "alias": "tangier-cafe-great-barrington", "name": "Tangier Cafe", "image_url": "https://s3-media3.fl.yelpcdn.com/bphoto/UNqM8Toi2gUHfdFgLdYiZg/o.jpg", "is_closed": false, "url": "https://www.yelp.com/biz/tangier-cafe-great-barrington?adjust_creative=ywY5UnLZrNrRl2b93Ruy_g&utm_campaign=yelp_api_v3&utm_medium=api_v3_business_search&utm_source=ywY5UnLZrNrRl2b93Ruy_g", "review_count": 59, "categories": [{"alias": "moroccan", "title": "Moroccan"}, {"alias": "mediterranean", "title": "Mediterranean"}], "rating": 4.5, "coordinates": {"latitude": 42.1806406, "longitude": -73.3643966}, "transactions": [], "price": "$$", "location": {"address1": "286 Main St", "address2": "", "address3": null, "city": "Great Barrington", "zip_code": "01230", "country": "US", "state": "MA", "display_address": ["286 Main St", "Great Barrington, MA 01230"]}, "phone": "+14136453375", "display_phone": "(413) 645-3375", "distance": 12445.38471193823}, {"id": "QlldzqygzMHA_te8TvhHpg", "alias": "number-ten-great-barrington-2", "name": "Number Ten", "image_url": "https://s3-media3.fl.yelpcdn.com/bphoto/z4JtYTl8rMuPKNwGbMxR3w/o.jpg", "is_closed": false, "url": "https://www.yelp.com/biz/number-ten-great-barrington-2?adjust_creative=ywY5UnLZrNrRl2b93Ruy_g&utm_campaign=yelp_api_v3&utm_medium=api_v3_business_search&utm_source=ywY5UnLZrNrRl2b93Ruy_g", "review_count": 43, "categories": [{"alias": "steak", "title": "Steakhouses"}], "rating": 4.5, "coordinates": {"latitude": 42.1941161, "longitude": -73.3632744}, "transactions": [], "location": {"address1": "10 Castle St", "address2": null, "address3": "", "city": "Great Barrington", "zip_code": "01230", "country": "US", "state": "MA", "display_address": ["10 Castle St", "Great Barrington, MA 01230"]}, "phone": "+14135285244", "display_phone": "(413) 528-5244", "distance": 12351.798377104917}, {"id": "9E7bSiKklQQX5ITubqhy7Q", "alias": "m-j-tuckers-sandisfield-2", "name": "M J Tucker's", "image_url": "https://s3-media1.fl.yelpcdn.com/bphoto/1qAbTc07x0gekFUUKHnd2g/o.jpg", "is_closed": false, "url": "https://www.yelp.com/biz/m-j-tuckers-sandisfield-2?adjust_creative=ywY5UnLZrNrRl2b93Ruy_g&utm_campaign=yelp_api_v3&utm_medium=api_v3_business_search&utm_source=ywY5UnLZrNrRl2b93Ruy_g", "review_count": 6, "categories": [{"alias": "pizza", "title": "Pizza"}], "rating": 4.0, "coordinates": {"latitude": 42.0787, "longitude": -73.06869}, "transactions": [], "location": {"address1": "61 S Main St", "address2": null, "address3": null, "city": "Sandisfield", "zip_code": "01255", "country": "US", "state": "MA", "display_address": ["61 S Main St", "Sandisfield, MA 01255"]}, "phone": "+14132584040", "display_phone": "(413) 258-4040", "distance": 16925.58705481414}, {"id": "Uup9c0pISgIdS8ra98H97A", "alias": "rouge-restaurant-and-bistro-west-stockbridge", "name": "Rouge Restaurant & Bistro", "image_url": "https://s3-media2.fl.yelpcdn.com/bphoto/JtcWlJS09JY1G_IbAxn93Q/o.jpg", "is_closed": false, "url": "https://www.yelp.com/biz/rouge-restaurant-and-bistro-west-stockbridge?adjust_creative=ywY5UnLZrNrRl2b93Ruy_g&utm_campaign=yelp_api_v3&utm_medium=api_v3_business_search&utm_source=ywY5UnLZrNrRl2b93Ruy_g", "review_count": 108, "categories": [{"alias": "newamerican", "title": "American (New)"}, {"alias": "french", "title": "French"}], "rating": 4.0, "coordinates": {"latitude": 42.33366, "longitude": -73.36783}, "transactions": [], "price": "$$$", "location": {"address1": "3 Center St", "address2": "", "address3": "", "city": "West Stockbridge", "zip_code": "01266", "country": "US", "state": "MA", "display_address": ["3 Center St", "West Stockbridge, MA 01266"]}, "phone": "+14132324111", "display_phone": "(413) 232-4111", "distance": 20688.21717561273}, {"id": "kAtNLueUJ_PZZuPy0JV3IQ", "alias": "the-well-great-barrington", "name": "The Well", "image_url": "https://s3-media4.fl.yelpcdn.com/bphoto/EkJp7o92_zQ08kOTTd1MyA/o.jpg", "is_closed": false, "url": "https://www.yelp.com/biz/the-well-great-barrington?adjust_creative=ywY5UnLZrNrRl2b93Ruy_g&utm_campaign=yelp_api_v3&utm_medium=api_v3_business_search&utm_source=ywY5UnLZrNrRl2b93Ruy_g", "review_count": 80, "categories": [{"alias": "tradamerican", "title": "American (Traditional)"}, {"alias": "bars", "title": "Bars"}, {"alias": "burgers", "title": "Burgers"}], "rating": 4.0, "coordinates": {"latitude": 42.1942672729492, "longitude": -73.3628997802734}, "transactions": [], "price": "$$", "location": {"address1": "312 Main St", "address2": "", "address3": null, "city": "Great Barrington", "zip_code": "01230", "country": "US", "state": "MA", "display_address": ["312 Main St", "Great Barrington, MA 01230"]}, "phone": "+14135283651", "display_phone": "(413) 528-3651", "distance": 12331.458830047692}, {"id": "w_iafnQRK0sfasx0z1DYCA", "alias": "barrington-brewery-and-restaurant-great-barrington", "name": "Barrington Brewery & Restaurant", "image_url": "https://s3-media1.fl.yelpcdn.com/bphoto/QIBUGRTwBlLdt8T5bylZhg/o.jpg", "is_closed": false, "url": "https://www.yelp.com/biz/barrington-brewery-and-restaurant-great-barrington?adjust_creative=ywY5UnLZrNrRl2b93Ruy_g&utm_campaign=yelp_api_v3&utm_medium=api_v3_business_search&utm_source=ywY5UnLZrNrRl2b93Ruy_g", "review_count": 278, "categories": [{"alias": "tradamerican", "title": "American (Traditional)"}, {"alias": "bars", "title": "Bars"}, {"alias": "brewpubs", "title": "Brewpubs"}], "rating": 3.5, "coordinates": {"latitude": 42.213068, "longitude": -73.343636}, "transactions": [], "price": "$$", "location": {"address1": "420 Stockbridge Rd", "address2": "Ste 7", "address3": "", "city": "Great Barrington", "zip_code": "01230", "country": "US", "state": "MA", "display_address": ["420 Stockbridge Rd", "Ste 7", "Great Barrington, MA 01230"]}, "phone": "+14135288282", "display_phone": "(413) 528-8282", "distance": 11156.978489665276}, {"id": "bwKFfSyhtACDwJJu1SX90Q", "alias": "mint-indian-lakeside-dining-lee", "name": "Mint - Indian Lakeside Dining", "image_url": "https://s3-media3.fl.yelpcdn.com/bphoto/9_C5f6ZUtfaNxhaLothc1Q/o.jpg", "is_closed": false, "url": "https://www.yelp.com/biz/mint-indian-lakeside-dining-lee?adjust_creative=ywY5UnLZrNrRl2b93Ruy_g&utm_campaign=yelp_api_v3&utm_medium=api_v3_business_search&utm_source=ywY5UnLZrNrRl2b93Ruy_g", "review_count": 113, "categories": [{"alias": "indpak", "title": "Indian"}], "rating": 3.5, "coordinates": {"latitude": 42.32158, "longitude": -73.25985}, "transactions": ["pickup"], "price": "$$", "location": {"address1": "435 Laurel St", "address2": null, "address3": "", "city": "Lee", "zip_code": "01238", "country": "US", "state": "MA", "display_address": ["435 Laurel St", "Lee, MA 01238"]}, "phone": "+14132436731", "display_phone": "(413) 243-6731", "distance": 15471.025685095625}, {"id": "gYAP3sXJ_X4wG6djLj1Obw", "alias": "widow-binghams-tavern-stockbridge", "name": "Widow Bingham's Tavern", "image_url": "https://s3-media2.fl.yelpcdn.com/bphoto/LJDeLi5WNNgB6aeMVfKSgA/o.jpg", "is_closed": false, "url": "https://www.yelp.com/biz/widow-binghams-tavern-stockbridge?adjust_creative=ywY5UnLZrNrRl2b93Ruy_g&utm_campaign=yelp_api_v3&utm_medium=api_v3_business_search&utm_source=ywY5UnLZrNrRl2b93Ruy_g", "review_count": 3, "categories": [{"alias": "tradamerican", "title": "American (Traditional)"}, {"alias": "wine_bars", "title": "Wine Bars"}], "rating": 3.5, "coordinates": {"latitude": 42.2820863585488, "longitude": -73.3115655889174}, "transactions": ["delivery"], "location": {"address1": "30 Main St", "address2": "", "address3": null, "city": "Stockbridge", "zip_code": "01262", "country": "US", "state": "MA", "display_address": ["30 Main St", "Stockbridge, MA 01262"]}, "phone": "+14132985545", "display_phone": "(413) 298-5545", "distance": 13320.039717302367}, {"id": "OGfb534H05hQb7QXOYEjcQ", "alias": "baba-louies-sourdough-pizza-great-barrington-3", "name": "Baba Louie's Sourdough Pizza", "image_url": "https://s3-media4.fl.yelpcdn.com/bphoto/Awr9VbK52RO4X7zg6uwIOA/o.jpg", "is_closed": false, "url": "https://www.yelp.com/biz/baba-louies-sourdough-pizza-great-barrington-3?adjust_creative=ywY5UnLZrNrRl2b93Ruy_g&utm_campaign=yelp_api_v3&utm_medium=api_v3_business_search&utm_source=ywY5UnLZrNrRl2b93Ruy_g", "review_count": 270, "categories": [{"alias": "pizza", "title": "Pizza"}], "rating": 4.5, "coordinates": {"latitude": 42.194999, "longitude": -73.363538}, "transactions": [], "price": "$$", "location": {"address1": "42 Railroad St", "address2": "", "address3": "", "city": "Great Barrington", "zip_code": "01230", "country": "US", "state": "MA", "display_address": ["42 Railroad St", "Great Barrington, MA 01230"]}, "phone": "+14135288100", "display_phone": "(413) 528-8100", "distance": 12388.465249812187}, {"id": "jAo-MiD0x3rAXYknAj6-gQ", "alias": "aegean-breeze-restaurant-great-barrington-2", "name": "Aegean Breeze Restaurant", "image_url": "https://s3-media1.fl.yelpcdn.com/bphoto/sYSk5R1qJ65umfJthL6iGg/o.jpg", "is_closed": false, "url": "https://www.yelp.com/biz/aegean-breeze-restaurant-great-barrington-2?adjust_creative=ywY5UnLZrNrRl2b93Ruy_g&utm_campaign=yelp_api_v3&utm_medium=api_v3_business_search&utm_source=ywY5UnLZrNrRl2b93Ruy_g", "review_count": 85, "categories": [{"alias": "mediterranean", "title": "Mediterranean"}, {"alias": "greek", "title": "Greek"}], "rating": 3.5, "coordinates": {"latitude": 42.21115, "longitude": -73.34578}, "transactions": [], "price": "$$", "location": {"address1": "327 Stockbridge Rd", "address2": "", "address3": "", "city": "Great Barrington", "zip_code": "01230", "country": "US", "state": "MA", "display_address": ["327 Stockbridge Rd", "Great Barrington, MA 01230"]}, "phone": "+14135284001", "display_phone": "(413) 528-4001", "distance": 11213.887896364058}, {"id": "CH05e_baAf7AkI94JPuWvg", "alias": "restaurants-old-inn-on-the-green-new-marlborough", "name": "Restaurants Old Inn On The Green", "image_url": "", "is_closed": false, "url": "https://www.yelp.com/biz/restaurants-old-inn-on-the-green-new-marlborough?adjust_creative=ywY5UnLZrNrRl2b93Ruy_g&utm_campaign=yelp_api_v3&utm_medium=api_v3_business_search&utm_source=ywY5UnLZrNrRl2b93Ruy_g", "review_count": 1, "categories": [{"alias": "coffee", "title": "Coffee & Tea"}, {"alias": "breakfast_brunch", "title": "Breakfast & Brunch"}, {"alias": "wine_bars", "title": "Wine Bars"}], "rating": 5.0, "coordinates": {"latitude": 42.122804, "longitude": -73.230522}, "transactions": [], "location": {"address1": "134 Hartsville-New Marlborough Rd", "address2": "", "address3": null, "city": "New Marlborough", "zip_code": "01230", "country": "US", "state": "MA", "display_address": ["134 Hartsville-New Marlborough Rd", "New Marlborough, MA 01230"]}, "phone": "+14132297924", "display_phone": "(413) 229-7924", "distance": 7246.839625805241}, {"id": "EXUaFzhvXNjCRNmylmOhxw", "alias": "the-old-inn-on-the-green-at-the-pillow-becket", "name": "The Old Inn on the Green at the Pillow", "image_url": "https://s3-media2.fl.yelpcdn.com/bphoto/xeUMF_3ZHQOd0piGgU83RA/o.jpg", "is_closed": false, "url": "https://www.yelp.com/biz/the-old-inn-on-the-green-at-the-pillow-becket?adjust_creative=ywY5UnLZrNrRl2b93Ruy_g&utm_campaign=yelp_api_v3&utm_medium=api_v3_business_search&utm_source=ywY5UnLZrNrRl2b93Ruy_g", "review_count": 13, "categories": [{"alias": "newamerican", "title": "American (New)"}], "rating": 3.0, "coordinates": {"latitude": 42.26658, "longitude": -73.11659}, "transactions": [], "location": {"address1": "358 George Carter Rd", "address2": "", "address3": null, "city": "Becket", "zip_code": "01223", "country": "US", "state": "MA", "display_address": ["358 George Carter Rd", "Becket, MA 01223"]}, "phone": "+14132120303", "display_phone": "(413) 212-0303", "distance": 11718.085358069706}, {"id": "0HWWQUBdjHiULYXV2OlVgg", "alias": "marketplace-kitchen-table-great-barrington", "name": "Marketplace Kitchen Table", "image_url": "https://s3-media1.fl.yelpcdn.com/bphoto/13B1KMRoMm0-jovYqHAoaQ/o.jpg", "is_closed": false, "url": "https://www.yelp.com/biz/marketplace-kitchen-table-great-barrington?adjust_creative=ywY5UnLZrNrRl2b93Ruy_g&utm_campaign=yelp_api_v3&utm_medium=api_v3_business_search&utm_source=ywY5UnLZrNrRl2b93Ruy_g", "review_count": 55, "categories": [{"alias": "burgers", "title": "Burgers"}, {"alias": "breakfast_brunch", "title": "Breakfast & Brunch"}, {"alias": "salad", "title": "Salad"}], "rating": 4.0, "coordinates": {"latitude": 42.2068, "longitude": -73.34618}, "transactions": [], "price": "$$", "location": {"address1": "240 Stockbridge Rd", "address2": "", "address3": null, "city": "Great Barrington", "zip_code": "01230", "country": "US", "state": "MA", "display_address": ["240 Stockbridge Rd", "Great Barrington, MA 01230"]}, "phone": "+14135282233", "display_phone": "(413) 528-2233", "distance": 11134.142305208165}, {"id": "NiDVSHjk6WpLQlX7SaVtuQ", "alias": "gb-eats-great-barrington", "name": "GB eats", "image_url": "https://s3-media3.fl.yelpcdn.com/bphoto/PguezF_AmpO2N3tvwERTiw/o.jpg", "is_closed": false, "url": "https://www.yelp.com/biz/gb-eats-great-barrington?adjust_creative=ywY5UnLZrNrRl2b93Ruy_g&utm_campaign=yelp_api_v3&utm_medium=api_v3_business_search&utm_source=ywY5UnLZrNrRl2b93Ruy_g", "review_count": 67, "categories": [{"alias": "diners", "title": "Diners"}, {"alias": "newamerican", "title": "American (New)"}, {"alias": "breakfast_brunch", "title": "Breakfast & Brunch"}], "rating": 4.0, "coordinates": {"latitude": 42.1948114, "longitude": -73.3622229}, "transactions": [], "price": "$$", "location": {"address1": "282 Main St", "address2": "", "address3": null, "city": "Great Barrington", "zip_code": "01230", "country": "US", "state": "MA", "display_address": ["282 Main St", "Great Barrington, MA 01230"]}, "phone": "+14135288226", "display_phone": "(413) 528-8226", "distance": 12281.623523022181}, {"id": "BAJESGPWmLCLIpdMaiGUqA", "alias": "the-southfield-store-southfield", "name": "The Southfield Store", "image_url": "https://s3-media4.fl.yelpcdn.com/bphoto/s18dzfzxa4KvnnKwX7dqzw/o.jpg", "is_closed": false, "url": "https://www.yelp.com/biz/the-southfield-store-southfield?adjust_creative=ywY5UnLZrNrRl2b93Ruy_g&utm_campaign=yelp_api_v3&utm_medium=api_v3_business_search&utm_source=ywY5UnLZrNrRl2b93Ruy_g", "review_count": 40, "categories": [{"alias": "bakeries", "title": "Bakeries"}, {"alias": "coffee", "title": "Coffee & Tea"}, {"alias": "newamerican", "title": "American (New)"}], "rating": 3.5, "coordinates": {"latitude": 42.100691, "longitude": -73.233851}, "transactions": [], "price": "$$", "location": {"address1": "163 Norfolk Rd", "address2": null, "address3": null, "city": "Southfield", "zip_code": "01259", "country": "US", "state": "MA", "display_address": ["163 Norfolk Rd", "Southfield, MA 01259"]}, "phone": "+14132295050", "display_phone": "(413) 229-5050", "distance": 9713.782851006605}, {"id": "F_FRaMZheFws0Fis3RknZw", "alias": "najis-lebanese-restaurant-great-barrington", "name": "Naji's Lebanese Restaurant", "image_url": "https://s3-media1.fl.yelpcdn.com/bphoto/fSYzaR3nCJaZHC6C5OMZ0A/o.jpg", "is_closed": false, "url": "https://www.yelp.com/biz/najis-lebanese-restaurant-great-barrington?adjust_creative=ywY5UnLZrNrRl2b93Ruy_g&utm_campaign=yelp_api_v3&utm_medium=api_v3_business_search&utm_source=ywY5UnLZrNrRl2b93Ruy_g", "review_count": 127, "categories": [{"alias": "mediterranean", "title": "Mediterranean"}, {"alias": "lebanese", "title": "Lebanese"}], "rating": 4.0, "coordinates": {"latitude": 42.212414, "longitude": -73.345397}, "transactions": [], "price": "$$", "location": {"address1": "405 Stockbridge Rd", "address2": "", "address3": "", "city": "Great Barrington", "zip_code": "01230", "country": "US", "state": "MA", "display_address": ["405 Stockbridge Rd", "Great Barrington, MA 01230"]}, "phone": "+14135285540", "display_phone": "(413) 528-5540", "distance": 11226.829056438744}, {"id": "3_5-GUf-AkGhf7AyQgtw7w", "alias": "koi-chinese-restaurant-great-barrington", "name": "Koi Chinese Restaurant", "image_url": "https://s3-media4.fl.yelpcdn.com/bphoto/Pae2zv852hWi_Chjes73iQ/o.jpg", "is_closed": false, "url": "https://www.yelp.com/biz/koi-chinese-restaurant-great-barrington?adjust_creative=ywY5UnLZrNrRl2b93Ruy_g&utm_campaign=yelp_api_v3&utm_medium=api_v3_business_search&utm_source=ywY5UnLZrNrRl2b93Ruy_g", "review_count": 66, "categories": [{"alias": "taiwanese", "title": "Taiwanese"}, {"alias": "chinese", "title": "Chinese"}, {"alias": "asianfusion", "title": "Asian Fusion"}], "rating": 3.5, "coordinates": {"latitude": 42.19555, "longitude": -73.33878}, "transactions": [], "price": "$$", "location": {"address1": "300 State Rd", "address2": "", "address3": "", "city": "Great Barrington", "zip_code": "01230", "country": "US", "state": "MA", "display_address": ["300 State Rd", "Great Barrington, MA 01230"]}, "phone": "+14135285678", "display_phone": "(413) 528-5678", "distance": 10357.601535107882}, {"id": "Ol7s9NMuX-FYocOlwd3E-A", "alias": "race-brook-lodge-sheffield", "name": "Race Brook Lodge", "image_url": "https://s3-media1.fl.yelpcdn.com/bphoto/WNTsKPFcmStpfBKMKxyv2w/o.jpg", "is_closed": false, "url": "https://www.yelp.com/biz/race-brook-lodge-sheffield?adjust_creative=ywY5UnLZrNrRl2b93Ruy_g&utm_campaign=yelp_api_v3&utm_medium=api_v3_business_search&utm_source=ywY5UnLZrNrRl2b93Ruy_g", "review_count": 29, "categories": [{"alias": "hotels", "title": "Hotels"}, {"alias": "bedbreakfast", "title": "Bed & Breakfast"}, {"alias": "newamerican", "title": "American (New)"}], "rating": 4.5, "coordinates": {"latitude": 42.08503, "longitude": -73.41326}, "transactions": [], "price": "$$", "location": {"address1": "864 S Undermountain Rd", "address2": "", "address3": "", "city": "Sheffield", "zip_code": "01257", "country": "US", "state": "MA", "display_address": ["864 S Undermountain Rd", "Sheffield, MA 01257"]}, "phone": "+14132292916", "display_phone": "(413) 229-2916", "distance": 20002.762140421084}, {"id": "wv-iymLQsllwM_YRAkTQvA", "alias": "michaels-stockbridge", "name": "Michael's", "image_url": "https://s3-media1.fl.yelpcdn.com/bphoto/UvG1sX_h5e4Th0UV3yQSqQ/o.jpg", "is_closed": false, "url": "https://www.yelp.com/biz/michaels-stockbridge?adjust_creative=ywY5UnLZrNrRl2b93Ruy_g&utm_campaign=yelp_api_v3&utm_medium=api_v3_business_search&utm_source=ywY5UnLZrNrRl2b93Ruy_g", "review_count": 52, "categories": [{"alias": "tradamerican", "title": "American (Traditional)"}, {"alias": "newamerican", "title": "American (New)"}], "rating": 3.0, "coordinates": {"latitude": 42.28076, "longitude": -73.31001}, "transactions": ["delivery"], "price": "$$", "location": {"address1": "5 Elm St", "address2": "", "address3": "", "city": "Stockbridge", "zip_code": "01262", "country": "US", "state": "MA", "display_address": ["5 Elm St", "Stockbridge, MA 01262"]}, "phone": "+14132983530", "display_phone": "(413) 298-3530", "distance": 13150.481613391948}, {"id": "dszOlLrMfHdrsDTfV6YzCg", "alias": "knox-trail-inn-otis-2", "name": "Knox Trail Inn", "image_url": "https://s3-media4.fl.yelpcdn.com/bphoto/Q0tfwOgbXD_uuosWWW5ZYw/o.jpg", "is_closed": false, "url": "https://www.yelp.com/biz/knox-trail-inn-otis-2?adjust_creative=ywY5UnLZrNrRl2b93Ruy_g&utm_campaign=yelp_api_v3&utm_medium=api_v3_business_search&utm_source=ywY5UnLZrNrRl2b93Ruy_g", "review_count": 25, "categories": [{"alias": "pizza", "title": "Pizza"}, {"alias": "pubs", "title": "Pubs"}, {"alias": "tradamerican", "title": "American (Traditional)"}], "rating": 3.5, "coordinates": {"latitude": 42.17358, "longitude": -73.03564}, "transactions": [], "price": "$$", "location": {"address1": "1898 E Otis Rd", "address2": null, "address3": null, "city": "Otis", "zip_code": "01253", "country": "US", "state": "MA", "display_address": ["1898 E Otis Rd", "Otis, MA 01253"]}, "phone": "+14132694400", "display_phone": "(413) 269-4400", "distance": 14754.996529285612}, {"id": "5LnwS_kqnyooA4DAeo5TtQ", "alias": "baja-charlies-lee", "name": "Baja Charlie's", "image_url": "https://s3-media3.fl.yelpcdn.com/bphoto/VHSamI5wGd2TzCuZwkIFbQ/o.jpg", "is_closed": false, "url": "https://www.yelp.com/biz/baja-charlies-lee?adjust_creative=ywY5UnLZrNrRl2b93Ruy_g&utm_campaign=yelp_api_v3&utm_medium=api_v3_business_search&utm_source=ywY5UnLZrNrRl2b93Ruy_g", "review_count": 140, "categories": [{"alias": "newamerican", "title": "American (New)"}, {"alias": "mexican", "title": "Mexican"}], "rating": 4.0, "coordinates": {"latitude": 42.3100508004427, "longitude": -73.2527308166027}, "transactions": ["delivery"], "price": "$$", "location": {"address1": "62 W Center St", "address2": "", "address3": "", "city": "Lee", "zip_code": "01238", "country": "US", "state": "MA", "display_address": ["62 W Center St", "Lee, MA 01238"]}, "phone": "+14132434322", "display_phone": "(413) 243-4322", "distance": 14076.042220256119}, {"id": "pDwNElY8_HV4BQQaQOYloA", "alias": "20-railroad-public-house-great-barrington", "name": "20 Railroad Public House", "image_url": "https://s3-media3.fl.yelpcdn.com/bphoto/0EREvKNQbMh-AVzh6n0EKw/o.jpg", "is_closed": false, "url": "https://www.yelp.com/biz/20-railroad-public-house-great-barrington?adjust_creative=ywY5UnLZrNrRl2b93Ruy_g&utm_campaign=yelp_api_v3&utm_medium=api_v3_business_search&utm_source=ywY5UnLZrNrRl2b93Ruy_g", "review_count": 56, "categories": [{"alias": "tradamerican", "title": "American (Traditional)"}, {"alias": "cocktailbars", "title": "Cocktail Bars"}, {"alias": "pizza", "title": "Pizza"}], "rating": 3.5, "coordinates": {"latitude": 42.1947748269574, "longitude": -73.3631125600494}, "transactions": [], "price": "$$", "location": {"address1": "20 Railroad St", "address2": "", "address3": "", "city": "Great Barrington", "zip_code": "01230", "country": "US", "state": "MA", "display_address": ["20 Railroad St", "Great Barrington, MA 01230"]}, "phone": "+14135289345", "display_phone": "(413) 528-9345", "distance": 12351.71073842549}, {"id": "Cf0M6Q1TguRB3Ax_nplI1Q", "alias": "taphouse-at-shaker-mill-west-stockbridge", "name": "Taphouse at Shaker Mill", "image_url": "https://s3-media1.fl.yelpcdn.com/bphoto/iY6FuI9yljD1rgY1XDmbuQ/o.jpg", "is_closed": false, "url": "https://www.yelp.com/biz/taphouse-at-shaker-mill-west-stockbridge?adjust_creative=ywY5UnLZrNrRl2b93Ruy_g&utm_campaign=yelp_api_v3&utm_medium=api_v3_business_search&utm_source=ywY5UnLZrNrRl2b93Ruy_g", "review_count": 7, "categories": [{"alias": "tradamerican", "title": "American (Traditional)"}], "rating": 2.5, "coordinates": {"latitude": 42.335416, "longitude": -73.369229}, "transactions": [], "location": {"address1": "5 Albany Rd", "address2": "", "address3": null, "city": "West Stockbridge", "zip_code": "01266", "country": "US", "state": "MA", "display_address": ["5 Albany Rd", "West Stockbridge, MA 01266"]}, "phone": "+14132328565", "display_phone": "(413) 232-8565", "distance": 20916.35871595034}, {"id": "A40Rx6mb2y4rX3bz2tCMug", "alias": "buckys-tavern-lee-2", "name": "Bucky's Tavern", "image_url": "", "is_closed": false, "url": "https://www.yelp.com/biz/buckys-tavern-lee-2?adjust_creative=ywY5UnLZrNrRl2b93Ruy_g&utm_campaign=yelp_api_v3&utm_medium=api_v3_business_search&utm_source=ywY5UnLZrNrRl2b93Ruy_g", "review_count": 3, "categories": [{"alias": "tradamerican", "title": "American (Traditional)"}, {"alias": "bars", "title": "Bars"}], "rating": 4.0, "coordinates": {"latitude": 42.3052711, "longitude": -73.2502518}, "transactions": ["delivery"], "location": {"address1": "25 Consolati Way", "address2": "", "address3": "", "city": "Lee", "zip_code": "01238", "country": "US", "state": "MA", "display_address": ["25 Consolati Way", "Lee, MA 01238"]}, "phone": "+14132436484", "display_phone": "(413) 243-6484", "distance": 13531.488441357835}, {"id": "KwAaAZte_nWKeny_lAb0nA", "alias": "dream-away-lodge-becket", "name": "Dream Away Lodge", "image_url": "https://s3-media2.fl.yelpcdn.com/bphoto/Oh289v27yllCU-Zj_WK1MA/o.jpg", "is_closed": false, "url": "https://www.yelp.com/biz/dream-away-lodge-becket?adjust_creative=ywY5UnLZrNrRl2b93Ruy_g&utm_campaign=yelp_api_v3&utm_medium=api_v3_business_search&utm_source=ywY5UnLZrNrRl2b93Ruy_g", "review_count": 87, "categories": [{"alias": "bars", "title": "Bars"}, {"alias": "newamerican", "title": "American (New)"}], "rating": 3.5, "coordinates": {"latitude": 42.32495, "longitude": -73.14103}, "transactions": [], "price": "$$", "location": {"address1": "1342 County Rd", "address2": "", "address3": "", "city": "Becket", "zip_code": "01223", "country": "US", "state": "MA", "display_address": ["1342 County Rd", "Becket, MA 01223"]}, "phone": "+14136238725", "display_phone": "(413) 623-8725", "distance": 16484.884629199325}, {"id": "D4_xUi9BdkjQeet8G1cogA", "alias": "the-bistro-lenox", "name": "The Bistro", "image_url": "https://s3-media1.fl.yelpcdn.com/bphoto/ez0NuT9or3hcVzek-8khbQ/o.jpg", "is_closed": false, "url": "https://www.yelp.com/biz/the-bistro-lenox?adjust_creative=ywY5UnLZrNrRl2b93Ruy_g&utm_campaign=yelp_api_v3&utm_medium=api_v3_business_search&utm_source=ywY5UnLZrNrRl2b93Ruy_g", "review_count": 5, "categories": [{"alias": "diners", "title": "Diners"}, {"alias": "bars", "title": "Bars"}, {"alias": "breakfast_brunch", "title": "Breakfast & Brunch"}], "rating": 4.5, "coordinates": {"latitude": 42.33615, "longitude": -73.25892}, "transactions": [], "location": {"address1": "16 Blantyre Rd", "address2": null, "address3": "", "city": "Lenox", "zip_code": "01240", "country": "US", "state": "MA", "display_address": ["16 Blantyre Rd", "Lenox, MA 01240"]}, "phone": "+14136373556", "display_phone": "(413) 637-3556", "distance": 17021.664301024477}, {"id": "M5eUNWQMrpHu8Hne1HzeJA", "alias": "thornewood-inn-and-restaurant-great-barrington", "name": "Thornewood Inn & Restaurant", "image_url": "https://s3-media3.fl.yelpcdn.com/bphoto/1XWoME2SdC1q_6q2JggKLA/o.jpg", "is_closed": false, "url": "https://www.yelp.com/biz/thornewood-inn-and-restaurant-great-barrington?adjust_creative=ywY5UnLZrNrRl2b93Ruy_g&utm_campaign=yelp_api_v3&utm_medium=api_v3_business_search&utm_source=ywY5UnLZrNrRl2b93Ruy_g", "review_count": 21, "categories": [{"alias": "bedbreakfast", "title": "Bed & Breakfast"}, {"alias": "newamerican", "title": "American (New)"}], "rating": 4.0, "coordinates": {"latitude": 42.221102, "longitude": -73.343143}, "transactions": [], "price": "$$$", "location": {"address1": "453 Stockbridge Rd", "address2": "", "address3": "", "city": "Great Barrington", "zip_code": "01230", "country": "US", "state": "MA", "display_address": ["453 Stockbridge Rd", "Great Barrington, MA 01230"]}, "phone": "+14135283828", "display_phone": "(413) 528-3828", "distance": 11379.346405719853}, {"id": "sZak5PEYgLxpEeeYcMZC3Q", "alias": "farm-country-soup-great-barrington", "name": "Farm Country Soup", "image_url": "https://s3-media2.fl.yelpcdn.com/bphoto/Z6eFHfXVDn8jQzK2pawcqg/o.jpg", "is_closed": false, "url": "https://www.yelp.com/biz/farm-country-soup-great-barrington?adjust_creative=ywY5UnLZrNrRl2b93Ruy_g&utm_campaign=yelp_api_v3&utm_medium=api_v3_business_search&utm_source=ywY5UnLZrNrRl2b93Ruy_g", "review_count": 11, "categories": [{"alias": "breakfast_brunch", "title": "Breakfast & Brunch"}, {"alias": "soup", "title": "Soup"}, {"alias": "cafes", "title": "Cafes"}], "rating": 5.0, "coordinates": {"latitude": 42.21173, "longitude": -73.34594}, "transactions": [], "location": {"address1": "389 Stockbridge Rd", "address2": "", "address3": null, "city": "Great Barrington", "zip_code": "01230", "country": "US", "state": "MA", "display_address": ["389 Stockbridge Rd", "Great Barrington, MA 01230"]}, "phone": "+14135280040", "display_phone": "(413) 528-0040", "distance": 11240.085437224121}, {"id": "tzGeP8RTMlywrPLoufd_Fw", "alias": "farmington-river-diner-otis", "name": "Farmington River Diner", "image_url": "https://s3-media4.fl.yelpcdn.com/bphoto/ut6IiVEvNLgXTrhRu4jAHw/o.jpg", "is_closed": false, "url": "https://www.yelp.com/biz/farmington-river-diner-otis?adjust_creative=ywY5UnLZrNrRl2b93Ruy_g&utm_campaign=yelp_api_v3&utm_medium=api_v3_business_search&utm_source=ywY5UnLZrNrRl2b93Ruy_g", "review_count": 21, "categories": [{"alias": "diners", "title": "Diners"}, {"alias": "breakfast_brunch", "title": "Breakfast & Brunch"}], "rating": 3.5, "coordinates": {"latitude": 42.1899823524507, "longitude": -73.0904081204439}, "transactions": [], "price": "$$$", "location": {"address1": "119 S Main Rd", "address2": "", "address3": "", "city": "Otis", "zip_code": "01253", "country": "US", "state": "MA", "display_address": ["119 S Main Rd", "Otis, MA 01253"]}, "phone": "+14132696874", "display_phone": "(413) 269-6874", "distance": 10154.057241614031}, {"id": "8L8dptUTYdhhGf_szpQa-Q", "alias": "elixir-great-barrington-2", "name": "Elixir", "image_url": "https://s3-media4.fl.yelpcdn.com/bphoto/3rbG7SL6_qmVL9wbOQhd_g/o.jpg", "is_closed": false, "url": "https://www.yelp.com/biz/elixir-great-barrington-2?adjust_creative=ywY5UnLZrNrRl2b93Ruy_g&utm_campaign=yelp_api_v3&utm_medium=api_v3_business_search&utm_source=ywY5UnLZrNrRl2b93Ruy_g", "review_count": 14, "categories": [{"alias": "vegan", "title": "Vegan"}, {"alias": "tea", "title": "Tea Rooms"}, {"alias": "organic_stores", "title": "Organic Stores"}], "rating": 3.5, "coordinates": {"latitude": 42.1952667236328, "longitude": -73.3630981445312}, "transactions": [], "price": "$$$", "location": {"address1": "70 Railroad St", "address2": "", "address3": "", "city": "Great Barrington", "zip_code": "01230", "country": "US", "state": "MA", "display_address": ["70 Railroad St", "Great Barrington, MA 01230"]}, "phone": "+14136448999", "display_phone": "(413) 644-8999", "distance": 12346.536888298482}, {"id": "fj8-r6Z6DH_WeE5vUGB7jg", "alias": "xicohtencatl-great-barrington", "name": "Xicohtencatl", "image_url": "https://s3-media3.fl.yelpcdn.com/bphoto/UYbFRyxG5IIZjZzk_baAOw/o.jpg", "is_closed": false, "url": "https://www.yelp.com/biz/xicohtencatl-great-barrington?adjust_creative=ywY5UnLZrNrRl2b93Ruy_g&utm_campaign=yelp_api_v3&utm_medium=api_v3_business_search&utm_source=ywY5UnLZrNrRl2b93Ruy_g", "review_count": 179, "categories": [{"alias": "mexican", "title": "Mexican"}], "rating": 3.5, "coordinates": {"latitude": 42.202749, "longitude": -73.346869}, "transactions": [], "price": "$$", "location": {"address1": "50 Stockbridge Rd", "address2": "", "address3": "", "city": "Great Barrington", "zip_code": "01230", "country": "US", "state": "MA", "display_address": ["50 Stockbridge Rd", "Great Barrington, MA 01230"]}, "phone": "+14135282002", "display_phone": "(413) 528-2002", "distance": 11106.164159076714}, {"id": "j1Caj8bDL2gm4Q4OppvMQQ", "alias": "cork-n-hearth-lee-2", "name": "Cork N' Hearth", "image_url": "https://s3-media1.fl.yelpcdn.com/bphoto/NP_IxYEUvuC983-ZmoND3w/o.jpg", "is_closed": false, "url": "https://www.yelp.com/biz/cork-n-hearth-lee-2?adjust_creative=ywY5UnLZrNrRl2b93Ruy_g&utm_campaign=yelp_api_v3&utm_medium=api_v3_business_search&utm_source=ywY5UnLZrNrRl2b93Ruy_g", "review_count": 29, "categories": [{"alias": "desserts", "title": "Desserts"}, {"alias": "wine_bars", "title": "Wine Bars"}, {"alias": "diners", "title": "Diners"}], "rating": 3.5, "coordinates": {"latitude": 42.32676, "longitude": -73.26269}, "transactions": ["delivery"], "price": "$$$", "location": {"address1": "635 Laurel St", "address2": "", "address3": "", "city": "Lee", "zip_code": "01238", "country": "US", "state": "MA", "display_address": ["635 Laurel St", "Lee, MA 01238"]}, "phone": "+14132430535", "display_phone": "(413) 243-0535", "distance": 16054.735306151388}, {"id": "NxOs3pBFdxeT63HjfiOvAg", "alias": "botanica-great-barrington", "name": "Botanica", "image_url": "https://s3-media2.fl.yelpcdn.com/bphoto/vb8-YGyNVroSRLexSOgRwA/o.jpg", "is_closed": false, "url": "https://www.yelp.com/biz/botanica-great-barrington?adjust_creative=ywY5UnLZrNrRl2b93Ruy_g&utm_campaign=yelp_api_v3&utm_medium=api_v3_business_search&utm_source=ywY5UnLZrNrRl2b93Ruy_g", "review_count": 32, "categories": [{"alias": "coffee", "title": "Coffee & Tea"}, {"alias": "breakfast_brunch", "title": "Breakfast & Brunch"}, {"alias": "cocktailbars", "title": "Cocktail Bars"}], "rating": 4.0, "coordinates": {"latitude": 42.1949262212033, "longitude": -73.3633430444444}, "transactions": [], "price": "$", "location": {"address1": "34 Railroad St", "address2": "", "address3": null, "city": "Great Barrington", "zip_code": "01230", "country": "US", "state": "MA", "display_address": ["34 Railroad St", "Great Barrington, MA 01230"]}, "phone": "+14136453548", "display_phone": "(413) 645-3548", "distance": 12371.858602045977}, {"id": "_iDLvZQ3FDU0Ic5ZJYhs6Q", "alias": "the-east-great-barrington-3", "name": "The East", "image_url": "https://s3-media2.fl.yelpcdn.com/bphoto/LAvRTZS1Qpjw-eG0DqwMog/o.jpg", "is_closed": false, "url": "https://www.yelp.com/biz/the-east-great-barrington-3?adjust_creative=ywY5UnLZrNrRl2b93Ruy_g&utm_campaign=yelp_api_v3&utm_medium=api_v3_business_search&utm_source=ywY5UnLZrNrRl2b93Ruy_g", "review_count": 44, "categories": [{"alias": "chinese", "title": "Chinese"}, {"alias": "sushi", "title": "Sushi Bars"}], "rating": 3.5, "coordinates": {"latitude": 42.21063, "longitude": -73.34927}, "transactions": [], "price": "$$", "location": {"address1": "305 Stockbridge Rd", "address2": "", "address3": "", "city": "Great Barrington", "zip_code": "01230", "country": "US", "state": "MA", "display_address": ["305 Stockbridge Rd", "Great Barrington, MA 01230"]}, "phone": "+14135288850", "display_phone": "(413) 528-8850", "distance": 11253.03350063495}, {"id": "kikbfGQqB_s-Fstuix0S3w", "alias": "timothys-grill-and-pizzeria-lee", "name": "Timothy's Grill and Pizzeria", "image_url": "https://s3-media2.fl.yelpcdn.com/bphoto/mr6czjgrgKtj_zbKLm_0gw/o.jpg", "is_closed": false, "url": "https://www.yelp.com/biz/timothys-grill-and-pizzeria-lee?adjust_creative=ywY5UnLZrNrRl2b93Ruy_g&utm_campaign=yelp_api_v3&utm_medium=api_v3_business_search&utm_source=ywY5UnLZrNrRl2b93Ruy_g", "review_count": 61, "categories": [{"alias": "pizza", "title": "Pizza"}], "rating": 3.5, "coordinates": {"latitude": 42.30556, "longitude": -73.2491299}, "transactions": ["delivery"], "price": "$$", "location": {"address1": "54 Main St", "address2": "", "address3": "", "city": "Lee", "zip_code": "01238", "country": "US", "state": "MA", "display_address": ["54 Main St", "Lee, MA 01238"]}, "phone": "+14132438220", "display_phone": "(413) 243-8220", "distance": 13529.095757374227}, {"id": "HWhyBOJRs93NmJ2yuLjN1w", "alias": "vivaldis-pizzeria-great-barrington", "name": "Vivaldi's Pizzeria", "image_url": "https://s3-media1.fl.yelpcdn.com/bphoto/wkJbMD23Gcs8QpSON9gzsQ/o.jpg", "is_closed": false, "url": "https://www.yelp.com/biz/vivaldis-pizzeria-great-barrington?adjust_creative=ywY5UnLZrNrRl2b93Ruy_g&utm_campaign=yelp_api_v3&utm_medium=api_v3_business_search&utm_source=ywY5UnLZrNrRl2b93Ruy_g", "review_count": 4, "categories": [{"alias": "pizza", "title": "Pizza"}, {"alias": "italian", "title": "Italian"}], "rating": 3.0, "coordinates": {"latitude": 42.2095896967978, "longitude": -73.3461755658212}, "transactions": [], "location": {"address1": "325 Stockbridge Rd", "address2": "", "address3": null, "city": "Great Barrington", "zip_code": "01230", "country": "US", "state": "MA", "display_address": ["325 Stockbridge Rd", "Great Barrington, MA 01230"]}, "phone": "+14135289000", "display_phone": "(413) 528-9000", "distance": 11213.885880627138}, {"id": "49F-lpG6WPcHn0_r2gKT-g", "alias": "rio-cafe-great-barrington", "name": "Rio Cafe", "image_url": "https://s3-media1.fl.yelpcdn.com/bphoto/j-WT51OZkgyfvsbFY-MBjw/o.jpg", "is_closed": false, "url": "https://www.yelp.com/biz/rio-cafe-great-barrington?adjust_creative=ywY5UnLZrNrRl2b93Ruy_g&utm_campaign=yelp_api_v3&utm_medium=api_v3_business_search&utm_source=ywY5UnLZrNrRl2b93Ruy_g", "review_count": 22, "categories": [{"alias": "breakfast_brunch", "title": "Breakfast & Brunch"}, {"alias": "tradamerican", "title": "American (Traditional)"}, {"alias": "juicebars", "title": "Juice Bars & Smoothies"}], "rating": 4.0, "coordinates": {"latitude": 42.212162, "longitude": -73.345642}, "transactions": [], "location": {"address1": "401 Stockbridge Rd", "address2": null, "address3": "", "city": "Great Barrington", "zip_code": "01230", "country": "US", "state": "MA", "display_address": ["401 Stockbridge Rd", "Great Barrington, MA 01230"]}, "phone": "+14135289746", "display_phone": "(413) 528-9746", "distance": 11229.227001736346}, {"id": "YxyGGdlxUYVA3vkINjyNTQ", "alias": "locker-room-sports-bar-lee", "name": "Locker Room Sports Bar", "image_url": "https://s3-media2.fl.yelpcdn.com/bphoto/doxj4Q4nlRYbGy4Uf9IajA/o.jpg", "is_closed": false, "url": "https://www.yelp.com/biz/locker-room-sports-bar-lee?adjust_creative=ywY5UnLZrNrRl2b93Ruy_g&utm_campaign=yelp_api_v3&utm_medium=api_v3_business_search&utm_source=ywY5UnLZrNrRl2b93Ruy_g", "review_count": 49, "categories": [{"alias": "tradamerican", "title": "American (Traditional)"}, {"alias": "sportsbars", "title": "Sports Bars"}], "rating": 3.5, "coordinates": {"latitude": 42.309491, "longitude": -73.251066}, "transactions": ["delivery"], "price": "$$", "location": {"address1": "232 Main St", "address2": "", "address3": "", "city": "Lee", "zip_code": "01238", "country": "US", "state": "MA", "display_address": ["232 Main St", "Lee, MA 01238"]}, "phone": "+14132432662", "display_phone": "(413) 243-2662", "distance": 13985.83605754084}, {"id": "b4-4eClP0ksWjfBUMkI1-A", "alias": "becket-general-store-becket-2", "name": "Becket General Store", "image_url": "https://s3-media2.fl.yelpcdn.com/bphoto/O1QiC8MXq3W-AcqbU7FaFQ/o.jpg", "is_closed": false, "url": "https://www.yelp.com/biz/becket-general-store-becket-2?adjust_creative=ywY5UnLZrNrRl2b93Ruy_g&utm_campaign=yelp_api_v3&utm_medium=api_v3_business_search&utm_source=ywY5UnLZrNrRl2b93Ruy_g", "review_count": 11, "categories": [{"alias": "breakfast_brunch", "title": "Breakfast & Brunch"}, {"alias": "pizza", "title": "Pizza"}, {"alias": "bars", "title": "Bars"}], "rating": 4.5, "coordinates": {"latitude": 42.3275317514641, "longitude": -73.0836283305567}, "transactions": [], "location": {"address1": "3235 Main St", "address2": "", "address3": null, "city": "Becket", "zip_code": "01223", "country": "US", "state": "MA", "display_address": ["3235 Main St", "Becket, MA 01223"]}, "phone": "+14136236026", "display_phone": "(413) 623-6026", "distance": 18957.221778477055}, {"id": "_HmOkwI-mwiz3qoLeYMCkg", "alias": "siam-square-great-barrington", "name": "Siam Square", "image_url": "https://s3-media1.fl.yelpcdn.com/bphoto/iWMq64xfX9_vonqM4YDa8w/o.jpg", "is_closed": false, "url": "https://www.yelp.com/biz/siam-square-great-barrington?adjust_creative=ywY5UnLZrNrRl2b93Ruy_g&utm_campaign=yelp_api_v3&utm_medium=api_v3_business_search&utm_source=ywY5UnLZrNrRl2b93Ruy_g", "review_count": 61, "categories": [{"alias": "thai", "title": "Thai"}], "rating": 3.0, "coordinates": {"latitude": 42.1946555, "longitude": -73.3623609}, "transactions": [], "price": "$$", "location": {"address1": "290 Main St", "address2": "", "address3": "", "city": "Great Barrington", "zip_code": "01230", "country": "US", "state": "MA", "display_address": ["290 Main St", "Great Barrington, MA 01230"]}, "phone": "+14136449119", "display_phone": "(413) 644-9119", "distance": 12300.69312202696}, {"id": "oeQ9OQB-m_Fq1xLIGKIToA", "alias": "dola-pizzeria-great-barrington-2", "name": "Dola Pizzeria", "image_url": "https://s3-media2.fl.yelpcdn.com/bphoto/IKb6z2zz45Ll6Jf_K0tSNg/o.jpg", "is_closed": false, "url": "https://www.yelp.com/biz/dola-pizzeria-great-barrington-2?adjust_creative=ywY5UnLZrNrRl2b93Ruy_g&utm_campaign=yelp_api_v3&utm_medium=api_v3_business_search&utm_source=ywY5UnLZrNrRl2b93Ruy_g", "review_count": 11, "categories": [{"alias": "pizza", "title": "Pizza"}], "rating": 4.0, "coordinates": {"latitude": 42.19489, "longitude": -73.36304}, "transactions": [], "price": "$$", "location": {"address1": "20 Railroad St", "address2": "", "address3": "", "city": "Great Barrington", "zip_code": "02806", "country": "US", "state": "MA", "display_address": ["20 Railroad St", "Great Barrington, MA 02806"]}, "phone": "", "display_phone": "", "distance": 12350.355298846618}, {"id": "pqX6xDHUOPS46A0J2RX1ig", "alias": "berkshire-mountain-bakery-housatonic", "name": "Berkshire Mountain Bakery", "image_url": "https://s3-media1.fl.yelpcdn.com/bphoto/MzGyxKNuw2ttFFEMHminDw/o.jpg", "is_closed": false, "url": "https://www.yelp.com/biz/berkshire-mountain-bakery-housatonic?adjust_creative=ywY5UnLZrNrRl2b93Ruy_g&utm_campaign=yelp_api_v3&utm_medium=api_v3_business_search&utm_source=ywY5UnLZrNrRl2b93Ruy_g", "review_count": 53, "categories": [{"alias": "bakeries", "title": "Bakeries"}, {"alias": "pizza", "title": "Pizza"}], "rating": 4.5, "coordinates": {"latitude": 42.2507939734799, "longitude": -73.3638707368851}, "transactions": [], "price": "$$", "location": {"address1": "367 Park St", "address2": "", "address3": "Rte 183", "city": "Housatonic", "zip_code": "01236", "country": "US", "state": "MA", "display_address": ["367 Park St", "Rte 183", "Housatonic, MA 01236"]}, "phone": "+14132743412", "display_phone": "(413) 274-3412", "distance": 14278.232059415022}, {"id": "ftLxE19Q1XcETl3PppYLXQ", "alias": "soma-catering-cafe-west-stockbridge", "name": "Soma Catering - Cafe", "image_url": "https://s3-media1.fl.yelpcdn.com/bphoto/VyKwfK-HhFu-sdfWvVrc0g/o.jpg", "is_closed": false, "url": "https://www.yelp.com/biz/soma-catering-cafe-west-stockbridge?adjust_creative=ywY5UnLZrNrRl2b93Ruy_g&utm_campaign=yelp_api_v3&utm_medium=api_v3_business_search&utm_source=ywY5UnLZrNrRl2b93Ruy_g", "review_count": 5, "categories": [{"alias": "cafes", "title": "Cafes"}], "rating": 5.0, "coordinates": {"latitude": 42.3349405594726, "longitude": -73.3677865192294}, "transactions": [], "price": "$$", "location": {"address1": "4 Albany Rd", "address2": "", "address3": "", "city": "West Stockbridge", "zip_code": "01266", "country": "US", "state": "MA", "display_address": ["4 Albany Rd", "West Stockbridge, MA 01266"]}, "phone": "+14132320007", "display_phone": "(413) 232-0007", "distance": 20797.06717246323}, {"id": "sZgz8QmrpPP9Bdb05duIIw", "alias": "sherwood-shoppe-becket", "name": "Sherwood Shoppe", "image_url": "https://s3-media4.fl.yelpcdn.com/bphoto/Aq0y_PiAhV_XqC56wD-m4Q/o.jpg", "is_closed": false, "url": "https://www.yelp.com/biz/sherwood-shoppe-becket?adjust_creative=ywY5UnLZrNrRl2b93Ruy_g&utm_campaign=yelp_api_v3&utm_medium=api_v3_business_search&utm_source=ywY5UnLZrNrRl2b93Ruy_g", "review_count": 12, "categories": [{"alias": "convenience", "title": "Convenience Stores"}, {"alias": "breakfast_brunch", "title": "Breakfast & Brunch"}, {"alias": "delis", "title": "Delis"}], "rating": 4.5, "coordinates": {"latitude": 42.2538082301617, "longitude": -73.0638302117586}, "transactions": [], "price": "$", "location": {"address1": "437 Wells Rd", "address2": "", "address3": "", "city": "Becket", "zip_code": "01223", "country": "US", "state": "MA", "display_address": ["437 Wells Rd", "Becket, MA 01223"]}, "phone": "+14136232338", "display_phone": "(413) 623-2338", "distance": 14428.599408273361}, {"id": "0pwyB4dpem6dDGtVlimIDw", "alias": "fiesta-bar-and-grill-great-barrington", "name": "Fiesta Bar & Grill", "image_url": "https://s3-media1.fl.yelpcdn.com/bphoto/WNyK4Q1s9lWE2a_eVHUK1w/o.jpg", "is_closed": false, "url": "https://www.yelp.com/biz/fiesta-bar-and-grill-great-barrington?adjust_creative=ywY5UnLZrNrRl2b93Ruy_g&utm_campaign=yelp_api_v3&utm_medium=api_v3_business_search&utm_source=ywY5UnLZrNrRl2b93Ruy_g", "review_count": 34, "categories": [{"alias": "mexican", "title": "Mexican"}, {"alias": "burgers", "title": "Burgers"}, {"alias": "cocktailbars", "title": "Cocktail Bars"}], "rating": 4.0, "coordinates": {"latitude": 42.194914, "longitude": -73.362431}, "transactions": [], "location": {"address1": "284 Main St", "address2": "Bldg 2", "address3": "", "city": "Great Barrington", "zip_code": "01230", "country": "US", "state": "MA", "display_address": ["284 Main St", "Bldg 2", "Great Barrington, MA 01230"]}, "phone": "+14135283343", "display_phone": "(413) 528-3343", "distance": 12296.823944956426}, {"id": "AceFH1UHW8jLd3atLf9ouQ", "alias": "bizen-gourmet-japanese-cuisine-and-sushi-bar-great-barrington", "name": "Bizen Gourmet Japanese Cuisine & Sushi Bar", "image_url": "https://s3-media2.fl.yelpcdn.com/bphoto/-0dwVELwKigHEZEDSaeHkQ/o.jpg", "is_closed": false, "url": "https://www.yelp.com/biz/bizen-gourmet-japanese-cuisine-and-sushi-bar-great-barrington?adjust_creative=ywY5UnLZrNrRl2b93Ruy_g&utm_campaign=yelp_api_v3&utm_medium=api_v3_business_search&utm_source=ywY5UnLZrNrRl2b93Ruy_g", "review_count": 116, "categories": [{"alias": "japanese", "title": "Japanese"}, {"alias": "sushi", "title": "Sushi Bars"}], "rating": 3.0, "coordinates": {"latitude": 42.1946224810561, "longitude": -73.3629634583339}, "transactions": [], "price": "$$$", "location": {"address1": "17 Railroad St", "address2": "", "address3": "", "city": "Great Barrington", "zip_code": "01230", "country": "US", "state": "MA", "display_address": ["17 Railroad St", "Great Barrington, MA 01230"]}, "phone": "+14135284343", "display_phone": "(413) 528-4343", "distance": 12362.847394647937}, {"id": "7eYkLZ4rnX_Fs-de-R5VnA", "alias": "athenas-pizza-house-lee", "name": "Athena's Pizza House", "image_url": "https://s3-media2.fl.yelpcdn.com/bphoto/ej1eFj3hU3ZUFKJBue3MvA/o.jpg", "is_closed": false, "url": "https://www.yelp.com/biz/athenas-pizza-house-lee?adjust_creative=ywY5UnLZrNrRl2b93Ruy_g&utm_campaign=yelp_api_v3&utm_medium=api_v3_business_search&utm_source=ywY5UnLZrNrRl2b93Ruy_g", "review_count": 3, "categories": [{"alias": "pizza", "title": "Pizza"}], "rating": 3.5, "coordinates": {"latitude": 42.303669, "longitude": -73.245622}, "transactions": ["delivery"], "location": {"address1": "30 Housatonic St", "address2": "", "address3": "", "city": "Lee", "zip_code": "01238", "country": "US", "state": "MA", "display_address": ["30 Housatonic St", "Lee, MA 01238"]}, "phone": "+14132431223", "display_phone": "(413) 243-1223", "distance": 13263.996743229884}, {"id": "ai6kbJz0ECGc0-VvZ4i1vQ", "alias": "bogies-restaurant-and-pub-great-barrington", "name": "Bogies Restaurant & Pub", "image_url": "https://s3-media2.fl.yelpcdn.com/bphoto/Va91vXZ_pilW2wPpvNCbwg/o.jpg", "is_closed": false, "url": "https://www.yelp.com/biz/bogies-restaurant-and-pub-great-barrington?adjust_creative=ywY5UnLZrNrRl2b93Ruy_g&utm_campaign=yelp_api_v3&utm_medium=api_v3_business_search&utm_source=ywY5UnLZrNrRl2b93Ruy_g", "review_count": 18, "categories": [{"alias": "newamerican", "title": "American (New)"}, {"alias": "pubs", "title": "Pubs"}, {"alias": "beer_and_wine", "title": "Beer, Wine & Spirits"}], "rating": 3.0, "coordinates": {"latitude": 42.1704012, "longitude": -73.3633348}, "transactions": [], "price": "$$", "location": {"address1": "935 S Main St", "address2": "", "address3": "", "city": "Great Barrington", "zip_code": "01230", "country": "US", "state": "MA", "display_address": ["935 S Main St", "Great Barrington, MA 01230"]}, "phone": "+14135285959", "display_phone": "(413) 528-5959", "distance": 12473.681497902715}, {"id": "Kv4z5CS7nupAuboNea-Hfw", "alias": "four-brothers-pizza-and-restaurant-great-barrington", "name": "Four Brothers Pizza & Restaurant", "image_url": "https://s3-media3.fl.yelpcdn.com/bphoto/RIhamwbeg7Qp9VYoO9cqFQ/o.jpg", "is_closed": false, "url": "https://www.yelp.com/biz/four-brothers-pizza-and-restaurant-great-barrington?adjust_creative=ywY5UnLZrNrRl2b93Ruy_g&utm_campaign=yelp_api_v3&utm_medium=api_v3_business_search&utm_source=ywY5UnLZrNrRl2b93Ruy_g", "review_count": 47, "categories": [{"alias": "pizza", "title": "Pizza"}, {"alias": "italian", "title": "Italian"}, {"alias": "sandwiches", "title": "Sandwiches"}], "rating": 3.5, "coordinates": {"latitude": 42.2040541, "longitude": -73.3462889}, "transactions": [], "price": "$$", "location": {"address1": "100 Stockbridge Rd", "address2": null, "address3": "", "city": "Great Barrington", "zip_code": "01230", "country": "US", "state": "MA", "display_address": ["100 Stockbridge Rd", "Great Barrington, MA 01230"]}, "phone": "+14135289684", "display_phone": "(413) 528-9684", "distance": 11100.462461715479}, {"id": "Ih_1dL1e_GcnZMCIzyWPxw", "alias": "river-dale-market-and-deli-lenox-dale", "name": "River Dale Market and Deli", "image_url": "https://s3-media4.fl.yelpcdn.com/bphoto/MTcXOfPq309gYnidVS3QMA/o.jpg", "is_closed": false, "url": "https://www.yelp.com/biz/river-dale-market-and-deli-lenox-dale?adjust_creative=ywY5UnLZrNrRl2b93Ruy_g&utm_campaign=yelp_api_v3&utm_medium=api_v3_business_search&utm_source=ywY5UnLZrNrRl2b93Ruy_g", "review_count": 1, "categories": [{"alias": "delis", "title": "Delis"}, {"alias": "convenience", "title": "Convenience Stores"}, {"alias": "meats", "title": "Meat Shops"}], "rating": 5.0, "coordinates": {"latitude": 42.33335, "longitude": -73.24598}, "transactions": [], "location": {"address1": "2 Crystal St", "address2": null, "address3": "", "city": "Lenox Dale", "zip_code": "01242", "country": "US", "state": "MA", "display_address": ["2 Crystal St", "Lenox Dale, MA 01242"]}, "phone": "+14138814136", "display_phone": "(413) 881-4136", "distance": 16522.304854148093}, {"id": "iJzH7sbo1H7VWWLSVjzxrw", "alias": "new-england-wraps-lee", "name": "New England Wraps", "image_url": "https://s3-media3.fl.yelpcdn.com/bphoto/8kEwgGyDR5LV_fR8krxaNg/o.jpg", "is_closed": false, "url": "https://www.yelp.com/biz/new-england-wraps-lee?adjust_creative=ywY5UnLZrNrRl2b93Ruy_g&utm_campaign=yelp_api_v3&utm_medium=api_v3_business_search&utm_source=ywY5UnLZrNrRl2b93Ruy_g", "review_count": 1, "categories": [{"alias": "wraps", "title": "Wraps"}, {"alias": "burgers", "title": "Burgers"}, {"alias": "sandwiches", "title": "Sandwiches"}], "rating": 5.0, "coordinates": {"latitude": 42.305738, "longitude": -73.249225}, "transactions": ["pickup", "delivery"], "location": {"address1": "62 Main St", "address2": null, "address3": null, "city": "Lee", "zip_code": "01238", "country": "US", "state": "MA", "display_address": ["62 Main St", "Lee, MA 01238"]}, "phone": "+14133944081", "display_phone": "(413) 394-4081", "distance": 13547.265592573005}, {"id": "akdGp78cMY3swQrF8r69TA", "alias": "stateline-pizza-canaan", "name": "Stateline Pizza", "image_url": "https://s3-media4.fl.yelpcdn.com/bphoto/h21nNfGafKheHyhwIINKVg/o.jpg", "is_closed": false, "url": "https://www.yelp.com/biz/stateline-pizza-canaan?adjust_creative=ywY5UnLZrNrRl2b93Ruy_g&utm_campaign=yelp_api_v3&utm_medium=api_v3_business_search&utm_source=ywY5UnLZrNrRl2b93Ruy_g", "review_count": 19, "categories": [{"alias": "pizza", "title": "Pizza"}, {"alias": "italian", "title": "Italian"}], "rating": 3.5, "coordinates": {"latitude": 42.036883, "longitude": -73.324765}, "transactions": [], "price": "$$", "location": {"address1": "340 N Elm St", "address2": "", "address3": "", "city": "Canaan", "zip_code": "06018", "country": "US", "state": "CT", "display_address": ["340 N Elm St", "Canaan, CT 06018"]}, "phone": "+18608241554", "display_phone": "(860) 824-1554", "distance": 19023.15357330623}, {"id": "Cpk70Wzg3urDSoKTdEn2mg", "alias": "truc-orient-express-restaurant-west-stockbridge", "name": "Truc Orient Express Restaurant", "image_url": "https://s3-media2.fl.yelpcdn.com/bphoto/e6Wxu6ZtbvWtXwuSp1invg/o.jpg", "is_closed": false, "url": "https://www.yelp.com/biz/truc-orient-express-restaurant-west-stockbridge?adjust_creative=ywY5UnLZrNrRl2b93Ruy_g&utm_campaign=yelp_api_v3&utm_medium=api_v3_business_search&utm_source=ywY5UnLZrNrRl2b93Ruy_g", "review_count": 33, "categories": [{"alias": "vietnamese", "title": "Vietnamese"}, {"alias": "salad", "title": "Salad"}, {"alias": "vegetarian", "title": "Vegetarian"}], "rating": 3.0, "coordinates": {"latitude": 42.3329692899726, "longitude": -73.3681175330594}, "transactions": [], "price": "$$", "location": {"address1": "3 Harris St", "address2": "", "address3": "", "city": "West Stockbridge", "zip_code": "01266", "country": "US", "state": "MA", "display_address": ["3 Harris St", "West Stockbridge, MA 01266"]}, "phone": "+14132324204", "display_phone": "(413) 232-4204", "distance": 20640.74132486912}, {"id": "paVKtaYXqJJF41qNzLaaVQ", "alias": "taft-farms-great-barrington", "name": "Taft Farms", "image_url": "https://s3-media2.fl.yelpcdn.com/bphoto/KG4bZ_R-Q3aDQM-QVzFXRg/o.jpg", "is_closed": false, "url": "https://www.yelp.com/biz/taft-farms-great-barrington?adjust_creative=ywY5UnLZrNrRl2b93Ruy_g&utm_campaign=yelp_api_v3&utm_medium=api_v3_business_search&utm_source=ywY5UnLZrNrRl2b93Ruy_g", "review_count": 30, "categories": [{"alias": "farmersmarket", "title": "Farmers Market"}, {"alias": "delis", "title": "Delis"}], "rating": 4.0, "coordinates": {"latitude": 42.2326395706116, "longitude": -73.3466951849741}, "transactions": [], "price": "$$", "location": {"address1": "119 Park St N", "address2": null, "address3": "", "city": "Great Barrington", "zip_code": "01230", "country": "US", "state": "MA", "display_address": ["119 Park St N", "Great Barrington, MA 01230"]}, "phone": "+14135281515", "display_phone": "(413) 528-1515", "distance": 12092.270841344382}, {"id": "_44KcXxrWxc025YsRUq2Gw", "alias": "prado-s-cafe-lee", "name": "Prado\u2019s Cafe", "image_url": "https://s3-media3.fl.yelpcdn.com/bphoto/p6UYYaeX6jK3U7Hfgv20JA/o.jpg", "is_closed": false, "url": "https://www.yelp.com/biz/prado-s-cafe-lee?adjust_creative=ywY5UnLZrNrRl2b93Ruy_g&utm_campaign=yelp_api_v3&utm_medium=api_v3_business_search&utm_source=ywY5UnLZrNrRl2b93Ruy_g", "review_count": 7, "categories": [{"alias": "breakfast_brunch", "title": "Breakfast & Brunch"}, {"alias": "cafes", "title": "Cafes"}], "rating": 3.5, "coordinates": {"latitude": 42.30594, "longitude": -73.24992}, "transactions": ["pickup", "delivery"], "location": {"address1": "85 Main St", "address2": null, "address3": "", "city": "Lee", "zip_code": "01238", "country": "US", "state": "MA", "display_address": ["85 Main St", "Lee, MA 01238"]}, "phone": "+14132436561", "display_phone": "(413) 243-6561", "distance": 13585.148148142527}, {"id": "_IeXgcpDnbba34__lW7eVA", "alias": "pleasant-and-main-housatonic", "name": "Pleasant and Main", "image_url": "https://s3-media2.fl.yelpcdn.com/bphoto/5wvDuE7IzPwXzRQL_LZjAA/o.jpg", "is_closed": false, "url": "https://www.yelp.com/biz/pleasant-and-main-housatonic?adjust_creative=ywY5UnLZrNrRl2b93Ruy_g&utm_campaign=yelp_api_v3&utm_medium=api_v3_business_search&utm_source=ywY5UnLZrNrRl2b93Ruy_g", "review_count": 124, "categories": [{"alias": "cafes", "title": "Cafes"}, {"alias": "breakfast_brunch", "title": "Breakfast & Brunch"}, {"alias": "creperies", "title": "Creperies"}], "rating": 4.0, "coordinates": {"latitude": 42.2558373814533, "longitude": -73.3685981023773}, "transactions": [], "price": "$$", "location": {"address1": "1063 Main St", "address2": "", "address3": "", "city": "Housatonic", "zip_code": "01236", "country": "US", "state": "MA", "display_address": ["1063 Main St", "Housatonic, MA 01236"]}, "phone": "+14132746303", "display_phone": "(413) 274-6303", "distance": 14897.736834280957}, {"id": "p-HyVSwogxhHQs8xJ-t9vQ", "alias": "the-starving-artist-creperie-and-cafe-lee", "name": "The Starving Artist Creperie and Cafe", "image_url": "https://s3-media1.fl.yelpcdn.com/bphoto/HQIOZG95zR30GCSYkwInNw/o.jpg", "is_closed": false, "url": "https://www.yelp.com/biz/the-starving-artist-creperie-and-cafe-lee?adjust_creative=ywY5UnLZrNrRl2b93Ruy_g&utm_campaign=yelp_api_v3&utm_medium=api_v3_business_search&utm_source=ywY5UnLZrNrRl2b93Ruy_g", "review_count": 204, "categories": [{"alias": "creperies", "title": "Creperies"}, {"alias": "cafes", "title": "Cafes"}], "rating": 4.0, "coordinates": {"latitude": 42.30504, "longitude": -73.24892}, "transactions": ["delivery"], "price": "$$", "location": {"address1": "40 Main St", "address2": "Ste 2", "address3": "", "city": "Lee", "zip_code": "01238", "country": "US", "state": "MA", "display_address": ["40 Main St", "Ste 2", "Lee, MA 01238"]}, "phone": "+14133945046", "display_phone": "(413) 394-5046", "distance": 13508.55639325433}, {"id": "TlSjI37wmBlYf2rQg8S5Rg", "alias": "the-marketplace-cafe-sheffield-2", "name": "The Marketplace Cafe", "image_url": "https://s3-media1.fl.yelpcdn.com/bphoto/64u1i13Jxs1E2T9MKbo9bw/o.jpg", "is_closed": false, "url": "https://www.yelp.com/biz/the-marketplace-cafe-sheffield-2?adjust_creative=ywY5UnLZrNrRl2b93Ruy_g&utm_campaign=yelp_api_v3&utm_medium=api_v3_business_search&utm_source=ywY5UnLZrNrRl2b93Ruy_g", "review_count": 33, "categories": [{"alias": "coffee", "title": "Coffee & Tea"}, {"alias": "sandwiches", "title": "Sandwiches"}, {"alias": "cafes", "title": "Cafes"}], "rating": 4.0, "coordinates": {"latitude": 42.109022, "longitude": -73.353077}, "transactions": [], "price": "$", "location": {"address1": "18 Elm Ct", "address2": "", "address3": "", "city": "Sheffield", "zip_code": "01257", "country": "US", "state": "MA", "display_address": ["18 Elm Ct", "Sheffield, MA 01257"]}, "phone": "+14132485040", "display_phone": "(413) 248-5040", "distance": 14387.257242530059}, {"id": "2kBz_-OHhdpA7AQd2Rg7rg", "alias": "farm-country-soup-great-barrington-2", "name": "Farm Country Soup", "image_url": "https://s3-media4.fl.yelpcdn.com/bphoto/iCPJvkuXXSSfKyiV_tHYRw/o.jpg", "is_closed": false, "url": "https://www.yelp.com/biz/farm-country-soup-great-barrington-2?adjust_creative=ywY5UnLZrNrRl2b93Ruy_g&utm_campaign=yelp_api_v3&utm_medium=api_v3_business_search&utm_source=ywY5UnLZrNrRl2b93Ruy_g", "review_count": 1, "categories": [{"alias": "comfortfood", "title": "Comfort Food"}, {"alias": "breakfast_brunch", "title": "Breakfast & Brunch"}, {"alias": "sandwiches", "title": "Sandwiches"}], "rating": 5.0, "coordinates": {"latitude": 42.2116193, "longitude": -73.3458393}, "transactions": [], "location": {"address1": "389 Stockbridge Rd", "address2": "", "address3": "", "city": "Great Barrington", "zip_code": "01230", "country": "US", "state": "MA", "display_address": ["389 Stockbridge Rd", "Great Barrington, MA 01230"]}, "phone": "+14135280040", "display_phone": "(413) 528-0040", "distance": 11240.085437224121}, {"id": "Ag_IxQNO_Ta9EXkMYiwyxA", "alias": "elm-street-market-stockbridge-2", "name": "Elm Street Market", "image_url": "https://s3-media3.fl.yelpcdn.com/bphoto/zi4IDgWR2QOuvqvUiUFbfQ/o.jpg", "is_closed": false, "url": "https://www.yelp.com/biz/elm-street-market-stockbridge-2?adjust_creative=ywY5UnLZrNrRl2b93Ruy_g&utm_campaign=yelp_api_v3&utm_medium=api_v3_business_search&utm_source=ywY5UnLZrNrRl2b93Ruy_g", "review_count": 18, "categories": [{"alias": "grocery", "title": "Grocery"}, {"alias": "breakfast_brunch", "title": "Breakfast & Brunch"}, {"alias": "delis", "title": "Delis"}], "rating": 3.5, "coordinates": {"latitude": 42.2812543, "longitude": -73.3107069}, "transactions": [], "price": "$", "location": {"address1": "4 Elm St", "address2": null, "address3": null, "city": "Stockbridge", "zip_code": "01262", "country": "US", "state": "MA", "display_address": ["4 Elm St", "Stockbridge, MA 01262"]}, "phone": "+14132983634", "display_phone": "(413) 298-3634", "distance": 13203.633903080226}, {"id": "G0fnN-H65DmDBcHWDwuOqA", "alias": "stockbridge-general-store-stockbridge", "name": "Stockbridge General Store", "image_url": "https://s3-media4.fl.yelpcdn.com/bphoto/5XQ8mO6_mWrK05oe8Vf1lQ/o.jpg", "is_closed": false, "url": "https://www.yelp.com/biz/stockbridge-general-store-stockbridge?adjust_creative=ywY5UnLZrNrRl2b93Ruy_g&utm_campaign=yelp_api_v3&utm_medium=api_v3_business_search&utm_source=ywY5UnLZrNrRl2b93Ruy_g", "review_count": 9, "categories": [{"alias": "grocery", "title": "Grocery"}, {"alias": "icecream", "title": "Ice Cream & Frozen Yogurt"}, {"alias": "cafes", "title": "Cafes"}], "rating": 3.0, "coordinates": {"latitude": 42.28177, "longitude": -73.31113}, "transactions": [], "location": {"address1": "40 Main St", "address2": "", "address3": "", "city": "Stockbridge", "zip_code": "01262", "country": "US", "state": "MA", "display_address": ["40 Main St", "Stockbridge, MA 01262"]}, "phone": "+14132983060", "display_phone": "(413) 298-3060", "distance": 13272.159438791046}, {"id": "Rudl9ulOWqNqgp0HNfvAHQ", "alias": "great-barrington-pizza-house-great-barrington-2", "name": "Great Barrington Pizza House", "image_url": "https://s3-media3.fl.yelpcdn.com/bphoto/2kIAhFO2MQ5xALT61U3AVw/o.jpg", "is_closed": false, "url": "https://www.yelp.com/biz/great-barrington-pizza-house-great-barrington-2?adjust_creative=ywY5UnLZrNrRl2b93Ruy_g&utm_campaign=yelp_api_v3&utm_medium=api_v3_business_search&utm_source=ywY5UnLZrNrRl2b93Ruy_g", "review_count": 22, "categories": [{"alias": "pizza", "title": "Pizza"}], "rating": 3.5, "coordinates": {"latitude": 42.20148, "longitude": -73.35547}, "transactions": [], "price": "$$", "location": {"address1": "36 State Rd", "address2": null, "address3": "", "city": "Great Barrington", "zip_code": "01230", "country": "US", "state": "MA", "display_address": ["36 State Rd", "Great Barrington, MA 01230"]}, "phone": "", "display_phone": "", "distance": 11803.638155601117}, {"id": "ix1WhyVc9cWYQExuGrlQDQ", "alias": "vivaldis-pizzeria-lee", "name": "Vivaldi's Pizzeria", "image_url": "https://s3-media1.fl.yelpcdn.com/bphoto/BSFVi2zKRZfkvT4GkrgZzw/o.jpg", "is_closed": false, "url": "https://www.yelp.com/biz/vivaldis-pizzeria-lee?adjust_creative=ywY5UnLZrNrRl2b93Ruy_g&utm_campaign=yelp_api_v3&utm_medium=api_v3_business_search&utm_source=ywY5UnLZrNrRl2b93Ruy_g", "review_count": 27, "categories": [{"alias": "pizza", "title": "Pizza"}], "rating": 3.5, "coordinates": {"latitude": 42.303386, "longitude": -73.247599}, "transactions": ["delivery"], "price": "$$", "location": {"address1": "33 Park Plz", "address2": "", "address3": "", "city": "Lee", "zip_code": "01238", "country": "US", "state": "MA", "display_address": ["33 Park Plz", "Lee, MA 01238"]}, "phone": "+14132434041", "display_phone": "(413) 243-4041", "distance": 13266.556385667556}, {"id": "y6UTWVCEElf-FSp6p6DxDw", "alias": "chef-express-lee", "name": "Chef Express", "image_url": "https://s3-media4.fl.yelpcdn.com/bphoto/Puthelxsj7iaXoyBw5EH8Q/o.jpg", "is_closed": false, "url": "https://www.yelp.com/biz/chef-express-lee?adjust_creative=ywY5UnLZrNrRl2b93Ruy_g&utm_campaign=yelp_api_v3&utm_medium=api_v3_business_search&utm_source=ywY5UnLZrNrRl2b93Ruy_g", "review_count": 10, "categories": [{"alias": "indpak", "title": "Indian"}], "rating": 3.0, "coordinates": {"latitude": 42.30535, "longitude": -73.24909}, "transactions": ["delivery"], "price": "$$", "location": {"address1": "62 Main St", "address2": null, "address3": "", "city": "Lee", "zip_code": "01238", "country": "US", "state": "MA", "display_address": ["62 Main St", "Lee, MA 01238"]}, "phone": "+14133944081", "display_phone": "(413) 394-4081", "distance": 13547.265592573005}, {"id": "zYkm0poEkKLEuuND5GvHFQ", "alias": "shiro-kitchen-and-asian-market-great-barrington", "name": "Shiro kitchen and Asian market", "image_url": "https://s3-media1.fl.yelpcdn.com/bphoto/Y658QCtUZZehLkRhAecEbw/o.jpg", "is_closed": false, "url": "https://www.yelp.com/biz/shiro-kitchen-and-asian-market-great-barrington?adjust_creative=ywY5UnLZrNrRl2b93Ruy_g&utm_campaign=yelp_api_v3&utm_medium=api_v3_business_search&utm_source=ywY5UnLZrNrRl2b93Ruy_g", "review_count": 39, "categories": [{"alias": "ramen", "title": "Ramen"}, {"alias": "sushi", "title": "Sushi Bars"}], "rating": 3.5, "coordinates": {"latitude": 42.20428, "longitude": -73.34736}, "transactions": [], "price": "$$", "location": {"address1": "105 Stockbridge Rd", "address2": "", "address3": "", "city": "Great Barrington", "zip_code": "01230", "country": "US", "state": "MA", "display_address": ["105 Stockbridge Rd", "Great Barrington, MA 01230"]}, "phone": "+14135281898", "display_phone": "(413) 528-1898", "distance": 11178.680567558284}, {"id": "3w4KYQPWvG4yCCo2aEqb_g", "alias": "snack-shack-canaan", "name": "Snack Shack", "image_url": "https://s3-media4.fl.yelpcdn.com/bphoto/cyThE8zucNhvltmLxW3WYg/o.jpg", "is_closed": false, "url": "https://www.yelp.com/biz/snack-shack-canaan?adjust_creative=ywY5UnLZrNrRl2b93Ruy_g&utm_campaign=yelp_api_v3&utm_medium=api_v3_business_search&utm_source=ywY5UnLZrNrRl2b93Ruy_g", "review_count": 3, "categories": [{"alias": "hotdogs", "title": "Fast Food"}], "rating": 4.5, "coordinates": {"latitude": 42.0389642379813, "longitude": -73.3257486093574}, "transactions": [], "price": "$", "location": {"address1": "350 Ashley Falls Rd", "address2": "", "address3": "", "city": "Canaan", "zip_code": "06018", "country": "US", "state": "CT", "display_address": ["350 Ashley Falls Rd", "Canaan, CT 06018"]}, "phone": "+18608247072", "display_phone": "(860) 824-7072", "distance": 18819.13112447876}, {"id": "oP6MxD_tKqBF_hCgk9dOmg", "alias": "east-lee-package-store-lee", "name": "East Lee Package Store", "image_url": "https://s3-media4.fl.yelpcdn.com/bphoto/ZFn3i5E5fflh0nviMpXBgw/o.jpg", "is_closed": false, "url": "https://www.yelp.com/biz/east-lee-package-store-lee?adjust_creative=ywY5UnLZrNrRl2b93Ruy_g&utm_campaign=yelp_api_v3&utm_medium=api_v3_business_search&utm_source=ywY5UnLZrNrRl2b93Ruy_g", "review_count": 11, "categories": [{"alias": "beer_and_wine", "title": "Beer, Wine & Spirits"}, {"alias": "delis", "title": "Delis"}], "rating": 3.5, "coordinates": {"latitude": 42.2972074, "longitude": -73.2314694}, "transactions": [], "price": "$", "location": {"address1": "185 Water St", "address2": "", "address3": "", "city": "Lee", "zip_code": "01238", "country": "US", "state": "MA", "display_address": ["185 Water St", "Lee, MA 01238"]}, "phone": "+14132439768", "display_phone": "(413) 243-9768", "distance": 12385.667642707353}, {"id": "R1ByTPNBUAPP96XKKkk0GQ", "alias": "rising-dale-cafe-great-barrington", "name": "Rising Dale Cafe", "image_url": "", "is_closed": false, "url": "https://www.yelp.com/biz/rising-dale-cafe-great-barrington?adjust_creative=ywY5UnLZrNrRl2b93Ruy_g&utm_campaign=yelp_api_v3&utm_medium=api_v3_business_search&utm_source=ywY5UnLZrNrRl2b93Ruy_g", "review_count": 2, "categories": [{"alias": "restaurants", "title": "Restaurants"}], "rating": 3.0, "coordinates": {"latitude": 42.240545, "longitude": -73.355646}, "transactions": [], "location": {"address1": "290 Park St", "address2": "", "address3": "", "city": "Great Barrington", "zip_code": "01230", "country": "US", "state": "MA", "display_address": ["290 Park St", "Great Barrington, MA 01230"]}, "phone": "+14132746185", "display_phone": "(413) 274-6185", "distance": 13135.50985566595}, {"id": "WRUJ5CH3b56ObEqwVCSl6A", "alias": "patisserie-lenox-great-barrington", "name": "Patisserie Lenox", "image_url": "https://s3-media2.fl.yelpcdn.com/bphoto/u2GrDJ9k9Hf0AUIvgCgy8Q/o.jpg", "is_closed": false, "url": "https://www.yelp.com/biz/patisserie-lenox-great-barrington?adjust_creative=ywY5UnLZrNrRl2b93Ruy_g&utm_campaign=yelp_api_v3&utm_medium=api_v3_business_search&utm_source=ywY5UnLZrNrRl2b93Ruy_g", "review_count": 86, "categories": [{"alias": "cafes", "title": "Cafes"}, {"alias": "bakeries", "title": "Bakeries"}, {"alias": "french", "title": "French"}], "rating": 3.5, "coordinates": {"latitude": 42.1939847, "longitude": -73.3625325}, "transactions": [], "price": "$$", "location": {"address1": "313 Main St", "address2": "", "address3": "", "city": "Great Barrington", "zip_code": "01230", "country": "US", "state": "MA", "display_address": ["313 Main St", "Great Barrington, MA 01230"]}, "phone": "+14135918747", "display_phone": "(413) 591-8747", "distance": 12288.552113758986}, {"id": "6VWXDm7k3-iPfm0cArdRdA", "alias": "athenas-restaurant-and-pizzeria-lee", "name": "Athena's Restaurant & Pizzeria", "image_url": "https://s3-media1.fl.yelpcdn.com/bphoto/CAFnvS_aLKojUvTSKoM3RQ/o.jpg", "is_closed": false, "url": "https://www.yelp.com/biz/athenas-restaurant-and-pizzeria-lee?adjust_creative=ywY5UnLZrNrRl2b93Ruy_g&utm_campaign=yelp_api_v3&utm_medium=api_v3_business_search&utm_source=ywY5UnLZrNrRl2b93Ruy_g", "review_count": 40, "categories": [{"alias": "italian", "title": "Italian"}, {"alias": "burgers", "title": "Burgers"}, {"alias": "mediterranean", "title": "Mediterranean"}], "rating": 2.5, "coordinates": {"latitude": 42.303675, "longitude": -73.245625}, "transactions": [], "price": "$", "location": {"address1": "30 Housatonic St", "address2": "", "address3": "", "city": "Lee", "zip_code": "01238", "country": "US", "state": "MA", "display_address": ["30 Housatonic St", "Lee, MA 01238"]}, "phone": "+14132431215", "display_phone": "(413) 243-1215", "distance": 13264.69967060118}, {"id": "1abRo8so6LKnAwAouIzOtQ", "alias": "simply-grillicious-lee", "name": "Simply Grillicious", "image_url": "https://s3-media3.fl.yelpcdn.com/bphoto/iW-mbQ3JwkTXSnfpbVXXYQ/o.jpg", "is_closed": false, "url": "https://www.yelp.com/biz/simply-grillicious-lee?adjust_creative=ywY5UnLZrNrRl2b93Ruy_g&utm_campaign=yelp_api_v3&utm_medium=api_v3_business_search&utm_source=ywY5UnLZrNrRl2b93Ruy_g", "review_count": 3, "categories": [{"alias": "newamerican", "title": "American (New)"}], "rating": 2.5, "coordinates": {"latitude": 42.294388, "longitude": -73.234434}, "transactions": [], "price": "$", "location": {"address1": "50 Water St", "address2": "", "address3": "", "city": "Lee", "zip_code": "01238", "country": "US", "state": "MA", "display_address": ["50 Water St", "Lee, MA 01238"]}, "phone": "+14132431345", "display_phone": "(413) 243-1345", "distance": 12089.612662947224}, {"id": "uLICLItueUSsjmFzRCHhSA", "alias": "bizalions-fine-food-great-barrington-2", "name": "Bizalion's Fine Food", "image_url": "https://s3-media2.fl.yelpcdn.com/bphoto/Hoy_yb5pAlIMEnjCJUQnzQ/o.jpg", "is_closed": false, "url": "https://www.yelp.com/biz/bizalions-fine-food-great-barrington-2?adjust_creative=ywY5UnLZrNrRl2b93Ruy_g&utm_campaign=yelp_api_v3&utm_medium=api_v3_business_search&utm_source=ywY5UnLZrNrRl2b93Ruy_g", "review_count": 22, "categories": [{"alias": "oliveoil", "title": "Olive Oil"}, {"alias": "breakfast_brunch", "title": "Breakfast & Brunch"}], "rating": 4.0, "coordinates": {"latitude": 42.1820817, "longitude": -73.3646342}, "transactions": [], "price": "$$", "location": {"address1": "684 Main St", "address2": "Ste 3", "address3": null, "city": "Great Barrington", "zip_code": "01230", "country": "US", "state": "MA", "display_address": ["684 Main St", "Ste 3", "Great Barrington, MA 01230"]}, "phone": "+14136449988", "display_phone": "(413) 644-9988", "distance": 12457.063142707848}, {"id": "FDiWZLRey6JFsfpIsH_zMw", "alias": "the-bistro-box-great-barrington", "name": "The Bistro Box", "image_url": "https://s3-media1.fl.yelpcdn.com/bphoto/HdQUOZ1w4Jro22ydZv8RtA/o.jpg", "is_closed": false, "url": "https://www.yelp.com/biz/the-bistro-box-great-barrington?adjust_creative=ywY5UnLZrNrRl2b93Ruy_g&utm_campaign=yelp_api_v3&utm_medium=api_v3_business_search&utm_source=ywY5UnLZrNrRl2b93Ruy_g", "review_count": 116, "categories": [{"alias": "tradamerican", "title": "American (Traditional)"}, {"alias": "hotdog", "title": "Hot Dogs"}, {"alias": "sandwiches", "title": "Sandwiches"}], "rating": 4.5, "coordinates": {"latitude": 42.1716496245439, "longitude": -73.3629432694792}, "transactions": [], "price": "$$", "location": {"address1": "937 S Main St", "address2": "", "address3": "", "city": "Great Barrington", "zip_code": "01230", "country": "US", "state": "MA", "display_address": ["937 S Main St", "Great Barrington, MA 01230"]}, "phone": "+14137175958", "display_phone": "(413) 717-5958", "distance": 12422.10128040394}, {"id": "XZzN-OoOF8BuVrmNz9SvvA", "alias": "six-depot-roastery-and-cafe-west-stockbridge", "name": "Six Depot Roastery and Cafe", "image_url": "https://s3-media3.fl.yelpcdn.com/bphoto/FLh8_tCK2sEWDUTukPxbTQ/o.jpg", "is_closed": false, "url": "https://www.yelp.com/biz/six-depot-roastery-and-cafe-west-stockbridge?adjust_creative=ywY5UnLZrNrRl2b93Ruy_g&utm_campaign=yelp_api_v3&utm_medium=api_v3_business_search&utm_source=ywY5UnLZrNrRl2b93Ruy_g", "review_count": 186, "categories": [{"alias": "cafes", "title": "Cafes"}, {"alias": "coffeeroasteries", "title": "Coffee Roasteries"}], "rating": 4.5, "coordinates": {"latitude": 42.3339804633494, "longitude": -73.3684249511008}, "transactions": [], "price": "$$", "location": {"address1": "6 Depot St", "address2": "", "address3": "", "city": "West Stockbridge", "zip_code": "01266", "country": "US", "state": "MA", "display_address": ["6 Depot St", "West Stockbridge, MA 01266"]}, "phone": "+14132320205", "display_phone": "(413) 232-0205", "distance": 20744.88349596812}, {"id": "lpeKmfeaYaNmdoPGWFBGIA", "alias": "d-angelo-lee", "name": "D'angelo", "image_url": "https://s3-media4.fl.yelpcdn.com/bphoto/cb5yh3PsNyDNz3AKGm-qPQ/o.jpg", "is_closed": false, "url": "https://www.yelp.com/biz/d-angelo-lee?adjust_creative=ywY5UnLZrNrRl2b93Ruy_g&utm_campaign=yelp_api_v3&utm_medium=api_v3_business_search&utm_source=ywY5UnLZrNrRl2b93Ruy_g", "review_count": 4, "categories": [{"alias": "delis", "title": "Delis"}], "rating": 2.0, "coordinates": {"latitude": 42.297125533502, "longitude": -73.275692678397}, "transactions": [], "price": "$$", "location": {"address1": "370 Stockbridge Rd", "address2": "", "address3": "", "city": "Lee", "zip_code": "01238", "country": "US", "state": "MA", "display_address": ["370 Stockbridge Rd", "Lee, MA 01238"]}, "phone": "+14132431380", "display_phone": "(413) 243-1380", "distance": 13294.156129204797}, {"id": "fDnZGo3bxmQlMZo3m2T96w", "alias": "katies-country-store-east-otis", "name": "Katie's Country Store", "image_url": "https://s3-media3.fl.yelpcdn.com/bphoto/0XMo7glsemhUEwtfjwZuAQ/o.jpg", "is_closed": false, "url": "https://www.yelp.com/biz/katies-country-store-east-otis?adjust_creative=ywY5UnLZrNrRl2b93Ruy_g&utm_campaign=yelp_api_v3&utm_medium=api_v3_business_search&utm_source=ywY5UnLZrNrRl2b93Ruy_g", "review_count": 6, "categories": [{"alias": "grocery", "title": "Grocery"}, {"alias": "burgers", "title": "Burgers"}, {"alias": "sandwiches", "title": "Sandwiches"}], "rating": 3.5, "coordinates": {"latitude": 42.1731642, "longitude": -73.034965}, "transactions": [], "price": "$$", "location": {"address1": "1922 E Otis Rd", "address2": "", "address3": "", "city": "East Otis", "zip_code": "01029", "country": "US", "state": "MA", "display_address": ["1922 E Otis Rd", "East Otis, MA 01029"]}, "phone": "+14132694211", "display_phone": "(413) 269-4211", "distance": 14795.10316932371}, {"id": "u3vTda2vtkOdRqya20iSyg", "alias": "red-apple-lee", "name": "Red Apple", "image_url": "https://s3-media4.fl.yelpcdn.com/bphoto/SzCdSb27YWsrutpUqmmzFg/o.jpg", "is_closed": false, "url": "https://www.yelp.com/biz/red-apple-lee?adjust_creative=ywY5UnLZrNrRl2b93Ruy_g&utm_campaign=yelp_api_v3&utm_medium=api_v3_business_search&utm_source=ywY5UnLZrNrRl2b93Ruy_g", "review_count": 15, "categories": [{"alias": "chinese", "title": "Chinese"}], "rating": 3.5, "coordinates": {"latitude": 42.3042413144758, "longitude": -73.246378730496}, "transactions": ["delivery"], "price": "$", "location": {"address1": "23 Park Plz", "address2": "Ste A", "address3": "", "city": "Lee", "zip_code": "01238", "country": "US", "state": "MA", "display_address": ["23 Park Plz", "Ste A", "Lee, MA 01238"]}, "phone": "+14132434027", "display_phone": "(413) 243-4027", "distance": 13263.920601473646}, {"id": "Y5fUpTFQ-9MFrUa1s8jSRg", "alias": "panda-garden-lee", "name": "Panda Garden", "image_url": "https://s3-media3.fl.yelpcdn.com/bphoto/tIpsLe_VXudyUGKFuLpPhg/o.jpg", "is_closed": false, "url": "https://www.yelp.com/biz/panda-garden-lee?adjust_creative=ywY5UnLZrNrRl2b93Ruy_g&utm_campaign=yelp_api_v3&utm_medium=api_v3_business_search&utm_source=ywY5UnLZrNrRl2b93Ruy_g", "review_count": 12, "categories": [{"alias": "chinese", "title": "Chinese"}], "rating": 3.0, "coordinates": {"latitude": 42.3060799, "longitude": -73.2501526}, "transactions": ["delivery"], "price": "$", "location": {"address1": "95 Main St", "address2": null, "address3": null, "city": "Lee", "zip_code": "01238", "country": "US", "state": "MA", "display_address": ["95 Main St", "Lee, MA 01238"]}, "phone": "+14132439188", "display_phone": "(413) 243-9188", "distance": 13608.83831767993}, {"id": "cQRe7YOZ1CCQcND1nJ-U9Q", "alias": "azteca-taqueria-great-barrington", "name": "Azteca Taqueria", "image_url": "https://s3-media1.fl.yelpcdn.com/bphoto/JQVYFa1s9FXmg7taje8x3w/o.jpg", "is_closed": false, "url": "https://www.yelp.com/biz/azteca-taqueria-great-barrington?adjust_creative=ywY5UnLZrNrRl2b93Ruy_g&utm_campaign=yelp_api_v3&utm_medium=api_v3_business_search&utm_source=ywY5UnLZrNrRl2b93Ruy_g", "review_count": 17, "categories": [{"alias": "mexican", "title": "Mexican"}], "rating": 3.0, "coordinates": {"latitude": 42.1949157714844, "longitude": -73.3625411987305}, "transactions": [], "price": "$", "location": {"address1": "284 Main St", "address2": null, "address3": null, "city": "Great Barrington", "zip_code": "01230", "country": "US", "state": "MA", "display_address": ["284 Main St", "Great Barrington, MA 01230"]}, "phone": "+14135283322", "display_phone": "(413) 528-3322", "distance": 12296.612158640339}, {"id": "xoajVHJmQPp4kc5qgGc1BA", "alias": "joes-diner-lee", "name": "Joe's Diner", "image_url": "https://s3-media3.fl.yelpcdn.com/bphoto/o7RM3UUFkrYh2oTkctdouQ/o.jpg", "is_closed": false, "url": "https://www.yelp.com/biz/joes-diner-lee?adjust_creative=ywY5UnLZrNrRl2b93Ruy_g&utm_campaign=yelp_api_v3&utm_medium=api_v3_business_search&utm_source=ywY5UnLZrNrRl2b93Ruy_g", "review_count": 83, "categories": [{"alias": "tradamerican", "title": "American (Traditional)"}, {"alias": "diners", "title": "Diners"}, {"alias": "breakfast_brunch", "title": "Breakfast & Brunch"}], "rating": 3.5, "coordinates": {"latitude": 42.310245, "longitude": -73.252144}, "transactions": ["delivery"], "price": "$", "location": {"address1": "85 Central St", "address2": null, "address3": "", "city": "Lee", "zip_code": "01238", "country": "US", "state": "MA", "display_address": ["85 Central St", "Lee, MA 01238"]}, "phone": "+14132439756", "display_phone": "(413) 243-9756", "distance": 14092.477373623664}, {"id": "wdSZnN7k6IIAMxNER-VW1A", "alias": "blue-door-market-and-cafe-sheffield", "name": "Blue Door Market & Cafe", "image_url": "https://s3-media1.fl.yelpcdn.com/bphoto/TjHtEWR5YNtrzhZyyzjEeg/o.jpg", "is_closed": false, "url": "https://www.yelp.com/biz/blue-door-market-and-cafe-sheffield?adjust_creative=ywY5UnLZrNrRl2b93Ruy_g&utm_campaign=yelp_api_v3&utm_medium=api_v3_business_search&utm_source=ywY5UnLZrNrRl2b93Ruy_g", "review_count": 8, "categories": [{"alias": "beer_and_wine", "title": "Beer, Wine & Spirits"}, {"alias": "breakfast_brunch", "title": "Breakfast & Brunch"}, {"alias": "sandwiches", "title": "Sandwiches"}], "rating": 3.5, "coordinates": {"latitude": 42.103159, "longitude": -73.3546993779793}, "transactions": [], "price": "$", "location": {"address1": "139 S Main St", "address2": null, "address3": "", "city": "Sheffield", "zip_code": "01257", "country": "US", "state": "MA", "display_address": ["139 S Main St", "Sheffield, MA 01257"]}, "phone": "+14132481223", "display_phone": "(413) 248-1223", "distance": 14892.835587796675}, {"id": "REAEo2X_Do9fvZTMTPYUEA", "alias": "sweet-and-savoury-on-main-lee", "name": "Sweet and Savoury On Main", "image_url": "", "is_closed": false, "url": "https://www.yelp.com/biz/sweet-and-savoury-on-main-lee?adjust_creative=ywY5UnLZrNrRl2b93Ruy_g&utm_campaign=yelp_api_v3&utm_medium=api_v3_business_search&utm_source=ywY5UnLZrNrRl2b93Ruy_g", "review_count": 1, "categories": [{"alias": "bakeries", "title": "Bakeries"}, {"alias": "cafes", "title": "Cafes"}], "rating": 3.0, "coordinates": {"latitude": 42.305557, "longitude": -73.249139}, "transactions": [], "location": {"address1": "56 Main St", "address2": "", "address3": null, "city": "Lee", "zip_code": "01238", "country": "US", "state": "MA", "display_address": ["56 Main St", "Lee, MA 01238"]}, "phone": "+14132437777", "display_phone": "(413) 243-7777", "distance": 13529.784849250304}, {"id": "8nhaIMcLJMrfsiic0hSoOg", "alias": "roses-restaurant-lee", "name": "Roses Restaurant", "image_url": "https://s3-media1.fl.yelpcdn.com/bphoto/SoMhXPFohMvzs8eTUHG14w/o.jpg", "is_closed": false, "url": "https://www.yelp.com/biz/roses-restaurant-lee?adjust_creative=ywY5UnLZrNrRl2b93Ruy_g&utm_campaign=yelp_api_v3&utm_medium=api_v3_business_search&utm_source=ywY5UnLZrNrRl2b93Ruy_g", "review_count": 83, "categories": [{"alias": "breakfast_brunch", "title": "Breakfast & Brunch"}], "rating": 3.5, "coordinates": {"latitude": 42.300715, "longitude": -73.243111}, "transactions": ["delivery"], "price": "$", "location": {"address1": "160 Housatonic St", "address2": "", "address3": "", "city": "Lee", "zip_code": "01238", "country": "US", "state": "MA", "display_address": ["160 Housatonic St", "Lee, MA 01238"]}, "phone": "+14132433333", "display_phone": "(413) 243-3333", "distance": 12901.724727214352}, {"id": "S9ZauCnbw7eH4opp7fvkQQ", "alias": "berkshire-food-co-op-great-barrington-3", "name": "Berkshire Food Co-Op", "image_url": "https://s3-media2.fl.yelpcdn.com/bphoto/SHWr9eFEwaOiRaMCRqFs0w/o.jpg", "is_closed": false, "url": "https://www.yelp.com/biz/berkshire-food-co-op-great-barrington-3?adjust_creative=ywY5UnLZrNrRl2b93Ruy_g&utm_campaign=yelp_api_v3&utm_medium=api_v3_business_search&utm_source=ywY5UnLZrNrRl2b93Ruy_g", "review_count": 34, "categories": [{"alias": "grocery", "title": "Grocery"}, {"alias": "cafes", "title": "Cafes"}, {"alias": "organic_stores", "title": "Organic Stores"}], "rating": 4.0, "coordinates": {"latitude": 42.1933896, "longitude": -73.3621658}, "transactions": [], "price": "$$", "location": {"address1": "34 Bridge St", "address2": "", "address3": "", "city": "Great Barrington", "zip_code": "01230", "country": "US", "state": "MA", "display_address": ["34 Bridge St", "Great Barrington, MA 01230"]}, "phone": "+14135289697", "display_phone": "(413) 528-9697", "distance": 12263.83522110464}, {"id": "irbKRZyCN_RPzeBepCN7XQ", "alias": "rubis-coffee-and-sandwiches-great-barrington", "name": "Rubi's Coffee & Sandwiches", "image_url": "https://s3-media3.fl.yelpcdn.com/bphoto/rjrFzISVURr6vWrEEHHjRQ/o.jpg", "is_closed": false, "url": "https://www.yelp.com/biz/rubis-coffee-and-sandwiches-great-barrington?adjust_creative=ywY5UnLZrNrRl2b93Ruy_g&utm_campaign=yelp_api_v3&utm_medium=api_v3_business_search&utm_source=ywY5UnLZrNrRl2b93Ruy_g", "review_count": 82, "categories": [{"alias": "french", "title": "French"}, {"alias": "coffee", "title": "Coffee & Tea"}, {"alias": "sandwiches", "title": "Sandwiches"}], "rating": 3.5, "coordinates": {"latitude": 42.19527, "longitude": -73.36203}, "transactions": [], "price": "$$", "location": {"address1": "264 Main St", "address2": "", "address3": "", "city": "Great Barrington", "zip_code": "01230", "country": "US", "state": "MA", "display_address": ["264 Main St", "Great Barrington, MA 01230"]}, "phone": "+14135280488", "display_phone": "(413) 528-0488", "distance": 12268.505519590492}, {"id": "_aUXLzG6bvsUaBDL96pK7A", "alias": "great-barrington-bagel-company-great-barrington", "name": "Great Barrington Bagel Company", "image_url": "https://s3-media1.fl.yelpcdn.com/bphoto/uN63PmQ0-fG-mjeu5xc6XQ/o.jpg", "is_closed": false, "url": "https://www.yelp.com/biz/great-barrington-bagel-company-great-barrington?adjust_creative=ywY5UnLZrNrRl2b93Ruy_g&utm_campaign=yelp_api_v3&utm_medium=api_v3_business_search&utm_source=ywY5UnLZrNrRl2b93Ruy_g", "review_count": 76, "categories": [{"alias": "sandwiches", "title": "Sandwiches"}, {"alias": "delis", "title": "Delis"}, {"alias": "breakfast_brunch", "title": "Breakfast & Brunch"}], "rating": 4.5, "coordinates": {"latitude": 42.179534, "longitude": -73.363002}, "transactions": [], "price": "$", "location": {"address1": "777 Main St", "address2": "", "address3": "", "city": "Great Barrington", "zip_code": "01230", "country": "US", "state": "MA", "display_address": ["777 Main St", "Great Barrington, MA 01230"]}, "phone": "+14135289055", "display_phone": "(413) 528-9055", "distance": 12338.166089998207}, {"id": "zgFwVmPm2qpakxL4JFOUZg", "alias": "alex-cafe-great-barrington", "name": "Alex Cafe", "image_url": "", "is_closed": false, "url": "https://www.yelp.com/biz/alex-cafe-great-barrington?adjust_creative=ywY5UnLZrNrRl2b93Ruy_g&utm_campaign=yelp_api_v3&utm_medium=api_v3_business_search&utm_source=ywY5UnLZrNrRl2b93Ruy_g", "review_count": 3, "categories": [{"alias": "greek", "title": "Greek"}], "rating": 2.5, "coordinates": {"latitude": 42.1949157714844, "longitude": -73.3625411987305}, "transactions": [], "location": {"address1": "284 Main St", "address2": "", "address3": "", "city": "Great Barrington", "zip_code": "01230", "country": "US", "state": "MA", "display_address": ["284 Main St", "Great Barrington, MA 01230"]}, "phone": "+14135285393", "display_phone": "(413) 528-5393", "distance": 12296.612158640339}, {"id": "KeAdq41KMxVelJE0TgpGbQ", "alias": "manhattan-pizza-great-barrington", "name": "Manhattan Pizza", "image_url": "https://s3-media1.fl.yelpcdn.com/bphoto/qWMG0Kh8sWrVZ8ynJuRpTQ/o.jpg", "is_closed": false, "url": "https://www.yelp.com/biz/manhattan-pizza-great-barrington?adjust_creative=ywY5UnLZrNrRl2b93Ruy_g&utm_campaign=yelp_api_v3&utm_medium=api_v3_business_search&utm_source=ywY5UnLZrNrRl2b93Ruy_g", "review_count": 23, "categories": [{"alias": "pizza", "title": "Pizza"}], "rating": 3.0, "coordinates": {"latitude": 42.188658, "longitude": -73.364821}, "transactions": [], "price": "$$", "location": {"address1": "490 Main St", "address2": "", "address3": "", "city": "Great Barrington", "zip_code": "01230", "country": "US", "state": "MA", "display_address": ["490 Main St", "Great Barrington, MA 01230"]}, "phone": "+14135282550", "display_phone": "(413) 528-2550", "distance": 12462.691550516298}, {"id": "sw_fMcE7mDh9UgDAinEh4A", "alias": "papa-ginos-lee-3", "name": "Papa Gino's", "image_url": "https://s3-media2.fl.yelpcdn.com/bphoto/UtAfL7Ion7B70KTnpMkkjA/o.jpg", "is_closed": false, "url": "https://www.yelp.com/biz/papa-ginos-lee-3?adjust_creative=ywY5UnLZrNrRl2b93Ruy_g&utm_campaign=yelp_api_v3&utm_medium=api_v3_business_search&utm_source=ywY5UnLZrNrRl2b93Ruy_g", "review_count": 1, "categories": [{"alias": "pizza", "title": "Pizza"}], "rating": 2.0, "coordinates": {"latitude": 42.2956547, "longitude": -73.2708765}, "transactions": ["delivery"], "location": {"address1": "370 Stockbridge Rd", "address2": "", "address3": null, "city": "Lee", "zip_code": "01238", "country": "US", "state": "MA", "display_address": ["370 Stockbridge Rd", "Lee, MA 01238"]}, "phone": "+14132431380", "display_phone": "(413) 243-1380", "distance": 13237.112035890636}, {"id": "2-qHSKRWlFMEBRiRbRSrzg", "alias": "villa-pizza-lee", "name": "Villa Pizza", "image_url": "https://s3-media4.fl.yelpcdn.com/bphoto/_OxZVubHLEvolZjZD3P9yg/o.jpg", "is_closed": false, "url": "https://www.yelp.com/biz/villa-pizza-lee?adjust_creative=ywY5UnLZrNrRl2b93Ruy_g&utm_campaign=yelp_api_v3&utm_medium=api_v3_business_search&utm_source=ywY5UnLZrNrRl2b93Ruy_g", "review_count": 1, "categories": [{"alias": "pizza", "title": "Pizza"}], "rating": 2.0, "coordinates": {"latitude": 42.294695, "longitude": -73.23371}, "transactions": [], "location": {"address1": "50 Water St", "address2": "", "address3": "", "city": "Lee", "zip_code": "01238", "country": "US", "state": "MA", "display_address": ["50 Water St", "Lee, MA 01238"]}, "phone": "+14133949940", "display_phone": "(413) 394-9940", "distance": 12115.106850708205}, {"id": "dEt-yktUtzEXyyspQfm_fQ", "alias": "orient-taste-lee", "name": "Orient Taste", "image_url": "https://s3-media2.fl.yelpcdn.com/bphoto/ieopyNkFT4bVtLzNmz3CZw/o.jpg", "is_closed": false, "url": "https://www.yelp.com/biz/orient-taste-lee?adjust_creative=ywY5UnLZrNrRl2b93Ruy_g&utm_campaign=yelp_api_v3&utm_medium=api_v3_business_search&utm_source=ywY5UnLZrNrRl2b93Ruy_g", "review_count": 2, "categories": [{"alias": "chinese", "title": "Chinese"}], "rating": 1.0, "coordinates": {"latitude": 42.294122, "longitude": -73.233635}, "transactions": [], "price": "$$", "location": {"address1": "50 Water St", "address2": "", "address3": "", "city": "Lee", "zip_code": "01238", "country": "US", "state": "MA", "display_address": ["50 Water St", "Lee, MA 01238"]}, "phone": "+14132436028", "display_phone": "(413) 243-6028", "distance": 12051.147928084805}, {"id": "4NosW9Y5YnRNcqbRxR_ySw", "alias": "fresh-city-lee", "name": "Fresh City", "image_url": "https://s3-media2.fl.yelpcdn.com/bphoto/yAdVL_Tv2vTtdKd2oe3EUQ/o.jpg", "is_closed": false, "url": "https://www.yelp.com/biz/fresh-city-lee?adjust_creative=ywY5UnLZrNrRl2b93Ruy_g&utm_campaign=yelp_api_v3&utm_medium=api_v3_business_search&utm_source=ywY5UnLZrNrRl2b93Ruy_g", "review_count": 15, "categories": [{"alias": "food_court", "title": "Food Court"}], "rating": 2.0, "coordinates": {"latitude": 42.3054990935517, "longitude": -73.2489395141602}, "transactions": [], "price": "$", "location": {"address1": "370 Stockbridge Rd", "address2": "", "address3": "", "city": "Lee", "zip_code": "01238", "country": "US", "state": "MA", "display_address": ["370 Stockbridge Rd", "Lee, MA 01238"]}, "phone": "+14132433268", "display_phone": "(413) 243-3268", "distance": 13519.634650510628}, {"id": "32itnr_wWQ9qqmzyaRUzSw", "alias": "great-wall-chinese-restaurant-great-barrington", "name": "Great Wall Chinese Restaurant", "image_url": "https://s3-media2.fl.yelpcdn.com/bphoto/ShD8b7BEIjkJyZ77ZPxjSw/o.jpg", "is_closed": false, "url": "https://www.yelp.com/biz/great-wall-chinese-restaurant-great-barrington?adjust_creative=ywY5UnLZrNrRl2b93Ruy_g&utm_campaign=yelp_api_v3&utm_medium=api_v3_business_search&utm_source=ywY5UnLZrNrRl2b93Ruy_g", "review_count": 9, "categories": [{"alias": "chinese", "title": "Chinese"}], "rating": 2.5, "coordinates": {"latitude": 42.20253, "longitude": -73.35361}, "transactions": [], "price": "$", "location": {"address1": "87 State Rd", "address2": "", "address3": "", "city": "Great Barrington", "zip_code": "01230", "country": "US", "state": "MA", "display_address": ["87 State Rd", "Great Barrington, MA 01230"]}, "phone": "+14135284838", "display_phone": "(413) 528-4838", "distance": 11668.252885404096}, {"id": "1T67DQkg_Guyvlkqhqu7Mw", "alias": "mcdonalds-lee", "name": "McDonald's", "image_url": "https://s3-media3.fl.yelpcdn.com/bphoto/wQLfIJNysnYKaJsoDropJg/o.jpg", "is_closed": false, "url": "https://www.yelp.com/biz/mcdonalds-lee?adjust_creative=ywY5UnLZrNrRl2b93Ruy_g&utm_campaign=yelp_api_v3&utm_medium=api_v3_business_search&utm_source=ywY5UnLZrNrRl2b93Ruy_g", "review_count": 7, "categories": [{"alias": "burgers", "title": "Burgers"}, {"alias": "hotdogs", "title": "Fast Food"}, {"alias": "coffee", "title": "Coffee & Tea"}], "rating": 2.5, "coordinates": {"latitude": 42.2969521, "longitude": -73.274561}, "transactions": [], "price": "$", "location": {"address1": "370 W Stockbridge Rd", "address2": "", "address3": "", "city": "Lee", "zip_code": "01238", "country": "US", "state": "MA", "display_address": ["370 W Stockbridge Rd", "Lee, MA 01238"]}, "phone": "+14132434666", "display_phone": "(413) 243-4666", "distance": 13240.75940222098}, {"id": "TIYWAT8N9h-K2loTE-HH4A", "alias": "subway-lee-5", "name": "Subway", "image_url": "https://s3-media3.fl.yelpcdn.com/bphoto/XLEgFt-LDGyaXTFgPgYVBg/o.jpg", "is_closed": false, "url": "https://www.yelp.com/biz/subway-lee-5?adjust_creative=ywY5UnLZrNrRl2b93Ruy_g&utm_campaign=yelp_api_v3&utm_medium=api_v3_business_search&utm_source=ywY5UnLZrNrRl2b93Ruy_g", "review_count": 3, "categories": [{"alias": "sandwiches", "title": "Sandwiches"}], "rating": 3.0, "coordinates": {"latitude": 42.3092762, "longitude": -73.2511555276127}, "transactions": [], "price": "$", "location": {"address1": "236 Main St", "address2": null, "address3": null, "city": "Lee", "zip_code": "01238", "country": "US", "state": "MA", "display_address": ["236 Main St", "Lee, MA 01238"]}, "phone": "+14132434142", "display_phone": "(413) 243-4142", "distance": 13969.306739244998}, {"id": "HXoeRJRl1rCXkFbtE2Mhfg", "alias": "subway-great-barrington-5", "name": "Subway", "image_url": "https://s3-media4.fl.yelpcdn.com/bphoto/L6KElpl-unmoWatxs9t1xQ/o.jpg", "is_closed": false, "url": "https://www.yelp.com/biz/subway-great-barrington-5?adjust_creative=ywY5UnLZrNrRl2b93Ruy_g&utm_campaign=yelp_api_v3&utm_medium=api_v3_business_search&utm_source=ywY5UnLZrNrRl2b93Ruy_g", "review_count": 1, "categories": [{"alias": "sandwiches", "title": "Sandwiches"}], "rating": 4.0, "coordinates": {"latitude": 42.2071342468262, "longitude": -73.3457794189453}, "transactions": [], "price": "$", "location": {"address1": "246 Stockbridge Rd", "address2": "", "address3": null, "city": "Great Barrington", "zip_code": "01230", "country": "US", "state": "MA", "display_address": ["246 Stockbridge Rd", "Great Barrington, MA 01230"]}, "phone": "+14134298454", "display_phone": "(413) 429-8454", "distance": 11127.292505664685}, {"id": "CeGpJWvJ5pFh1ubahZZSJw", "alias": "subway-great-barrington-6", "name": "Subway", "image_url": "https://s3-media3.fl.yelpcdn.com/bphoto/CnMjr9H32Egro-ukdqFUsQ/o.jpg", "is_closed": false, "url": "https://www.yelp.com/biz/subway-great-barrington-6?adjust_creative=ywY5UnLZrNrRl2b93Ruy_g&utm_campaign=yelp_api_v3&utm_medium=api_v3_business_search&utm_source=ywY5UnLZrNrRl2b93Ruy_g", "review_count": 8, "categories": [{"alias": "sandwiches", "title": "Sandwiches"}], "rating": 1.5, "coordinates": {"latitude": 42.1938059115247, "longitude": -73.3625156070141}, "transactions": [], "price": "$", "location": {"address1": "323 Main St", "address2": "", "address3": null, "city": "Great Barrington", "zip_code": "01230", "country": "US", "state": "MA", "display_address": ["323 Main St", "Great Barrington, MA 01230"]}, "phone": "+14135286664", "display_phone": "(413) 528-6664", "distance": 12295.42301238578}, {"id": "OKFMX6hUhzA2MfnyrSRnFg", "alias": "mcdonalds-lee-6", "name": "McDonald's", "image_url": "https://s3-media1.fl.yelpcdn.com/bphoto/CAKblQXDMWh4Zy881GXPFg/o.jpg", "is_closed": false, "url": "https://www.yelp.com/biz/mcdonalds-lee-6?adjust_creative=ywY5UnLZrNrRl2b93Ruy_g&utm_campaign=yelp_api_v3&utm_medium=api_v3_business_search&utm_source=ywY5UnLZrNrRl2b93Ruy_g", "review_count": 5, "categories": [{"alias": "burgers", "title": "Burgers"}, {"alias": "hotdogs", "title": "Fast Food"}, {"alias": "coffee", "title": "Coffee & Tea"}], "rating": 2.0, "coordinates": {"latitude": 42.298505, "longitude": -73.27465333}, "transactions": [], "price": "$", "location": {"address1": "240 West Rd", "address2": "", "address3": "", "city": "Lee", "zip_code": "01238", "country": "US", "state": "MA", "display_address": ["240 West Rd", "Lee, MA 01238"]}, "phone": "+14132436695", "display_phone": "(413) 243-6695", "distance": 13391.352813910617}, {"id": "1KvLXb2nhGIUXwFUmfYolw", "alias": "subway-lee-6", "name": "Subway", "image_url": "https://s3-media2.fl.yelpcdn.com/bphoto/S_313jZ8G7Mzgzlegnia4Q/o.jpg", "is_closed": false, "url": "https://www.yelp.com/biz/subway-lee-6?adjust_creative=ywY5UnLZrNrRl2b93Ruy_g&utm_campaign=yelp_api_v3&utm_medium=api_v3_business_search&utm_source=ywY5UnLZrNrRl2b93Ruy_g", "review_count": 3, "categories": [{"alias": "sandwiches", "title": "Sandwiches"}], "rating": 1.5, "coordinates": {"latitude": 42.294582, "longitude": -73.233724}, "transactions": [], "price": "$", "location": {"address1": "50 Water St", "address2": "Unit H380D", "address3": "", "city": "Lee", "zip_code": "01238", "country": "US", "state": "MA", "display_address": ["50 Water St", "Unit H380D", "Lee, MA 01238"]}, "phone": "+14132438292", "display_phone": "(413) 243-8292", "distance": 12114.79417972392}, {"id": "y-WH9WEyQNpsAWCoffxn1A", "alias": "mcdonalds-lee-4", "name": "McDonald's", "image_url": "https://s3-media2.fl.yelpcdn.com/bphoto/wjob_R0ECBWIvqTEItS3pw/o.jpg", "is_closed": false, "url": "https://www.yelp.com/biz/mcdonalds-lee-4?adjust_creative=ywY5UnLZrNrRl2b93Ruy_g&utm_campaign=yelp_api_v3&utm_medium=api_v3_business_search&utm_source=ywY5UnLZrNrRl2b93Ruy_g", "review_count": 9, "categories": [{"alias": "burgers", "title": "Burgers"}, {"alias": "hotdogs", "title": "Fast Food"}, {"alias": "coffee", "title": "Coffee & Tea"}], "rating": 2.0, "coordinates": {"latitude": 42.2991668943395, "longitude": -73.240801692009}, "transactions": [], "price": "$", "location": {"address1": "245 Housatonic St", "address2": "", "address3": "", "city": "Lee", "zip_code": "01238", "country": "US", "state": "MA", "display_address": ["245 Housatonic St", "Lee, MA 01238"]}, "phone": "+14132432253", "display_phone": "(413) 243-2253", "distance": 12697.788901024587}, {"id": "W6w0sNlW-S5KA7TMLPDBXw", "alias": "mcdonalds-great-barrington", "name": "McDonald's", "image_url": "https://s3-media3.fl.yelpcdn.com/bphoto/itHTtsNKyiwQCSJUq43dvg/o.jpg", "is_closed": false, "url": "https://www.yelp.com/biz/mcdonalds-great-barrington?adjust_creative=ywY5UnLZrNrRl2b93Ruy_g&utm_campaign=yelp_api_v3&utm_medium=api_v3_business_search&utm_source=ywY5UnLZrNrRl2b93Ruy_g", "review_count": 17, "categories": [{"alias": "hotdogs", "title": "Fast Food"}, {"alias": "burgers", "title": "Burgers"}, {"alias": "coffee", "title": "Coffee & Tea"}], "rating": 1.5, "coordinates": {"latitude": 42.209993, "longitude": -73.3454018}, "transactions": [], "price": "$", "location": {"address1": "302 Stockbridge Rd", "address2": "", "address3": "", "city": "Great Barrington", "zip_code": "01230", "country": "US", "state": "MA", "display_address": ["302 Stockbridge Rd", "Great Barrington, MA 01230"]}, "phone": "+14135280434", "display_phone": "(413) 528-0434", "distance": 11162.067008149288}, {"id": "C4OiIXuNN6PbCq8gaMyc1Q", "alias": "papas-best-batch-red-hook", "name": "Papa's Best Batch", "image_url": "https://s3-media2.fl.yelpcdn.com/bphoto/TP_X6t_lwfuT-1MI915hhA/o.jpg", "is_closed": false, "url": "https://www.yelp.com/biz/papas-best-batch-red-hook?adjust_creative=ywY5UnLZrNrRl2b93Ruy_g&utm_campaign=yelp_api_v3&utm_medium=api_v3_business_search&utm_source=ywY5UnLZrNrRl2b93Ruy_g", "review_count": 44, "categories": [{"alias": "bbq", "title": "Barbeque"}, {"alias": "foodtrucks", "title": "Food Trucks"}], "rating": 5.0, "coordinates": {"latitude": 42.028686, "longitude": -73.852675}, "transactions": [], "price": "$$", "location": {"address1": "243 Pitcher Ln", "address2": "", "address3": "Greig Farm", "city": "Red Hook", "zip_code": "12571", "country": "US", "state": "NY", "display_address": ["243 Pitcher Ln", "Greig Farm", "Red Hook, NY 12571"]}, "phone": "+19143885202", "display_phone": "(914) 388-5202", "distance": 55574.46114996091}, {"id": "uAsX05YvKYKX7XMqdYFNZQ", "alias": "lobstercraft-fairfield-3", "name": "LobsterCraft", "image_url": "https://s3-media2.fl.yelpcdn.com/bphoto/DnyEPuomFzB1F68FecbYfQ/o.jpg", "is_closed": false, "url": "https://www.yelp.com/biz/lobstercraft-fairfield-3?adjust_creative=ywY5UnLZrNrRl2b93Ruy_g&utm_campaign=yelp_api_v3&utm_medium=api_v3_business_search&utm_source=ywY5UnLZrNrRl2b93Ruy_g", "review_count": 77, "categories": [{"alias": "foodtrucks", "title": "Food Trucks"}, {"alias": "seafood", "title": "Seafood"}], "rating": 4.5, "coordinates": {"latitude": 41.140451, "longitude": -73.264689}, "transactions": ["pickup"], "price": "$$", "location": {"address1": "1891 Post Rd", "address2": null, "address3": "", "city": "Fairfield", "zip_code": "06824", "country": "US", "state": "CT", "display_address": ["1891 Post Rd", "Fairfield, CT 06824"]}, "phone": "+12039565656", "display_phone": "(203) 956-5656", "distance": 116422.1631010245}, {"id": "qqA8YX58xnmEXLyanHfdUg", "alias": "stufd-food-truck-brooklyn", "name": "Stuf'd Food Truck", "image_url": "https://s3-media2.fl.yelpcdn.com/bphoto/_Wn0i-tLIOFinw8BPAqxPA/o.jpg", "is_closed": false, "url": "https://www.yelp.com/biz/stufd-food-truck-brooklyn?adjust_creative=ywY5UnLZrNrRl2b93Ruy_g&utm_campaign=yelp_api_v3&utm_medium=api_v3_business_search&utm_source=ywY5UnLZrNrRl2b93Ruy_g", "review_count": 4, "categories": [{"alias": "sandwiches", "title": "Sandwiches"}, {"alias": "foodtrucks", "title": "Food Trucks"}], "rating": 4.0, "coordinates": {"latitude": 40.7124539, "longitude": -73.9287374}, "transactions": [], "location": {"address1": "178 Varick Ave", "address2": "", "address3": null, "city": "Brooklyn", "zip_code": "11237", "country": "US", "state": "NY", "display_address": ["178 Varick Ave", "Brooklyn, NY 11237"]}, "phone": "+18457091808", "display_phone": "(845) 709-1808", "distance": 174433.37276102463}]