[{"id": "nNCyiuwE-xtBc2H-vV9aDw", "alias": "debs-hot-dog-stand-granville", "name": "Deb's Hot Dog Stand", "image_url": "https://s3-media4.fl.yelpcdn.com/bphoto/wWE5qQEk5YvdWA0RDcew0Q/o.jpg", "is_closed": false, "url": "https://www.yelp.com/biz/debs-hot-dog-stand-granville?adjust_creative=HdhkN5EEH6lAqE3kwhsHEQ&utm_campaign=yelp_api_v3&utm_medium=api_v3_business_search&utm_source=HdhkN5EEH6lAqE3kwhsHEQ", "review_count": 3, "categories": [{"alias": "foodstands", "title": "Food Stands"}], "rating": 5.0, "coordinates": {"latitude": 42.0782279968262, "longitude": -72.9402923583984}, "transactions": [], "location": {"address1": "1542 Main Rd", "address2": "", "address3": null, "city": "Granville", "zip_code": "01034", "country": "US", "state": "MA", "display_address": ["1542 Main Rd", "Granville, MA 01034"]}, "phone": "", "display_phone": "", "distance": 1961.4920348893572}, {"id": "RG4qpezidFkqRuExuSeltA", "alias": "coach-stop-hartland", "name": "Coach Stop", "image_url": "https://s3-media1.fl.yelpcdn.com/bphoto/oTFxILEmj7Kc7gGD_qomJQ/o.jpg", "is_closed": false, "url": "https://www.yelp.com/biz/coach-stop-hartland?adjust_creative=HdhkN5EEH6lAqE3kwhsHEQ&utm_campaign=yelp_api_v3&utm_medium=api_v3_business_search&utm_source=HdhkN5EEH6lAqE3kwhsHEQ", "review_count": 55, "categories": [{"alias": "newamerican", "title": "American (New)"}, {"alias": "italian", "title": "Italian"}], "rating": 3.5, "coordinates": {"latitude": 41.9987536929029, "longitude": -72.9046833515167}, "transactions": [], "price": "$$", "location": {"address1": "2 Hartland Blvd", "address2": "", "address3": "", "city": "Hartland", "zip_code": "06027", "country": "US", "state": "CT", "display_address": ["2 Hartland Blvd", "Hartland, CT 06027"]}, "phone": "+18604133545", "display_phone": "(860) 413-3545", "distance": 11111.831350159879}, {"id": "tzGeP8RTMlywrPLoufd_Fw", "alias": "farmington-river-diner-otis", "name": "Farmington River Diner", "image_url": "https://s3-media4.fl.yelpcdn.com/bphoto/ut6IiVEvNLgXTrhRu4jAHw/o.jpg", "is_closed": false, "url": "https://www.yelp.com/biz/farmington-river-diner-otis?adjust_creative=HdhkN5EEH6lAqE3kwhsHEQ&utm_campaign=yelp_api_v3&utm_medium=api_v3_business_search&utm_source=HdhkN5EEH6lAqE3kwhsHEQ", "review_count": 21, "categories": [{"alias": "diners", "title": "Diners"}, {"alias": "breakfast_brunch", "title": "Breakfast & Brunch"}], "rating": 3.5, "coordinates": {"latitude": 42.1899823524507, "longitude": -73.0904081204439}, "transactions": [], "price": "$$$", "location": {"address1": "119 S Main Rd", "address2": "", "address3": "", "city": "Otis", "zip_code": "01253", "country": "US", "state": "MA", "display_address": ["119 S Main Rd", "Otis, MA 01253"]}, "phone": "+14132696874", "display_phone": "(413) 269-6874", "distance": 15703.84258423125}, {"id": "YX9WlOS0UfQA8BEuegEw2A", "alias": "granville-country-store-granville", "name": "Granville Country Store", "image_url": "https://s3-media3.fl.yelpcdn.com/bphoto/RCnkxzc6kIDKQx2XA7uUzA/o.jpg", "is_closed": false, "url": "https://www.yelp.com/biz/granville-country-store-granville?adjust_creative=HdhkN5EEH6lAqE3kwhsHEQ&utm_campaign=yelp_api_v3&utm_medium=api_v3_business_search&utm_source=HdhkN5EEH6lAqE3kwhsHEQ", "review_count": 29, "categories": [{"alias": "convenience", "title": "Convenience Stores"}, {"alias": "delis", "title": "Delis"}], "rating": 4.0, "coordinates": {"latitude": 42.0661592438345, "longitude": -72.8618863520456}, "transactions": [], "price": "$$", "location": {"address1": "11 Granby Rd", "address2": "", "address3": "", "city": "Granville", "zip_code": "01034", "country": "US", "state": "MA", "display_address": ["11 Granby Rd", "Granville, MA 01034"]}, "phone": "+14133578555", "display_phone": "(413) 357-8555", "distance": 8073.09525468223}, {"id": "tKqf75fMPHTj85dyeSIZxQ", "alias": "blandford-country-store-and-cafe-blandford", "name": "Blandford Country Store & Cafe", "image_url": "", "is_closed": false, "url": "https://www.yelp.com/biz/blandford-country-store-and-cafe-blandford?adjust_creative=HdhkN5EEH6lAqE3kwhsHEQ&utm_campaign=yelp_api_v3&utm_medium=api_v3_business_search&utm_source=HdhkN5EEH6lAqE3kwhsHEQ", "review_count": 3, "categories": [{"alias": "restaurants", "title": "Restaurants"}], "rating": 4.5, "coordinates": {"latitude": 42.17962, "longitude": -72.92412}, "transactions": [], "location": {"address1": "98 Main St", "address2": "", "address3": "", "city": "Blandford", "zip_code": "01008", "country": "US", "state": "MA", "display_address": ["98 Main St", "Blandford, MA 01008"]}, "phone": "+14138482600", "display_phone": "(413) 848-2600", "distance": 10048.248297881533}, {"id": "EjmoByvU0tm0QJaFe6EA6Q", "alias": "bread-basket-russell", "name": "Bread Basket", "image_url": "https://s3-media3.fl.yelpcdn.com/bphoto/ocWZQw9hDfydLXdpIv6d6Q/o.jpg", "is_closed": false, "url": "https://www.yelp.com/biz/bread-basket-russell?adjust_creative=HdhkN5EEH6lAqE3kwhsHEQ&utm_campaign=yelp_api_v3&utm_medium=api_v3_business_search&utm_source=HdhkN5EEH6lAqE3kwhsHEQ", "review_count": 11, "categories": [{"alias": "bakeries", "title": "Bakeries"}, {"alias": "sandwiches", "title": "Sandwiches"}, {"alias": "desserts", "title": "Desserts"}], "rating": 5.0, "coordinates": {"latitude": 42.16665, "longitude": -72.860528}, "transactions": [], "price": "$", "location": {"address1": "815 Blandford Rd", "address2": null, "address3": null, "city": "Russell", "zip_code": "01071", "country": "US", "state": "MA", "display_address": ["815 Blandford Rd", "Russell, MA 01071"]}, "phone": "+14138620044", "display_phone": "(413) 862-0044", "distance": 11296.937356912393}, {"id": "9E7bSiKklQQX5ITubqhy7Q", "alias": "m-j-tuckers-sandisfield-2", "name": "M J Tucker's", "image_url": "https://s3-media1.fl.yelpcdn.com/bphoto/1qAbTc07x0gekFUUKHnd2g/o.jpg", "is_closed": false, "url": "https://www.yelp.com/biz/m-j-tuckers-sandisfield-2?adjust_creative=HdhkN5EEH6lAqE3kwhsHEQ&utm_campaign=yelp_api_v3&utm_medium=api_v3_business_search&utm_source=HdhkN5EEH6lAqE3kwhsHEQ", "review_count": 6, "categories": [{"alias": "pizza", "title": "Pizza"}], "rating": 4.0, "coordinates": {"latitude": 42.0787, "longitude": -73.06869}, "transactions": [], "location": {"address1": "61 S Main St", "address2": null, "address3": null, "city": "Sandisfield", "zip_code": "01255", "country": "US", "state": "MA", "display_address": ["61 S Main St", "Sandisfield, MA 01255"]}, "phone": "+14132584040", "display_phone": "(413) 258-4040", "distance": 9631.420940612987}, {"id": "8w4W6zR1PESowk4u_aLYIg", "alias": "russell-inn-russell", "name": "Russell Inn", "image_url": "https://s3-media3.fl.yelpcdn.com/bphoto/KL8hMD_bTwenuL1D9cYS1w/o.jpg", "is_closed": false, "url": "https://www.yelp.com/biz/russell-inn-russell?adjust_creative=HdhkN5EEH6lAqE3kwhsHEQ&utm_campaign=yelp_api_v3&utm_medium=api_v3_business_search&utm_source=HdhkN5EEH6lAqE3kwhsHEQ", "review_count": 39, "categories": [{"alias": "hotels", "title": "Hotels"}, {"alias": "newamerican", "title": "American (New)"}, {"alias": "lounges", "title": "Lounges"}], "rating": 3.5, "coordinates": {"latitude": 42.163813860793, "longitude": -72.8284650158691}, "transactions": [], "price": "$$", "location": {"address1": "65 Westfield Rd", "address2": "", "address3": "", "city": "Russell", "zip_code": "01071", "country": "US", "state": "MA", "display_address": ["65 Westfield Rd", "Russell, MA 01071"]}, "phone": "+14138623608", "display_phone": "(413) 862-3608", "distance": 13036.474119120081}, {"id": "sdZhzAGbI6w6wibk89MwMw", "alias": "lost-acres-orchard-granby", "name": "Lost Acres Orchard", "image_url": "https://s3-media3.fl.yelpcdn.com/bphoto/7U9h610y4_jUPzxN5l75mw/o.jpg", "is_closed": false, "url": "https://www.yelp.com/biz/lost-acres-orchard-granby?adjust_creative=HdhkN5EEH6lAqE3kwhsHEQ&utm_campaign=yelp_api_v3&utm_medium=api_v3_business_search&utm_source=HdhkN5EEH6lAqE3kwhsHEQ", "review_count": 15, "categories": [{"alias": "farmersmarket", "title": "Farmers Market"}, {"alias": "newamerican", "title": "American (New)"}], "rating": 4.0, "coordinates": {"latitude": 42.0095699, "longitude": -72.86153}, "transactions": [], "price": "$", "location": {"address1": "130 Lost Acres Rd", "address2": "", "address3": "", "city": "Granby", "zip_code": "06035", "country": "US", "state": "CT", "display_address": ["130 Lost Acres Rd", "Granby, CT 06035"]}, "phone": "+18606536600", "display_phone": "(860) 653-6600", "distance": 11887.58718012129}, {"id": "dszOlLrMfHdrsDTfV6YzCg", "alias": "knox-trail-inn-otis-2", "name": "Knox Trail Inn", "image_url": "https://s3-media4.fl.yelpcdn.com/bphoto/Q0tfwOgbXD_uuosWWW5ZYw/o.jpg", "is_closed": false, "url": "https://www.yelp.com/biz/knox-trail-inn-otis-2?adjust_creative=HdhkN5EEH6lAqE3kwhsHEQ&utm_campaign=yelp_api_v3&utm_medium=api_v3_business_search&utm_source=HdhkN5EEH6lAqE3kwhsHEQ", "review_count": 25, "categories": [{"alias": "pizza", "title": "Pizza"}, {"alias": "pubs", "title": "Pubs"}, {"alias": "tradamerican", "title": "American (Traditional)"}], "rating": 3.5, "coordinates": {"latitude": 42.17358, "longitude": -73.03564}, "transactions": [], "price": "$$", "location": {"address1": "1898 E Otis Rd", "address2": null, "address3": null, "city": "Otis", "zip_code": "01253", "country": "US", "state": "MA", "display_address": ["1898 E Otis Rd", "Otis, MA 01253"]}, "phone": "+14132694400", "display_phone": "(413) 269-4400", "distance": 11316.735810518954}, {"id": "fDnZGo3bxmQlMZo3m2T96w", "alias": "katies-country-store-east-otis", "name": "Katie's Country Store", "image_url": "https://s3-media3.fl.yelpcdn.com/bphoto/0XMo7glsemhUEwtfjwZuAQ/o.jpg", "is_closed": false, "url": "https://www.yelp.com/biz/katies-country-store-east-otis?adjust_creative=HdhkN5EEH6lAqE3kwhsHEQ&utm_campaign=yelp_api_v3&utm_medium=api_v3_business_search&utm_source=HdhkN5EEH6lAqE3kwhsHEQ", "review_count": 6, "categories": [{"alias": "grocery", "title": "Grocery"}, {"alias": "burgers", "title": "Burgers"}, {"alias": "sandwiches", "title": "Sandwiches"}], "rating": 3.5, "coordinates": {"latitude": 42.1731642, "longitude": -73.034965}, "transactions": [], "price": "$$", "location": {"address1": "1922 E Otis Rd", "address2": "", "address3": "", "city": "East Otis", "zip_code": "01029", "country": "US", "state": "MA", "display_address": ["1922 E Otis Rd", "East Otis, MA 01029"]}, "phone": "+14132694211", "display_phone": "(413) 269-4211", "distance": 11265.459526289013}, {"id": "J0BGjdVn8DRjfWcNGn_WVA", "alias": "mcdonalds-blandford-3", "name": "McDonald's", "image_url": "https://s3-media1.fl.yelpcdn.com/bphoto/J1bCYvv57ylU6zkDLAEnHw/o.jpg", "is_closed": false, "url": "https://www.yelp.com/biz/mcdonalds-blandford-3?adjust_creative=HdhkN5EEH6lAqE3kwhsHEQ&utm_campaign=yelp_api_v3&utm_medium=api_v3_business_search&utm_source=HdhkN5EEH6lAqE3kwhsHEQ", "review_count": 11, "categories": [{"alias": "burgers", "title": "Burgers"}, {"alias": "hotdogs", "title": "Fast Food"}, {"alias": "coffee", "title": "Coffee & Tea"}], "rating": 2.0, "coordinates": {"latitude": 42.194427, "longitude": -72.93425}, "transactions": [], "price": "$", "location": {"address1": "50 North St", "address2": "", "address3": "", "city": "Blandford", "zip_code": "01008", "country": "US", "state": "MA", "display_address": ["50 North St", "Blandford, MA 01008"]}, "phone": "+14138482518", "display_phone": "(413) 848-2518", "distance": 11505.937952242328}, {"id": "uAsX05YvKYKX7XMqdYFNZQ", "alias": "lobstercraft-fairfield-3", "name": "LobsterCraft", "image_url": "https://s3-media2.fl.yelpcdn.com/bphoto/DnyEPuomFzB1F68FecbYfQ/o.jpg", "is_closed": false, "url": "https://www.yelp.com/biz/lobstercraft-fairfield-3?adjust_creative=HdhkN5EEH6lAqE3kwhsHEQ&utm_campaign=yelp_api_v3&utm_medium=api_v3_business_search&utm_source=HdhkN5EEH6lAqE3kwhsHEQ", "review_count": 77, "categories": [{"alias": "foodtrucks", "title": "Food Trucks"}, {"alias": "seafood", "title": "Seafood"}], "rating": 4.5, "coordinates": {"latitude": 41.140451, "longitude": -73.264689}, "transactions": ["pickup"], "price": "$$", "location": {"address1": "1891 Post Rd", "address2": null, "address3": "", "city": "Fairfield", "zip_code": "06824", "country": "US", "state": "CT", "display_address": ["1891 Post Rd", "Fairfield, CT 06824"]}, "phone": "+12039565656", "display_phone": "(203) 956-5656", "distance": 108918.59004734257}, {"id": "qqA8YX58xnmEXLyanHfdUg", "alias": "stufd-food-truck-brooklyn", "name": "Stuf'd Food Truck", "image_url": "https://s3-media2.fl.yelpcdn.com/bphoto/_Wn0i-tLIOFinw8BPAqxPA/o.jpg", "is_closed": false, "url": "https://www.yelp.com/biz/stufd-food-truck-brooklyn?adjust_creative=HdhkN5EEH6lAqE3kwhsHEQ&utm_campaign=yelp_api_v3&utm_medium=api_v3_business_search&utm_source=HdhkN5EEH6lAqE3kwhsHEQ", "review_count": 4, "categories": [{"alias": "sandwiches", "title": "Sandwiches"}, {"alias": "foodtrucks", "title": "Food Trucks"}], "rating": 4.0, "coordinates": {"latitude": 40.7124539, "longitude": -73.9287374}, "transactions": [], "location": {"address1": "178 Varick Ave", "address2": "", "address3": null, "city": "Brooklyn", "zip_code": "11237", "country": "US", "state": "NY", "display_address": ["178 Varick Ave", "Brooklyn, NY 11237"]}, "phone": "+18457091808", "display_phone": "(845) 709-1808", "distance": 173625.35738119908}]