[{"id": "CAth_r0Jpf-z7MoCZ0B9OQ", "alias": "oregon-club-ashland", "name": "Oregon Club", "image_url": "https://s3-media2.fl.yelpcdn.com/bphoto/9j67BBS4qObPPYtwur2VYg/o.jpg", "is_closed": false, "url": "https://www.yelp.com/biz/oregon-club-ashland?adjust_creative=asslzE1UV0XuKI953B1vtw&utm_campaign=yelp_api_v3&utm_medium=api_v3_business_search&utm_source=asslzE1UV0XuKI953B1vtw", "review_count": 161, "categories": [{"alias": "newamerican", "title": "American (New)"}], "rating": 4.0, "coordinates": {"latitude": 42.28465, "longitude": -71.49096}, "transactions": ["delivery"], "price": "$$", "location": {"address1": "117 Oregon Rd", "address2": "", "address3": "", "city": "Ashland", "zip_code": "01721", "country": "US", "state": "MA", "display_address": ["117 Oregon Rd", "Ashland, MA 01721"]}, "phone": "+15088759030", "display_phone": "(508) 875-9030", "distance": 1211.9100911161677}, {"id": "JOqN7yeYBjwpq94OEgnxcg", "alias": "hola-restaurante-and-tequila-bar-southborough-2", "name": "Hola Restaurante & Tequila Bar", "image_url": "https://s3-media1.fl.yelpcdn.com/bphoto/5FBxuTuZKq3qCwW9js9ebQ/o.jpg", "is_closed": false, "url": "https://www.yelp.com/biz/hola-restaurante-and-tequila-bar-southborough-2?adjust_creative=asslzE1UV0XuKI953B1vtw&utm_campaign=yelp_api_v3&utm_medium=api_v3_business_search&utm_source=asslzE1UV0XuKI953B1vtw", "review_count": 108, "categories": [{"alias": "mexican", "title": "Mexican"}, {"alias": "bars", "title": "Bars"}, {"alias": "salad", "title": "Salad"}], "rating": 4.0, "coordinates": {"latitude": 42.29195, "longitude": -71.5201}, "transactions": ["pickup", "delivery"], "price": "$$", "location": {"address1": "154 Turnpike Rd", "address2": null, "address3": "", "city": "Southborough", "zip_code": "01772", "country": "US", "state": "MA", "display_address": ["154 Turnpike Rd", "Southborough, MA 01772"]}, "phone": "+15084602058", "display_phone": "(508) 460-2058", "distance": 1606.8556043978276}, {"id": "FkLRw4Z3BZrkKqFxRCU00A", "alias": "zumi-pizza-southborough", "name": "Zumi Pizza", "image_url": "https://s3-media3.fl.yelpcdn.com/bphoto/hL-_HoXQxnKzmKkuERNv6A/o.jpg", "is_closed": false, "url": "https://www.yelp.com/biz/zumi-pizza-southborough?adjust_creative=asslzE1UV0XuKI953B1vtw&utm_campaign=yelp_api_v3&utm_medium=api_v3_business_search&utm_source=asslzE1UV0XuKI953B1vtw", "review_count": 23, "categories": [{"alias": "pizza", "title": "Pizza"}, {"alias": "burgers", "title": "Burgers"}, {"alias": "wraps", "title": "Wraps"}], "rating": 4.5, "coordinates": {"latitude": 42.297006, "longitude": -71.494674}, "transactions": ["pickup", "delivery"], "price": "$", "location": {"address1": "7 Turnpike Rd", "address2": "", "address3": null, "city": "Southborough", "zip_code": "01772", "country": "US", "state": "MA", "display_address": ["7 Turnpike Rd", "Southborough, MA 01772"]}, "phone": "+15085733138", "display_phone": "(508) 573-3138", "distance": 717.7583163723478}, {"id": "lvBv25K1o-Q0Xqw-51XZ2g", "alias": "tomasso-trattoria-and-enoteca-southborough", "name": "Tomasso Trattoria & Enoteca", "image_url": "https://s3-media1.fl.yelpcdn.com/bphoto/ZzH1dVt7FxOOO-OL79oxow/o.jpg", "is_closed": false, "url": "https://www.yelp.com/biz/tomasso-trattoria-and-enoteca-southborough?adjust_creative=asslzE1UV0XuKI953B1vtw&utm_campaign=yelp_api_v3&utm_medium=api_v3_business_search&utm_source=asslzE1UV0XuKI953B1vtw", "review_count": 224, "categories": [{"alias": "italian", "title": "Italian"}, {"alias": "wine_bars", "title": "Wine Bars"}, {"alias": "pizza", "title": "Pizza"}], "rating": 3.5, "coordinates": {"latitude": 42.29221, "longitude": -71.520331}, "transactions": ["delivery"], "price": "$$$", "location": {"address1": "154 Turnpike Rd", "address2": "", "address3": "", "city": "Southborough", "zip_code": "01772", "country": "US", "state": "MA", "display_address": ["154 Turnpike Rd", "Southborough, MA 01772"]}, "phone": "+15084818484", "display_phone": "(508) 481-8484", "distance": 1618.5058607858602}, {"id": "UOo3yqfWXOLhzwSsm81Wkg", "alias": "owen-o-leary-s-southborough", "name": "Owen O'Leary\u2019s", "image_url": "https://s3-media4.fl.yelpcdn.com/bphoto/eslXohQCkyTwd0AR85n0tg/o.jpg", "is_closed": false, "url": "https://www.yelp.com/biz/owen-o-leary-s-southborough?adjust_creative=asslzE1UV0XuKI953B1vtw&utm_campaign=yelp_api_v3&utm_medium=api_v3_business_search&utm_source=asslzE1UV0XuKI953B1vtw", "review_count": 119, "categories": [{"alias": "pubs", "title": "Pubs"}, {"alias": "burgers", "title": "Burgers"}, {"alias": "sandwiches", "title": "Sandwiches"}], "rating": 3.5, "coordinates": {"latitude": 42.295433, "longitude": -71.499837}, "transactions": [], "price": "$$", "location": {"address1": "50 Turnpike Rd", "address2": "", "address3": "", "city": "Southborough", "zip_code": "01772", "country": "US", "state": "MA", "display_address": ["50 Turnpike Rd", "Southborough, MA 01772"]}, "phone": "+15084811714", "display_phone": "(508) 481-1714", "distance": 355.49001664849294}, {"id": "v-X2QIfBkOmAkNIp1rx7dw", "alias": "yamafuji-southborough-4", "name": "YamaFuji", "image_url": "https://s3-media4.fl.yelpcdn.com/bphoto/uBFZCFCNPjH2DuF4UuM-MA/o.jpg", "is_closed": false, "url": "https://www.yelp.com/biz/yamafuji-southborough-4?adjust_creative=asslzE1UV0XuKI953B1vtw&utm_campaign=yelp_api_v3&utm_medium=api_v3_business_search&utm_source=asslzE1UV0XuKI953B1vtw", "review_count": 60, "categories": [{"alias": "asianfusion", "title": "Asian Fusion"}, {"alias": "sushi", "title": "Sushi Bars"}, {"alias": "japanese", "title": "Japanese"}], "rating": 4.0, "coordinates": {"latitude": 42.287444, "longitude": -71.525164}, "transactions": [], "price": "$$", "location": {"address1": "162 Cordaville Rd", "address2": "", "address3": "", "city": "Southborough", "zip_code": "01772", "country": "US", "state": "MA", "display_address": ["162 Cordaville Rd", "Southborough, MA 01772"]}, "phone": "+15084609400", "display_phone": "(508) 460-9400", "distance": 2086.959351042583}, {"id": "nRNxFR9U12mJ95JM9_TF2A", "alias": "macs-wraps-southborough-2", "name": "Mac's Wraps", "image_url": "https://s3-media2.fl.yelpcdn.com/bphoto/bbRAR-649RBbGU1pWTLrBQ/o.jpg", "is_closed": false, "url": "https://www.yelp.com/biz/macs-wraps-southborough-2?adjust_creative=asslzE1UV0XuKI953B1vtw&utm_campaign=yelp_api_v3&utm_medium=api_v3_business_search&utm_source=asslzE1UV0XuKI953B1vtw", "review_count": 1, "categories": [{"alias": "foodtrucks", "title": "Food Trucks"}, {"alias": "bbq", "title": "Barbeque"}], "rating": 5.0, "coordinates": {"latitude": 42.2973909085335, "longitude": -71.5071446177216}, "transactions": [], "location": {"address1": null, "address2": null, "address3": "", "city": "Southborough", "zip_code": "01745", "country": "US", "state": "MA", "display_address": ["Southborough, MA 01745"]}, "phone": "+15086336080", "display_phone": "(508) 633-6080", "distance": 778.6052379100092}, {"id": "cc7y2FSD7kA8ZciDoSe10g", "alias": "vin-bin-southborough", "name": "Vin Bin", "image_url": "https://s3-media4.fl.yelpcdn.com/bphoto/OX2WRBHRwU8B2sSzy2hBHQ/o.jpg", "is_closed": false, "url": "https://www.yelp.com/biz/vin-bin-southborough?adjust_creative=asslzE1UV0XuKI953B1vtw&utm_campaign=yelp_api_v3&utm_medium=api_v3_business_search&utm_source=asslzE1UV0XuKI953B1vtw", "review_count": 57, "categories": [{"alias": "cafes", "title": "Cafes"}, {"alias": "wine_bars", "title": "Wine Bars"}, {"alias": "beerbar", "title": "Beer Bar"}], "rating": 4.0, "coordinates": {"latitude": 42.2921418617397, "longitude": -71.5199939534068}, "transactions": ["delivery"], "price": "$$", "location": {"address1": "154 Turnpike Rd", "address2": "", "address3": "", "city": "Southborough", "zip_code": "01772", "country": "US", "state": "MA", "display_address": ["154 Turnpike Rd", "Southborough, MA 01772"]}, "phone": "+15084858884", "display_phone": "(508) 485-8884", "distance": 1590.8463613911724}, {"id": "aDWjnBDV2v5JviluGstQRA", "alias": "godavari-framingham-2", "name": "Godavari", "image_url": "https://s3-media4.fl.yelpcdn.com/bphoto/aZwy3bOO-E7OW_1Q6R1GKA/o.jpg", "is_closed": false, "url": "https://www.yelp.com/biz/godavari-framingham-2?adjust_creative=asslzE1UV0XuKI953B1vtw&utm_campaign=yelp_api_v3&utm_medium=api_v3_business_search&utm_source=asslzE1UV0XuKI953B1vtw", "review_count": 137, "categories": [{"alias": "indpak", "title": "Indian"}, {"alias": "buffets", "title": "Buffets"}, {"alias": "coffee", "title": "Coffee & Tea"}], "rating": 3.5, "coordinates": {"latitude": 42.29656, "longitude": -71.48045}, "transactions": ["pickup", "delivery"], "price": "$$", "location": {"address1": "1656 Worcester Rd", "address2": "", "address3": null, "city": "Framingham", "zip_code": "01702", "country": "US", "state": "MA", "display_address": ["1656 Worcester Rd", "Framingham, MA 01702"]}, "phone": "+15084241122", "display_phone": "(508) 424-1122", "distance": 1743.1573524928647}, {"id": "CjM7FpzsBPFGcdcP71bOQQ", "alias": "the-postern-grille-framingham", "name": "The Postern Grille", "image_url": "https://s3-media1.fl.yelpcdn.com/bphoto/QLdd5nowi4DIjhRepO5mng/o.jpg", "is_closed": false, "url": "https://www.yelp.com/biz/the-postern-grille-framingham?adjust_creative=asslzE1UV0XuKI953B1vtw&utm_campaign=yelp_api_v3&utm_medium=api_v3_business_search&utm_source=asslzE1UV0XuKI953B1vtw", "review_count": 23, "categories": [{"alias": "newamerican", "title": "American (New)"}], "rating": 3.0, "coordinates": {"latitude": 42.298897, "longitude": -71.479311}, "transactions": [], "price": "$$", "location": {"address1": "1657 Worcester Rd", "address2": "", "address3": "Sheraton Framingham", "city": "Framingham", "zip_code": "01701", "country": "US", "state": "MA", "display_address": ["1657 Worcester Rd", "Sheraton Framingham", "Framingham, MA 01701"]}, "phone": "+15082701906", "display_phone": "(508) 270-1906", "distance": 1902.829020554235}, {"id": "-1_Jbbc-uldutz-Pr1DZ_A", "alias": "mauros-village-cafe-southborough", "name": "Mauro's Village Cafe", "image_url": "https://s3-media1.fl.yelpcdn.com/bphoto/UcY9Ty0kTDoDRXV19sm3dg/o.jpg", "is_closed": false, "url": "https://www.yelp.com/biz/mauros-village-cafe-southborough?adjust_creative=asslzE1UV0XuKI953B1vtw&utm_campaign=yelp_api_v3&utm_medium=api_v3_business_search&utm_source=asslzE1UV0XuKI953B1vtw", "review_count": 61, "categories": [{"alias": "tradamerican", "title": "American (Traditional)"}, {"alias": "cafes", "title": "Cafes"}], "rating": 4.0, "coordinates": {"latitude": 42.3056869506836, "longitude": -71.5240936279297}, "transactions": ["delivery"], "price": "$", "location": {"address1": "2 Main St", "address2": null, "address3": null, "city": "Southborough", "zip_code": "01772", "country": "US", "state": "MA", "display_address": ["2 Main St", "Southborough, MA 01772"]}, "phone": "+15084858730", "display_phone": "(508) 485-8730", "distance": 2449.5396938209547}, {"id": "isTM9vfKD49tgIVsZe7K6g", "alias": "eros-gourmet-pizza-and-deli-southborough", "name": "Eros Gourmet Pizza & Deli", "image_url": "https://s3-media1.fl.yelpcdn.com/bphoto/m4pAaF4kNTXDxnAnA-kXfw/o.jpg", "is_closed": false, "url": "https://www.yelp.com/biz/eros-gourmet-pizza-and-deli-southborough?adjust_creative=asslzE1UV0XuKI953B1vtw&utm_campaign=yelp_api_v3&utm_medium=api_v3_business_search&utm_source=asslzE1UV0XuKI953B1vtw", "review_count": 36, "categories": [{"alias": "pizza", "title": "Pizza"}], "rating": 3.5, "coordinates": {"latitude": 42.2869811207056, "longitude": -71.5259796380997}, "transactions": ["delivery"], "price": "$$", "location": {"address1": "162 Cordaville Rd", "address2": "", "address3": "", "city": "Southborough", "zip_code": "01772", "country": "US", "state": "MA", "display_address": ["162 Cordaville Rd", "Southborough, MA 01772"]}, "phone": "+15084851211", "display_phone": "(508) 485-1211", "distance": 2050.837234025424}, {"id": "XnBBE6KVKT6cl1buIeWIhA", "alias": "subway-southborough-5", "name": "Subway", "image_url": "https://s3-media2.fl.yelpcdn.com/bphoto/e5FewLiYsoASu8CpGATfPA/o.jpg", "is_closed": false, "url": "https://www.yelp.com/biz/subway-southborough-5?adjust_creative=asslzE1UV0XuKI953B1vtw&utm_campaign=yelp_api_v3&utm_medium=api_v3_business_search&utm_source=asslzE1UV0XuKI953B1vtw", "review_count": 8, "categories": [{"alias": "sandwiches", "title": "Sandwiches"}], "rating": 3.5, "coordinates": {"latitude": 42.2967948052066, "longitude": -71.4957335966017}, "transactions": [], "price": "$", "location": {"address1": "21 Turnpike Rd", "address2": null, "address3": null, "city": "Southborough", "zip_code": "01772", "country": "US", "state": "MA", "display_address": ["21 Turnpike Rd", "Southborough, MA 01772"]}, "phone": "+15084603385", "display_phone": "(508) 460-3385", "distance": 643.664219666734}, {"id": "ie4r8igEUslSSeJIPdHp6Q", "alias": "southborough-house-of-pizza-southborough", "name": "Southborough House of Pizza", "image_url": "https://s3-media2.fl.yelpcdn.com/bphoto/icxIkL89LBS4oEtL24BIfw/o.jpg", "is_closed": false, "url": "https://www.yelp.com/biz/southborough-house-of-pizza-southborough?adjust_creative=asslzE1UV0XuKI953B1vtw&utm_campaign=yelp_api_v3&utm_medium=api_v3_business_search&utm_source=asslzE1UV0XuKI953B1vtw", "review_count": 48, "categories": [{"alias": "pizza", "title": "Pizza"}, {"alias": "sandwiches", "title": "Sandwiches"}], "rating": 3.0, "coordinates": {"latitude": 42.3059295488883, "longitude": -71.5246707201004}, "transactions": [], "price": "$$", "location": {"address1": "5 Main St", "address2": "", "address3": "", "city": "Southborough", "zip_code": "01772", "country": "US", "state": "MA", "display_address": ["5 Main St", "Southborough, MA 01772"]}, "phone": "+15084816511", "display_phone": "(508) 481-6511", "distance": 2490.075290690524}, {"id": "oQn83nGTcQMEVzwNvKE77A", "alias": "dominos-pizza-southborough-2", "name": "Domino's Pizza", "image_url": "https://s3-media4.fl.yelpcdn.com/bphoto/C45tjCHqWeLTyC0TIJCLsQ/o.jpg", "is_closed": false, "url": "https://www.yelp.com/biz/dominos-pizza-southborough-2?adjust_creative=asslzE1UV0XuKI953B1vtw&utm_campaign=yelp_api_v3&utm_medium=api_v3_business_search&utm_source=asslzE1UV0XuKI953B1vtw", "review_count": 23, "categories": [{"alias": "pizza", "title": "Pizza"}, {"alias": "chicken_wings", "title": "Chicken Wings"}, {"alias": "sandwiches", "title": "Sandwiches"}], "rating": 2.5, "coordinates": {"latitude": 42.2966237, "longitude": -71.4960542}, "transactions": [], "price": "$", "location": {"address1": "21 Turnpike Rd", "address2": "Ste C", "address3": null, "city": "Southborough", "zip_code": "01772", "country": "US", "state": "MA", "display_address": ["21 Turnpike Rd", "Ste C", "Southborough, MA 01772"]}, "phone": "+15084813939", "display_phone": "(508) 481-3939", "distance": 606.0029382455746}, {"id": "CFxgyVEQxmnfpg3JvK2DnQ", "alias": "carbones-restaurant-hopkinton-2", "name": "Carbone's Restaurant", "image_url": "", "is_closed": false, "url": "https://www.yelp.com/biz/carbones-restaurant-hopkinton-2?adjust_creative=asslzE1UV0XuKI953B1vtw&utm_campaign=yelp_api_v3&utm_medium=api_v3_business_search&utm_source=asslzE1UV0XuKI953B1vtw", "review_count": 3, "categories": [{"alias": "restaurants", "title": "Restaurants"}], "rating": 2.5, "coordinates": {"latitude": 42.2645, "longitude": -71.52479}, "transactions": [], "location": {"address1": "Cordaville Rd", "address2": "", "address3": "", "city": "Hopkinton", "zip_code": "01748", "country": "US", "state": "MA", "display_address": ["Cordaville Rd", "Hopkinton, MA 01748"]}, "phone": "+15084353465", "display_phone": "(508) 435-3465", "distance": 2171.798887660653}, {"id": "rrvtuXDDaztNsmr46F6VFA", "alias": "chef-louies-framingham", "name": "Chef Louie's", "image_url": "", "is_closed": false, "url": "https://www.yelp.com/biz/chef-louies-framingham?adjust_creative=asslzE1UV0XuKI953B1vtw&utm_campaign=yelp_api_v3&utm_medium=api_v3_business_search&utm_source=asslzE1UV0XuKI953B1vtw", "review_count": 1, "categories": [{"alias": "buffets", "title": "Buffets"}, {"alias": "breakfast_brunch", "title": "Breakfast & Brunch"}, {"alias": "sandwiches", "title": "Sandwiches"}], "rating": 2.0, "coordinates": {"latitude": 42.2915611, "longitude": -71.4891434}, "transactions": [], "location": {"address1": "500 Staples Dr", "address2": "", "address3": "", "city": "Framingham", "zip_code": "01702", "country": "US", "state": "MA", "display_address": ["500 Staples Dr", "Framingham, MA 01702"]}, "phone": "+15084606261", "display_phone": "(508) 460-6261", "distance": 965.241684897984}, {"id": "oS3EoSodjfrZ1KS629Fi4Q", "alias": "wendys-framingham-2", "name": "Wendy's", "image_url": "https://s3-media2.fl.yelpcdn.com/bphoto/qaxtX3IlpXOStZYYCRrF-w/o.jpg", "is_closed": false, "url": "https://www.yelp.com/biz/wendys-framingham-2?adjust_creative=asslzE1UV0XuKI953B1vtw&utm_campaign=yelp_api_v3&utm_medium=api_v3_business_search&utm_source=asslzE1UV0XuKI953B1vtw", "review_count": 10, "categories": [{"alias": "hotdogs", "title": "Fast Food"}, {"alias": "burgers", "title": "Burgers"}], "rating": 2.5, "coordinates": {"latitude": 42.29756, "longitude": -71.48396}, "transactions": ["delivery"], "price": "$", "location": {"address1": "1699 Worcester Rd", "address2": "", "address3": null, "city": "Framingham", "zip_code": "01701", "country": "US", "state": "MA", "display_address": ["1699 Worcester Rd", "Framingham, MA 01701"]}, "phone": "+15086202809", "display_phone": "(508) 620-2809", "distance": 1488.2186820102836}]