[{"id": "bSTIM0u6sZuMmS6GX0mTqA", "alias": "stone-cow-brewery-barre", "name": "Stone Cow Brewery", "image_url": "https://s3-media2.fl.yelpcdn.com/bphoto/jMxZg8Vqw33_6aBMFZElCQ/o.jpg", "is_closed": false, "url": "https://www.yelp.com/biz/stone-cow-brewery-barre?adjust_creative=asslzE1UV0XuKI953B1vtw&utm_campaign=yelp_api_v3&utm_medium=api_v3_business_search&utm_source=asslzE1UV0XuKI953B1vtw", "review_count": 67, "categories": [{"alias": "breweries", "title": "Breweries"}, {"alias": "tradamerican", "title": "American (Traditional)"}], "rating": 4.5, "coordinates": {"latitude": 42.4247357, "longitude": -72.1242577}, "transactions": [], "price": "$", "location": {"address1": "500 West St", "address2": "Ste B", "address3": null, "city": "Barre", "zip_code": "01005", "country": "US", "state": "MA", "display_address": ["500 West St", "Ste B", "Barre, MA 01005"]}, "phone": "+19782578600", "display_phone": "(978) 257-8600", "distance": 9681.590374960866}, {"id": "mrnvGU8_BnE6uHKHEG5XYg", "alias": "picasso-restaurant-and-bar-barre", "name": "Picasso Restaurant & Bar", "image_url": "https://s3-media1.fl.yelpcdn.com/bphoto/osSGSQKk7zlNJaKO6gbqtg/o.jpg", "is_closed": false, "url": "https://www.yelp.com/biz/picasso-restaurant-and-bar-barre?adjust_creative=asslzE1UV0XuKI953B1vtw&utm_campaign=yelp_api_v3&utm_medium=api_v3_business_search&utm_source=asslzE1UV0XuKI953B1vtw", "review_count": 47, "categories": [{"alias": "newamerican", "title": "American (New)"}, {"alias": "seafood", "title": "Seafood"}], "rating": 4.5, "coordinates": {"latitude": 42.42277, "longitude": -72.1061299}, "transactions": [], "price": "$$", "location": {"address1": "2 Common St", "address2": null, "address3": "", "city": "Barre", "zip_code": "01005", "country": "US", "state": "MA", "display_address": ["2 Common St", "Barre, MA 01005"]}, "phone": "+19783553099", "display_phone": "(978) 355-3099", "distance": 8643.801843021338}, {"id": "gLsN78yTskhjpdHMa6HA3A", "alias": "ice-house-pub-barre", "name": "Ice House Pub", "image_url": "https://s3-media1.fl.yelpcdn.com/bphoto/lnDcvFdVS6GZoOB7_uRaqg/o.jpg", "is_closed": false, "url": "https://www.yelp.com/biz/ice-house-pub-barre?adjust_creative=asslzE1UV0XuKI953B1vtw&utm_campaign=yelp_api_v3&utm_medium=api_v3_business_search&utm_source=asslzE1UV0XuKI953B1vtw", "review_count": 40, "categories": [{"alias": "gastropubs", "title": "Gastropubs"}, {"alias": "newamerican", "title": "American (New)"}], "rating": 4.0, "coordinates": {"latitude": 42.4090505140105, "longitude": -72.0973576462425}, "transactions": [], "location": {"address1": "7 Worcester Rd", "address2": "", "address3": null, "city": "Barre", "zip_code": "01005", "country": "US", "state": "MA", "display_address": ["7 Worcester Rd", "Barre, MA 01005"]}, "phone": "+19783553000", "display_phone": "(978) 355-3000", "distance": 6973.496347178621}, {"id": "KI0RQ0NbbiO7AM4I8fODxw", "alias": "still-four-corners-rutland", "name": "Still Four Corners", "image_url": "https://s3-media2.fl.yelpcdn.com/bphoto/sWMoxe_phH0KSQ0dBAewVg/o.jpg", "is_closed": false, "url": "https://www.yelp.com/biz/still-four-corners-rutland?adjust_creative=asslzE1UV0XuKI953B1vtw&utm_campaign=yelp_api_v3&utm_medium=api_v3_business_search&utm_source=asslzE1UV0XuKI953B1vtw", "review_count": 17, "categories": [{"alias": "seafood", "title": "Seafood"}, {"alias": "tradamerican", "title": "American (Traditional)"}], "rating": 4.0, "coordinates": {"latitude": 42.3497930914164, "longitude": -71.9850182533264}, "transactions": [], "price": "$", "location": {"address1": "224 Barre Paxton Rd", "address2": "", "address3": "", "city": "Rutland", "zip_code": "01543", "country": "US", "state": "MA", "display_address": ["224 Barre Paxton Rd", "Rutland, MA 01543"]}, "phone": "+15088866666", "display_phone": "(508) 886-6666", "distance": 5545.892284958661}, {"id": "K0o9LxfijA6wNfKOBUdgVg", "alias": "j-and-j-family-restaurant-barre", "name": "J & J Family Restaurant", "image_url": "https://s3-media3.fl.yelpcdn.com/bphoto/hP0oshzQyKCXLeWljCmuMg/o.jpg", "is_closed": false, "url": "https://www.yelp.com/biz/j-and-j-family-restaurant-barre?adjust_creative=asslzE1UV0XuKI953B1vtw&utm_campaign=yelp_api_v3&utm_medium=api_v3_business_search&utm_source=asslzE1UV0XuKI953B1vtw", "review_count": 10, "categories": [{"alias": "tradamerican", "title": "American (Traditional)"}], "rating": 4.0, "coordinates": {"latitude": 42.391973, "longitude": -72.0819719}, "transactions": [], "price": "$$", "location": {"address1": "815 Worcester Rd", "address2": "", "address3": "", "city": "Barre", "zip_code": "01005", "country": "US", "state": "MA", "display_address": ["815 Worcester Rd", "Barre, MA 01005"]}, "phone": "+19783552122", "display_phone": "(978) 355-2122", "distance": 4692.895410453791}, {"id": "W-if4K_9EljWBdVzXlb4SA", "alias": "black-and-white-grille-spencer", "name": "Black & White Grille", "image_url": "https://s3-media2.fl.yelpcdn.com/bphoto/UWWwnpVVKt-ypz8S9tD79A/o.jpg", "is_closed": false, "url": "https://www.yelp.com/biz/black-and-white-grille-spencer?adjust_creative=asslzE1UV0XuKI953B1vtw&utm_campaign=yelp_api_v3&utm_medium=api_v3_business_search&utm_source=asslzE1UV0XuKI953B1vtw", "review_count": 78, "categories": [{"alias": "tradamerican", "title": "American (Traditional)"}, {"alias": "italian", "title": "Italian"}, {"alias": "seafood", "title": "Seafood"}], "rating": 3.5, "coordinates": {"latitude": 42.302455, "longitude": -71.989682}, "transactions": [], "price": "$$", "location": {"address1": "206 N Spencer Rd", "address2": "", "address3": "", "city": "Spencer", "zip_code": "01562", "country": "US", "state": "MA", "display_address": ["206 N Spencer Rd", "Spencer, MA 01562"]}, "phone": "+15088855018", "display_phone": "(508) 885-5018", "distance": 7834.845585795367}, {"id": "i8CP0pPlUwa4C_e0Zt3jSw", "alias": "center-tree-bar-and-grill-rutland", "name": "Center Tree Bar & Grill", "image_url": "https://s3-media2.fl.yelpcdn.com/bphoto/hLWERM_f_iYmU1Yv_npqYw/o.jpg", "is_closed": false, "url": "https://www.yelp.com/biz/center-tree-bar-and-grill-rutland?adjust_creative=asslzE1UV0XuKI953B1vtw&utm_campaign=yelp_api_v3&utm_medium=api_v3_business_search&utm_source=asslzE1UV0XuKI953B1vtw", "review_count": 14, "categories": [{"alias": "bars", "title": "Bars"}, {"alias": "tradamerican", "title": "American (Traditional)"}, {"alias": "pizza", "title": "Pizza"}], "rating": 4.0, "coordinates": {"latitude": 42.3759484186041, "longitude": -71.9545865803957}, "transactions": [], "location": {"address1": "249 Main St", "address2": "", "address3": null, "city": "Rutland", "zip_code": "01543", "country": "US", "state": "MA", "display_address": ["249 Main St", "Rutland, MA 01543"]}, "phone": "+17742340234", "display_phone": "(774) 234-0234", "distance": 8218.681456573053}, {"id": "Sp04BT3fIADzvBUnSHpMHg", "alias": "ladds-restaurant-rutland", "name": "Ladd's Restaurant", "image_url": "https://s3-media1.fl.yelpcdn.com/bphoto/NBRUhI-Xbl2Up5jzO5Gj1g/o.jpg", "is_closed": false, "url": "https://www.yelp.com/biz/ladds-restaurant-rutland?adjust_creative=asslzE1UV0XuKI953B1vtw&utm_campaign=yelp_api_v3&utm_medium=api_v3_business_search&utm_source=asslzE1UV0XuKI953B1vtw", "review_count": 42, "categories": [{"alias": "seafood", "title": "Seafood"}], "rating": 3.5, "coordinates": {"latitude": 42.33576, "longitude": -71.96584}, "transactions": [], "price": "$$", "location": {"address1": "64 Barre Paxton Rd", "address2": "", "address3": "", "city": "Rutland", "zip_code": "01543", "country": "US", "state": "MA", "display_address": ["64 Barre Paxton Rd", "Rutland, MA 01543"]}, "phone": "+15088864771", "display_phone": "(508) 886-4771", "distance": 7415.890744152216}, {"id": "ldY_Cv8HJO2JO0XilE6SEQ", "alias": "schultz-country-store-and-barnside-cafe-rutland", "name": "Schultz Country Store and Barnside Cafe", "image_url": "https://s3-media2.fl.yelpcdn.com/bphoto/IuoYCq8rvfj4em-YsDN3AA/o.jpg", "is_closed": false, "url": "https://www.yelp.com/biz/schultz-country-store-and-barnside-cafe-rutland?adjust_creative=asslzE1UV0XuKI953B1vtw&utm_campaign=yelp_api_v3&utm_medium=api_v3_business_search&utm_source=asslzE1UV0XuKI953B1vtw", "review_count": 28, "categories": [{"alias": "attractionfarms", "title": "Attraction Farms"}, {"alias": "newamerican", "title": "American (New)"}], "rating": 4.5, "coordinates": {"latitude": 42.36017, "longitude": -71.9415}, "transactions": [], "price": "$", "location": {"address1": "163 Maple Ave", "address2": "", "address3": "", "city": "Rutland", "zip_code": "01543", "country": "US", "state": "MA", "display_address": ["163 Maple Ave", "Rutland, MA 01543"]}, "phone": "+17742340405", "display_phone": "(774) 234-0405", "distance": 9227.942531172546}, {"id": "NPQI9o4Gru4P1FYqfJ_NcA", "alias": "yummy-garden-barre", "name": "Yummy Garden", "image_url": "https://s3-media4.fl.yelpcdn.com/bphoto/uGJpVlkiNkjd5rYt23MpRA/o.jpg", "is_closed": false, "url": "https://www.yelp.com/biz/yummy-garden-barre?adjust_creative=asslzE1UV0XuKI953B1vtw&utm_campaign=yelp_api_v3&utm_medium=api_v3_business_search&utm_source=asslzE1UV0XuKI953B1vtw", "review_count": 17, "categories": [{"alias": "chinese", "title": "Chinese"}], "rating": 4.0, "coordinates": {"latitude": 42.3842252790928, "longitude": -72.098863273859}, "transactions": [], "price": "$", "location": {"address1": "57 Main St", "address2": "", "address3": "", "city": "Barre", "zip_code": "01005", "country": "US", "state": "MA", "display_address": ["57 Main St", "Barre, MA 01005"]}, "phone": "+19783552022", "display_phone": "(978) 355-2022", "distance": 5001.962991970562}, {"id": "ekTKSMIx3hd5XXNmFeT-Bg", "alias": "salem-cross-inn-west-brookfield", "name": "Salem Cross Inn", "image_url": "https://s3-media4.fl.yelpcdn.com/bphoto/2OJ_dw5_3VL5zyJvN1czrA/o.jpg", "is_closed": false, "url": "https://www.yelp.com/biz/salem-cross-inn-west-brookfield?adjust_creative=asslzE1UV0XuKI953B1vtw&utm_campaign=yelp_api_v3&utm_medium=api_v3_business_search&utm_source=asslzE1UV0XuKI953B1vtw", "review_count": 113, "categories": [{"alias": "venues", "title": "Venues & Event Spaces"}, {"alias": "tradamerican", "title": "American (Traditional)"}], "rating": 4.0, "coordinates": {"latitude": 42.2460335987962, "longitude": -72.1747081086731}, "transactions": [], "price": "$$$", "location": {"address1": "260 W Main St Rt 9", "address2": "", "address3": "", "city": "West Brookfield", "zip_code": "01585", "country": "US", "state": "MA", "display_address": ["260 W Main St Rt 9", "West Brookfield, MA 01585"]}, "phone": "+15088672345", "display_phone": "(508) 867-2345", "distance": 15942.295356307981}, {"id": "ykJGWukwghYMNPwamxCj2A", "alias": "jenkins-inn-and-restaurant-barre", "name": "Jenkins Inn & Restaurant", "image_url": "https://s3-media2.fl.yelpcdn.com/bphoto/wkYdN4OoO_OY3LBUeV6v2Q/o.jpg", "is_closed": false, "url": "https://www.yelp.com/biz/jenkins-inn-and-restaurant-barre?adjust_creative=asslzE1UV0XuKI953B1vtw&utm_campaign=yelp_api_v3&utm_medium=api_v3_business_search&utm_source=asslzE1UV0XuKI953B1vtw", "review_count": 6, "categories": [{"alias": "newamerican", "title": "American (New)"}, {"alias": "bedbreakfast", "title": "Bed & Breakfast"}], "rating": 4.5, "coordinates": {"latitude": 42.423309, "longitude": -72.107398}, "transactions": [], "price": "$$", "location": {"address1": "7 West St", "address2": "", "address3": "", "city": "Barre", "zip_code": "01005", "country": "US", "state": "MA", "display_address": ["7 West St", "Barre, MA 01005"]}, "phone": "+19783556444", "display_phone": "(978) 355-6444", "distance": 8762.90882138466}, {"id": "mOPZj9Wrah-t79pwsqip6A", "alias": "mountain-barn-princeton", "name": "Mountain Barn", "image_url": "https://s3-media2.fl.yelpcdn.com/bphoto/_IKvWMHrRaNOi8i7frqdFA/o.jpg", "is_closed": false, "url": "https://www.yelp.com/biz/mountain-barn-princeton?adjust_creative=asslzE1UV0XuKI953B1vtw&utm_campaign=yelp_api_v3&utm_medium=api_v3_business_search&utm_source=asslzE1UV0XuKI953B1vtw", "review_count": 80, "categories": [{"alias": "tradamerican", "title": "American (Traditional)"}, {"alias": "salad", "title": "Salad"}, {"alias": "seafood", "title": "Seafood"}], "rating": 3.5, "coordinates": {"latitude": 42.425731, "longitude": -71.878366}, "transactions": [], "price": "$$", "location": {"address1": "174 Worcester Rd", "address2": "", "address3": "", "city": "Princeton", "zip_code": "01541", "country": "US", "state": "MA", "display_address": ["174 Worcester Rd", "Princeton, MA 01541"]}, "phone": "+19784642044", "display_phone": "(978) 464-2044", "distance": 16158.26514093438}, {"id": "J5BRVzL0o2u4tCkUZUUM2Q", "alias": "kozy-kabin-restaurant-barre", "name": "Kozy Kabin Restaurant", "image_url": "https://s3-media2.fl.yelpcdn.com/bphoto/MCNZ8x6RognRL9SP6zIbPQ/o.jpg", "is_closed": false, "url": "https://www.yelp.com/biz/kozy-kabin-restaurant-barre?adjust_creative=asslzE1UV0XuKI953B1vtw&utm_campaign=yelp_api_v3&utm_medium=api_v3_business_search&utm_source=asslzE1UV0XuKI953B1vtw", "review_count": 3, "categories": [{"alias": "restaurants", "title": "Restaurants"}], "rating": 3.5, "coordinates": {"latitude": 42.3913459777832, "longitude": -72.0739517211914}, "transactions": [], "price": "$", "location": {"address1": "1067 Worcester Rd", "address2": "", "address3": "", "city": "Barre", "zip_code": "01005", "country": "US", "state": "MA", "display_address": ["1067 Worcester Rd", "Barre, MA 01005"]}, "phone": "+19783556264", "display_phone": "(978) 355-6264", "distance": 4309.1053159715275}, {"id": "3Y9OnIQ55G13AcdxFZkHjw", "alias": "high-tides-seafood-barre", "name": "High Tides Seafood", "image_url": "", "is_closed": false, "url": "https://www.yelp.com/biz/high-tides-seafood-barre?adjust_creative=asslzE1UV0XuKI953B1vtw&utm_campaign=yelp_api_v3&utm_medium=api_v3_business_search&utm_source=asslzE1UV0XuKI953B1vtw", "review_count": 7, "categories": [{"alias": "seafood", "title": "Seafood"}, {"alias": "beer_and_wine", "title": "Beer, Wine & Spirits"}, {"alias": "icecream", "title": "Ice Cream & Frozen Yogurt"}], "rating": 4.5, "coordinates": {"latitude": 42.442644144625, "longitude": -72.165020017677}, "transactions": [], "location": {"address1": "2291 West St", "address2": "", "address3": null, "city": "Barre", "zip_code": "01005", "country": "US", "state": "MA", "display_address": ["2291 West St", "Barre, MA 01005"]}, "phone": "+19783556715", "display_phone": "(978) 355-6715", "distance": 13391.96325217788}, {"id": "P8iPp9EeXCxvzLVVpo0vqg", "alias": "vals-holden-3", "name": "Val's", "image_url": "https://s3-media1.fl.yelpcdn.com/bphoto/59_Es62CFQSORd-2pio7PQ/o.jpg", "is_closed": false, "url": "https://www.yelp.com/biz/vals-holden-3?adjust_creative=asslzE1UV0XuKI953B1vtw&utm_campaign=yelp_api_v3&utm_medium=api_v3_business_search&utm_source=asslzE1UV0XuKI953B1vtw", "review_count": 124, "categories": [{"alias": "tradamerican", "title": "American (Traditional)"}, {"alias": "italian", "title": "Italian"}, {"alias": "seafood", "title": "Seafood"}], "rating": 4.0, "coordinates": {"latitude": 42.3478, "longitude": -71.8662}, "transactions": ["delivery"], "price": "$$", "location": {"address1": "75 Reservoir St", "address2": "", "address3": "", "city": "Holden", "zip_code": "01520", "country": "US", "state": "MA", "display_address": ["75 Reservoir St", "Holden, MA 01520"]}, "phone": "+15088290900", "display_phone": "(508) 829-0900", "distance": 15257.681636709493}, {"id": "w7OhIPtYkrCNLt8P2uIavA", "alias": "hanna-devines-restaurant-ware", "name": "Hanna Devine's Restaurant", "image_url": "https://s3-media3.fl.yelpcdn.com/bphoto/y0x0A04JfuP0gNbBhQAbOQ/o.jpg", "is_closed": false, "url": "https://www.yelp.com/biz/hanna-devines-restaurant-ware?adjust_creative=asslzE1UV0XuKI953B1vtw&utm_campaign=yelp_api_v3&utm_medium=api_v3_business_search&utm_source=asslzE1UV0XuKI953B1vtw", "review_count": 65, "categories": [{"alias": "seafood", "title": "Seafood"}, {"alias": "beer_and_wine", "title": "Beer, Wine & Spirits"}, {"alias": "newamerican", "title": "American (New)"}], "rating": 3.5, "coordinates": {"latitude": 42.2605129935206, "longitude": -72.2413601052226}, "transactions": [], "price": "$$", "location": {"address1": "91 Main St", "address2": "", "address3": null, "city": "Ware", "zip_code": "01082", "country": "US", "state": "MA", "display_address": ["91 Main St", "Ware, MA 01082"]}, "phone": "+14132770707", "display_phone": "(413) 277-0707", "distance": 18938.283448009413}, {"id": "9CB1T3OCrceK3JRmagcoMA", "alias": "308-lakeside-east-brookfield", "name": "308 Lakeside", "image_url": "https://s3-media1.fl.yelpcdn.com/bphoto/u8Fqwre_2Owsm6MLE7bvIA/o.jpg", "is_closed": false, "url": "https://www.yelp.com/biz/308-lakeside-east-brookfield?adjust_creative=asslzE1UV0XuKI953B1vtw&utm_campaign=yelp_api_v3&utm_medium=api_v3_business_search&utm_source=asslzE1UV0XuKI953B1vtw", "review_count": 103, "categories": [{"alias": "newamerican", "title": "American (New)"}, {"alias": "beer_and_wine", "title": "Beer, Wine & Spirits"}], "rating": 3.0, "coordinates": {"latitude": 42.2270431518555, "longitude": -72.0465240478516}, "transactions": [], "price": "$$", "location": {"address1": "308 E Main St", "address2": "", "address3": "Rt 9", "city": "East Brookfield", "zip_code": "01515", "country": "US", "state": "MA", "display_address": ["308 E Main St", "Rt 9", "East Brookfield, MA 01515"]}, "phone": "+17744498333", "display_phone": "(774) 449-8333", "distance": 14398.571529982268}, {"id": "J2AP-MgjxbhBr9ibXVvqWg", "alias": "harvest-grille-holden-2", "name": "Harvest Grille", "image_url": "https://s3-media2.fl.yelpcdn.com/bphoto/zSndpBCFSDAIuoVig4H4Gw/o.jpg", "is_closed": false, "url": "https://www.yelp.com/biz/harvest-grille-holden-2?adjust_creative=asslzE1UV0XuKI953B1vtw&utm_campaign=yelp_api_v3&utm_medium=api_v3_business_search&utm_source=asslzE1UV0XuKI953B1vtw", "review_count": 46, "categories": [{"alias": "seafood", "title": "Seafood"}, {"alias": "steak", "title": "Steakhouses"}, {"alias": "vegetarian", "title": "Vegetarian"}], "rating": 3.5, "coordinates": {"latitude": 42.3601057, "longitude": -71.8819848}, "transactions": [], "price": "$$", "location": {"address1": "1 Princeton St", "address2": "", "address3": "", "city": "Holden", "zip_code": "01522", "country": "US", "state": "MA", "display_address": ["1 Princeton St", "Holden, MA 01522"]}, "phone": "+17743454058", "display_phone": "(774) 345-4058", "distance": 13900.450224962968}, {"id": "75a3UzxS-M6tL8W5Berg9g", "alias": "beckis-bistro-barre-2", "name": "Becki's Bistro", "image_url": "https://s3-media4.fl.yelpcdn.com/bphoto/8Ed8-teABQ7se6rO_cad3w/o.jpg", "is_closed": false, "url": "https://www.yelp.com/biz/beckis-bistro-barre-2?adjust_creative=asslzE1UV0XuKI953B1vtw&utm_campaign=yelp_api_v3&utm_medium=api_v3_business_search&utm_source=asslzE1UV0XuKI953B1vtw", "review_count": 27, "categories": [{"alias": "cafes", "title": "Cafes"}, {"alias": "breakfast_brunch", "title": "Breakfast & Brunch"}, {"alias": "burgers", "title": "Burgers"}], "rating": 4.5, "coordinates": {"latitude": 42.4224345, "longitude": -72.1044324}, "transactions": [], "price": "$$", "location": {"address1": "25 Exchange St", "address2": "", "address3": "", "city": "Barre", "zip_code": "01005", "country": "US", "state": "MA", "display_address": ["25 Exchange St", "Barre, MA 01005"]}, "phone": "+19783550012", "display_phone": "(978) 355-0012", "distance": 8543.877323029317}, {"id": "Xk6_V-Sd08xSFqaQUCvZbw", "alias": "wicked-wing-ware", "name": "Wicked Wing", "image_url": "https://s3-media4.fl.yelpcdn.com/bphoto/jSg8-20Gf49RhkksAP3Iwg/o.jpg", "is_closed": false, "url": "https://www.yelp.com/biz/wicked-wing-ware?adjust_creative=asslzE1UV0XuKI953B1vtw&utm_campaign=yelp_api_v3&utm_medium=api_v3_business_search&utm_source=asslzE1UV0XuKI953B1vtw", "review_count": 34, "categories": [{"alias": "chicken_wings", "title": "Chicken Wings"}, {"alias": "breweries", "title": "Breweries"}, {"alias": "cocktailbars", "title": "Cocktail Bars"}], "rating": 4.0, "coordinates": {"latitude": 42.2672853535435, "longitude": -72.2480573767605}, "transactions": [], "location": {"address1": "136 Pleasant St", "address2": "", "address3": null, "city": "Ware", "zip_code": "01082", "country": "US", "state": "MA", "display_address": ["136 Pleasant St", "Ware, MA 01082"]}, "phone": "+14132770020", "display_phone": "(413) 277-0020", "distance": 18991.186229194398}, {"id": "rNGs_-Ef-MWjnyQxMjarMw", "alias": "haymakers-grille-spencer", "name": "Haymakers Grille", "image_url": "https://s3-media4.fl.yelpcdn.com/bphoto/E72MqmerZQ4x1owwHKkuKQ/o.jpg", "is_closed": false, "url": "https://www.yelp.com/biz/haymakers-grille-spencer?adjust_creative=asslzE1UV0XuKI953B1vtw&utm_campaign=yelp_api_v3&utm_medium=api_v3_business_search&utm_source=asslzE1UV0XuKI953B1vtw", "review_count": 2, "categories": [{"alias": "tradamerican", "title": "American (Traditional)"}, {"alias": "breakfast_brunch", "title": "Breakfast & Brunch"}], "rating": 5.0, "coordinates": {"latitude": 42.243512, "longitude": -71.993321}, "transactions": [], "location": {"address1": "152 Main St", "address2": "", "address3": null, "city": "Spencer", "zip_code": "01562", "country": "US", "state": "MA", "display_address": ["152 Main St", "Spencer, MA 01562"]}, "phone": "+17747458095", "display_phone": "(774) 745-8095", "distance": 13418.973468597713}, {"id": "zO6XVdcnBaFIiG9rxdKVrw", "alias": "heavy-evies-diner-rutland", "name": "Heavy Evie's Diner", "image_url": "https://s3-media4.fl.yelpcdn.com/bphoto/5l2DxKoKM-oothvoLdGDag/o.jpg", "is_closed": false, "url": "https://www.yelp.com/biz/heavy-evies-diner-rutland?adjust_creative=asslzE1UV0XuKI953B1vtw&utm_campaign=yelp_api_v3&utm_medium=api_v3_business_search&utm_source=asslzE1UV0XuKI953B1vtw", "review_count": 18, "categories": [{"alias": "diners", "title": "Diners"}], "rating": 4.0, "coordinates": {"latitude": 42.3768478631973, "longitude": -71.9532662630081}, "transactions": [], "price": "$", "location": {"address1": "2 Maple Ave", "address2": "", "address3": "", "city": "Rutland", "zip_code": "01543", "country": "US", "state": "MA", "display_address": ["2 Maple Ave", "Rutland, MA 01543"]}, "phone": "+17742340600", "display_phone": "(774) 234-0600", "distance": 8350.247475571014}, {"id": "muaz7D4kw9jGxtkkO297mg", "alias": "five-loaves-bakery-spencer", "name": "Five Loaves Bakery", "image_url": "https://s3-media2.fl.yelpcdn.com/bphoto/ZmhW-JBIdDp6h0bQ9a6iTA/o.jpg", "is_closed": false, "url": "https://www.yelp.com/biz/five-loaves-bakery-spencer?adjust_creative=asslzE1UV0XuKI953B1vtw&utm_campaign=yelp_api_v3&utm_medium=api_v3_business_search&utm_source=asslzE1UV0XuKI953B1vtw", "review_count": 34, "categories": [{"alias": "bakeries", "title": "Bakeries"}, {"alias": "cafes", "title": "Cafes"}, {"alias": "tradamerican", "title": "American (Traditional)"}], "rating": 4.5, "coordinates": {"latitude": 42.2433319091797, "longitude": -71.9930953979492}, "transactions": [], "price": "$$", "location": {"address1": "13 Mechanic St", "address2": null, "address3": null, "city": "Spencer", "zip_code": "01562", "country": "US", "state": "MA", "display_address": ["13 Mechanic St", "Spencer, MA 01562"]}, "phone": "+15088853760", "display_phone": "(508) 885-3760", "distance": 13453.675444544502}, {"id": "BR-rauP8Dl8iRI1xEOJLlw", "alias": "thai-house-restaurant-east-brookfield", "name": "Thai House Restaurant", "image_url": "https://s3-media3.fl.yelpcdn.com/bphoto/Xk332iy5p35LkQyZbVl6-Q/o.jpg", "is_closed": false, "url": "https://www.yelp.com/biz/thai-house-restaurant-east-brookfield?adjust_creative=asslzE1UV0XuKI953B1vtw&utm_campaign=yelp_api_v3&utm_medium=api_v3_business_search&utm_source=asslzE1UV0XuKI953B1vtw", "review_count": 38, "categories": [{"alias": "thai", "title": "Thai"}], "rating": 4.0, "coordinates": {"latitude": 42.2274131, "longitude": -72.0419256}, "transactions": [], "price": "$$", "location": {"address1": "355 E Main St", "address2": "", "address3": "", "city": "East Brookfield", "zip_code": "01515", "country": "US", "state": "MA", "display_address": ["355 E Main St", "East Brookfield, MA 01515"]}, "phone": "+15088674900", "display_phone": "(508) 867-4900", "distance": 14372.33671157193}, {"id": "2LDyfeKYEV033znbbUjJTg", "alias": "harding-allen-estate-barre", "name": "Harding Allen Estate", "image_url": "https://s3-media3.fl.yelpcdn.com/bphoto/HOird8RBddI8wTn-8SFy2Q/o.jpg", "is_closed": false, "url": "https://www.yelp.com/biz/harding-allen-estate-barre?adjust_creative=asslzE1UV0XuKI953B1vtw&utm_campaign=yelp_api_v3&utm_medium=api_v3_business_search&utm_source=asslzE1UV0XuKI953B1vtw", "review_count": 14, "categories": [{"alias": "restaurants", "title": "Restaurants"}, {"alias": "venues", "title": "Venues & Event Spaces"}], "rating": 3.0, "coordinates": {"latitude": 42.42226, "longitude": -72.10778}, "transactions": [], "price": "$$", "location": {"address1": "59 Allen Dr", "address2": "", "address3": "", "city": "Barre", "zip_code": "01005", "country": "US", "state": "MA", "display_address": ["59 Allen Dr", "Barre, MA 01005"]}, "phone": "+19783554920", "display_phone": "(978) 355-4920", "distance": 8623.352972262961}, {"id": "1rd3Z8l2Ldh5GS2nhNintA", "alias": "rose32-bread-gilbertville", "name": "Rose32 Bread", "image_url": "https://s3-media1.fl.yelpcdn.com/bphoto/CYAKfGeh5XCrTses4exOhw/o.jpg", "is_closed": false, "url": "https://www.yelp.com/biz/rose32-bread-gilbertville?adjust_creative=asslzE1UV0XuKI953B1vtw&utm_campaign=yelp_api_v3&utm_medium=api_v3_business_search&utm_source=asslzE1UV0XuKI953B1vtw", "review_count": 85, "categories": [{"alias": "bakeries", "title": "Bakeries"}, {"alias": "breakfast_brunch", "title": "Breakfast & Brunch"}, {"alias": "tradamerican", "title": "American (Traditional)"}], "rating": 4.5, "coordinates": {"latitude": 42.304067, "longitude": -72.211452}, "transactions": [], "price": "$$", "location": {"address1": "412 Main St", "address2": "", "address3": "", "city": "Gilbertville", "zip_code": "01031", "country": "US", "state": "MA", "display_address": ["412 Main St", "Gilbertville, MA 01031"]}, "phone": "+14134779930", "display_phone": "(413) 477-9930", "distance": 14412.927386378164}, {"id": "t7FbgEITiEReUrTte9mJiw", "alias": "clamber-hill-inn-and-restaurant-petersham-2", "name": "Clamber Hill Inn & Restaurant", "image_url": "https://s3-media1.fl.yelpcdn.com/bphoto/7rAzCt1SCY2BB_WPoLwT_g/o.jpg", "is_closed": false, "url": "https://www.yelp.com/biz/clamber-hill-inn-and-restaurant-petersham-2?adjust_creative=asslzE1UV0XuKI953B1vtw&utm_campaign=yelp_api_v3&utm_medium=api_v3_business_search&utm_source=asslzE1UV0XuKI953B1vtw", "review_count": 11, "categories": [{"alias": "tradamerican", "title": "American (Traditional)"}, {"alias": "whiskeybars", "title": "Whiskey Bars"}, {"alias": "winetasteclasses", "title": "Wine Tasting Classes"}], "rating": 4.0, "coordinates": {"latitude": 42.5031579313361, "longitude": -72.1865090608826}, "transactions": [], "price": "$$$", "location": {"address1": "111 N Main St", "address2": "", "address3": "", "city": "Petersham", "zip_code": "01366", "country": "US", "state": "MA", "display_address": ["111 N Main St", "Petersham, MA 01366"]}, "phone": "+19787248800", "display_phone": "(978) 724-8800", "distance": 19737.957152855703}, {"id": "kRWGiUKxF_14PzZAgAo89A", "alias": "mexicali-cantina-grill-spencer", "name": "Mexicali Cantina Grill", "image_url": "https://s3-media1.fl.yelpcdn.com/bphoto/x0mEHm-y5XbQaW49354aIQ/o.jpg", "is_closed": false, "url": "https://www.yelp.com/biz/mexicali-cantina-grill-spencer?adjust_creative=asslzE1UV0XuKI953B1vtw&utm_campaign=yelp_api_v3&utm_medium=api_v3_business_search&utm_source=asslzE1UV0XuKI953B1vtw", "review_count": 103, "categories": [{"alias": "mexican", "title": "Mexican"}], "rating": 4.0, "coordinates": {"latitude": 42.244031, "longitude": -71.99444}, "transactions": ["pickup", "delivery"], "price": "$$", "location": {"address1": "117 Main St", "address2": "", "address3": "", "city": "Spencer", "zip_code": "01562", "country": "US", "state": "MA", "display_address": ["117 Main St", "Spencer, MA 01562"]}, "phone": "+17747458200", "display_phone": "(774) 745-8200", "distance": 13342.223123374975}, {"id": "PtAMmv9zA1q6y2NuKQNtPA", "alias": "pig-park-bbq-ware", "name": "Pig Park BBQ", "image_url": "https://s3-media2.fl.yelpcdn.com/bphoto/Iwqx3PvTvW2yy2hGxH5R8Q/o.jpg", "is_closed": false, "url": "https://www.yelp.com/biz/pig-park-bbq-ware?adjust_creative=asslzE1UV0XuKI953B1vtw&utm_campaign=yelp_api_v3&utm_medium=api_v3_business_search&utm_source=asslzE1UV0XuKI953B1vtw", "review_count": 13, "categories": [{"alias": "bbq", "title": "Barbeque"}], "rating": 4.0, "coordinates": {"latitude": 42.2599379693609, "longitude": -72.2281836193848}, "transactions": [], "price": "$$", "location": {"address1": "97 East St Rt 9", "address2": "", "address3": "Various Locations", "city": "Ware", "zip_code": "01082", "country": "US", "state": "MA", "display_address": ["97 East St Rt 9", "Various Locations", "Ware, MA 01082"]}, "phone": "+14135444712", "display_phone": "(413) 544-4712", "distance": 18091.325063804008}, {"id": "4Jt27guQdNKXH3pJ9u1m5A", "alias": "barre-mill-restaurant-south-barre-3", "name": "Barre Mill Restaurant", "image_url": "https://s3-media4.fl.yelpcdn.com/bphoto/VIfSRtantMJBsa2O3hE2IQ/o.jpg", "is_closed": false, "url": "https://www.yelp.com/biz/barre-mill-restaurant-south-barre-3?adjust_creative=asslzE1UV0XuKI953B1vtw&utm_campaign=yelp_api_v3&utm_medium=api_v3_business_search&utm_source=asslzE1UV0XuKI953B1vtw", "review_count": 12, "categories": [{"alias": "italian", "title": "Italian"}, {"alias": "pizza", "title": "Pizza"}, {"alias": "tradamerican", "title": "American (Traditional)"}], "rating": 2.5, "coordinates": {"latitude": 42.3840348, "longitude": -72.1004294}, "transactions": [], "price": "$$", "location": {"address1": "90 Main St", "address2": null, "address3": null, "city": "South Barre", "zip_code": "01074", "country": "US", "state": "MA", "display_address": ["90 Main St", "South Barre, MA 01074"]}, "phone": "+19783552987", "display_phone": "(978) 355-2987", "distance": 5082.0674266899405}, {"id": "yIhVtwTmftVIpNYcxf9yMA", "alias": "statz-sports-pub-and-grill-north-brookfield", "name": "Statz Sports Pub & Grill", "image_url": "https://s3-media3.fl.yelpcdn.com/bphoto/iOISgzMcfKXM9LCMMpr-xw/o.jpg", "is_closed": false, "url": "https://www.yelp.com/biz/statz-sports-pub-and-grill-north-brookfield?adjust_creative=asslzE1UV0XuKI953B1vtw&utm_campaign=yelp_api_v3&utm_medium=api_v3_business_search&utm_source=asslzE1UV0XuKI953B1vtw", "review_count": 5, "categories": [{"alias": "breakfast_brunch", "title": "Breakfast & Brunch"}, {"alias": "pubs", "title": "Pubs"}], "rating": 5.0, "coordinates": {"latitude": 42.275866, "longitude": -72.083283}, "transactions": [], "price": "$", "location": {"address1": "341 N Main St", "address2": "", "address3": null, "city": "North Brookfield", "zip_code": "01535", "country": "US", "state": "MA", "display_address": ["341 N Main St", "North Brookfield, MA 01535"]}, "phone": "+15088677204", "display_phone": "(508) 867-7204", "distance": 9351.582972810107}, {"id": "yPx4L-3zWVT4bhD9wofJ0Q", "alias": "the-dashboard-diner-spencer", "name": "The Dashboard Diner", "image_url": "https://s3-media2.fl.yelpcdn.com/bphoto/eUHqsO9dzowr6TZxXLuwGg/o.jpg", "is_closed": false, "url": "https://www.yelp.com/biz/the-dashboard-diner-spencer?adjust_creative=asslzE1UV0XuKI953B1vtw&utm_campaign=yelp_api_v3&utm_medium=api_v3_business_search&utm_source=asslzE1UV0XuKI953B1vtw", "review_count": 7, "categories": [{"alias": "hotdog", "title": "Hot Dogs"}, {"alias": "burgers", "title": "Burgers"}, {"alias": "fishnchips", "title": "Fish & Chips"}], "rating": 5.0, "coordinates": {"latitude": 42.2376279610392, "longitude": -72.0048223919266}, "transactions": [], "price": "$", "location": {"address1": "6 W Main St", "address2": null, "address3": "", "city": "Spencer", "zip_code": "01562", "country": "US", "state": "MA", "display_address": ["6 W Main St", "Spencer, MA 01562"]}, "phone": "+15088645472", "display_phone": "(508) 864-5472", "distance": 13751.345043059693}, {"id": "pV8zeBYV-_DeOM-YoS6DGg", "alias": "kps-breakfast-and-lunch-rutland", "name": "Kp's Breakfast and Lunch", "image_url": "https://s3-media2.fl.yelpcdn.com/bphoto/Ir308fRcoOu7-mYiX8Qyqw/o.jpg", "is_closed": false, "url": "https://www.yelp.com/biz/kps-breakfast-and-lunch-rutland?adjust_creative=asslzE1UV0XuKI953B1vtw&utm_campaign=yelp_api_v3&utm_medium=api_v3_business_search&utm_source=asslzE1UV0XuKI953B1vtw", "review_count": 25, "categories": [{"alias": "breakfast_brunch", "title": "Breakfast & Brunch"}], "rating": 4.5, "coordinates": {"latitude": 42.379295, "longitude": -71.955873}, "transactions": [], "price": "$", "location": {"address1": "24 Pommogussett Rd", "address2": "", "address3": "", "city": "Rutland", "zip_code": "01543", "country": "US", "state": "MA", "display_address": ["24 Pommogussett Rd", "Rutland, MA 01543"]}, "phone": "+15088866408", "display_phone": "(508) 886-6408", "distance": 8221.089420903274}, {"id": "KS7hkfBA2wvYH-lCqj2qJA", "alias": "waffle-cabin-princeton", "name": "Waffle Cabin", "image_url": "https://s3-media2.fl.yelpcdn.com/bphoto/1FIZrumSBd047c1l8Slixw/o.jpg", "is_closed": false, "url": "https://www.yelp.com/biz/waffle-cabin-princeton?adjust_creative=asslzE1UV0XuKI953B1vtw&utm_campaign=yelp_api_v3&utm_medium=api_v3_business_search&utm_source=asslzE1UV0XuKI953B1vtw", "review_count": 1, "categories": [{"alias": "waffles", "title": "Waffles"}], "rating": 5.0, "coordinates": {"latitude": 42.5021610258958, "longitude": -71.8870433580825}, "transactions": [], "location": {"address1": "499 Mountain Rd", "address2": "", "address3": null, "city": "Princeton", "zip_code": "01541", "country": "US", "state": "MA", "display_address": ["499 Mountain Rd", "Princeton, MA 01541"]}, "phone": "+19784642300", "display_phone": "(978) 464-2300", "distance": 21064.645221666222}, {"id": "Nb5fL0yMe1YUGQhMwEVsnA", "alias": "rise-n-shine-diner-east-brookfield", "name": "Rise N' Shine Diner", "image_url": "https://s3-media3.fl.yelpcdn.com/bphoto/pRz0fJ8uPJ4CgXUH9Wl-0w/o.jpg", "is_closed": false, "url": "https://www.yelp.com/biz/rise-n-shine-diner-east-brookfield?adjust_creative=asslzE1UV0XuKI953B1vtw&utm_campaign=yelp_api_v3&utm_medium=api_v3_business_search&utm_source=asslzE1UV0XuKI953B1vtw", "review_count": 6, "categories": [{"alias": "diners", "title": "Diners"}], "rating": 4.0, "coordinates": {"latitude": 42.219766, "longitude": -72.069581}, "transactions": [], "price": "$", "location": {"address1": "237 W Main St", "address2": null, "address3": null, "city": "East Brookfield", "zip_code": "01515", "country": "US", "state": "MA", "display_address": ["237 W Main St", "East Brookfield, MA 01515"]}, "phone": "+15088670034", "display_phone": "(508) 867-0034", "distance": 15276.51839316717}, {"id": "77l6FoUUyafxTM1-c3SbJg", "alias": "chef-sau-restaurant-spencer", "name": "Chef Sau Restaurant", "image_url": "https://s3-media4.fl.yelpcdn.com/bphoto/bAZ4EsoOPNyBKn_Ex0UC4Q/o.jpg", "is_closed": false, "url": "https://www.yelp.com/biz/chef-sau-restaurant-spencer?adjust_creative=asslzE1UV0XuKI953B1vtw&utm_campaign=yelp_api_v3&utm_medium=api_v3_business_search&utm_source=asslzE1UV0XuKI953B1vtw", "review_count": 16, "categories": [{"alias": "chinese", "title": "Chinese"}], "rating": 4.0, "coordinates": {"latitude": 42.24369, "longitude": -71.99381}, "transactions": [], "price": "$$", "location": {"address1": "148 Main St", "address2": "", "address3": "", "city": "Spencer", "zip_code": "01562", "country": "US", "state": "MA", "display_address": ["148 Main St", "Spencer, MA 01562"]}, "phone": "+15088853995", "display_phone": "(508) 885-3995", "distance": 13397.74344666582}, {"id": "caZ_VkDE5opTNQ_uHR-p9w", "alias": "yangs-kitchen-rutland", "name": "Yang's Kitchen", "image_url": "https://s3-media1.fl.yelpcdn.com/bphoto/wifuGXezzzusv_xwPvxsWQ/o.jpg", "is_closed": false, "url": "https://www.yelp.com/biz/yangs-kitchen-rutland?adjust_creative=asslzE1UV0XuKI953B1vtw&utm_campaign=yelp_api_v3&utm_medium=api_v3_business_search&utm_source=asslzE1UV0XuKI953B1vtw", "review_count": 16, "categories": [{"alias": "chinese", "title": "Chinese"}], "rating": 3.5, "coordinates": {"latitude": 42.3760185, "longitude": -71.954483}, "transactions": [], "price": "$", "location": {"address1": "249 Main St", "address2": "Ste 2", "address3": null, "city": "Rutland", "zip_code": "01543", "country": "US", "state": "MA", "display_address": ["249 Main St", "Ste 2", "Rutland, MA 01543"]}, "phone": "+15088862228", "display_phone": "(508) 886-2228", "distance": 8216.99735290529}, {"id": "USutlpAeiWDKGUnbOxz_HA", "alias": "debbie-wong-ware", "name": "Debbie Wong", "image_url": "https://s3-media4.fl.yelpcdn.com/bphoto/e5sprMEJfRyWwY1CoJryiQ/o.jpg", "is_closed": false, "url": "https://www.yelp.com/biz/debbie-wong-ware?adjust_creative=asslzE1UV0XuKI953B1vtw&utm_campaign=yelp_api_v3&utm_medium=api_v3_business_search&utm_source=asslzE1UV0XuKI953B1vtw", "review_count": 23, "categories": [{"alias": "chinese", "title": "Chinese"}], "rating": 4.0, "coordinates": {"latitude": 42.2601, "longitude": -72.24562}, "transactions": [], "price": "$$", "location": {"address1": "54 W Main St", "address2": "", "address3": "", "city": "Ware", "zip_code": "01082", "country": "US", "state": "MA", "display_address": ["54 W Main St", "Ware, MA 01082"]}, "phone": "+14139673336", "display_phone": "(413) 967-3336", "distance": 19246.265197651577}, {"id": "G_PPROO9ccur-m-GWzbZmA", "alias": "quabbin-woods-restaurant-petersham", "name": "Quabbin Woods Restaurant", "image_url": "https://s3-media3.fl.yelpcdn.com/bphoto/w6hsjy3EUcuAd17n0h42Eg/o.jpg", "is_closed": false, "url": "https://www.yelp.com/biz/quabbin-woods-restaurant-petersham?adjust_creative=asslzE1UV0XuKI953B1vtw&utm_campaign=yelp_api_v3&utm_medium=api_v3_business_search&utm_source=asslzE1UV0XuKI953B1vtw", "review_count": 15, "categories": [{"alias": "newamerican", "title": "American (New)"}, {"alias": "comfortfood", "title": "Comfort Food"}, {"alias": "burgers", "title": "Burgers"}], "rating": 4.0, "coordinates": {"latitude": 42.481931, "longitude": -72.183534}, "transactions": [], "price": "$", "location": {"address1": "8 Barre Rd", "address2": "Ste RT", "address3": "", "city": "Petersham", "zip_code": "01366", "country": "US", "state": "MA", "display_address": ["8 Barre Rd", "Ste RT", "Petersham, MA 01366"]}, "phone": "+19787243288", "display_phone": "(978) 724-3288", "distance": 17687.026024110204}, {"id": "_XiwpnKfsVQ_LQyXpjhjCg", "alias": "pepe-s-taqueria-worcester", "name": "Pepe\u2019s Taqueria", "image_url": "https://s3-media3.fl.yelpcdn.com/bphoto/ifdCz4Vt7v6kIWyz4EN9Xw/o.jpg", "is_closed": false, "url": "https://www.yelp.com/biz/pepe-s-taqueria-worcester?adjust_creative=asslzE1UV0XuKI953B1vtw&utm_campaign=yelp_api_v3&utm_medium=api_v3_business_search&utm_source=asslzE1UV0XuKI953B1vtw", "review_count": 68, "categories": [{"alias": "mexican", "title": "Mexican"}, {"alias": "tradamerican", "title": "American (Traditional)"}], "rating": 4.5, "coordinates": {"latitude": 42.277663, "longitude": -71.853122}, "transactions": ["pickup", "delivery"], "location": {"address1": "645 Chandler St", "address2": "", "address3": null, "city": "Worcester", "zip_code": "01602", "country": "US", "state": "MA", "display_address": ["645 Chandler St", "Worcester, MA 01602"]}, "phone": "+15087965796", "display_phone": "(508) 796-5796", "distance": 18488.738233713062}, {"id": "ZNH4DMILk2mdeYDM5GDfVw", "alias": "wrights-fish-and-chips-ware", "name": "Wrights Fish & Chips", "image_url": "", "is_closed": false, "url": "https://www.yelp.com/biz/wrights-fish-and-chips-ware?adjust_creative=asslzE1UV0XuKI953B1vtw&utm_campaign=yelp_api_v3&utm_medium=api_v3_business_search&utm_source=asslzE1UV0XuKI953B1vtw", "review_count": 3, "categories": [{"alias": "fishnchips", "title": "Fish & Chips"}], "rating": 3.0, "coordinates": {"latitude": 51.8108, "longitude": -0.02983}, "transactions": [], "location": {"address1": "3 East Street", "address2": "", "address3": "", "city": "Ware", "zip_code": "SG12 9HJ", "country": "GB", "state": "HRT", "display_address": ["3 East Street", "Ware SG12 9HJ", "United Kingdom"]}, "phone": "+441920462888", "display_phone": "+44 1920 462888", "distance": 18878.462149638857}, {"id": "knwzEGWMrxmn3HMR-7i-bQ", "alias": "livias-dish-a-unique-dining-experience-worcester", "name": "Livia's Dish, A Unique Dining Experience", "image_url": "https://s3-media2.fl.yelpcdn.com/bphoto/DcjBpAN1D1mEFkWEJqR0mQ/o.jpg", "is_closed": false, "url": "https://www.yelp.com/biz/livias-dish-a-unique-dining-experience-worcester?adjust_creative=asslzE1UV0XuKI953B1vtw&utm_campaign=yelp_api_v3&utm_medium=api_v3_business_search&utm_source=asslzE1UV0XuKI953B1vtw", "review_count": 160, "categories": [{"alias": "italian", "title": "Italian"}, {"alias": "breakfast_brunch", "title": "Breakfast & Brunch"}, {"alias": "mediterranean", "title": "Mediterranean"}], "rating": 4.5, "coordinates": {"latitude": 42.2410049438477, "longitude": -71.85302734375}, "transactions": ["delivery"], "price": "$$", "location": {"address1": "1394 Main St", "address2": null, "address3": "", "city": "Worcester", "zip_code": "01603", "country": "US", "state": "MA", "display_address": ["1394 Main St", "Worcester, MA 01603"]}, "phone": "+15089268861", "display_phone": "(508) 926-8861", "distance": 20730.079585322434}, {"id": "9UQg8YZ4jXCLz9tcShEDpw", "alias": "castle-restaurant-leicester", "name": "Castle Restaurant", "image_url": "https://s3-media3.fl.yelpcdn.com/bphoto/-7nsDnvr2kAFDSHYftrZ3w/o.jpg", "is_closed": false, "url": "https://www.yelp.com/biz/castle-restaurant-leicester?adjust_creative=asslzE1UV0XuKI953B1vtw&utm_campaign=yelp_api_v3&utm_medium=api_v3_business_search&utm_source=asslzE1UV0XuKI953B1vtw", "review_count": 79, "categories": [{"alias": "french", "title": "French"}, {"alias": "newamerican", "title": "American (New)"}, {"alias": "tradamerican", "title": "American (Traditional)"}], "rating": 3.5, "coordinates": {"latitude": 42.24453, "longitude": -71.91685}, "transactions": ["delivery"], "price": "$$", "location": {"address1": "1230 Main St", "address2": "", "address3": "", "city": "Leicester", "zip_code": "01524", "country": "US", "state": "MA", "display_address": ["1230 Main St", "Leicester, MA 01524"]}, "phone": "+15088929090", "display_phone": "(508) 892-9090", "distance": 16630.556934105887}, {"id": "yXkjcWlkcOCYP3CsfT-mEA", "alias": "red-tomato-barre", "name": "Red Tomato", "image_url": "", "is_closed": false, "url": "https://www.yelp.com/biz/red-tomato-barre?adjust_creative=asslzE1UV0XuKI953B1vtw&utm_campaign=yelp_api_v3&utm_medium=api_v3_business_search&utm_source=asslzE1UV0XuKI953B1vtw", "review_count": 1, "categories": [{"alias": "pizza", "title": "Pizza"}], "rating": 5.0, "coordinates": {"latitude": 42.42252, "longitude": -72.10426}, "transactions": [], "location": {"address1": "11 Exchange St", "address2": "", "address3": null, "city": "Barre", "zip_code": "01005", "country": "US", "state": "MA", "display_address": ["11 Exchange St", "Barre, MA 01005"]}, "phone": "+19783553536", "display_phone": "(978) 355-3536", "distance": 8537.915366401616}, {"id": "qZ2mUZB1EFz2-Was9kft2Q", "alias": "ye-olde-tavern-west-brookfield-3", "name": "Ye Olde Tavern", "image_url": "https://s3-media2.fl.yelpcdn.com/bphoto/feqtvkBcHvmzmclvTYA-WQ/o.jpg", "is_closed": false, "url": "https://www.yelp.com/biz/ye-olde-tavern-west-brookfield-3?adjust_creative=asslzE1UV0XuKI953B1vtw&utm_campaign=yelp_api_v3&utm_medium=api_v3_business_search&utm_source=asslzE1UV0XuKI953B1vtw", "review_count": 31, "categories": [{"alias": "pizza", "title": "Pizza"}], "rating": 3.5, "coordinates": {"latitude": 42.2349328, "longitude": -72.1419567}, "transactions": [], "price": "$$", "location": {"address1": "7 E Main St", "address2": "", "address3": "", "city": "West Brookfield", "zip_code": "01585", "country": "US", "state": "MA", "display_address": ["7 E Main St", "West Brookfield, MA 01585"]}, "phone": "+15088679709", "display_phone": "(508) 867-9709", "distance": 15443.160504732099}, {"id": "pMAyOdSf-r0M2Z2bdlpVQw", "alias": "yamato-asian-bistro-spencer", "name": "Yamato Asian Bistro", "image_url": "https://s3-media3.fl.yelpcdn.com/bphoto/-EGCOg_xmnRyvXecFXLq4g/o.jpg", "is_closed": false, "url": "https://www.yelp.com/biz/yamato-asian-bistro-spencer?adjust_creative=asslzE1UV0XuKI953B1vtw&utm_campaign=yelp_api_v3&utm_medium=api_v3_business_search&utm_source=asslzE1UV0XuKI953B1vtw", "review_count": 41, "categories": [{"alias": "asianfusion", "title": "Asian Fusion"}, {"alias": "sushi", "title": "Sushi Bars"}], "rating": 3.5, "coordinates": {"latitude": 42.23375, "longitude": -72.01408}, "transactions": [], "price": "$$", "location": {"address1": "62 West Main St", "address2": null, "address3": "", "city": "Spencer", "zip_code": "01562", "country": "US", "state": "MA", "display_address": ["62 West Main St", "Spencer, MA 01562"]}, "phone": "+15088855288", "display_phone": "(508) 885-5288", "distance": 13985.282092346655}, {"id": "084tdDpmmKCnmRQxsoFgxA", "alias": "nuestra-worcester", "name": "Nuestra", "image_url": "https://s3-media3.fl.yelpcdn.com/bphoto/k8wY1kuRTahGnv4sYNfPAw/o.jpg", "is_closed": false, "url": "https://www.yelp.com/biz/nuestra-worcester?adjust_creative=asslzE1UV0XuKI953B1vtw&utm_campaign=yelp_api_v3&utm_medium=api_v3_business_search&utm_source=asslzE1UV0XuKI953B1vtw", "review_count": 2, "categories": [{"alias": "puertorican", "title": "Puerto Rican"}], "rating": 5.0, "coordinates": {"latitude": 42.2370224, "longitude": -71.8475191}, "transactions": [], "location": {"address1": "153 Stafford St", "address2": null, "address3": "", "city": "Worcester", "zip_code": "01603", "country": "US", "state": "MA", "display_address": ["153 Stafford St", "Worcester, MA 01603"]}, "phone": "+15089268885", "display_phone": "(508) 926-8885", "distance": 21369.349963586807}, {"id": "8r4ilmXIWyFI5Xu_zR5ILA", "alias": "asian-garden-ware", "name": "Asian Garden", "image_url": "https://s3-media4.fl.yelpcdn.com/bphoto/E45FppSufn2iRvshzJY6Yw/o.jpg", "is_closed": false, "url": "https://www.yelp.com/biz/asian-garden-ware?adjust_creative=asslzE1UV0XuKI953B1vtw&utm_campaign=yelp_api_v3&utm_medium=api_v3_business_search&utm_source=asslzE1UV0XuKI953B1vtw", "review_count": 24, "categories": [{"alias": "chinese", "title": "Chinese"}, {"alias": "asianfusion", "title": "Asian Fusion"}], "rating": 4.0, "coordinates": {"latitude": 42.255543, "longitude": -72.249445}, "transactions": [], "price": "$$", "location": {"address1": "124 West St", "address2": "Ste 4", "address3": "", "city": "Ware", "zip_code": "01082", "country": "US", "state": "MA", "display_address": ["124 West St", "Ste 4", "Ware, MA 01082"]}, "phone": "+14132770725", "display_phone": "(413) 277-0725", "distance": 19793.63457454096}, {"id": "NMEGYN2drL_VPAUqu5fIbg", "alias": "spencer-country-inn-spencer", "name": "Spencer Country Inn", "image_url": "https://s3-media2.fl.yelpcdn.com/bphoto/3BGO0Zr2EpA4f7TvhONu9g/o.jpg", "is_closed": false, "url": "https://www.yelp.com/biz/spencer-country-inn-spencer?adjust_creative=asslzE1UV0XuKI953B1vtw&utm_campaign=yelp_api_v3&utm_medium=api_v3_business_search&utm_source=asslzE1UV0XuKI953B1vtw", "review_count": 19, "categories": [{"alias": "tradamerican", "title": "American (Traditional)"}, {"alias": "bedbreakfast", "title": "Bed & Breakfast"}], "rating": 3.0, "coordinates": {"latitude": 42.25504, "longitude": -71.95723}, "transactions": [], "price": "$$", "location": {"address1": "500 Main St", "address2": "", "address3": "", "city": "Spencer", "zip_code": "01562", "country": "US", "state": "MA", "display_address": ["500 Main St", "Spencer, MA 01562"]}, "phone": "+15088859036", "display_phone": "(508) 885-9036", "distance": 13572.520664247746}, {"id": "dS4Lx9m7zrHypNavr7UqGQ", "alias": "theos-breakfast-and-lunch-paxton", "name": "Theo's Breakfast & Lunch", "image_url": "https://s3-media3.fl.yelpcdn.com/bphoto/zK_hngL0DaX4UP3OiWFkTw/o.jpg", "is_closed": false, "url": "https://www.yelp.com/biz/theos-breakfast-and-lunch-paxton?adjust_creative=asslzE1UV0XuKI953B1vtw&utm_campaign=yelp_api_v3&utm_medium=api_v3_business_search&utm_source=asslzE1UV0XuKI953B1vtw", "review_count": 27, "categories": [{"alias": "breakfast_brunch", "title": "Breakfast & Brunch"}], "rating": 4.5, "coordinates": {"latitude": 42.310719, "longitude": -71.927681}, "transactions": ["delivery"], "price": "$", "location": {"address1": "681 Pleasant St", "address2": "", "address3": "", "city": "Paxton", "zip_code": "01612", "country": "US", "state": "MA", "display_address": ["681 Pleasant St", "Paxton, MA 01612"]}, "phone": "+15084591330", "display_phone": "(508) 459-1330", "distance": 11347.665393855961}, {"id": "t2YP9KwOFbufQ5CdDnGspw", "alias": "howards-drive-in-west-brookfield", "name": "Howards Drive In", "image_url": "https://s3-media1.fl.yelpcdn.com/bphoto/J29KRUefCK0T3bxmW4xEvw/o.jpg", "is_closed": false, "url": "https://www.yelp.com/biz/howards-drive-in-west-brookfield?adjust_creative=asslzE1UV0XuKI953B1vtw&utm_campaign=yelp_api_v3&utm_medium=api_v3_business_search&utm_source=asslzE1UV0XuKI953B1vtw", "review_count": 52, "categories": [{"alias": "tradamerican", "title": "American (Traditional)"}], "rating": 4.0, "coordinates": {"latitude": 42.2305, "longitude": -72.13282}, "transactions": [], "price": "$", "location": {"address1": "121 E Main St", "address2": "", "address3": "", "city": "West Brookfield", "zip_code": "01585", "country": "US", "state": "MA", "display_address": ["121 E Main St", "West Brookfield, MA 01585"]}, "phone": "+15088676504", "display_phone": "(508) 867-6504", "distance": 15528.342898199531}, {"id": "nB8kYU2SLIJHpHy3HskVDA", "alias": "mexicali-cantina-grill-ware", "name": "Mexicali Cantina Grill", "image_url": "https://s3-media3.fl.yelpcdn.com/bphoto/--DwcVl27eu8ZhHc0vgjZg/o.jpg", "is_closed": false, "url": "https://www.yelp.com/biz/mexicali-cantina-grill-ware?adjust_creative=asslzE1UV0XuKI953B1vtw&utm_campaign=yelp_api_v3&utm_medium=api_v3_business_search&utm_source=asslzE1UV0XuKI953B1vtw", "review_count": 67, "categories": [{"alias": "mexican", "title": "Mexican"}], "rating": 3.5, "coordinates": {"latitude": 42.2555114, "longitude": -72.2521185}, "transactions": [], "price": "$$", "location": {"address1": "146 West St", "address2": "", "address3": "", "city": "Ware", "zip_code": "01082", "country": "US", "state": "MA", "display_address": ["146 West St", "Ware, MA 01082"]}, "phone": "+14132770925", "display_phone": "(413) 277-0925", "distance": 19983.111826713488}, {"id": "Oa9YXvAs50RB-Xhc2BwXlg", "alias": "mimis-coffeehouse-of-hardwick-hardwick", "name": "Mimi's CoffeeHouse Of Hardwick", "image_url": "https://s3-media4.fl.yelpcdn.com/bphoto/NMlDkOX7whn4nYEiejmeSg/o.jpg", "is_closed": false, "url": "https://www.yelp.com/biz/mimis-coffeehouse-of-hardwick-hardwick?adjust_creative=asslzE1UV0XuKI953B1vtw&utm_campaign=yelp_api_v3&utm_medium=api_v3_business_search&utm_source=asslzE1UV0XuKI953B1vtw", "review_count": 3, "categories": [{"alias": "coffee", "title": "Coffee & Tea"}, {"alias": "breakfast_brunch", "title": "Breakfast & Brunch"}, {"alias": "sandwiches", "title": "Sandwiches"}], "rating": 4.5, "coordinates": {"latitude": 42.3486171468542, "longitude": -72.1993167786787}, "transactions": [], "price": "$$", "location": {"address1": "14 Barre Rd", "address2": "", "address3": null, "city": "Hardwick", "zip_code": "01037", "country": "US", "state": "MA", "display_address": ["14 Barre Rd", "Hardwick, MA 01037"]}, "phone": "+14134771144", "display_phone": "(413) 477-1144", "distance": 12211.993472575561}, {"id": "2BIeNbfudbD_sPWyDv0pNQ", "alias": "masons-grille-warren", "name": "Mason's Grille", "image_url": "https://s3-media2.fl.yelpcdn.com/bphoto/KA3N3PP2O1OO_iykU_NoDw/o.jpg", "is_closed": false, "url": "https://www.yelp.com/biz/masons-grille-warren?adjust_creative=asslzE1UV0XuKI953B1vtw&utm_campaign=yelp_api_v3&utm_medium=api_v3_business_search&utm_source=asslzE1UV0XuKI953B1vtw", "review_count": 16, "categories": [{"alias": "breakfast_brunch", "title": "Breakfast & Brunch"}], "rating": 4.0, "coordinates": {"latitude": 42.2128038938205, "longitude": -72.1945668384433}, "transactions": [], "price": "$", "location": {"address1": "14 Milton Fountain Way", "address2": "", "address3": null, "city": "Warren", "zip_code": "01083", "country": "US", "state": "MA", "display_address": ["14 Milton Fountain Way", "Warren, MA 01083"]}, "phone": "+14134368042", "display_phone": "(413) 436-8042", "distance": 19862.17895246667}, {"id": "Ta3RtU27BULz8gypO2tz1g", "alias": "kostas-cafe-spencer", "name": "Kosta's Cafe", "image_url": "https://s3-media3.fl.yelpcdn.com/bphoto/TxC1BRbDhKJP6lTm_ChMzw/o.jpg", "is_closed": false, "url": "https://www.yelp.com/biz/kostas-cafe-spencer?adjust_creative=asslzE1UV0XuKI953B1vtw&utm_campaign=yelp_api_v3&utm_medium=api_v3_business_search&utm_source=asslzE1UV0XuKI953B1vtw", "review_count": 34, "categories": [{"alias": "breakfast_brunch", "title": "Breakfast & Brunch"}, {"alias": "coffee", "title": "Coffee & Tea"}], "rating": 4.0, "coordinates": {"latitude": 42.246032, "longitude": -71.995498}, "transactions": [], "price": "$", "location": {"address1": "31 Pleasant St", "address2": "", "address3": "", "city": "Spencer", "zip_code": "01562", "country": "US", "state": "MA", "display_address": ["31 Pleasant St", "Spencer, MA 01562"]}, "phone": "+15088857705", "display_phone": "(508) 885-7705", "distance": 13103.319618182466}, {"id": "UDJ3fIh3TjsVrKBFDLzLKg", "alias": "spencer-pizza-house-spencer", "name": "Spencer Pizza House", "image_url": "https://s3-media1.fl.yelpcdn.com/bphoto/GiQku7izwr1tz1zuQliGOw/o.jpg", "is_closed": false, "url": "https://www.yelp.com/biz/spencer-pizza-house-spencer?adjust_creative=asslzE1UV0XuKI953B1vtw&utm_campaign=yelp_api_v3&utm_medium=api_v3_business_search&utm_source=asslzE1UV0XuKI953B1vtw", "review_count": 16, "categories": [{"alias": "pizza", "title": "Pizza"}, {"alias": "seafood", "title": "Seafood"}, {"alias": "sandwiches", "title": "Sandwiches"}], "rating": 4.5, "coordinates": {"latitude": 42.24288, "longitude": -71.99309}, "transactions": [], "price": "$", "location": {"address1": "19 Mechanic St", "address2": "", "address3": "", "city": "Spencer", "zip_code": "01562", "country": "US", "state": "MA", "display_address": ["19 Mechanic St", "Spencer, MA 01562"]}, "phone": "+15088850000", "display_phone": "(508) 885-0000", "distance": 13498.82817247408}, {"id": "tvP1MXfXcaJKD8pGyO31Mw", "alias": "matts-breakfast-nook-west-brookfield", "name": "Matt's Breakfast Nook", "image_url": "https://s3-media3.fl.yelpcdn.com/bphoto/BBidKu4IzxWx95_oclff3w/o.jpg", "is_closed": false, "url": "https://www.yelp.com/biz/matts-breakfast-nook-west-brookfield?adjust_creative=asslzE1UV0XuKI953B1vtw&utm_campaign=yelp_api_v3&utm_medium=api_v3_business_search&utm_source=asslzE1UV0XuKI953B1vtw", "review_count": 1, "categories": [{"alias": "breakfast_brunch", "title": "Breakfast & Brunch"}], "rating": 5.0, "coordinates": {"latitude": 42.2351378, "longitude": -72.1417457}, "transactions": [], "location": {"address1": "8 E Main St", "address2": "", "address3": null, "city": "West Brookfield", "zip_code": "01585", "country": "US", "state": "MA", "display_address": ["8 E Main St", "West Brookfield, MA 01585"]}, "phone": "+15086371166", "display_phone": "(508) 637-1166", "distance": 15412.55141386443}, {"id": "F1K8iHcH22xWJoLHJ898sw", "alias": "mountainside-bakery-and-cafe-princeton-2", "name": "Mountainside Bakery & Cafe", "image_url": "https://s3-media2.fl.yelpcdn.com/bphoto/UagP18_tn441kCP6vNF6ag/o.jpg", "is_closed": false, "url": "https://www.yelp.com/biz/mountainside-bakery-and-cafe-princeton-2?adjust_creative=asslzE1UV0XuKI953B1vtw&utm_campaign=yelp_api_v3&utm_medium=api_v3_business_search&utm_source=asslzE1UV0XuKI953B1vtw", "review_count": 45, "categories": [{"alias": "bakeries", "title": "Bakeries"}, {"alias": "cafes", "title": "Cafes"}, {"alias": "communitycenters", "title": "Community Centers"}], "rating": 4.5, "coordinates": {"latitude": 42.475367139192, "longitude": -71.8835869731025}, "transactions": [], "price": "$$", "location": {"address1": "213 Mountain Rd", "address2": null, "address3": null, "city": "Princeton", "zip_code": "01541", "country": "US", "state": "MA", "display_address": ["213 Mountain Rd", "Princeton, MA 01541"]}, "phone": "+19784640300", "display_phone": "(978) 464-0300", "distance": 19037.473930280154}, {"id": "HeXsO5K0P86ijQPYDosgLQ", "alias": "ellers-restaurant-cherry-valley-2", "name": "Eller's Restaurant", "image_url": "https://s3-media2.fl.yelpcdn.com/bphoto/ePvZ_Ah00iMyAz8Psl9Xog/o.jpg", "is_closed": false, "url": "https://www.yelp.com/biz/ellers-restaurant-cherry-valley-2?adjust_creative=asslzE1UV0XuKI953B1vtw&utm_campaign=yelp_api_v3&utm_medium=api_v3_business_search&utm_source=asslzE1UV0XuKI953B1vtw", "review_count": 99, "categories": [{"alias": "breakfast_brunch", "title": "Breakfast & Brunch"}, {"alias": "burgers", "title": "Burgers"}, {"alias": "newamerican", "title": "American (New)"}], "rating": 4.0, "coordinates": {"latitude": 42.24308, "longitude": -71.87224}, "transactions": ["delivery"], "price": "$$", "location": {"address1": "190 Main St", "address2": "", "address3": "", "city": "Cherry Valley", "zip_code": "01611", "country": "US", "state": "MA", "display_address": ["190 Main St", "Cherry Valley, MA 01611"]}, "phone": "+15088923925", "display_phone": "(508) 892-3925", "distance": 19365.770906162805}, {"id": "weSMNlLoYuqL2wXmNHOsKQ", "alias": "paxton-house-of-pizza-paxton", "name": "Paxton House of Pizza", "image_url": "https://s3-media4.fl.yelpcdn.com/bphoto/uHq7WmKvRiie7mODU1pQ7Q/o.jpg", "is_closed": false, "url": "https://www.yelp.com/biz/paxton-house-of-pizza-paxton?adjust_creative=asslzE1UV0XuKI953B1vtw&utm_campaign=yelp_api_v3&utm_medium=api_v3_business_search&utm_source=asslzE1UV0XuKI953B1vtw", "review_count": 10, "categories": [{"alias": "pizza", "title": "Pizza"}], "rating": 4.5, "coordinates": {"latitude": 42.31029, "longitude": -71.92717}, "transactions": ["delivery"], "location": {"address1": "677 Pleasant St", "address2": "", "address3": "", "city": "Paxton", "zip_code": "01612", "country": "US", "state": "MA", "display_address": ["677 Pleasant St", "Paxton, MA 01612"]}, "phone": "+15087556680", "display_phone": "(508) 755-6680", "distance": 11385.664651776686}, {"id": "NSR3gnnaeCJfL99xif_PNQ", "alias": "petersham-country-store-petersham", "name": "Petersham Country Store", "image_url": "https://s3-media2.fl.yelpcdn.com/bphoto/MGNdpq_qs24ltsY9fBcmWQ/o.jpg", "is_closed": false, "url": "https://www.yelp.com/biz/petersham-country-store-petersham?adjust_creative=asslzE1UV0XuKI953B1vtw&utm_campaign=yelp_api_v3&utm_medium=api_v3_business_search&utm_source=asslzE1UV0XuKI953B1vtw", "review_count": 29, "categories": [{"alias": "grocery", "title": "Grocery"}, {"alias": "cafes", "title": "Cafes"}, {"alias": "artsandcrafts", "title": "Arts & Crafts"}], "rating": 4.5, "coordinates": {"latitude": 42.48871, "longitude": -72.18573}, "transactions": [], "price": "$$", "location": {"address1": "2 N Main St", "address2": "", "address3": "", "city": "Petersham", "zip_code": "01366", "country": "US", "state": "MA", "display_address": ["2 N Main St", "Petersham, MA 01366"]}, "phone": "+19787240000", "display_phone": "(978) 724-0000", "distance": 18409.336211676695}, {"id": "Yom8r1dLF2HMO5aSwII0Lw", "alias": "charlies-diner-spencer", "name": "Charlies Diner", "image_url": "https://s3-media4.fl.yelpcdn.com/bphoto/Luprqfrv0Q_XSTQkE10zqQ/o.jpg", "is_closed": false, "url": "https://www.yelp.com/biz/charlies-diner-spencer?adjust_creative=asslzE1UV0XuKI953B1vtw&utm_campaign=yelp_api_v3&utm_medium=api_v3_business_search&utm_source=asslzE1UV0XuKI953B1vtw", "review_count": 99, "categories": [{"alias": "diners", "title": "Diners"}], "rating": 3.0, "coordinates": {"latitude": 42.237049280598, "longitude": -72.010635589954}, "transactions": [], "price": "$$", "location": {"address1": "5 Meadow Rd", "address2": null, "address3": null, "city": "Spencer", "zip_code": "01562", "country": "US", "state": "MA", "display_address": ["5 Meadow Rd", "Spencer, MA 01562"]}, "phone": "+15088854033", "display_phone": "(508) 885-4033", "distance": 13689.20663644978}, {"id": "aWYujjBXWiC-8oY7MrZG3w", "alias": "wild-child-express-princeton", "name": "Wild Child Express", "image_url": "", "is_closed": false, "url": "https://www.yelp.com/biz/wild-child-express-princeton?adjust_creative=asslzE1UV0XuKI953B1vtw&utm_campaign=yelp_api_v3&utm_medium=api_v3_business_search&utm_source=asslzE1UV0XuKI953B1vtw", "review_count": 2, "categories": [{"alias": "icecream", "title": "Ice Cream & Frozen Yogurt"}, {"alias": "foodstands", "title": "Food Stands"}], "rating": 5.0, "coordinates": {"latitude": 42.4229399, "longitude": -71.92728}, "transactions": [], "location": {"address1": "29 Dowds Ln", "address2": null, "address3": "", "city": "Princeton", "zip_code": "01541", "country": "US", "state": "MA", "display_address": ["29 Dowds Ln", "Princeton, MA 01541"]}, "phone": "+19784644570", "display_phone": "(978) 464-4570", "distance": 12570.460839470528}, {"id": "vlFtM9aSiPijxP6nYuRHvA", "alias": "reeds-country-store-new-braintree", "name": "Reed's Country Store", "image_url": "", "is_closed": false, "url": "https://www.yelp.com/biz/reeds-country-store-new-braintree?adjust_creative=asslzE1UV0XuKI953B1vtw&utm_campaign=yelp_api_v3&utm_medium=api_v3_business_search&utm_source=asslzE1UV0XuKI953B1vtw", "review_count": 3, "categories": [{"alias": "tradamerican", "title": "American (Traditional)"}], "rating": 3.0, "coordinates": {"latitude": 42.3236541748047, "longitude": -72.1021881103516}, "transactions": [], "price": "$", "location": {"address1": "753 Barre Rd", "address2": "", "address3": "", "city": "New Braintree", "zip_code": "01531", "country": "US", "state": "MA", "display_address": ["753 Barre Rd", "New Braintree, MA 01531"]}, "phone": "+15088679512", "display_phone": "(508) 867-9512", "distance": 5563.759428547172}, {"id": "M5Simi8q6gjwA9yngORcwg", "alias": "lazers-pizza-and-roast-beef-ware-2", "name": "Lazer's Pizza & Roast Beef", "image_url": "https://s3-media4.fl.yelpcdn.com/bphoto/4k1itVfqoWojH6QJtS4isA/o.jpg", "is_closed": false, "url": "https://www.yelp.com/biz/lazers-pizza-and-roast-beef-ware-2?adjust_creative=asslzE1UV0XuKI953B1vtw&utm_campaign=yelp_api_v3&utm_medium=api_v3_business_search&utm_source=asslzE1UV0XuKI953B1vtw", "review_count": 27, "categories": [{"alias": "pizza", "title": "Pizza"}], "rating": 4.5, "coordinates": {"latitude": 42.2599814229054, "longitude": -72.2400694034169}, "transactions": [], "price": "$", "location": {"address1": "41 Main St", "address2": "", "address3": "", "city": "Ware", "zip_code": "01082", "country": "US", "state": "MA", "display_address": ["41 Main St", "Ware, MA 01082"]}, "phone": "+14139673181", "display_phone": "(413) 967-3181", "distance": 18884.261823791214}, {"id": "r1C8KX4OhXsqePPEoaYEzQ", "alias": "hot-dog-annies-leicester-2", "name": "Hot Dog Annie's", "image_url": "https://s3-media2.fl.yelpcdn.com/bphoto/8hvm9DdLQhKP5kJWSinPQw/o.jpg", "is_closed": false, "url": "https://www.yelp.com/biz/hot-dog-annies-leicester-2?adjust_creative=asslzE1UV0XuKI953B1vtw&utm_campaign=yelp_api_v3&utm_medium=api_v3_business_search&utm_source=asslzE1UV0XuKI953B1vtw", "review_count": 86, "categories": [{"alias": "hotdog", "title": "Hot Dogs"}], "rating": 3.5, "coordinates": {"latitude": 42.2604565, "longitude": -71.9088738}, "transactions": ["delivery"], "price": "$", "location": {"address1": "244 Paxton St", "address2": "", "address3": "", "city": "Leicester", "zip_code": "01524", "country": "US", "state": "MA", "display_address": ["244 Paxton St", "Leicester, MA 01524"]}, "phone": "+15088929059", "display_phone": "(508) 892-9059", "distance": 15892.552388015756}, {"id": "LHU-3f0kpPrG8cB7lkDhpw", "alias": "depot-square-deli-and-package-store-east-brookfield", "name": "Depot Square Deli &Package Store", "image_url": "https://s3-media3.fl.yelpcdn.com/bphoto/w5mkcnXJy8KCBx3a3AMLxw/o.jpg", "is_closed": false, "url": "https://www.yelp.com/biz/depot-square-deli-and-package-store-east-brookfield?adjust_creative=asslzE1UV0XuKI953B1vtw&utm_campaign=yelp_api_v3&utm_medium=api_v3_business_search&utm_source=asslzE1UV0XuKI953B1vtw", "review_count": 3, "categories": [{"alias": "desserts", "title": "Desserts"}, {"alias": "delis", "title": "Delis"}, {"alias": "sandwiches", "title": "Sandwiches"}], "rating": 5.0, "coordinates": {"latitude": 42.2256833290215, "longitude": -72.04646605713}, "transactions": [], "price": "$", "location": {"address1": "104 Pleasant St", "address2": "", "address3": "", "city": "East Brookfield", "zip_code": "01515", "country": "US", "state": "MA", "display_address": ["104 Pleasant St", "East Brookfield, MA 01515"]}, "phone": "+15088673412", "display_phone": "(508) 867-3412", "distance": 14547.566046111733}, {"id": "ydG7dmQFYzlPBzQuyTprXA", "alias": "the-clam-box-brookfield", "name": "The Clam Box", "image_url": "https://s3-media2.fl.yelpcdn.com/bphoto/Pqk2Fslfyhnap4IagwfaWA/o.jpg", "is_closed": false, "url": "https://www.yelp.com/biz/the-clam-box-brookfield?adjust_creative=asslzE1UV0XuKI953B1vtw&utm_campaign=yelp_api_v3&utm_medium=api_v3_business_search&utm_source=asslzE1UV0XuKI953B1vtw", "review_count": 55, "categories": [{"alias": "tradamerican", "title": "American (Traditional)"}, {"alias": "seafood", "title": "Seafood"}, {"alias": "burgers", "title": "Burgers"}], "rating": 3.0, "coordinates": {"latitude": 42.2111, "longitude": -72.085135}, "transactions": [], "price": "$$", "location": {"address1": "53 S Maple St", "address2": "", "address3": "", "city": "Brookfield", "zip_code": "01506", "country": "US", "state": "MA", "display_address": ["53 S Maple St", "Brookfield, MA 01506"]}, "phone": "+15086371790", "display_phone": "(508) 637-1790", "distance": 16399.259749557295}, {"id": "nO0WHyU8hH-fZox4vFx_Tw", "alias": "trolley-stop-restaurant-east-brookfield", "name": "Trolley Stop Restaurant", "image_url": "https://s3-media3.fl.yelpcdn.com/bphoto/ssiKoGUtgz6GULs3biiPxw/o.jpg", "is_closed": false, "url": "https://www.yelp.com/biz/trolley-stop-restaurant-east-brookfield?adjust_creative=asslzE1UV0XuKI953B1vtw&utm_campaign=yelp_api_v3&utm_medium=api_v3_business_search&utm_source=asslzE1UV0XuKI953B1vtw", "review_count": 7, "categories": [{"alias": "breakfast_brunch", "title": "Breakfast & Brunch"}], "rating": 3.5, "coordinates": {"latitude": 42.226512, "longitude": -72.047706}, "transactions": [], "price": "$", "location": {"address1": "294 E Main St", "address2": "", "address3": "", "city": "East Brookfield", "zip_code": "01515", "country": "US", "state": "MA", "display_address": ["294 E Main St", "East Brookfield, MA 01515"]}, "phone": "+15088675995", "display_phone": "(508) 867-5995", "distance": 14449.89929988046}, {"id": "0u096yYEmPF_74mcDYKFOQ", "alias": "panda-garden-2-east-brookfield", "name": "Panda Garden 2", "image_url": "https://s3-media1.fl.yelpcdn.com/bphoto/F8G-Hgio3ROhaSmbX4d81w/o.jpg", "is_closed": false, "url": "https://www.yelp.com/biz/panda-garden-2-east-brookfield?adjust_creative=asslzE1UV0XuKI953B1vtw&utm_campaign=yelp_api_v3&utm_medium=api_v3_business_search&utm_source=asslzE1UV0XuKI953B1vtw", "review_count": 13, "categories": [{"alias": "chinese", "title": "Chinese"}], "rating": 3.0, "coordinates": {"latitude": 42.219459, "longitude": -72.070868}, "transactions": [], "location": {"address1": "237 W Main St", "address2": "", "address3": "", "city": "East Brookfield", "zip_code": "01515", "country": "US", "state": "MA", "display_address": ["237 W Main St", "East Brookfield, MA 01515"]}, "phone": "+15088673799", "display_phone": "(508) 867-3799", "distance": 15279.023528278785}, {"id": "e2a9Jorsj-TAoyoSi6lkZQ", "alias": "pink-garlic-pizza-worcester-2", "name": "Pink Garlic Pizza", "image_url": "https://s3-media1.fl.yelpcdn.com/bphoto/3nbIkbvw644PooFvpt_2Lw/o.jpg", "is_closed": false, "url": "https://www.yelp.com/biz/pink-garlic-pizza-worcester-2?adjust_creative=asslzE1UV0XuKI953B1vtw&utm_campaign=yelp_api_v3&utm_medium=api_v3_business_search&utm_source=asslzE1UV0XuKI953B1vtw", "review_count": 1, "categories": [{"alias": "pizza", "title": "Pizza"}], "rating": 5.0, "coordinates": {"latitude": 52.2080865, "longitude": -2.2249637}, "transactions": [], "location": {"address1": "4 Gregory's Mill St", "address2": "", "address3": null, "city": "Worcester", "zip_code": "WR3 8AW", "country": "GB", "state": "WOR", "display_address": ["4 Gregory's Mill St", "Worcester WR3 8AW", "United Kingdom"]}, "phone": "+441905350777", "display_phone": "+44 1905 350777", "distance": 19790.722431026035}, {"id": "rXAGuM-Kjt2pW8r4wk3TtA", "alias": "cheoylee-leicester-2", "name": "CheoyLee", "image_url": "https://s3-media2.fl.yelpcdn.com/bphoto/59aNekdPqmwG5ZnAYf_ooQ/o.jpg", "is_closed": false, "url": "https://www.yelp.com/biz/cheoylee-leicester-2?adjust_creative=asslzE1UV0XuKI953B1vtw&utm_campaign=yelp_api_v3&utm_medium=api_v3_business_search&utm_source=asslzE1UV0XuKI953B1vtw", "review_count": 14, "categories": [{"alias": "chinese", "title": "Chinese"}], "rating": 3.5, "coordinates": {"latitude": 42.2441864013672, "longitude": -71.9161911010742}, "transactions": ["delivery"], "price": "$$", "location": {"address1": "1205 Main St", "address2": null, "address3": null, "city": "Leicester", "zip_code": "01524", "country": "US", "state": "MA", "display_address": ["1205 Main St", "Leicester, MA 01524"]}, "phone": "+15088928441", "display_phone": "(508) 892-8441", "distance": 16678.744028385157}, {"id": "Fm_sb2dBwtlD5Spb_oXv4g", "alias": "grumpys-dogs-west-boylston", "name": "Grumpy's Dogs", "image_url": "https://s3-media2.fl.yelpcdn.com/bphoto/rct_30DNkSOenmgj90TuzA/o.jpg", "is_closed": false, "url": "https://www.yelp.com/biz/grumpys-dogs-west-boylston?adjust_creative=asslzE1UV0XuKI953B1vtw&utm_campaign=yelp_api_v3&utm_medium=api_v3_business_search&utm_source=asslzE1UV0XuKI953B1vtw", "review_count": 12, "categories": [{"alias": "hotdog", "title": "Hot Dogs"}, {"alias": "foodtrucks", "title": "Food Trucks"}], "rating": 4.5, "coordinates": {"latitude": 42.34927, "longitude": -71.78706}, "transactions": ["delivery"], "location": {"address1": "216 W Boylston St", "address2": null, "address3": "", "city": "West Boylston", "zip_code": "01583", "country": "US", "state": "MA", "display_address": ["216 W Boylston St", "West Boylston, MA 01583"]}, "phone": "", "display_phone": "", "distance": 21732.386224611135}, {"id": "emJp6zdSuOZAofvjYunFRA", "alias": "farmhouse-diner-leicester", "name": "Farmhouse Diner", "image_url": "", "is_closed": false, "url": "https://www.yelp.com/biz/farmhouse-diner-leicester?adjust_creative=asslzE1UV0XuKI953B1vtw&utm_campaign=yelp_api_v3&utm_medium=api_v3_business_search&utm_source=asslzE1UV0XuKI953B1vtw", "review_count": 1, "categories": [{"alias": "diners", "title": "Diners"}], "rating": 1.0, "coordinates": {"latitude": 42.245451, "longitude": -71.907035}, "transactions": [], "location": {"address1": "15 S Main St", "address2": null, "address3": "", "city": "Leicester", "zip_code": "01524", "country": "US", "state": "MA", "display_address": ["15 S Main St", "Leicester, MA 01524"]}, "phone": "+15088923222", "display_phone": "(508) 892-3222", "distance": 17084.022069470197}, {"id": "SAq6WWA5MZOd2kYdvAbq1g", "alias": "joes-drive-in-restaurant-leicester-2", "name": "Joe's Drive-In Restaurant", "image_url": "https://s3-media1.fl.yelpcdn.com/bphoto/woWYoNT40FBr5AVuaPJ1rw/o.jpg", "is_closed": false, "url": "https://www.yelp.com/biz/joes-drive-in-restaurant-leicester-2?adjust_creative=asslzE1UV0XuKI953B1vtw&utm_campaign=yelp_api_v3&utm_medium=api_v3_business_search&utm_source=asslzE1UV0XuKI953B1vtw", "review_count": 11, "categories": [{"alias": "icecream", "title": "Ice Cream & Frozen Yogurt"}, {"alias": "burgers", "title": "Burgers"}, {"alias": "fishnchips", "title": "Fish & Chips"}], "rating": 3.0, "coordinates": {"latitude": 42.249895, "longitude": -71.942238}, "transactions": [], "location": {"address1": "1673 Main St Rte 9", "address2": null, "address3": "", "city": "Leicester", "zip_code": "01524", "country": "US", "state": "MA", "display_address": ["1673 Main St Rte 9", "Leicester, MA 01524"]}, "phone": "+15088921900", "display_phone": "(508) 892-1900", "distance": 14851.345763844613}, {"id": "0uZi3bproBbPbYdli72dSg", "alias": "north-brookfield-pizza-palace-north-brookfield-2", "name": "North Brookfield Pizza Palace", "image_url": "", "is_closed": false, "url": "https://www.yelp.com/biz/north-brookfield-pizza-palace-north-brookfield-2?adjust_creative=asslzE1UV0XuKI953B1vtw&utm_campaign=yelp_api_v3&utm_medium=api_v3_business_search&utm_source=asslzE1UV0XuKI953B1vtw", "review_count": 10, "categories": [{"alias": "pizza", "title": "Pizza"}], "rating": 3.5, "coordinates": {"latitude": 42.2685891, "longitude": -72.0822442}, "transactions": [], "price": "$", "location": {"address1": "60 School St", "address2": "", "address3": "", "city": "North Brookfield", "zip_code": "01535", "country": "US", "state": "MA", "display_address": ["60 School St", "North Brookfield, MA 01535"]}, "phone": "+15088670060", "display_phone": "(508) 867-0060", "distance": 10101.980921947923}, {"id": "HVqcCnaRGDOa5oOg2ZgHkg", "alias": "the-wellness-bar-princeton", "name": "The Wellness Bar", "image_url": "https://s3-media2.fl.yelpcdn.com/bphoto/tl0vwaMAapbIuGgpTJiRGQ/o.jpg", "is_closed": false, "url": "https://www.yelp.com/biz/the-wellness-bar-princeton?adjust_creative=asslzE1UV0XuKI953B1vtw&utm_campaign=yelp_api_v3&utm_medium=api_v3_business_search&utm_source=asslzE1UV0XuKI953B1vtw", "review_count": 5, "categories": [{"alias": "juicebars", "title": "Juice Bars & Smoothies"}, {"alias": "coffee", "title": "Coffee & Tea"}, {"alias": "sandwiches", "title": "Sandwiches"}], "rating": 4.5, "coordinates": {"latitude": 42.42134, "longitude": -71.87812}, "transactions": [], "price": "$$", "location": {"address1": "206 Worcester Rd", "address2": "", "address3": "The Thirsty Lab", "city": "Princeton", "zip_code": "01541", "country": "US", "state": "MA", "display_address": ["206 Worcester Rd", "The Thirsty Lab", "Princeton, MA 01541"]}, "phone": "+19784640600", "display_phone": "(978) 464-0600", "distance": 15923.58109165961}, {"id": "V8Bl2d1bY-F2RrqFUBheAQ", "alias": "barbers-crossing-roadhouse-leicester", "name": "Barbers Crossing Roadhouse", "image_url": "https://s3-media4.fl.yelpcdn.com/bphoto/pcDZwJpW-l1zlAEXoCXBug/o.jpg", "is_closed": false, "url": "https://www.yelp.com/biz/barbers-crossing-roadhouse-leicester?adjust_creative=asslzE1UV0XuKI953B1vtw&utm_campaign=yelp_api_v3&utm_medium=api_v3_business_search&utm_source=asslzE1UV0XuKI953B1vtw", "review_count": 38, "categories": [{"alias": "tradamerican", "title": "American (Traditional)"}], "rating": 2.5, "coordinates": {"latitude": 42.2457809, "longitude": -71.8983307}, "transactions": ["delivery"], "price": "$$", "location": {"address1": "861 Main St", "address2": null, "address3": null, "city": "Leicester", "zip_code": "01524", "country": "US", "state": "MA", "display_address": ["861 Main St", "Leicester, MA 01524"]}, "phone": "+15088927575", "display_phone": "(508) 892-7575", "distance": 17648.437259350045}, {"id": "49Hp1NIeXJD2GYOtcAqsLQ", "alias": "wings-and-company-leicester", "name": "Wings & Company", "image_url": "https://s3-media2.fl.yelpcdn.com/bphoto/OOgmmgsmNjFEfr1A_luvKg/o.jpg", "is_closed": false, "url": "https://www.yelp.com/biz/wings-and-company-leicester?adjust_creative=asslzE1UV0XuKI953B1vtw&utm_campaign=yelp_api_v3&utm_medium=api_v3_business_search&utm_source=asslzE1UV0XuKI953B1vtw", "review_count": 15, "categories": [{"alias": "chicken_wings", "title": "Chicken Wings"}, {"alias": "chickenshop", "title": "Chicken Shop"}, {"alias": "sandwiches", "title": "Sandwiches"}], "rating": 3.5, "coordinates": {"latitude": 42.2461340494495, "longitude": -71.908789537847}, "transactions": ["delivery"], "price": "$$", "location": {"address1": "1072 Main St", "address2": "", "address3": "", "city": "Leicester", "zip_code": "01524", "country": "US", "state": "MA", "display_address": ["1072 Main St", "Leicester, MA 01524"]}, "phone": "+15088925550", "display_phone": "(508) 892-5550", "distance": 16954.976920478683}, {"id": "tkD81L69HUt0ZUzvdSYNog", "alias": "monti-farms-and-deli-princeton", "name": "Monti Farms & Deli", "image_url": "", "is_closed": false, "url": "https://www.yelp.com/biz/monti-farms-and-deli-princeton?adjust_creative=asslzE1UV0XuKI953B1vtw&utm_campaign=yelp_api_v3&utm_medium=api_v3_business_search&utm_source=asslzE1UV0XuKI953B1vtw", "review_count": 3, "categories": [{"alias": "farmersmarket", "title": "Farmers Market"}, {"alias": "delis", "title": "Delis"}], "rating": 5.0, "coordinates": {"latitude": 42.4228106, "longitude": -71.8783023}, "transactions": [], "location": {"address1": "194 Worcester Rd", "address2": "", "address3": null, "city": "Princeton", "zip_code": "01541", "country": "US", "state": "MA", "display_address": ["194 Worcester Rd", "Princeton, MA 01541"]}, "phone": "+19194284758", "display_phone": "(919) 428-4758", "distance": 15993.02155723312}, {"id": "O4OYntTQgZMwafiTEBeRQw", "alias": "the-twisted-fork-bistro-cherry-valley-2", "name": "The Twisted Fork Bistro", "image_url": "https://s3-media4.fl.yelpcdn.com/bphoto/euVUjS5Hh3mtfcXgMb0l9g/o.jpg", "is_closed": false, "url": "https://www.yelp.com/biz/the-twisted-fork-bistro-cherry-valley-2?adjust_creative=asslzE1UV0XuKI953B1vtw&utm_campaign=yelp_api_v3&utm_medium=api_v3_business_search&utm_source=asslzE1UV0XuKI953B1vtw", "review_count": 273, "categories": [{"alias": "breakfast_brunch", "title": "Breakfast & Brunch"}, {"alias": "french", "title": "French"}, {"alias": "italian", "title": "Italian"}], "rating": 4.0, "coordinates": {"latitude": 42.2209710128652, "longitude": -71.8746339317707}, "transactions": ["delivery"], "price": "$$", "location": {"address1": "509 Stafford St", "address2": "", "address3": "", "city": "Cherry Valley", "zip_code": "01611", "country": "US", "state": "MA", "display_address": ["509 Stafford St", "Cherry Valley, MA 01611"]}, "phone": "+15088925437", "display_phone": "(508) 892-5437", "distance": 20920.69246554343}, {"id": "yPfQkwaI5cC1esqqMjSkbg", "alias": "shooters-bar-and-billiards-worcester", "name": "Shooter's Bar & Billiards", "image_url": "https://s3-media4.fl.yelpcdn.com/bphoto/laenGD8lzS61XzGa_vximw/o.jpg", "is_closed": false, "url": "https://www.yelp.com/biz/shooters-bar-and-billiards-worcester?adjust_creative=asslzE1UV0XuKI953B1vtw&utm_campaign=yelp_api_v3&utm_medium=api_v3_business_search&utm_source=asslzE1UV0XuKI953B1vtw", "review_count": 4, "categories": [{"alias": "sportsbars", "title": "Sports Bars"}, {"alias": "poolbilliards", "title": "Pool & Billiards"}, {"alias": "chicken_wings", "title": "Chicken Wings"}], "rating": 4.0, "coordinates": {"latitude": 42.23283, "longitude": -71.85055}, "transactions": [], "location": {"address1": "70 James St", "address2": null, "address3": "", "city": "Worcester", "zip_code": "01603", "country": "US", "state": "MA", "display_address": ["70 James St", "Worcester, MA 01603"]}, "phone": "+17744207665", "display_phone": "(774) 420-7665", "distance": 21508.81624439439}, {"id": "gSfnBL-TNZVXjAx_1PVa1w", "alias": "sweets-n-java-holden-2", "name": "Sweets N' Java", "image_url": "https://s3-media2.fl.yelpcdn.com/bphoto/c1Kzw6hWRRVJh28ugrr92Q/o.jpg", "is_closed": false, "url": "https://www.yelp.com/biz/sweets-n-java-holden-2?adjust_creative=asslzE1UV0XuKI953B1vtw&utm_campaign=yelp_api_v3&utm_medium=api_v3_business_search&utm_source=asslzE1UV0XuKI953B1vtw", "review_count": 34, "categories": [{"alias": "cafes", "title": "Cafes"}], "rating": 4.0, "coordinates": {"latitude": 42.350904, "longitude": -71.8633653}, "transactions": [], "price": "$", "location": {"address1": "1207 Main St", "address2": "", "address3": "", "city": "Holden", "zip_code": "01520", "country": "US", "state": "MA", "display_address": ["1207 Main St", "Holden, MA 01520"]}, "phone": "+15088297900", "display_phone": "(508) 829-7900", "distance": 15438.003788595437}, {"id": "i6J8CBgNw1t6rF2RR1B2uw", "alias": "pizza-palace-hubbardston", "name": "Pizza Palace", "image_url": "https://s3-media1.fl.yelpcdn.com/bphoto/_CaIaZwv04TL49J59zMi6A/o.jpg", "is_closed": false, "url": "https://www.yelp.com/biz/pizza-palace-hubbardston?adjust_creative=asslzE1UV0XuKI953B1vtw&utm_campaign=yelp_api_v3&utm_medium=api_v3_business_search&utm_source=asslzE1UV0XuKI953B1vtw", "review_count": 19, "categories": [{"alias": "pizza", "title": "Pizza"}], "rating": 4.5, "coordinates": {"latitude": 42.490675, "longitude": -72.013496}, "transactions": [], "price": "$$", "location": {"address1": "53 Gardner Rd", "address2": null, "address3": null, "city": "Hubbardston", "zip_code": "01452", "country": "US", "state": "MA", "display_address": ["53 Gardner Rd", "Hubbardston, MA 01452"]}, "phone": "+19789285454", "display_phone": "(978) 928-5454", "distance": 15238.732247930866}, {"id": "5ld1TVlEcddnCbeq0ulxkQ", "alias": "barre-pizza-barre", "name": "Barre Pizza", "image_url": "https://s3-media1.fl.yelpcdn.com/bphoto/Lk1bGeWFqv1WyoReOh9jyA/o.jpg", "is_closed": false, "url": "https://www.yelp.com/biz/barre-pizza-barre?adjust_creative=asslzE1UV0XuKI953B1vtw&utm_campaign=yelp_api_v3&utm_medium=api_v3_business_search&utm_source=asslzE1UV0XuKI953B1vtw", "review_count": 12, "categories": [{"alias": "pizza", "title": "Pizza"}, {"alias": "salad", "title": "Salad"}, {"alias": "sandwiches", "title": "Sandwiches"}], "rating": 3.0, "coordinates": {"latitude": 42.42168, "longitude": -72.10447}, "transactions": [], "price": "$$", "location": {"address1": "10 Moulton St", "address2": "", "address3": "", "city": "Barre", "zip_code": "01005", "country": "US", "state": "MA", "display_address": ["10 Moulton St", "Barre, MA 01005"]}, "phone": "+19783554595", "display_phone": "(978) 355-4595", "distance": 8474.211338371075}, {"id": "CHSG_1GTPDJtbP7CMjNVVw", "alias": "toulas-house-of-pizza-rutland", "name": "Toula's House of Pizza", "image_url": "https://s3-media1.fl.yelpcdn.com/bphoto/z_FS6M7qGmcNoXKJ8okU0Q/o.jpg", "is_closed": false, "url": "https://www.yelp.com/biz/toulas-house-of-pizza-rutland?adjust_creative=asslzE1UV0XuKI953B1vtw&utm_campaign=yelp_api_v3&utm_medium=api_v3_business_search&utm_source=asslzE1UV0XuKI953B1vtw", "review_count": 17, "categories": [{"alias": "pizza", "title": "Pizza"}, {"alias": "seafood", "title": "Seafood"}], "rating": 3.5, "coordinates": {"latitude": 42.37652, "longitude": -71.93563}, "transactions": [], "price": "$", "location": {"address1": "87 Main St", "address2": "", "address3": "", "city": "Rutland", "zip_code": "01543", "country": "US", "state": "MA", "display_address": ["87 Main St", "Rutland, MA 01543"]}, "phone": "+15088868888", "display_phone": "(508) 886-8888", "distance": 9759.178418988591}, {"id": "LMDM5k-YkN_rxeKHAFhXyQ", "alias": "e-b-flatts-east-brookfield", "name": "E.B. Flatts", "image_url": "https://s3-media2.fl.yelpcdn.com/bphoto/7dwd-U0nCvf74XXhwFKY2Q/o.jpg", "is_closed": false, "url": "https://www.yelp.com/biz/e-b-flatts-east-brookfield?adjust_creative=asslzE1UV0XuKI953B1vtw&utm_campaign=yelp_api_v3&utm_medium=api_v3_business_search&utm_source=asslzE1UV0XuKI953B1vtw", "review_count": 56, "categories": [{"alias": "tradamerican", "title": "American (Traditional)"}, {"alias": "breakfast_brunch", "title": "Breakfast & Brunch"}], "rating": 3.5, "coordinates": {"latitude": 42.2192947517887, "longitude": -72.0708427230705}, "transactions": [], "price": "$$", "location": {"address1": "245 W Main St Rte 9", "address2": "", "address3": "", "city": "East Brookfield", "zip_code": "01515", "country": "US", "state": "MA", "display_address": ["245 W Main St Rte 9", "East Brookfield, MA 01515"]}, "phone": "+15088676643", "display_phone": "(508) 867-6643", "distance": 15339.308152160082}, {"id": "sv1DM6SpMcc2IdMCnqYZBg", "alias": "brookies-east-brookfield", "name": "Brookies", "image_url": "https://s3-media4.fl.yelpcdn.com/bphoto/2FfwT0DTSC7L6bNbZUIeKQ/o.jpg", "is_closed": false, "url": "https://www.yelp.com/biz/brookies-east-brookfield?adjust_creative=asslzE1UV0XuKI953B1vtw&utm_campaign=yelp_api_v3&utm_medium=api_v3_business_search&utm_source=asslzE1UV0XuKI953B1vtw", "review_count": 9, "categories": [{"alias": "burgers", "title": "Burgers"}], "rating": 5.0, "coordinates": {"latitude": 42.21592, "longitude": -72.07718}, "transactions": [], "price": "$$", "location": {"address1": "285 W Main St", "address2": "", "address3": "", "city": "East Brookfield", "zip_code": "01515", "country": "US", "state": "MA", "display_address": ["285 W Main St", "East Brookfield, MA 01515"]}, "phone": "+17742000537", "display_phone": "(774) 200-0537", "distance": 15774.457328107712}, {"id": "lI7pYUGOA3vbkMv8EvN9TQ", "alias": "122-diner-holden", "name": "122 Diner", "image_url": "https://s3-media2.fl.yelpcdn.com/bphoto/iP9fA0phKSJHD_Q6361oWA/o.jpg", "is_closed": false, "url": "https://www.yelp.com/biz/122-diner-holden?adjust_creative=asslzE1UV0XuKI953B1vtw&utm_campaign=yelp_api_v3&utm_medium=api_v3_business_search&utm_source=asslzE1UV0XuKI953B1vtw", "review_count": 40, "categories": [{"alias": "breakfast_brunch", "title": "Breakfast & Brunch"}], "rating": 4.0, "coordinates": {"latitude": 42.3540791000577, "longitude": -71.8721226835714}, "transactions": ["delivery"], "price": "$$", "location": {"address1": "1392 Main St", "address2": "", "address3": "", "city": "Holden", "zip_code": "01520", "country": "US", "state": "MA", "display_address": ["1392 Main St", "Holden, MA 01520"]}, "phone": "+15082100707", "display_phone": "(508) 210-0707", "distance": 14708.008697930092}, {"id": "DOw6h_K6tTafiWgR2bSufg", "alias": "hubb-town-diner-hubbardston", "name": "Hubb Town Diner", "image_url": "https://s3-media3.fl.yelpcdn.com/bphoto/Oaec6pAdS2SoUdRTyIIzAA/o.jpg", "is_closed": false, "url": "https://www.yelp.com/biz/hubb-town-diner-hubbardston?adjust_creative=asslzE1UV0XuKI953B1vtw&utm_campaign=yelp_api_v3&utm_medium=api_v3_business_search&utm_source=asslzE1UV0XuKI953B1vtw", "review_count": 10, "categories": [{"alias": "breakfast_brunch", "title": "Breakfast & Brunch"}, {"alias": "diners", "title": "Diners"}, {"alias": "sandwiches", "title": "Sandwiches"}], "rating": 3.5, "coordinates": {"latitude": 42.4781684875488, "longitude": -72.0094299316406}, "transactions": [], "price": "$$", "location": {"address1": "32 Main St", "address2": null, "address3": "", "city": "Hubbardston", "zip_code": "01452", "country": "US", "state": "MA", "display_address": ["32 Main St", "Hubbardston, MA 01452"]}, "phone": "+19788201600", "display_phone": "(978) 820-1600", "distance": 13923.197861370105}, {"id": "E2PBDgjjwdGvZPnFX8_P4A", "alias": "princeton-house-of-pizza-princeton", "name": "Princeton House of Pizza", "image_url": "https://s3-media1.fl.yelpcdn.com/bphoto/YaQePTGlgsI9ucbeyKkprA/o.jpg", "is_closed": false, "url": "https://www.yelp.com/biz/princeton-house-of-pizza-princeton?adjust_creative=asslzE1UV0XuKI953B1vtw&utm_campaign=yelp_api_v3&utm_medium=api_v3_business_search&utm_source=asslzE1UV0XuKI953B1vtw", "review_count": 13, "categories": [{"alias": "pizza", "title": "Pizza"}], "rating": 3.0, "coordinates": {"latitude": 42.4501459300518, "longitude": -71.8805374950171}, "transactions": [], "price": "$$", "location": {"address1": "25 Hubbardston Rd", "address2": "", "address3": "", "city": "Princeton", "zip_code": "01541", "country": "US", "state": "MA", "display_address": ["25 Hubbardston Rd", "Princeton, MA 01541"]}, "phone": "+19784645858", "display_phone": "(978) 464-5858", "distance": 17434.31166378141}, {"id": "Nwd8vF2dgSY5JP2zc0qMAQ", "alias": "rutland-house-of-pizza-rutland-2", "name": "Rutland House of Pizza", "image_url": "https://s3-media4.fl.yelpcdn.com/bphoto/Ep1VmDN4csC4mnfHFiDTGw/o.jpg", "is_closed": false, "url": "https://www.yelp.com/biz/rutland-house-of-pizza-rutland-2?adjust_creative=asslzE1UV0XuKI953B1vtw&utm_campaign=yelp_api_v3&utm_medium=api_v3_business_search&utm_source=asslzE1UV0XuKI953B1vtw", "review_count": 13, "categories": [{"alias": "pizza", "title": "Pizza"}], "rating": 3.0, "coordinates": {"latitude": 42.3766975, "longitude": -71.9528885}, "transactions": [], "price": "$$", "location": {"address1": "5 Maple Ave", "address2": null, "address3": null, "city": "Rutland", "zip_code": "01543", "country": "US", "state": "MA", "display_address": ["5 Maple Ave", "Rutland, MA 01543"]}, "phone": "+15088862500", "display_phone": "(508) 886-2500", "distance": 8384.751100492538}, {"id": "_u3yG_0NUWIyEriRRbY9dA", "alias": "sisters-restaurant-worcester", "name": "Sisters Restaurant", "image_url": "https://s3-media3.fl.yelpcdn.com/bphoto/EhFi29LFFp2B2LHZMVxP_g/o.jpg", "is_closed": false, "url": "https://www.yelp.com/biz/sisters-restaurant-worcester?adjust_creative=asslzE1UV0XuKI953B1vtw&utm_campaign=yelp_api_v3&utm_medium=api_v3_business_search&utm_source=asslzE1UV0XuKI953B1vtw", "review_count": 58, "categories": [{"alias": "breakfast_brunch", "title": "Breakfast & Brunch"}], "rating": 4.5, "coordinates": {"latitude": 42.23643, "longitude": -71.84856}, "transactions": ["delivery"], "price": "$", "location": {"address1": "171 Stafford St", "address2": "", "address3": "", "city": "Worcester", "zip_code": "01603", "country": "US", "state": "MA", "display_address": ["171 Stafford St", "Worcester, MA 01603"]}, "phone": "+15087552604", "display_phone": "(508) 755-2604", "distance": 21342.87673226387}, {"id": "tgXlgpUx0KcCIlyU3_dNQQ", "alias": "wong-dynasty-and-yankee-grill-holden", "name": "Wong Dynasty And Yankee Grill", "image_url": "https://s3-media2.fl.yelpcdn.com/bphoto/cjCydv3hK_XxSX7Spb2ClQ/o.jpg", "is_closed": false, "url": "https://www.yelp.com/biz/wong-dynasty-and-yankee-grill-holden?adjust_creative=asslzE1UV0XuKI953B1vtw&utm_campaign=yelp_api_v3&utm_medium=api_v3_business_search&utm_source=asslzE1UV0XuKI953B1vtw", "review_count": 47, "categories": [{"alias": "chinese", "title": "Chinese"}, {"alias": "sushi", "title": "Sushi Bars"}], "rating": 3.5, "coordinates": {"latitude": 42.342972, "longitude": -71.862584}, "transactions": ["delivery"], "price": "$$", "location": {"address1": "176 Reservoir St", "address2": "", "address3": "", "city": "Holden", "zip_code": "01520", "country": "US", "state": "MA", "display_address": ["176 Reservoir St", "Holden, MA 01520"]}, "phone": "+15088292188", "display_phone": "(508) 829-2188", "distance": 15563.302544933733}, {"id": "JNRdBxmhf3BaiWwQX8VJmw", "alias": "jims-pizza-north-brookfield", "name": "Jim's Pizza", "image_url": "", "is_closed": false, "url": "https://www.yelp.com/biz/jims-pizza-north-brookfield?adjust_creative=asslzE1UV0XuKI953B1vtw&utm_campaign=yelp_api_v3&utm_medium=api_v3_business_search&utm_source=asslzE1UV0XuKI953B1vtw", "review_count": 14, "categories": [{"alias": "pizza", "title": "Pizza"}], "rating": 3.0, "coordinates": {"latitude": 42.269747, "longitude": -72.085661}, "transactions": [], "price": "$", "location": {"address1": "219 N Main St", "address2": "", "address3": "", "city": "North Brookfield", "zip_code": "01535", "country": "US", "state": "MA", "display_address": ["219 N Main St", "North Brookfield, MA 01535"]}, "phone": "+15088678373", "display_phone": "(508) 867-8373", "distance": 10053.294031333482}, {"id": "vmneGdXXMuwZ9lHfDAvtZg", "alias": "subway-north-brookfield-3", "name": "Subway", "image_url": "https://s3-media4.fl.yelpcdn.com/bphoto/9KjpYjzDWKMP1NWSCBnLYw/o.jpg", "is_closed": false, "url": "https://www.yelp.com/biz/subway-north-brookfield-3?adjust_creative=asslzE1UV0XuKI953B1vtw&utm_campaign=yelp_api_v3&utm_medium=api_v3_business_search&utm_source=asslzE1UV0XuKI953B1vtw", "review_count": 1, "categories": [{"alias": "sandwiches", "title": "Sandwiches"}], "rating": 5.0, "coordinates": {"latitude": 42.268020271248, "longitude": -72.0853124141208}, "transactions": [], "price": "$", "location": {"address1": "163 N Main St", "address2": "", "address3": "", "city": "North Brookfield", "zip_code": "01535", "country": "US", "state": "MA", "display_address": ["163 N Main St", "North Brookfield, MA 01535"]}, "phone": "+15088678800", "display_phone": "(508) 867-8800", "distance": 10229.692455610082}, {"id": "hYgdutx7cpgd9e8q0EDhyg", "alias": "root-and-press-worcester-3", "name": "Root and Press", "image_url": "https://s3-media3.fl.yelpcdn.com/bphoto/oAr9f8yLC4gbQ4QQuYrOCg/o.jpg", "is_closed": false, "url": "https://www.yelp.com/biz/root-and-press-worcester-3?adjust_creative=asslzE1UV0XuKI953B1vtw&utm_campaign=yelp_api_v3&utm_medium=api_v3_business_search&utm_source=asslzE1UV0XuKI953B1vtw", "review_count": 22, "categories": [{"alias": "cafes", "title": "Cafes"}, {"alias": "breakfast_brunch", "title": "Breakfast & Brunch"}, {"alias": "bookstores", "title": "Bookstores"}], "rating": 5.0, "coordinates": {"latitude": 42.27627, "longitude": -71.852014}, "transactions": [], "location": {"address1": "623 Chandler St", "address2": null, "address3": "", "city": "Worcester", "zip_code": "01602", "country": "US", "state": "MA", "display_address": ["623 Chandler St", "Worcester, MA 01602"]}, "phone": "+19788705429", "display_phone": "(978) 870-5429", "distance": 18630.828325825594}, {"id": "s8ifd_imgK2jH0m0eZDntQ", "alias": "georges-pizza-and-subs-west-brookfield", "name": "George's Pizza and Subs", "image_url": "https://s3-media4.fl.yelpcdn.com/bphoto/Ch0ooY7hZwaElbMHeHk4Yw/o.jpg", "is_closed": false, "url": "https://www.yelp.com/biz/georges-pizza-and-subs-west-brookfield?adjust_creative=asslzE1UV0XuKI953B1vtw&utm_campaign=yelp_api_v3&utm_medium=api_v3_business_search&utm_source=asslzE1UV0XuKI953B1vtw", "review_count": 27, "categories": [{"alias": "salad", "title": "Salad"}, {"alias": "pizza", "title": "Pizza"}, {"alias": "sandwiches", "title": "Sandwiches"}], "rating": 3.5, "coordinates": {"latitude": 42.2348093, "longitude": -72.1424106}, "transactions": [], "price": "$", "location": {"address1": "4 East Main St", "address2": "", "address3": "", "city": "West Brookfield", "zip_code": "01585", "country": "US", "state": "MA", "display_address": ["4 East Main St", "West Brookfield, MA 01585"]}, "phone": "+15088678100", "display_phone": "(508) 867-8100", "distance": 15473.270878909096}, {"id": "JuRhlHEW3hF8kQgy4U5ScQ", "alias": "village-pizza-spencer", "name": "Village Pizza", "image_url": "https://s3-media2.fl.yelpcdn.com/bphoto/rJGgd3rsr_-bWlKI3W4Fsg/o.jpg", "is_closed": false, "url": "https://www.yelp.com/biz/village-pizza-spencer?adjust_creative=asslzE1UV0XuKI953B1vtw&utm_campaign=yelp_api_v3&utm_medium=api_v3_business_search&utm_source=asslzE1UV0XuKI953B1vtw", "review_count": 7, "categories": [{"alias": "pizza", "title": "Pizza"}], "rating": 3.0, "coordinates": {"latitude": 42.2514224052429, "longitude": -71.9771010428667}, "transactions": [], "location": {"address1": "320 Main St", "address2": "Ste 2", "address3": "", "city": "Spencer", "zip_code": "01562", "country": "US", "state": "MA", "display_address": ["320 Main St", "Ste 2", "Spencer, MA 01562"]}, "phone": "+15088851114", "display_phone": "(508) 885-1114", "distance": 13214.18876171954}, {"id": "korFZpunosGkNq5HYJkuhg", "alias": "johns-pizza-spencer", "name": "John's Pizza", "image_url": "https://s3-media2.fl.yelpcdn.com/bphoto/WK44ri8DaBsfonFXQwUrdg/o.jpg", "is_closed": false, "url": "https://www.yelp.com/biz/johns-pizza-spencer?adjust_creative=asslzE1UV0XuKI953B1vtw&utm_campaign=yelp_api_v3&utm_medium=api_v3_business_search&utm_source=asslzE1UV0XuKI953B1vtw", "review_count": 22, "categories": [{"alias": "pizza", "title": "Pizza"}], "rating": 3.0, "coordinates": {"latitude": 42.24354, "longitude": -71.99274}, "transactions": [], "price": "$$", "location": {"address1": "158 Main St", "address2": "Ste 3", "address3": "", "city": "Spencer", "zip_code": "01562", "country": "US", "state": "MA", "display_address": ["158 Main St", "Ste 3", "Spencer, MA 01562"]}, "phone": "+15088856936", "display_phone": "(508) 885-6936", "distance": 13452.471412214758}, {"id": "ca3CuO8cgZFfGWYE-t25Qg", "alias": "lins-garden-west-brookfield", "name": "Lin's Garden", "image_url": "https://s3-media4.fl.yelpcdn.com/bphoto/rWLFqA6Nvg7NGPsGDcSTXw/o.jpg", "is_closed": false, "url": "https://www.yelp.com/biz/lins-garden-west-brookfield?adjust_creative=asslzE1UV0XuKI953B1vtw&utm_campaign=yelp_api_v3&utm_medium=api_v3_business_search&utm_source=asslzE1UV0XuKI953B1vtw", "review_count": 38, "categories": [{"alias": "chinese", "title": "Chinese"}, {"alias": "soup", "title": "Soup"}, {"alias": "ramen", "title": "Ramen"}], "rating": 3.5, "coordinates": {"latitude": 42.233873, "longitude": -72.157657}, "transactions": ["pickup", "delivery"], "price": "$$", "location": {"address1": "152 W Main St", "address2": null, "address3": null, "city": "West Brookfield", "zip_code": "01585", "country": "US", "state": "MA", "display_address": ["152 W Main St", "West Brookfield, MA 01585"]}, "phone": "+15088674499", "display_phone": "(508) 867-4499", "distance": 16189.233785313016}, {"id": "I0zvQlGF1--ymQeJcxTO2A", "alias": "nikos-pizza-ware", "name": "Niko's Pizza", "image_url": "https://s3-media4.fl.yelpcdn.com/bphoto/icDNBI1khs1fOAC3cVhvZw/o.jpg", "is_closed": false, "url": "https://www.yelp.com/biz/nikos-pizza-ware?adjust_creative=asslzE1UV0XuKI953B1vtw&utm_campaign=yelp_api_v3&utm_medium=api_v3_business_search&utm_source=asslzE1UV0XuKI953B1vtw", "review_count": 6, "categories": [{"alias": "pizza", "title": "Pizza"}, {"alias": "greek", "title": "Greek"}], "rating": 4.0, "coordinates": {"latitude": 42.260562, "longitude": -72.242328}, "transactions": [], "price": "$$", "location": {"address1": "118 Main St", "address2": "", "address3": null, "city": "Ware", "zip_code": "01082", "country": "US", "state": "MA", "display_address": ["118 Main St", "Ware, MA 01082"]}, "phone": "+14139670436", "display_phone": "(413) 967-0436", "distance": 19001.030235519393}, {"id": "-2WIQ0AcWUxXH7LMAHFOAg", "alias": "orbit-pizza-holden", "name": "Orbit Pizza", "image_url": "https://s3-media1.fl.yelpcdn.com/bphoto/yHek_ZOHVDILdUg1twMQJA/o.jpg", "is_closed": false, "url": "https://www.yelp.com/biz/orbit-pizza-holden?adjust_creative=asslzE1UV0XuKI953B1vtw&utm_campaign=yelp_api_v3&utm_medium=api_v3_business_search&utm_source=asslzE1UV0XuKI953B1vtw", "review_count": 14, "categories": [{"alias": "pizza", "title": "Pizza"}], "rating": 4.0, "coordinates": {"latitude": 42.34505, "longitude": -71.8543095}, "transactions": ["delivery"], "price": "$", "location": {"address1": "985 Main St", "address2": "", "address3": "", "city": "Holden", "zip_code": "01520", "country": "US", "state": "MA", "display_address": ["985 Main St", "Holden, MA 01520"]}, "phone": "+15088295030", "display_phone": "(508) 829-5030", "distance": 16206.859898815752}, {"id": "RZ5uAo46TWQu9Goj4ftJOg", "alias": "galway-bay-irish-pub-worcester", "name": "Galway Bay Irish Pub", "image_url": "https://s3-media1.fl.yelpcdn.com/bphoto/hV8j1JHWGdou0grOOrPEdA/o.jpg", "is_closed": false, "url": "https://www.yelp.com/biz/galway-bay-irish-pub-worcester?adjust_creative=asslzE1UV0XuKI953B1vtw&utm_campaign=yelp_api_v3&utm_medium=api_v3_business_search&utm_source=asslzE1UV0XuKI953B1vtw", "review_count": 5, "categories": [{"alias": "newamerican", "title": "American (New)"}, {"alias": "beer_and_wine", "title": "Beer, Wine & Spirits"}, {"alias": "tradamerican", "title": "American (Traditional)"}], "rating": 3.5, "coordinates": {"latitude": 42.2359962463379, "longitude": -71.85009765625}, "transactions": [], "price": "$$", "location": {"address1": "186 Stafford St", "address2": "", "address3": "", "city": "Worcester", "zip_code": "01603", "country": "US", "state": "MA", "display_address": ["186 Stafford St", "Worcester, MA 01603"]}, "phone": "+15087538909", "display_phone": "(508) 753-8909", "distance": 21270.113015905947}, {"id": "Ul1WGrfWjffNRGfMmBkihg", "alias": "ware-cafe-and-catering-services-ware", "name": "Ware Cafe & Catering Services", "image_url": "https://s3-media3.fl.yelpcdn.com/bphoto/J9Tsr8IiCAe_0-QYes39-g/o.jpg", "is_closed": false, "url": "https://www.yelp.com/biz/ware-cafe-and-catering-services-ware?adjust_creative=asslzE1UV0XuKI953B1vtw&utm_campaign=yelp_api_v3&utm_medium=api_v3_business_search&utm_source=asslzE1UV0XuKI953B1vtw", "review_count": 15, "categories": [{"alias": "cafes", "title": "Cafes"}, {"alias": "catering", "title": "Caterers"}], "rating": 4.5, "coordinates": {"latitude": 42.26047, "longitude": -72.24379}, "transactions": [], "price": "$", "location": {"address1": "24 W Main St", "address2": "", "address3": "", "city": "Ware", "zip_code": "01082", "country": "US", "state": "MA", "display_address": ["24 W Main St", "Ware, MA 01082"]}, "phone": "+14139674611", "display_phone": "(413) 967-4611", "distance": 19110.385278192607}, {"id": "0GF5VFxjfJZqJ3lb69RZbQ", "alias": "uncle-sams-pizza-east-brookfield", "name": "Uncle Sam's Pizza", "image_url": "https://s3-media3.fl.yelpcdn.com/bphoto/rJTXt0bkE5p4q83tG5v0cw/o.jpg", "is_closed": false, "url": "https://www.yelp.com/biz/uncle-sams-pizza-east-brookfield?adjust_creative=asslzE1UV0XuKI953B1vtw&utm_campaign=yelp_api_v3&utm_medium=api_v3_business_search&utm_source=asslzE1UV0XuKI953B1vtw", "review_count": 11, "categories": [{"alias": "pizza", "title": "Pizza"}], "rating": 3.0, "coordinates": {"latitude": 42.22993, "longitude": -72.0374}, "transactions": [], "price": "$", "location": {"address1": "400 E Main St", "address2": "", "address3": "", "city": "East Brookfield", "zip_code": "01515", "country": "US", "state": "MA", "display_address": ["400 E Main St", "East Brookfield, MA 01515"]}, "phone": "+15088855019", "display_phone": "(508) 885-5019", "distance": 14165.699251652864}, {"id": "ulTdoEH6AfozwdGeAfHL0A", "alias": "pine-ridge-snack-bar-barre", "name": "Pine Ridge Snack Bar", "image_url": "", "is_closed": false, "url": "https://www.yelp.com/biz/pine-ridge-snack-bar-barre?adjust_creative=asslzE1UV0XuKI953B1vtw&utm_campaign=yelp_api_v3&utm_medium=api_v3_business_search&utm_source=asslzE1UV0XuKI953B1vtw", "review_count": 2, "categories": [{"alias": "breakfast_brunch", "title": "Breakfast & Brunch"}], "rating": 3.0, "coordinates": {"latitude": 42.4226265, "longitude": -72.1043243}, "transactions": [], "location": {"address1": "25 Exchange St", "address2": null, "address3": null, "city": "Barre", "zip_code": "01005", "country": "US", "state": "MA", "display_address": ["25 Exchange St", "Barre, MA 01005"]}, "phone": "+19783550012", "display_phone": "(978) 355-0012", "distance": 8547.431823291514}, {"id": "ytaSuRAfFw7NyjugZlGSkQ", "alias": "crystal-springs-dairy-bar-ware", "name": "Crystal Springs Dairy Bar", "image_url": "https://s3-media4.fl.yelpcdn.com/bphoto/ByMuRu-K-s8EeeqHKW_BGA/o.jpg", "is_closed": false, "url": "https://www.yelp.com/biz/crystal-springs-dairy-bar-ware?adjust_creative=asslzE1UV0XuKI953B1vtw&utm_campaign=yelp_api_v3&utm_medium=api_v3_business_search&utm_source=asslzE1UV0XuKI953B1vtw", "review_count": 15, "categories": [{"alias": "icecream", "title": "Ice Cream & Frozen Yogurt"}, {"alias": "breakfast_brunch", "title": "Breakfast & Brunch"}], "rating": 4.0, "coordinates": {"latitude": 42.2543680923477, "longitude": -72.2541291419154}, "transactions": [], "price": "$", "location": {"address1": "166 West St", "address2": "", "address3": "", "city": "Ware", "zip_code": "01082", "country": "US", "state": "MA", "display_address": ["166 West St", "Ware, MA 01082"]}, "phone": "+14139676190", "display_phone": "(413) 967-6190", "distance": 20135.69582129606}, {"id": "0WQaFHl-lowsJHlt8kaDFA", "alias": "good-guys-pizza-leicester", "name": "Good Guys Pizza", "image_url": "https://s3-media1.fl.yelpcdn.com/bphoto/jOSblXT33-vTSC2SblTVjw/o.jpg", "is_closed": false, "url": "https://www.yelp.com/biz/good-guys-pizza-leicester?adjust_creative=asslzE1UV0XuKI953B1vtw&utm_campaign=yelp_api_v3&utm_medium=api_v3_business_search&utm_source=asslzE1UV0XuKI953B1vtw", "review_count": 18, "categories": [{"alias": "pizza", "title": "Pizza"}, {"alias": "desserts", "title": "Desserts"}, {"alias": "salad", "title": "Salad"}], "rating": 2.5, "coordinates": {"latitude": 42.2458763, "longitude": -71.898784}, "transactions": ["delivery"], "price": "$", "location": {"address1": "865 Main St", "address2": "", "address3": "", "city": "Leicester", "zip_code": "01524", "country": "US", "state": "MA", "display_address": ["865 Main St", "Leicester, MA 01524"]}, "phone": "+15088923200", "display_phone": "(508) 892-3200", "distance": 17558.036166517784}, {"id": "KnJIbX__Sh1jW2XOu1wfQA", "alias": "united-china-restaurant-ware", "name": "United China Restaurant", "image_url": "https://s3-media2.fl.yelpcdn.com/bphoto/uYRYVKANPSbSYi59nvdg-Q/o.jpg", "is_closed": false, "url": "https://www.yelp.com/biz/united-china-restaurant-ware?adjust_creative=asslzE1UV0XuKI953B1vtw&utm_campaign=yelp_api_v3&utm_medium=api_v3_business_search&utm_source=asslzE1UV0XuKI953B1vtw", "review_count": 10, "categories": [{"alias": "chinese", "title": "Chinese"}], "rating": 2.5, "coordinates": {"latitude": 42.25453, "longitude": -72.25311}, "transactions": [], "price": "$", "location": {"address1": "164 West St", "address2": "", "address3": "", "city": "Ware", "zip_code": "01082", "country": "US", "state": "MA", "display_address": ["164 West St", "Ware, MA 01082"]}, "phone": "+14139670311", "display_phone": "(413) 967-0311", "distance": 20127.986209344992}, {"id": "BioqAWmVFY8b8X_KzIlW2A", "alias": "pizza-17-jefferson", "name": "Pizza 17", "image_url": "https://s3-media2.fl.yelpcdn.com/bphoto/8pViup6AZHzwix-3eLafxw/o.jpg", "is_closed": false, "url": "https://www.yelp.com/biz/pizza-17-jefferson?adjust_creative=asslzE1UV0XuKI953B1vtw&utm_campaign=yelp_api_v3&utm_medium=api_v3_business_search&utm_source=asslzE1UV0XuKI953B1vtw", "review_count": 16, "categories": [{"alias": "pizza", "title": "Pizza"}], "rating": 2.0, "coordinates": {"latitude": 42.3592529296875, "longitude": -71.8823852539062}, "transactions": ["delivery"], "price": "$$", "location": {"address1": "1625 Main St", "address2": null, "address3": null, "city": "Jefferson", "zip_code": "01522", "country": "US", "state": "MA", "display_address": ["1625 Main St", "Jefferson, MA 01522"]}, "phone": "+15088291744", "display_phone": "(508) 829-1744", "distance": 13867.631401544539}, {"id": "5um6bgKp_RBrNh3pyS5Gig", "alias": "family-kitchen-hubbardston", "name": "Family Kitchen", "image_url": "", "is_closed": false, "url": "https://www.yelp.com/biz/family-kitchen-hubbardston?adjust_creative=asslzE1UV0XuKI953B1vtw&utm_campaign=yelp_api_v3&utm_medium=api_v3_business_search&utm_source=asslzE1UV0XuKI953B1vtw", "review_count": 1, "categories": [{"alias": "pizza", "title": "Pizza"}], "rating": 1.0, "coordinates": {"latitude": 42.4784779082112, "longitude": -72.0091371899555}, "transactions": [], "location": {"address1": "32 Main Street", "address2": "", "address3": null, "city": "Hubbardston", "zip_code": "01452", "country": "US", "state": "MA", "display_address": ["32 Main Street", "Hubbardston, MA 01452"]}, "phone": "+19788201440", "display_phone": "(978) 820-1440", "distance": 13997.054465505957}, {"id": "5EqgL_w6uCxCUtcB2DnAmw", "alias": "goodhiles-jefferson", "name": "Goodhile's", "image_url": "https://s3-media2.fl.yelpcdn.com/bphoto/lon9eN8swzntJ5w8Q6kk4g/o.jpg", "is_closed": false, "url": "https://www.yelp.com/biz/goodhiles-jefferson?adjust_creative=asslzE1UV0XuKI953B1vtw&utm_campaign=yelp_api_v3&utm_medium=api_v3_business_search&utm_source=asslzE1UV0XuKI953B1vtw", "review_count": 10, "categories": [{"alias": "icecream", "title": "Ice Cream & Frozen Yogurt"}, {"alias": "sandwiches", "title": "Sandwiches"}], "rating": 3.0, "coordinates": {"latitude": 42.375281, "longitude": -71.848729}, "transactions": [], "price": "$", "location": {"address1": "1122 Wachusett St", "address2": "", "address3": "", "city": "Jefferson", "zip_code": "01522", "country": "US", "state": "MA", "display_address": ["1122 Wachusett St", "Jefferson, MA 01522"]}, "phone": "+15088299429", "display_phone": "(508) 829-9429", "distance": 16756.173515630147}, {"id": "z5SDOfUA5zNhGmyXIAXe8A", "alias": "northeast-pizza-barre", "name": "Northeast Pizza", "image_url": "https://s3-media1.fl.yelpcdn.com/bphoto/tNBoaH8M7BxY1upCowwS4A/o.jpg", "is_closed": false, "url": "https://www.yelp.com/biz/northeast-pizza-barre?adjust_creative=asslzE1UV0XuKI953B1vtw&utm_campaign=yelp_api_v3&utm_medium=api_v3_business_search&utm_source=asslzE1UV0XuKI953B1vtw", "review_count": 11, "categories": [{"alias": "pizza", "title": "Pizza"}], "rating": 2.5, "coordinates": {"latitude": 42.4102211, "longitude": -72.0980759}, "transactions": [], "price": "$", "location": {"address1": "570 Summer St", "address2": null, "address3": null, "city": "Barre", "zip_code": "01005", "country": "US", "state": "MA", "display_address": ["570 Summer St", "Barre, MA 01005"]}, "phone": "+19783554333", "display_phone": "(978) 355-4333", "distance": 7090.644197915634}, {"id": "r9-dhj_D6aMgxqIEIIzxLQ", "alias": "hardwick-house-of-pizza-gilbertville", "name": "Hardwick House of Pizza", "image_url": "https://s3-media3.fl.yelpcdn.com/bphoto/U1v5kFxk8Fot1l3t8QEiWQ/o.jpg", "is_closed": false, "url": "https://www.yelp.com/biz/hardwick-house-of-pizza-gilbertville?adjust_creative=asslzE1UV0XuKI953B1vtw&utm_campaign=yelp_api_v3&utm_medium=api_v3_business_search&utm_source=asslzE1UV0XuKI953B1vtw", "review_count": 6, "categories": [{"alias": "pizza", "title": "Pizza"}], "rating": 2.0, "coordinates": {"latitude": 42.3129577, "longitude": -72.2049821}, "transactions": [], "price": "$", "location": {"address1": "2 Main", "address2": "", "address3": null, "city": "Gilbertville", "zip_code": "01031", "country": "US", "state": "MA", "display_address": ["2 Main", "Gilbertville, MA 01031"]}, "phone": "+14134776001", "display_phone": "(413) 477-6001", "distance": 13565.0040124272}, {"id": "HRd6wl86S_x4QOK6nZq8fw", "alias": "city-line-diner-worcester", "name": "City Line Diner", "image_url": "https://s3-media3.fl.yelpcdn.com/bphoto/1SyqLnwjN8C7Ojgamjjx9Q/o.jpg", "is_closed": false, "url": "https://www.yelp.com/biz/city-line-diner-worcester?adjust_creative=asslzE1UV0XuKI953B1vtw&utm_campaign=yelp_api_v3&utm_medium=api_v3_business_search&utm_source=asslzE1UV0XuKI953B1vtw", "review_count": 63, "categories": [{"alias": "breakfast_brunch", "title": "Breakfast & Brunch"}, {"alias": "sandwiches", "title": "Sandwiches"}, {"alias": "diners", "title": "Diners"}], "rating": 4.5, "coordinates": {"latitude": 42.2406099, "longitude": -71.85485}, "transactions": ["delivery"], "price": "$$", "location": {"address1": "1420 Main St", "address2": "", "address3": null, "city": "Worcester", "zip_code": "01603", "country": "US", "state": "MA", "display_address": ["1420 Main St", "Worcester, MA 01603"]}, "phone": "+17744202992", "display_phone": "(774) 420-2992", "distance": 20646.75049231122}, {"id": "JDJEMD0M4Q0l31-YS0mC-w", "alias": "northeast-pizza-west-brookfield", "name": "Northeast Pizza", "image_url": "https://s3-media2.fl.yelpcdn.com/bphoto/JY4uYYJAdshPFLYGjWeFjw/o.jpg", "is_closed": false, "url": "https://www.yelp.com/biz/northeast-pizza-west-brookfield?adjust_creative=asslzE1UV0XuKI953B1vtw&utm_campaign=yelp_api_v3&utm_medium=api_v3_business_search&utm_source=asslzE1UV0XuKI953B1vtw", "review_count": 12, "categories": [{"alias": "pizza", "title": "Pizza"}], "rating": 2.0, "coordinates": {"latitude": 42.2389831542969, "longitude": -72.1653747558594}, "transactions": [], "price": "$", "location": {"address1": "208 W Main St", "address2": null, "address3": null, "city": "West Brookfield", "zip_code": "01585", "country": "US", "state": "MA", "display_address": ["208 W Main St", "West Brookfield, MA 01585"]}, "phone": "+15088679567", "display_phone": "(508) 867-9567", "distance": 16088.788919623808}, {"id": "5Reotu9GfyMCaMcAC4ET0w", "alias": "east-brookfield-pizza-east-brookfield", "name": "East Brookfield Pizza", "image_url": "https://s3-media1.fl.yelpcdn.com/bphoto/basBKLvUpIDlq39TVjad6w/o.jpg", "is_closed": false, "url": "https://www.yelp.com/biz/east-brookfield-pizza-east-brookfield?adjust_creative=asslzE1UV0XuKI953B1vtw&utm_campaign=yelp_api_v3&utm_medium=api_v3_business_search&utm_source=asslzE1UV0XuKI953B1vtw", "review_count": 8, "categories": [{"alias": "pizza", "title": "Pizza"}], "rating": 3.5, "coordinates": {"latitude": 42.226144, "longitude": -72.047749}, "transactions": [], "price": "$$", "location": {"address1": "289 East Main St", "address2": null, "address3": null, "city": "East Brookfield", "zip_code": "01515", "country": "US", "state": "MA", "display_address": ["289 East Main St", "East Brookfield, MA 01515"]}, "phone": "+15088678777", "display_phone": "(508) 867-8777", "distance": 14493.976657615545}, {"id": "PWkP3vd_SJxEyh5xbYfJ-A", "alias": "pizza-hut-spencer-7", "name": "Pizza Hut", "image_url": "https://s3-media3.fl.yelpcdn.com/bphoto/hTGz8wP4UAjVvGJneraX9w/o.jpg", "is_closed": false, "url": "https://www.yelp.com/biz/pizza-hut-spencer-7?adjust_creative=asslzE1UV0XuKI953B1vtw&utm_campaign=yelp_api_v3&utm_medium=api_v3_business_search&utm_source=asslzE1UV0XuKI953B1vtw", "review_count": 3, "categories": [{"alias": "pizza", "title": "Pizza"}, {"alias": "italian", "title": "Italian"}], "rating": 4.0, "coordinates": {"latitude": 42.2333170257464, "longitude": -72.0150576948935}, "transactions": [], "price": "$", "location": {"address1": "62 W Main St", "address2": "", "address3": "", "city": "Spencer", "zip_code": "01562", "country": "US", "state": "MA", "display_address": ["62 W Main St", "Spencer, MA 01562"]}, "phone": "+15088855345", "display_phone": "(508) 885-5345", "distance": 14010.742338238302}, {"id": "u5nb1tjdvVrQU0TSp_ZD5g", "alias": "parrot-pizza-holden", "name": "Parrot Pizza", "image_url": "https://s3-media1.fl.yelpcdn.com/bphoto/saP5U9fl9Rud8ra5Ef-Bew/o.jpg", "is_closed": false, "url": "https://www.yelp.com/biz/parrot-pizza-holden?adjust_creative=asslzE1UV0XuKI953B1vtw&utm_campaign=yelp_api_v3&utm_medium=api_v3_business_search&utm_source=asslzE1UV0XuKI953B1vtw", "review_count": 19, "categories": [{"alias": "pizza", "title": "Pizza"}], "rating": 3.5, "coordinates": {"latitude": 42.3447885733489, "longitude": -71.8632037192583}, "transactions": ["pickup", "delivery"], "price": "$$", "location": {"address1": "160 Reservoir St", "address2": "", "address3": "", "city": "Holden", "zip_code": "01520", "country": "US", "state": "MA", "display_address": ["160 Reservoir St", "Holden, MA 01520"]}, "phone": "+15088299111", "display_phone": "(508) 829-9111", "distance": 15494.154258378077}, {"id": "QrsnB5Zmqcvyjad4IOgcRA", "alias": "peking-garden-restaurant-worcester", "name": "Peking Garden Restaurant", "image_url": "https://s3-media2.fl.yelpcdn.com/bphoto/qwA4P6odUK9M40cusxeCUw/o.jpg", "is_closed": false, "url": "https://www.yelp.com/biz/peking-garden-restaurant-worcester?adjust_creative=asslzE1UV0XuKI953B1vtw&utm_campaign=yelp_api_v3&utm_medium=api_v3_business_search&utm_source=asslzE1UV0XuKI953B1vtw", "review_count": 14, "categories": [{"alias": "chinese", "title": "Chinese"}], "rating": 2.5, "coordinates": {"latitude": 42.2757245, "longitude": -71.8520244}, "transactions": ["delivery"], "price": "$$", "location": {"address1": "618 Chandler St", "address2": "", "address3": "", "city": "Worcester", "zip_code": "01602", "country": "US", "state": "MA", "display_address": ["618 Chandler St", "Worcester, MA 01602"]}, "phone": "+15087553365", "display_phone": "(508) 755-3365", "distance": 18661.74953427749}, {"id": "hCj1V_x6yg78QTVl6gcW1g", "alias": "atlas-pizza-worcester", "name": "Atlas Pizza", "image_url": "https://s3-media1.fl.yelpcdn.com/bphoto/p1U-7WV0rK87whyQXwoavg/o.jpg", "is_closed": false, "url": "https://www.yelp.com/biz/atlas-pizza-worcester?adjust_creative=asslzE1UV0XuKI953B1vtw&utm_campaign=yelp_api_v3&utm_medium=api_v3_business_search&utm_source=asslzE1UV0XuKI953B1vtw", "review_count": 29, "categories": [{"alias": "pizza", "title": "Pizza"}], "rating": 3.5, "coordinates": {"latitude": 42.27988, "longitude": -71.86859}, "transactions": ["delivery"], "price": "$", "location": {"address1": "1282 Pleasant St", "address2": "", "address3": "", "city": "Worcester", "zip_code": "01602", "country": "US", "state": "MA", "display_address": ["1282 Pleasant St", "Worcester, MA 01602"]}, "phone": "+15087569994", "display_phone": "(508) 756-9994", "distance": 17223.47635302817}, {"id": "d3kdqVe74sUBPio0fugN4w", "alias": "subway-leicester-11", "name": "Subway", "image_url": "https://s3-media1.fl.yelpcdn.com/bphoto/oAUVnb7sOuyF3ue2xeOtZw/o.jpg", "is_closed": false, "url": "https://www.yelp.com/biz/subway-leicester-11?adjust_creative=asslzE1UV0XuKI953B1vtw&utm_campaign=yelp_api_v3&utm_medium=api_v3_business_search&utm_source=asslzE1UV0XuKI953B1vtw", "review_count": 2, "categories": [{"alias": "sandwiches", "title": "Sandwiches"}], "rating": 4.0, "coordinates": {"latitude": 42.2447087976669, "longitude": -71.914986594792}, "transactions": [], "price": "$", "location": {"address1": "1199 Main St", "address2": "", "address3": "", "city": "Leicester", "zip_code": "01524", "country": "US", "state": "MA", "display_address": ["1199 Main St", "Leicester, MA 01524"]}, "phone": "+15088924421", "display_phone": "(508) 892-4421", "distance": 16724.80034760867}, {"id": "26hXKbLi0LAmAm308nIylQ", "alias": "fratellis-corner-crust-pizzeria-worcester-2", "name": "Fratelli's Corner Crust Pizzeria", "image_url": "https://s3-media3.fl.yelpcdn.com/bphoto/hEvM60anUJLCWY7hP8f1LA/o.jpg", "is_closed": false, "url": "https://www.yelp.com/biz/fratellis-corner-crust-pizzeria-worcester-2?adjust_creative=asslzE1UV0XuKI953B1vtw&utm_campaign=yelp_api_v3&utm_medium=api_v3_business_search&utm_source=asslzE1UV0XuKI953B1vtw", "review_count": 96, "categories": [{"alias": "pizza", "title": "Pizza"}, {"alias": "sandwiches", "title": "Sandwiches"}, {"alias": "italian", "title": "Italian"}], "rating": 4.0, "coordinates": {"latitude": 42.235997, "longitude": -71.850095}, "transactions": ["pickup", "delivery"], "price": "$", "location": {"address1": "186 Stafford St", "address2": "", "address3": "", "city": "Worcester", "zip_code": "01603", "country": "US", "state": "MA", "display_address": ["186 Stafford St", "Worcester, MA 01603"]}, "phone": "+15087992500", "display_phone": "(508) 799-2500", "distance": 21277.343278656095}, {"id": "zzHvKkalUfONRV5hK7GJLA", "alias": "bushel-n-peck-worcester-3", "name": "Bushel 'N Peck", "image_url": "https://s3-media2.fl.yelpcdn.com/bphoto/epRgf-Ffthjb6XlMY-TmPg/o.jpg", "is_closed": false, "url": "https://www.yelp.com/biz/bushel-n-peck-worcester-3?adjust_creative=asslzE1UV0XuKI953B1vtw&utm_campaign=yelp_api_v3&utm_medium=api_v3_business_search&utm_source=asslzE1UV0XuKI953B1vtw", "review_count": 57, "categories": [{"alias": "catering", "title": "Caterers"}, {"alias": "delis", "title": "Delis"}], "rating": 3.0, "coordinates": {"latitude": 42.27743, "longitude": -71.8530399}, "transactions": ["pickup", "delivery"], "price": "$", "location": {"address1": "643 Chandler St", "address2": "", "address3": "", "city": "Worcester", "zip_code": "01602", "country": "US", "state": "MA", "display_address": ["643 Chandler St", "Worcester, MA 01602"]}, "phone": "+15087996305", "display_phone": "(508) 799-6305", "distance": 18501.3879395707}, {"id": "lQwRGkdMNvY6e_Zo1RSDVQ", "alias": "villas-pizza-restaurant-ware", "name": "Villa's Pizza Restaurant", "image_url": "https://s3-media2.fl.yelpcdn.com/bphoto/MHYLDAcp33fb74RF2IZojg/o.jpg", "is_closed": false, "url": "https://www.yelp.com/biz/villas-pizza-restaurant-ware?adjust_creative=asslzE1UV0XuKI953B1vtw&utm_campaign=yelp_api_v3&utm_medium=api_v3_business_search&utm_source=asslzE1UV0XuKI953B1vtw", "review_count": 4, "categories": [{"alias": "pizza", "title": "Pizza"}], "rating": 3.5, "coordinates": {"latitude": 42.26092, "longitude": -72.2427}, "transactions": [], "price": "$", "location": {"address1": "123 Main St", "address2": "", "address3": "", "city": "Ware", "zip_code": "01082", "country": "US", "state": "MA", "display_address": ["123 Main St", "Ware, MA 01082"]}, "phone": "+14139674490", "display_phone": "(413) 967-4490", "distance": 19008.42387582155}, {"id": "OIhtqkIQSbb9jaGbqGxrXw", "alias": "dominos-pizza-holden", "name": "Dominos Pizza", "image_url": "https://s3-media4.fl.yelpcdn.com/bphoto/jgJonGW-ctw7FjG7RmDUSQ/o.jpg", "is_closed": false, "url": "https://www.yelp.com/biz/dominos-pizza-holden?adjust_creative=asslzE1UV0XuKI953B1vtw&utm_campaign=yelp_api_v3&utm_medium=api_v3_business_search&utm_source=asslzE1UV0XuKI953B1vtw", "review_count": 3, "categories": [{"alias": "pizza", "title": "Pizza"}], "rating": 2.5, "coordinates": {"latitude": 42.3498648, "longitude": -71.8596719}, "transactions": [], "price": "$", "location": {"address1": "1140 Main St", "address2": "", "address3": null, "city": "Holden", "zip_code": "01520", "country": "US", "state": "MA", "display_address": ["1140 Main St", "Holden, MA 01520"]}, "phone": "+15088291919", "display_phone": "(508) 829-1919", "distance": 15761.131945973862}, {"id": "xuNN23A2qEoy3AkH7M6ytQ", "alias": "dairy-queen-grill-and-chill-spencer", "name": "Dairy Queen Grill & Chill", "image_url": "https://s3-media4.fl.yelpcdn.com/bphoto/jzL6q6MxKOihP9Yv4L5K_Q/o.jpg", "is_closed": false, "url": "https://www.yelp.com/biz/dairy-queen-grill-and-chill-spencer?adjust_creative=asslzE1UV0XuKI953B1vtw&utm_campaign=yelp_api_v3&utm_medium=api_v3_business_search&utm_source=asslzE1UV0XuKI953B1vtw", "review_count": 15, "categories": [{"alias": "icecream", "title": "Ice Cream & Frozen Yogurt"}, {"alias": "hotdogs", "title": "Fast Food"}, {"alias": "burgers", "title": "Burgers"}], "rating": 3.5, "coordinates": {"latitude": 42.2501839275466, "longitude": -71.9803109765053}, "transactions": [], "price": "$", "location": {"address1": "291 Main St", "address2": "", "address3": "", "city": "Spencer", "zip_code": "01562", "country": "US", "state": "MA", "display_address": ["291 Main St", "Spencer, MA 01562"]}, "phone": "+15088852748", "display_phone": "(508) 885-2748", "distance": 13173.812894442124}, {"id": "95SASgoMifPOx71EovJbtg", "alias": "papa-georges-pizza-worcester", "name": "Papa George's Pizza", "image_url": "", "is_closed": false, "url": "https://www.yelp.com/biz/papa-georges-pizza-worcester?adjust_creative=asslzE1UV0XuKI953B1vtw&utm_campaign=yelp_api_v3&utm_medium=api_v3_business_search&utm_source=asslzE1UV0XuKI953B1vtw", "review_count": 8, "categories": [{"alias": "pizza", "title": "Pizza"}], "rating": 4.0, "coordinates": {"latitude": 42.2616276970128, "longitude": -71.8472737703081}, "transactions": ["delivery"], "price": "$$", "location": {"address1": "351 June St", "address2": "", "address3": "", "city": "Worcester", "zip_code": "01602", "country": "US", "state": "MA", "display_address": ["351 June St", "Worcester, MA 01602"]}, "phone": "+15087559500", "display_phone": "(508) 755-9500", "distance": 19731.90110662176}, {"id": "YT1O-rmplFlxHbPo1t8Vng", "alias": "golden-star-chinese-restaurant-worcester-2", "name": "Golden Star Chinese Restaurant", "image_url": "https://s3-media4.fl.yelpcdn.com/bphoto/jVWwJwg8UDf1zXh8MLtxSA/o.jpg", "is_closed": false, "url": "https://www.yelp.com/biz/golden-star-chinese-restaurant-worcester-2?adjust_creative=asslzE1UV0XuKI953B1vtw&utm_campaign=yelp_api_v3&utm_medium=api_v3_business_search&utm_source=asslzE1UV0XuKI953B1vtw", "review_count": 4, "categories": [{"alias": "chinese", "title": "Chinese"}], "rating": 3.5, "coordinates": {"latitude": 42.23261, "longitude": -71.84913}, "transactions": ["delivery"], "location": {"address1": "65 James St", "address2": "", "address3": null, "city": "Worcester", "zip_code": "01603", "country": "US", "state": "MA", "display_address": ["65 James St", "Worcester, MA 01603"]}, "phone": "+15087556768", "display_phone": "(508) 755-6768", "distance": 21552.07872077985}, {"id": "OkB4eTW7dXyazwrmvmJNVw", "alias": "souped-up-food-billerica", "name": "Souped Up Food", "image_url": "https://s3-media1.fl.yelpcdn.com/bphoto/q72dJDqROrXj2hHd0PL5iA/o.jpg", "is_closed": false, "url": "https://www.yelp.com/biz/souped-up-food-billerica?adjust_creative=asslzE1UV0XuKI953B1vtw&utm_campaign=yelp_api_v3&utm_medium=api_v3_business_search&utm_source=asslzE1UV0XuKI953B1vtw", "review_count": 3, "categories": [{"alias": "foodtrucks", "title": "Food Trucks"}, {"alias": "salad", "title": "Salad"}, {"alias": "sandwiches", "title": "Sandwiches"}], "rating": 4.5, "coordinates": {"latitude": 42.55582, "longitude": -71.26625}, "transactions": [], "location": {"address1": "", "address2": "", "address3": "", "city": "Billerica", "zip_code": "01821", "country": "US", "state": "MA", "display_address": ["Billerica, MA 01821"]}, "phone": "+17814393925", "display_phone": "(781) 439-3925", "distance": 68899.74666195842}, {"id": "80yK3Vu4KM6Lrugp3FDL0Q", "alias": "paradise-pizza-worcester", "name": "Paradise Pizza", "image_url": "", "is_closed": false, "url": "https://www.yelp.com/biz/paradise-pizza-worcester?adjust_creative=asslzE1UV0XuKI953B1vtw&utm_campaign=yelp_api_v3&utm_medium=api_v3_business_search&utm_source=asslzE1UV0XuKI953B1vtw", "review_count": 17, "categories": [{"alias": "pizza", "title": "Pizza"}], "rating": 4.0, "coordinates": {"latitude": 42.230687, "longitude": -71.849688}, "transactions": ["delivery"], "price": "$", "location": {"address1": "60 S Ludlow St", "address2": "", "address3": "", "city": "Worcester", "zip_code": "01603", "country": "US", "state": "MA", "display_address": ["60 S Ludlow St", "Worcester, MA 01603"]}, "phone": "+15087556820", "display_phone": "(508) 755-6820", "distance": 21680.033744449956}, {"id": "wYKhpMsBZFpS-4wkN9nawg", "alias": "northeast-pizza-leicester", "name": "Northeast Pizza", "image_url": "", "is_closed": false, "url": "https://www.yelp.com/biz/northeast-pizza-leicester?adjust_creative=asslzE1UV0XuKI953B1vtw&utm_campaign=yelp_api_v3&utm_medium=api_v3_business_search&utm_source=asslzE1UV0XuKI953B1vtw", "review_count": 15, "categories": [{"alias": "pizza", "title": "Pizza"}], "rating": 3.0, "coordinates": {"latitude": 42.2442284, "longitude": -71.9163132}, "transactions": ["delivery"], "price": "$", "location": {"address1": "1205 Main St", "address2": "", "address3": "", "city": "Leicester", "zip_code": "01524", "country": "US", "state": "MA", "display_address": ["1205 Main St", "Leicester, MA 01524"]}, "phone": "+15088929276", "display_phone": "(508) 892-9276", "distance": 16655.48961809131}, {"id": "DuxMLpZ8z1jJ8Z-58HTPqA", "alias": "golden-crust-pizza-restaurant-holden", "name": "Golden Crust Pizza Restaurant", "image_url": "", "is_closed": false, "url": "https://www.yelp.com/biz/golden-crust-pizza-restaurant-holden?adjust_creative=asslzE1UV0XuKI953B1vtw&utm_campaign=yelp_api_v3&utm_medium=api_v3_business_search&utm_source=asslzE1UV0XuKI953B1vtw", "review_count": 1, "categories": [{"alias": "pizza", "title": "Pizza"}], "rating": 2.0, "coordinates": {"latitude": 42.34454, "longitude": -71.86221}, "transactions": [], "location": {"address1": "160 Reservoir St", "address2": "Ste 2", "address3": "", "city": "Holden", "zip_code": "01520", "country": "US", "state": "MA", "display_address": ["160 Reservoir St", "Ste 2", "Holden, MA 01520"]}, "phone": "+15088299111", "display_phone": "(508) 829-9111", "distance": 15594.360158763335}, {"id": "usP9czUkDGcyC7CSseiMdw", "alias": "shuck-food-truck-boston-2", "name": "Shuck Food Truck", "image_url": "https://s3-media2.fl.yelpcdn.com/bphoto/vh62vEgAkPe1IC7D00fF2A/o.jpg", "is_closed": false, "url": "https://www.yelp.com/biz/shuck-food-truck-boston-2?adjust_creative=asslzE1UV0XuKI953B1vtw&utm_campaign=yelp_api_v3&utm_medium=api_v3_business_search&utm_source=asslzE1UV0XuKI953B1vtw", "review_count": 27, "categories": [{"alias": "foodtrucks", "title": "Food Trucks"}, {"alias": "seafood", "title": "Seafood"}, {"alias": "tradamerican", "title": "American (Traditional)"}], "rating": 4.5, "coordinates": {"latitude": 42.64758, "longitude": -71.32212}, "transactions": [], "location": {"address1": "", "address2": "", "address3": null, "city": "Boston", "zip_code": "01854", "country": "US", "state": "MA", "display_address": ["Boston, MA 01854"]}, "phone": "+19789446618", "display_phone": "(978) 944-6618", "distance": 64835.4829965291}, {"id": "6G7I24vIiyLp4_7nSNICew", "alias": "whistle-stop-restaurant-hardwick", "name": "Whistle Stop Restaurant", "image_url": "https://s3-media4.fl.yelpcdn.com/bphoto/co5S3IgUc4H4d2Nf597Nlw/o.jpg", "is_closed": false, "url": "https://www.yelp.com/biz/whistle-stop-restaurant-hardwick?adjust_creative=asslzE1UV0XuKI953B1vtw&utm_campaign=yelp_api_v3&utm_medium=api_v3_business_search&utm_source=asslzE1UV0XuKI953B1vtw", "review_count": 3, "categories": [{"alias": "tradamerican", "title": "American (Traditional)"}, {"alias": "breakfast_brunch", "title": "Breakfast & Brunch"}, {"alias": "sandwiches", "title": "Sandwiches"}], "rating": 2.0, "coordinates": {"latitude": 42.30823, "longitude": -72.21081}, "transactions": [], "price": "$", "location": {"address1": "248 Main", "address2": "", "address3": "", "city": "Hardwick", "zip_code": "01037", "country": "US", "state": "MA", "display_address": ["248 Main", "Hardwick, MA 01037"]}, "phone": "+14134778888", "display_phone": "(413) 477-8888", "distance": 14183.439786900977}, {"id": "qhCi6wVHVv-ltYmtEdHSUw", "alias": "subway-leicester-10", "name": "Subway", "image_url": "https://s3-media2.fl.yelpcdn.com/bphoto/YYjYJce-NDAhAR3i8L2hFw/o.jpg", "is_closed": false, "url": "https://www.yelp.com/biz/subway-leicester-10?adjust_creative=asslzE1UV0XuKI953B1vtw&utm_campaign=yelp_api_v3&utm_medium=api_v3_business_search&utm_source=asslzE1UV0XuKI953B1vtw", "review_count": 3, "categories": [{"alias": "sandwiches", "title": "Sandwiches"}], "rating": 3.0, "coordinates": {"latitude": 42.251328, "longitude": -71.935848}, "transactions": [], "price": "$", "location": {"address1": "1620 Main St", "address2": null, "address3": null, "city": "Leicester", "zip_code": "01524", "country": "US", "state": "MA", "display_address": ["1620 Main St", "Leicester, MA 01524"]}, "phone": "+15088928083", "display_phone": "(508) 892-8083", "distance": 15049.706707159768}, {"id": "heCLBkOsNC3CDh2qALQSBA", "alias": "golden-dragon-island-worcester", "name": "Golden Dragon Island", "image_url": "https://s3-media3.fl.yelpcdn.com/bphoto/FJ89E9DYTW4yVTXymyE_gw/o.jpg", "is_closed": false, "url": "https://www.yelp.com/biz/golden-dragon-island-worcester?adjust_creative=asslzE1UV0XuKI953B1vtw&utm_campaign=yelp_api_v3&utm_medium=api_v3_business_search&utm_source=asslzE1UV0XuKI953B1vtw", "review_count": 21, "categories": [{"alias": "chinese", "title": "Chinese"}, {"alias": "seafood", "title": "Seafood"}, {"alias": "soup", "title": "Soup"}], "rating": 3.5, "coordinates": {"latitude": 42.2416831, "longitude": -71.8487796}, "transactions": ["delivery"], "price": "$$", "location": {"address1": "1328 Main St", "address2": "", "address3": "", "city": "Worcester", "zip_code": "01603", "country": "US", "state": "MA", "display_address": ["1328 Main St", "Worcester, MA 01603"]}, "phone": "+15087545236", "display_phone": "(508) 754-5236", "distance": 20964.158179133323}, {"id": "RSMOVFq_J1TZGiieKY_G8Q", "alias": "subway-holden-7", "name": "Subway", "image_url": "https://s3-media2.fl.yelpcdn.com/bphoto/Ko2x2Evt4pjAMnTtFyi8Bw/o.jpg", "is_closed": false, "url": "https://www.yelp.com/biz/subway-holden-7?adjust_creative=asslzE1UV0XuKI953B1vtw&utm_campaign=yelp_api_v3&utm_medium=api_v3_business_search&utm_source=asslzE1UV0XuKI953B1vtw", "review_count": 7, "categories": [{"alias": "sandwiches", "title": "Sandwiches"}], "rating": 1.5, "coordinates": {"latitude": 42.3493648, "longitude": -71.8591977}, "transactions": [], "price": "$", "location": {"address1": "1115 Main St", "address2": "", "address3": "", "city": "Holden", "zip_code": "01520", "country": "US", "state": "MA", "display_address": ["1115 Main St", "Holden, MA 01520"]}, "phone": "+15088299365", "display_phone": "(508) 829-9365", "distance": 15812.619197979915}, {"id": "kURqF15vnpJMKlzO9yOQjw", "alias": "subway-w-brookfield", "name": "Subway", "image_url": "https://s3-media1.fl.yelpcdn.com/bphoto/0a4AVwVVylrCsUo6T_Or7A/o.jpg", "is_closed": false, "url": "https://www.yelp.com/biz/subway-w-brookfield?adjust_creative=asslzE1UV0XuKI953B1vtw&utm_campaign=yelp_api_v3&utm_medium=api_v3_business_search&utm_source=asslzE1UV0XuKI953B1vtw", "review_count": 3, "categories": [{"alias": "sandwiches", "title": "Sandwiches"}], "rating": 1.5, "coordinates": {"latitude": 42.2341074710016, "longitude": -72.1557967975961}, "transactions": [], "price": "$", "location": {"address1": "143 W Main St", "address2": null, "address3": null, "city": "W Brookfield", "zip_code": "01585", "country": "US", "state": "MA", "display_address": ["143 W Main St", "W Brookfield, MA 01585"]}, "phone": "+15088673433", "display_phone": "(508) 867-3433", "distance": 16102.561929945738}, {"id": "n_s_vnPID1VDUO53PGE7qQ", "alias": "mcdonalds-ware", "name": "McDonald's", "image_url": "https://s3-media3.fl.yelpcdn.com/bphoto/A9Nkl7yHbhRSf4DzmMWoTg/o.jpg", "is_closed": false, "url": "https://www.yelp.com/biz/mcdonalds-ware?adjust_creative=asslzE1UV0XuKI953B1vtw&utm_campaign=yelp_api_v3&utm_medium=api_v3_business_search&utm_source=asslzE1UV0XuKI953B1vtw", "review_count": 8, "categories": [{"alias": "coffee", "title": "Coffee & Tea"}, {"alias": "burgers", "title": "Burgers"}, {"alias": "hotdogs", "title": "Fast Food"}], "rating": 2.0, "coordinates": {"latitude": 42.2569839, "longitude": -72.2498621}, "transactions": [], "price": "$", "location": {"address1": "117 West St", "address2": "", "address3": "", "city": "Ware", "zip_code": "01082", "country": "US", "state": "MA", "display_address": ["117 West St", "Ware, MA 01082"]}, "phone": "+14139673485", "display_phone": "(413) 967-3485", "distance": 19737.488505614398}, {"id": "zJn95zgu9AT220yl2SBNSg", "alias": "mcdonalds-worcester-7", "name": "McDonald's", "image_url": "https://s3-media3.fl.yelpcdn.com/bphoto/mhIlhhvaSW-lgE9B2XH-GQ/o.jpg", "is_closed": false, "url": "https://www.yelp.com/biz/mcdonalds-worcester-7?adjust_creative=asslzE1UV0XuKI953B1vtw&utm_campaign=yelp_api_v3&utm_medium=api_v3_business_search&utm_source=asslzE1UV0XuKI953B1vtw", "review_count": 23, "categories": [{"alias": "burgers", "title": "Burgers"}, {"alias": "hotdogs", "title": "Fast Food"}, {"alias": "coffee", "title": "Coffee & Tea"}], "rating": 1.5, "coordinates": {"latitude": 42.2752, "longitude": -71.85394}, "transactions": ["delivery"], "price": "$", "location": {"address1": "595 Mill St", "address2": "", "address3": "", "city": "Worcester", "zip_code": "01603", "country": "US", "state": "MA", "display_address": ["595 Mill St", "Worcester, MA 01603"]}, "phone": "+15087548812", "display_phone": "(508) 754-8812", "distance": 18548.8176010256}, {"id": "a4BtLxq7zyevP_ceyFTTMA", "alias": "mcdonalds-spencer-2", "name": "McDonald's", "image_url": "https://s3-media1.fl.yelpcdn.com/bphoto/AkOAfQAISQcyF_nS7Rx2sw/o.jpg", "is_closed": false, "url": "https://www.yelp.com/biz/mcdonalds-spencer-2?adjust_creative=asslzE1UV0XuKI953B1vtw&utm_campaign=yelp_api_v3&utm_medium=api_v3_business_search&utm_source=asslzE1UV0XuKI953B1vtw", "review_count": 13, "categories": [{"alias": "hotdogs", "title": "Fast Food"}, {"alias": "burgers", "title": "Burgers"}, {"alias": "coffee", "title": "Coffee & Tea"}], "rating": 2.5, "coordinates": {"latitude": 42.233007, "longitude": -72.012469}, "transactions": [], "price": "$", "location": {"address1": "59 W Main St", "address2": "", "address3": "", "city": "Spencer", "zip_code": "01562", "country": "US", "state": "MA", "display_address": ["59 W Main St", "Spencer, MA 01562"]}, "phone": "+15088853355", "display_phone": "(508) 885-3355", "distance": 14090.90214055378}, {"id": "LncQyps8U-xPtFhS8CMN4w", "alias": "fresh-way-pizza-worcester", "name": "Fresh Way Pizza", "image_url": "https://s3-media4.fl.yelpcdn.com/bphoto/CTgoe9roNRgHeZbOCAX5sg/o.jpg", "is_closed": false, "url": "https://www.yelp.com/biz/fresh-way-pizza-worcester?adjust_creative=asslzE1UV0XuKI953B1vtw&utm_campaign=yelp_api_v3&utm_medium=api_v3_business_search&utm_source=asslzE1UV0XuKI953B1vtw", "review_count": 29, "categories": [{"alias": "pizza", "title": "Pizza"}, {"alias": "burgers", "title": "Burgers"}, {"alias": "sandwiches", "title": "Sandwiches"}], "rating": 2.5, "coordinates": {"latitude": 42.24084, "longitude": -71.85457}, "transactions": ["pickup", "delivery"], "price": "$", "location": {"address1": "1406 Main St", "address2": "", "address3": "", "city": "Worcester", "zip_code": "01603", "country": "US", "state": "MA", "display_address": ["1406 Main St", "Worcester, MA 01603"]}, "phone": "+15087524131", "display_phone": "(508) 752-4131", "distance": 20639.562039326345}, {"id": "Io4C5tUwnb_YzeaMXHBqBA", "alias": "shuckin-truck-narragansett-2", "name": "Shuckin Truck", "image_url": "https://s3-media2.fl.yelpcdn.com/bphoto/r7QRORfe9UYVS7GGzUm9DQ/o.jpg", "is_closed": false, "url": "https://www.yelp.com/biz/shuckin-truck-narragansett-2?adjust_creative=asslzE1UV0XuKI953B1vtw&utm_campaign=yelp_api_v3&utm_medium=api_v3_business_search&utm_source=asslzE1UV0XuKI953B1vtw", "review_count": 24, "categories": [{"alias": "foodtrucks", "title": "Food Trucks"}, {"alias": "seafood", "title": "Seafood"}], "rating": 4.5, "coordinates": {"latitude": 41.4274482727051, "longitude": -71.4597778320313}, "transactions": [], "price": "$$", "location": {"address1": "", "address2": "", "address3": "", "city": "Narragansett", "zip_code": "02882", "country": "US", "state": "RI", "display_address": ["Narragansett, RI 02882"]}, "phone": "+14017415953", "display_phone": "(401) 741-5953", "distance": 116248.41122058115}, {"id": "324pp6avrBFbzw059DoHsA", "alias": "roadies-raleigh", "name": "Roadies", "image_url": "https://s3-media2.fl.yelpcdn.com/bphoto/3zJZmmgIOYrfKoAOp9Du1w/o.jpg", "is_closed": false, "url": "https://www.yelp.com/biz/roadies-raleigh?adjust_creative=asslzE1UV0XuKI953B1vtw&utm_campaign=yelp_api_v3&utm_medium=api_v3_business_search&utm_source=asslzE1UV0XuKI953B1vtw", "review_count": 10, "categories": [{"alias": "foodtrucks", "title": "Food Trucks"}, {"alias": "seafood", "title": "Seafood"}], "rating": 4.5, "coordinates": {"latitude": 35.67575, "longitude": -78.66424}, "transactions": [], "price": "$", "location": {"address1": "", "address2": null, "address3": "", "city": "Raleigh", "zip_code": "27603", "country": "US", "state": "NC", "display_address": ["Raleigh, NC 27603"]}, "phone": "+13476136489", "display_phone": "(347) 613-6489", "distance": 938449.1381924893}]