[{"id": "Xgfi4591xeqagTByrp1JCw", "alias": "cedar-street-grille-sturbridge-2", "name": "Cedar Street Grille", "image_url": "https://s3-media1.fl.yelpcdn.com/bphoto/cPxc6_VXnItq47C8UJjxwg/o.jpg", "is_closed": false, "url": "https://www.yelp.com/biz/cedar-street-grille-sturbridge-2?adjust_creative=asslzE1UV0XuKI953B1vtw&utm_campaign=yelp_api_v3&utm_medium=api_v3_business_search&utm_source=asslzE1UV0XuKI953B1vtw", "review_count": 267, "categories": [{"alias": "newamerican", "title": "American (New)"}, {"alias": "tapasmallplates", "title": "Tapas/Small Plates"}, {"alias": "beerbar", "title": "Beer Bar"}], "rating": 4.0, "coordinates": {"latitude": 42.11328, "longitude": -72.09685}, "transactions": ["delivery"], "price": "$$", "location": {"address1": "12 Cedar St", "address2": "", "address3": "", "city": "Sturbridge", "zip_code": "01566", "country": "US", "state": "MA", "display_address": ["12 Cedar St", "Sturbridge, MA 01566"]}, "phone": "+15083475800", "display_phone": "(508) 347-5800", "distance": 1900.8520663155866}, {"id": "Tj_HA19wOFNTttpgI9Oghg", "alias": "sturbridge-seafood-sturbridge", "name": "Sturbridge Seafood", "image_url": "https://s3-media1.fl.yelpcdn.com/bphoto/aD06QgTQDPoKwcFe9OWSQA/o.jpg", "is_closed": false, "url": "https://www.yelp.com/biz/sturbridge-seafood-sturbridge?adjust_creative=asslzE1UV0XuKI953B1vtw&utm_campaign=yelp_api_v3&utm_medium=api_v3_business_search&utm_source=asslzE1UV0XuKI953B1vtw", "review_count": 389, "categories": [{"alias": "seafood", "title": "Seafood"}, {"alias": "cocktailbars", "title": "Cocktail Bars"}], "rating": 4.0, "coordinates": {"latitude": 42.1110211366217, "longitude": -72.0949529}, "transactions": ["delivery", "restaurant_reservation"], "price": "$$", "location": {"address1": "376 Main St", "address2": "", "address3": "", "city": "Sturbridge", "zip_code": "01566", "country": "US", "state": "MA", "display_address": ["376 Main St", "Sturbridge, MA 01566"]}, "phone": "+15083472600", "display_phone": "(508) 347-2600", "distance": 1612.8455978073075}, {"id": "OBhbnRg34SUC2CiWSg39zg", "alias": "b-t-s-smokehouse-sturbridge-3", "name": "B.T.'s Smokehouse", "image_url": "https://s3-media4.fl.yelpcdn.com/bphoto/1XoZm7kefHj1y6WChh0rcg/o.jpg", "is_closed": false, "url": "https://www.yelp.com/biz/b-t-s-smokehouse-sturbridge-3?adjust_creative=asslzE1UV0XuKI953B1vtw&utm_campaign=yelp_api_v3&utm_medium=api_v3_business_search&utm_source=asslzE1UV0XuKI953B1vtw", "review_count": 1039, "categories": [{"alias": "bbq", "title": "Barbeque"}, {"alias": "sandwiches", "title": "Sandwiches"}], "rating": 4.5, "coordinates": {"latitude": 42.111246811233, "longitude": -72.094700341653}, "transactions": ["delivery", "pickup"], "price": "$$", "location": {"address1": "392 Main St", "address2": "", "address3": "", "city": "Sturbridge", "zip_code": "01566", "country": "US", "state": "MA", "display_address": ["392 Main St", "Sturbridge, MA 01566"]}, "phone": "+15083473188", "display_phone": "(508) 347-3188", "distance": 1613.211428881231}, {"id": "O8RUnchuFOKrWg88txImOA", "alias": "sturbridge-porterhouse-sturbridge", "name": "Sturbridge Porterhouse", "image_url": "https://s3-media2.fl.yelpcdn.com/bphoto/7yVKkhNYeTkGulxxBLwv2g/o.jpg", "is_closed": false, "url": "https://www.yelp.com/biz/sturbridge-porterhouse-sturbridge?adjust_creative=asslzE1UV0XuKI953B1vtw&utm_campaign=yelp_api_v3&utm_medium=api_v3_business_search&utm_source=asslzE1UV0XuKI953B1vtw", "review_count": 102, "categories": [{"alias": "tradamerican", "title": "American (Traditional)"}, {"alias": "salad", "title": "Salad"}, {"alias": "cocktailbars", "title": "Cocktail Bars"}], "rating": 4.0, "coordinates": {"latitude": 42.11097, "longitude": -72.09596}, "transactions": ["delivery", "restaurant_reservation"], "price": "$$$", "location": {"address1": "407 Main St", "address2": "", "address3": null, "city": "Sturbridge", "zip_code": "01566", "country": "US", "state": "MA", "display_address": ["407 Main St", "Sturbridge, MA 01566"]}, "phone": "+15083472700", "display_phone": "(508) 347-2700", "distance": 1727.9253194155824}, {"id": "fo_PdfhtHdZUvTR2QUgMCA", "alias": "teddy-gs-sturbridge-3", "name": "Teddy G's", "image_url": "https://s3-media4.fl.yelpcdn.com/bphoto/iI94KlYrZx8pMEBfy8olKg/o.jpg", "is_closed": false, "url": "https://www.yelp.com/biz/teddy-gs-sturbridge-3?adjust_creative=asslzE1UV0XuKI953B1vtw&utm_campaign=yelp_api_v3&utm_medium=api_v3_business_search&utm_source=asslzE1UV0XuKI953B1vtw", "review_count": 190, "categories": [{"alias": "pubs", "title": "Pubs"}, {"alias": "tradamerican", "title": "American (Traditional)"}], "rating": 4.0, "coordinates": {"latitude": 42.096327, "longitude": -72.072453}, "transactions": ["delivery"], "price": "$$", "location": {"address1": "179 Main St", "address2": "", "address3": "", "city": "Sturbridge", "zip_code": "01566", "country": "US", "state": "MA", "display_address": ["179 Main St", "Sturbridge, MA 01566"]}, "phone": "+15083471900", "display_phone": "(508) 347-1900", "distance": 861.8233480149239}, {"id": "HFSgx8AqyNaLVk8Ho_ATBA", "alias": "the-metro-bistrot-southbridge", "name": "The Metro Bistrot", "image_url": "https://s3-media3.fl.yelpcdn.com/bphoto/52wfxsg313B3hNd0--mMVw/o.jpg", "is_closed": false, "url": "https://www.yelp.com/biz/the-metro-bistrot-southbridge?adjust_creative=asslzE1UV0XuKI953B1vtw&utm_campaign=yelp_api_v3&utm_medium=api_v3_business_search&utm_source=asslzE1UV0XuKI953B1vtw", "review_count": 79, "categories": [{"alias": "french", "title": "French"}], "rating": 4.5, "coordinates": {"latitude": 42.0743435, "longitude": -72.031125}, "transactions": ["restaurant_reservation"], "price": "$$", "location": {"address1": "176 Main St", "address2": "", "address3": "", "city": "Southbridge", "zip_code": "01550", "country": "US", "state": "MA", "display_address": ["176 Main St", "Southbridge, MA 01550"]}, "phone": "+18602077135", "display_phone": "(860) 207-7135", "distance": 5049.625270593105}, {"id": "SajwcXf2pvMEKwnB20qFiA", "alias": "homefield-kitchen-and-brewery-fiskdale", "name": "Homefield Kitchen & Brewery", "image_url": "https://s3-media3.fl.yelpcdn.com/bphoto/1-9CrFr4TXrMrZ6mrnYCNw/o.jpg", "is_closed": false, "url": "https://www.yelp.com/biz/homefield-kitchen-and-brewery-fiskdale?adjust_creative=asslzE1UV0XuKI953B1vtw&utm_campaign=yelp_api_v3&utm_medium=api_v3_business_search&utm_source=asslzE1UV0XuKI953B1vtw", "review_count": 56, "categories": [{"alias": "tapasmallplates", "title": "Tapas/Small Plates"}, {"alias": "sandwiches", "title": "Sandwiches"}, {"alias": "wine_bars", "title": "Wine Bars"}], "rating": 4.5, "coordinates": {"latitude": 42.1147600996541, "longitude": -72.1065116787681}, "transactions": [], "price": "$$", "location": {"address1": "3 Arnold Rd", "address2": "", "address3": null, "city": "Fiskdale", "zip_code": "01518", "country": "US", "state": "MA", "display_address": ["3 Arnold Rd", "Fiskdale, MA 01518"]}, "phone": "+17742426365", "display_phone": "(774) 242-6365", "distance": 2694.6640711732775}, {"id": "vDFiWgMLhkHSOxTwxUkuDg", "alias": "the-duck-sturbridge", "name": "The Duck", "image_url": "https://s3-media3.fl.yelpcdn.com/bphoto/_W2s1pipxpKFcC9m701RHw/o.jpg", "is_closed": false, "url": "https://www.yelp.com/biz/the-duck-sturbridge?adjust_creative=asslzE1UV0XuKI953B1vtw&utm_campaign=yelp_api_v3&utm_medium=api_v3_business_search&utm_source=asslzE1UV0XuKI953B1vtw", "review_count": 130, "categories": [{"alias": "newamerican", "title": "American (New)"}], "rating": 3.5, "coordinates": {"latitude": 42.1152532, "longitude": -72.1083662}, "transactions": ["delivery", "pickup"], "price": "$$", "location": {"address1": "502 Main St", "address2": "", "address3": "", "city": "Sturbridge", "zip_code": "01566", "country": "US", "state": "MA", "display_address": ["502 Main St", "Sturbridge, MA 01566"]}, "phone": "+15083472321", "display_phone": "(508) 347-2321", "distance": 2785.915152152719}, {"id": "9zY1OSIH3cq3_bk-QavVLg", "alias": "avellino-sturbridge", "name": "Avellino", "image_url": "https://s3-media1.fl.yelpcdn.com/bphoto/3eIoJ1HAzJ-4kgUXe4IPyw/o.jpg", "is_closed": false, "url": "https://www.yelp.com/biz/avellino-sturbridge?adjust_creative=asslzE1UV0XuKI953B1vtw&utm_campaign=yelp_api_v3&utm_medium=api_v3_business_search&utm_source=asslzE1UV0XuKI953B1vtw", "review_count": 60, "categories": [{"alias": "italian", "title": "Italian"}], "rating": 4.0, "coordinates": {"latitude": 42.115324, "longitude": -72.108366}, "transactions": ["delivery", "pickup"], "price": "$$", "location": {"address1": "502 Main St", "address2": "", "address3": "", "city": "Sturbridge", "zip_code": "01518", "country": "US", "state": "MA", "display_address": ["502 Main St", "Sturbridge, MA 01518"]}, "phone": "+15083472321", "display_phone": "(508) 347-2321", "distance": 2790.153334730418}, {"id": "OgiLAYr-UVwtOJvN2xqP7w", "alias": "baba-sushi-sturbridge", "name": "Baba Sushi", "image_url": "https://s3-media1.fl.yelpcdn.com/bphoto/nBVAedHIhDbdMPa35AXT0w/o.jpg", "is_closed": false, "url": "https://www.yelp.com/biz/baba-sushi-sturbridge?adjust_creative=asslzE1UV0XuKI953B1vtw&utm_campaign=yelp_api_v3&utm_medium=api_v3_business_search&utm_source=asslzE1UV0XuKI953B1vtw", "review_count": 135, "categories": [{"alias": "japanese", "title": "Japanese"}, {"alias": "sushi", "title": "Sushi Bars"}, {"alias": "hotpot", "title": "Hot Pot"}], "rating": 4.0, "coordinates": {"latitude": 42.1131134033203, "longitude": -72.1032867431641}, "transactions": ["delivery", "restaurant_reservation", "pickup"], "price": "$$", "location": {"address1": "453 Main St", "address2": "", "address3": "", "city": "Sturbridge", "zip_code": "01518", "country": "US", "state": "MA", "display_address": ["453 Main St", "Sturbridge, MA 01518"]}, "phone": "+17743041068", "display_phone": "(774) 304-1068", "distance": 2319.7531163814924}, {"id": "VfxlzltYQhYpAr2DMJfRJA", "alias": "the-stonewall-grille-fiskdale", "name": "The Stonewall Grille", "image_url": "https://s3-media4.fl.yelpcdn.com/bphoto/wrmH89jZ7ff5-5IaTTRq1Q/o.jpg", "is_closed": false, "url": "https://www.yelp.com/biz/the-stonewall-grille-fiskdale?adjust_creative=asslzE1UV0XuKI953B1vtw&utm_campaign=yelp_api_v3&utm_medium=api_v3_business_search&utm_source=asslzE1UV0XuKI953B1vtw", "review_count": 21, "categories": [{"alias": "italian", "title": "Italian"}, {"alias": "steak", "title": "Steakhouses"}, {"alias": "seafood", "title": "Seafood"}], "rating": 3.5, "coordinates": {"latitude": 42.116287, "longitude": -72.111987}, "transactions": [], "price": "$$", "location": {"address1": "538 Main St", "address2": "", "address3": null, "city": "Fiskdale", "zip_code": "01518", "country": "US", "state": "MA", "display_address": ["538 Main St", "Fiskdale, MA 01518"]}, "phone": "+17743041188", "display_phone": "(774) 304-1188", "distance": 3094.09564644466}, {"id": "3NY6GIUCr-ZnypGT3kD-0w", "alias": "soup-to-nuts-fiskdale", "name": "Soup To Nuts", "image_url": "https://s3-media2.fl.yelpcdn.com/bphoto/UcDYXhgq9YT-y_ViHqxGjQ/o.jpg", "is_closed": false, "url": "https://www.yelp.com/biz/soup-to-nuts-fiskdale?adjust_creative=asslzE1UV0XuKI953B1vtw&utm_campaign=yelp_api_v3&utm_medium=api_v3_business_search&utm_source=asslzE1UV0XuKI953B1vtw", "review_count": 72, "categories": [{"alias": "tradamerican", "title": "American (Traditional)"}, {"alias": "salad", "title": "Salad"}, {"alias": "soup", "title": "Soup"}], "rating": 4.5, "coordinates": {"latitude": 42.11572, "longitude": -72.11337}, "transactions": ["delivery"], "price": "$", "location": {"address1": "559 Main St", "address2": "", "address3": "", "city": "Fiskdale", "zip_code": "01518", "country": "US", "state": "MA", "display_address": ["559 Main St", "Fiskdale, MA 01518"]}, "phone": "+15083479771", "display_phone": "(508) 347-9771", "distance": 3154.014314217432}, {"id": "dGVCip_BkzndR8zohkJSqg", "alias": "bullard-tavern-sturbridge-2", "name": "Bullard Tavern", "image_url": "https://s3-media3.fl.yelpcdn.com/bphoto/_zV578TZSLuk7WSPE6pLtg/o.jpg", "is_closed": false, "url": "https://www.yelp.com/biz/bullard-tavern-sturbridge-2?adjust_creative=asslzE1UV0XuKI953B1vtw&utm_campaign=yelp_api_v3&utm_medium=api_v3_business_search&utm_source=asslzE1UV0XuKI953B1vtw", "review_count": 6, "categories": [{"alias": "tradamerican", "title": "American (Traditional)"}], "rating": 4.0, "coordinates": {"latitude": 42.104532, "longitude": -72.098969}, "transactions": [], "location": {"address1": "1 Old Sturbrdge Vlg Rd", "address2": "", "address3": "Old Sturbridge Village Museam", "city": "Sturbridge", "zip_code": "01566", "country": "US", "state": "MA", "display_address": ["1 Old Sturbrdge Vlg Rd", "Old Sturbridge Village Museam", "Sturbridge, MA 01566"]}, "phone": "+15083470397", "display_phone": "(508) 347-0397", "distance": 1601.373747438917}, {"id": "g9IrY-bv316Znx-bJ6JIHA", "alias": "thai-orchid-southbridge", "name": "Thai Orchid", "image_url": "https://s3-media3.fl.yelpcdn.com/bphoto/Hy3JbFdvtkdcJMkFgBHOGg/o.jpg", "is_closed": false, "url": "https://www.yelp.com/biz/thai-orchid-southbridge?adjust_creative=asslzE1UV0XuKI953B1vtw&utm_campaign=yelp_api_v3&utm_medium=api_v3_business_search&utm_source=asslzE1UV0XuKI953B1vtw", "review_count": 82, "categories": [{"alias": "thai", "title": "Thai"}], "rating": 4.5, "coordinates": {"latitude": 42.0788953453302, "longitude": -72.027493044734}, "transactions": ["delivery"], "price": "$", "location": {"address1": "90 Charlton St", "address2": null, "address3": null, "city": "Southbridge", "zip_code": "01550", "country": "US", "state": "MA", "display_address": ["90 Charlton St", "Southbridge, MA 01550"]}, "phone": "+15087654809", "display_phone": "(508) 765-4809", "distance": 5023.538934695408}, {"id": "fTjZuicdfTMW8ZFve_JEkA", "alias": "marios-restaurant-southbridge", "name": "Mario's Restaurant", "image_url": "https://s3-media1.fl.yelpcdn.com/bphoto/w_AlEsorko1sKvhkG5C5jg/o.jpg", "is_closed": false, "url": "https://www.yelp.com/biz/marios-restaurant-southbridge?adjust_creative=asslzE1UV0XuKI953B1vtw&utm_campaign=yelp_api_v3&utm_medium=api_v3_business_search&utm_source=asslzE1UV0XuKI953B1vtw", "review_count": 17, "categories": [{"alias": "italian", "title": "Italian"}, {"alias": "steak", "title": "Steakhouses"}, {"alias": "seafood", "title": "Seafood"}], "rating": 4.0, "coordinates": {"latitude": 42.0760172, "longitude": -72.0329052}, "transactions": ["delivery"], "price": "$$", "location": {"address1": "52 Central St", "address2": "", "address3": "", "city": "Southbridge", "zip_code": "01550", "country": "US", "state": "MA", "display_address": ["52 Central St", "Southbridge, MA 01550"]}, "phone": "+15087648009", "display_phone": "(508) 764-8009", "distance": 4818.511601861132}, {"id": "4eJhLya5NEK4wpAOWBwJHQ", "alias": "the-thai-place-sturbridge", "name": "The Thai Place", "image_url": "https://s3-media3.fl.yelpcdn.com/bphoto/N0-t-YfHH3GMAw1SwA2-qQ/o.jpg", "is_closed": false, "url": "https://www.yelp.com/biz/the-thai-place-sturbridge?adjust_creative=asslzE1UV0XuKI953B1vtw&utm_campaign=yelp_api_v3&utm_medium=api_v3_business_search&utm_source=asslzE1UV0XuKI953B1vtw", "review_count": 107, "categories": [{"alias": "thai", "title": "Thai"}], "rating": 3.5, "coordinates": {"latitude": 42.11048, "longitude": -72.09087}, "transactions": ["delivery"], "price": "$$", "location": {"address1": "371 Main St", "address2": "", "address3": "", "city": "Sturbridge", "zip_code": "01566", "country": "US", "state": "MA", "display_address": ["371 Main St", "Sturbridge, MA 01566"]}, "phone": "+15083472999", "display_phone": "(508) 347-2999", "distance": 1471.52117006532}, {"id": "3D10PFQnnqC94qkXe5TNqA", "alias": "enricos-brick-oven-pizzeria-sturbridge", "name": "Enricos Brick Oven Pizzeria", "image_url": "https://s3-media1.fl.yelpcdn.com/bphoto/40yl_J9bJfA4E7Z-z9g4VQ/o.jpg", "is_closed": false, "url": "https://www.yelp.com/biz/enricos-brick-oven-pizzeria-sturbridge?adjust_creative=asslzE1UV0XuKI953B1vtw&utm_campaign=yelp_api_v3&utm_medium=api_v3_business_search&utm_source=asslzE1UV0XuKI953B1vtw", "review_count": 131, "categories": [{"alias": "pizza", "title": "Pizza"}], "rating": 3.5, "coordinates": {"latitude": 42.11526, "longitude": -72.1077}, "transactions": ["delivery"], "price": "$$", "location": {"address1": "500 Main St", "address2": "", "address3": "", "city": "Sturbridge", "zip_code": "01518", "country": "US", "state": "MA", "display_address": ["500 Main St", "Sturbridge, MA 01518"]}, "phone": "+15083471740", "display_phone": "(508) 347-1740", "distance": 2761.098461077672}, {"id": "ZfVtwS5deJcw1Qcr2q3GwA", "alias": "fins-and-tales-southbridge", "name": "Fins & Tales", "image_url": "https://s3-media3.fl.yelpcdn.com/bphoto/21niY_8sWaV5lTWr4GAsuw/o.jpg", "is_closed": false, "url": "https://www.yelp.com/biz/fins-and-tales-southbridge?adjust_creative=asslzE1UV0XuKI953B1vtw&utm_campaign=yelp_api_v3&utm_medium=api_v3_business_search&utm_source=asslzE1UV0XuKI953B1vtw", "review_count": 78, "categories": [{"alias": "seafood", "title": "Seafood"}, {"alias": "bars", "title": "Bars"}, {"alias": "steak", "title": "Steakhouses"}], "rating": 3.5, "coordinates": {"latitude": 42.0812139, "longitude": -72.0454595}, "transactions": ["delivery"], "price": "$$", "location": {"address1": "858 Main St", "address2": "", "address3": "", "city": "Southbridge", "zip_code": "01550", "country": "US", "state": "MA", "display_address": ["858 Main St", "Southbridge, MA 01550"]}, "phone": "+15087643349", "display_phone": "(508) 764-3349", "distance": 3584.409902618518}, {"id": "fVDP7GSAhHEkMOf0J3Jw6A", "alias": "giovanellos-italian-market-sturbridge", "name": "Giovanello's Italian Market", "image_url": "https://s3-media1.fl.yelpcdn.com/bphoto/MooOeoC7O4GOJ-Rv7jZVWw/o.jpg", "is_closed": false, "url": "https://www.yelp.com/biz/giovanellos-italian-market-sturbridge?adjust_creative=asslzE1UV0XuKI953B1vtw&utm_campaign=yelp_api_v3&utm_medium=api_v3_business_search&utm_source=asslzE1UV0XuKI953B1vtw", "review_count": 12, "categories": [{"alias": "italian", "title": "Italian"}, {"alias": "catering", "title": "Caterers"}], "rating": 4.5, "coordinates": {"latitude": 42.09389, "longitude": -72.06961}, "transactions": ["delivery"], "price": "$$", "location": {"address1": "139 Main St", "address2": "", "address3": "", "city": "Sturbridge", "zip_code": "01566", "country": "US", "state": "MA", "display_address": ["139 Main St", "Sturbridge, MA 01566"]}, "phone": "+15083471440", "display_phone": "(508) 347-1440", "distance": 1212.9760326007874}, {"id": "3Z9VY5355u-Pk8mqPSeNgQ", "alias": "kaizen-sushi-bar-and-grill-fiskdale", "name": "Kaizen Sushi Bar & Grill", "image_url": "https://s3-media2.fl.yelpcdn.com/bphoto/2louFb67l58quUoQ92F6Cg/o.jpg", "is_closed": false, "url": "https://www.yelp.com/biz/kaizen-sushi-bar-and-grill-fiskdale?adjust_creative=asslzE1UV0XuKI953B1vtw&utm_campaign=yelp_api_v3&utm_medium=api_v3_business_search&utm_source=asslzE1UV0XuKI953B1vtw", "review_count": 209, "categories": [{"alias": "sushi", "title": "Sushi Bars"}, {"alias": "japanese", "title": "Japanese"}, {"alias": "seafood", "title": "Seafood"}], "rating": 4.5, "coordinates": {"latitude": 42.1140959214547, "longitude": -72.1061149612069}, "transactions": ["delivery"], "price": "$$", "location": {"address1": "479 Main St", "address2": "", "address3": "", "city": "Fiskdale", "zip_code": "01518", "country": "US", "state": "MA", "display_address": ["479 Main St", "Fiskdale, MA 01518"]}, "phone": "+15083471088", "display_phone": "(508) 347-1088", "distance": 2560.156811697022}, {"id": "FNOazjjpZFEJdkPa6oXapw", "alias": "oxhead-tavern-sturbridge", "name": "Oxhead Tavern", "image_url": "https://s3-media4.fl.yelpcdn.com/bphoto/QSkzLrh2096f62De7KIedg/o.jpg", "is_closed": false, "url": "https://www.yelp.com/biz/oxhead-tavern-sturbridge?adjust_creative=asslzE1UV0XuKI953B1vtw&utm_campaign=yelp_api_v3&utm_medium=api_v3_business_search&utm_source=asslzE1UV0XuKI953B1vtw", "review_count": 124, "categories": [{"alias": "burgers", "title": "Burgers"}, {"alias": "salad", "title": "Salad"}, {"alias": "soup", "title": "Soup"}], "rating": 2.5, "coordinates": {"latitude": 42.11358, "longitude": -72.089915}, "transactions": ["delivery"], "price": "$$", "location": {"address1": "366 Main St", "address2": "", "address3": "", "city": "Sturbridge", "zip_code": "01566", "country": "US", "state": "MA", "display_address": ["366 Main St", "Sturbridge, MA 01566"]}, "phone": "+15083477393", "display_phone": "(508) 347-7393", "distance": 1415.777983930713}, {"id": "OYcyLRQP551-8KpTHxeq0w", "alias": "napoli-pizzeria-iii-sturbridge", "name": "Napoli Pizzeria III", "image_url": "https://s3-media3.fl.yelpcdn.com/bphoto/4NXKX7pxpxYaKq3hmn5CKQ/o.jpg", "is_closed": false, "url": "https://www.yelp.com/biz/napoli-pizzeria-iii-sturbridge?adjust_creative=asslzE1UV0XuKI953B1vtw&utm_campaign=yelp_api_v3&utm_medium=api_v3_business_search&utm_source=asslzE1UV0XuKI953B1vtw", "review_count": 65, "categories": [{"alias": "pizza", "title": "Pizza"}], "rating": 4.5, "coordinates": {"latitude": 42.0871878421181, "longitude": -72.0623428423839}, "transactions": ["delivery"], "price": "$", "location": {"address1": "57 Main St", "address2": "", "address3": "", "city": "Sturbridge", "zip_code": "01566", "country": "US", "state": "MA", "display_address": ["57 Main St", "Sturbridge, MA 01566"]}, "phone": "+15083478225", "display_phone": "(508) 347-8225", "distance": 2173.479973347388}, {"id": "7Tw9y8vw6X94LfKhTZK28Q", "alias": "red-baron-diner-southbridge", "name": "Red Baron Diner", "image_url": "https://s3-media3.fl.yelpcdn.com/bphoto/4IB87F-gVrUe4ppqAjfoag/o.jpg", "is_closed": false, "url": "https://www.yelp.com/biz/red-baron-diner-southbridge?adjust_creative=asslzE1UV0XuKI953B1vtw&utm_campaign=yelp_api_v3&utm_medium=api_v3_business_search&utm_source=asslzE1UV0XuKI953B1vtw", "review_count": 17, "categories": [{"alias": "breakfast_brunch", "title": "Breakfast & Brunch"}, {"alias": "diners", "title": "Diners"}, {"alias": "sandwiches", "title": "Sandwiches"}], "rating": 5.0, "coordinates": {"latitude": 42.1014830050289, "longitude": -72.0381578430533}, "transactions": [], "location": {"address1": "220 Airport Access Rd", "address2": "", "address3": null, "city": "Southbridge", "zip_code": "01550", "country": "US", "state": "MA", "display_address": ["220 Airport Access Rd", "Southbridge, MA 01550"]}, "phone": "+15087655800", "display_phone": "(508) 765-5800", "distance": 3446.0291759948177}, {"id": "UVo_ZqEbVZ3etybVhYOmLw", "alias": "wales-irish-pub-holland", "name": "Wales Irish Pub", "image_url": "https://s3-media2.fl.yelpcdn.com/bphoto/GpZVo9pR6Itx3P8e5697Zg/o.jpg", "is_closed": false, "url": "https://www.yelp.com/biz/wales-irish-pub-holland?adjust_creative=asslzE1UV0XuKI953B1vtw&utm_campaign=yelp_api_v3&utm_medium=api_v3_business_search&utm_source=asslzE1UV0XuKI953B1vtw", "review_count": 15, "categories": [{"alias": "irish_pubs", "title": "Irish Pub"}, {"alias": "tradamerican", "title": "American (Traditional)"}, {"alias": "diners", "title": "Diners"}], "rating": 4.5, "coordinates": {"latitude": 42.0777236263114, "longitude": -72.2023394443603}, "transactions": [], "price": "$$", "location": {"address1": "16 Holland Rd", "address2": "", "address3": "", "city": "Holland", "zip_code": "01521", "country": "US", "state": "MA", "display_address": ["16 Holland Rd", "Holland, MA 01521"]}, "phone": "+14132459730", "display_phone": "(413) 245-9730", "distance": 10448.37134661763}, {"id": "sZ0p22_iFpei323pgUw8tQ", "alias": "old-village-grille-fiskdale", "name": "Old Village Grille", "image_url": "https://s3-media3.fl.yelpcdn.com/bphoto/RssS41UL5bJws7tgFmEnAA/o.jpg", "is_closed": false, "url": "https://www.yelp.com/biz/old-village-grille-fiskdale?adjust_creative=asslzE1UV0XuKI953B1vtw&utm_campaign=yelp_api_v3&utm_medium=api_v3_business_search&utm_source=asslzE1UV0XuKI953B1vtw", "review_count": 86, "categories": [{"alias": "breakfast_brunch", "title": "Breakfast & Brunch"}], "rating": 4.5, "coordinates": {"latitude": 42.1167144775391, "longitude": -72.1180419921875}, "transactions": [], "price": "$$", "location": {"address1": "25 Brookfield Rd", "address2": "", "address3": "", "city": "Fiskdale", "zip_code": "01518", "country": "US", "state": "MA", "display_address": ["25 Brookfield Rd", "Fiskdale, MA 01518"]}, "phone": "+15083472255", "display_phone": "(508) 347-2255", "distance": 3549.481336505677}, {"id": "R-J4SqIZeJD_iHXvTUnqbA", "alias": "traveler-restaurant-union", "name": "Traveler Restaurant", "image_url": "https://s3-media4.fl.yelpcdn.com/bphoto/_84x86CPulAnC3OjOMZ4FQ/o.jpg", "is_closed": false, "url": "https://www.yelp.com/biz/traveler-restaurant-union?adjust_creative=asslzE1UV0XuKI953B1vtw&utm_campaign=yelp_api_v3&utm_medium=api_v3_business_search&utm_source=asslzE1UV0XuKI953B1vtw", "review_count": 183, "categories": [{"alias": "tradamerican", "title": "American (Traditional)"}], "rating": 4.0, "coordinates": {"latitude": 42.0253299, "longitude": -72.13991}, "transactions": [], "price": "$$", "location": {"address1": "1257 Buckley Hwy", "address2": "", "address3": "", "city": "Union", "zip_code": "06076", "country": "US", "state": "CT", "display_address": ["1257 Buckley Hwy", "Union, CT 06076"]}, "phone": "+18606844920", "display_phone": "(860) 684-4920", "distance": 9834.993333166414}, {"id": "Sot1yKepx0fuZ8hS8FT9aw", "alias": "burrito-hut-southbridge", "name": "Burrito Hut", "image_url": "https://s3-media1.fl.yelpcdn.com/bphoto/Zg0Nkz_FAVSCq0_LIVVISA/o.jpg", "is_closed": false, "url": "https://www.yelp.com/biz/burrito-hut-southbridge?adjust_creative=asslzE1UV0XuKI953B1vtw&utm_campaign=yelp_api_v3&utm_medium=api_v3_business_search&utm_source=asslzE1UV0XuKI953B1vtw", "review_count": 51, "categories": [{"alias": "tex-mex", "title": "Tex-Mex"}, {"alias": "mexican", "title": "Mexican"}, {"alias": "desserts", "title": "Desserts"}], "rating": 4.5, "coordinates": {"latitude": 42.0819542527904, "longitude": -72.0476240292192}, "transactions": ["delivery"], "price": "$", "location": {"address1": "936 Main St", "address2": "", "address3": "", "city": "Southbridge", "zip_code": "01550", "country": "US", "state": "MA", "display_address": ["936 Main St", "Southbridge, MA 01550"]}, "phone": "", "display_phone": "", "distance": 3456.251581120888}, {"id": "TqWRsIhBFxhdQLTm-lofFQ", "alias": "bake-shoppe-sturbridge", "name": "Bake Shoppe", "image_url": "https://s3-media2.fl.yelpcdn.com/bphoto/8M7ysUM076SeJcJXUAiY9A/o.jpg", "is_closed": false, "url": "https://www.yelp.com/biz/bake-shoppe-sturbridge?adjust_creative=asslzE1UV0XuKI953B1vtw&utm_campaign=yelp_api_v3&utm_medium=api_v3_business_search&utm_source=asslzE1UV0XuKI953B1vtw", "review_count": 4, "categories": [{"alias": "hotels", "title": "Hotels"}, {"alias": "restaurants", "title": "Restaurants"}], "rating": 4.5, "coordinates": {"latitude": 42.1041, "longitude": -72.08089}, "transactions": [], "location": {"address1": "277 Main St", "address2": "", "address3": "", "city": "Sturbridge", "zip_code": "01566", "country": "US", "state": "MA", "display_address": ["277 Main St", "Sturbridge, MA 01566"]}, "phone": "+15083473313", "display_phone": "(508) 347-3313", "distance": 555.1223198912863}, {"id": "NkHjumQE57NYn1nqmrBoag", "alias": "kahula-restaurant-sturbridge", "name": "Kahula Restaurant", "image_url": "https://s3-media3.fl.yelpcdn.com/bphoto/pKkq9zqfTA9WbrBLpCRNYA/o.jpg", "is_closed": false, "url": "https://www.yelp.com/biz/kahula-restaurant-sturbridge?adjust_creative=asslzE1UV0XuKI953B1vtw&utm_campaign=yelp_api_v3&utm_medium=api_v3_business_search&utm_source=asslzE1UV0XuKI953B1vtw", "review_count": 60, "categories": [{"alias": "chinese", "title": "Chinese"}], "rating": 3.0, "coordinates": {"latitude": 42.09101, "longitude": -72.06768}, "transactions": ["delivery"], "price": "$$", "location": {"address1": "119 Main St", "address2": "", "address3": "", "city": "Sturbridge", "zip_code": "01566", "country": "US", "state": "MA", "display_address": ["119 Main St", "Sturbridge, MA 01566"]}, "phone": "+15083477121", "display_phone": "(508) 347-7121", "distance": 1560.053590843741}, {"id": "myeXXntCGzO1I77zfpa-kg", "alias": "annies-country-kitchen-sturbridge", "name": "Annie's Country Kitchen", "image_url": "https://s3-media3.fl.yelpcdn.com/bphoto/ZldhmjEmpN5B8Yf7RYx2zQ/o.jpg", "is_closed": false, "url": "https://www.yelp.com/biz/annies-country-kitchen-sturbridge?adjust_creative=asslzE1UV0XuKI953B1vtw&utm_campaign=yelp_api_v3&utm_medium=api_v3_business_search&utm_source=asslzE1UV0XuKI953B1vtw", "review_count": 135, "categories": [{"alias": "diners", "title": "Diners"}, {"alias": "breakfast_brunch", "title": "Breakfast & Brunch"}, {"alias": "tradamerican", "title": "American (Traditional)"}], "rating": 4.0, "coordinates": {"latitude": 42.09361, "longitude": -72.06773}, "transactions": ["delivery", "pickup"], "price": "$", "location": {"address1": "140 Main St", "address2": "", "address3": "", "city": "Sturbridge", "zip_code": "01566", "country": "US", "state": "MA", "display_address": ["140 Main St", "Sturbridge, MA 01566"]}, "phone": "+15083472320", "display_phone": "(508) 347-2320", "distance": 1336.6375892203503}, {"id": "ekTKSMIx3hd5XXNmFeT-Bg", "alias": "salem-cross-inn-west-brookfield", "name": "Salem Cross Inn", "image_url": "https://s3-media4.fl.yelpcdn.com/bphoto/2OJ_dw5_3VL5zyJvN1czrA/o.jpg", "is_closed": false, "url": "https://www.yelp.com/biz/salem-cross-inn-west-brookfield?adjust_creative=asslzE1UV0XuKI953B1vtw&utm_campaign=yelp_api_v3&utm_medium=api_v3_business_search&utm_source=asslzE1UV0XuKI953B1vtw", "review_count": 113, "categories": [{"alias": "venues", "title": "Venues & Event Spaces"}, {"alias": "tradamerican", "title": "American (Traditional)"}], "rating": 4.0, "coordinates": {"latitude": 42.2460335987962, "longitude": -72.1747081086731}, "transactions": [], "price": "$$$", "location": {"address1": "260 W Main St Rt 9", "address2": "", "address3": "", "city": "West Brookfield", "zip_code": "01585", "country": "US", "state": "MA", "display_address": ["260 W Main St Rt 9", "West Brookfield, MA 01585"]}, "phone": "+15088672345", "display_phone": "(508) 867-2345", "distance": 17844.646345937257}, {"id": "P4qT5mxnKXKpdE4G3WIUYA", "alias": "dianes-villa-nova-holland", "name": "Dianes Villa Nova", "image_url": "https://s3-media3.fl.yelpcdn.com/bphoto/Xs8GdYVdbJAcdCsR6WLUfg/o.jpg", "is_closed": false, "url": "https://www.yelp.com/biz/dianes-villa-nova-holland?adjust_creative=asslzE1UV0XuKI953B1vtw&utm_campaign=yelp_api_v3&utm_medium=api_v3_business_search&utm_source=asslzE1UV0XuKI953B1vtw", "review_count": 24, "categories": [{"alias": "italian", "title": "Italian"}], "rating": 4.0, "coordinates": {"latitude": 42.0660911, "longitude": -72.1638886}, "transactions": [], "price": "$$", "location": {"address1": "5 Brimfield Rd", "address2": "", "address3": "", "city": "Holland", "zip_code": "01521", "country": "US", "state": "MA", "display_address": ["5 Brimfield Rd", "Holland, MA 01521"]}, "phone": "+14132459090", "display_phone": "(413) 245-9090", "distance": 7982.915135004561}, {"id": "Mhc3mcpYnT4B8iEHSZf2Sg", "alias": "cedar-street-caf\u00e9-sturbridge", "name": "Cedar Street Caf\u00e9", "image_url": "https://s3-media4.fl.yelpcdn.com/bphoto/fjqJqN2nuG2qTMPbFXYYVg/o.jpg", "is_closed": false, "url": "https://www.yelp.com/biz/cedar-street-caf%C3%A9-sturbridge?adjust_creative=asslzE1UV0XuKI953B1vtw&utm_campaign=yelp_api_v3&utm_medium=api_v3_business_search&utm_source=asslzE1UV0XuKI953B1vtw", "review_count": 54, "categories": [{"alias": "cafes", "title": "Cafes"}, {"alias": "coffee", "title": "Coffee & Tea"}, {"alias": "sandwiches", "title": "Sandwiches"}], "rating": 4.5, "coordinates": {"latitude": 42.112913536056, "longitude": -72.0982651412487}, "transactions": ["delivery"], "price": "$", "location": {"address1": "420 Main St", "address2": "", "address3": null, "city": "Sturbridge", "zip_code": "01566", "country": "US", "state": "MA", "display_address": ["420 Main St", "Sturbridge, MA 01566"]}, "phone": "+15083476800", "display_phone": "(508) 347-6800", "distance": 1957.5037224218459}, {"id": "1t09LSm3g0nBY_VDZ5b-PA", "alias": "jimmy-ds-sturbridge", "name": "Jimmy D's", "image_url": "https://s3-media2.fl.yelpcdn.com/bphoto/wOqRzh8mTMEH7rTV5Q-bfA/o.jpg", "is_closed": false, "url": "https://www.yelp.com/biz/jimmy-ds-sturbridge?adjust_creative=asslzE1UV0XuKI953B1vtw&utm_campaign=yelp_api_v3&utm_medium=api_v3_business_search&utm_source=asslzE1UV0XuKI953B1vtw", "review_count": 40, "categories": [{"alias": "icecream", "title": "Ice Cream & Frozen Yogurt"}, {"alias": "sandwiches", "title": "Sandwiches"}], "rating": 4.0, "coordinates": {"latitude": 42.111444, "longitude": -72.097315}, "transactions": ["delivery"], "price": "$", "location": {"address1": "413 Main St", "address2": "", "address3": "", "city": "Sturbridge", "zip_code": "01518", "country": "US", "state": "MA", "display_address": ["413 Main St", "Sturbridge, MA 01518"]}, "phone": "+17743041023", "display_phone": "(774) 304-1023", "distance": 1891.5706399101462}, {"id": "BR-rauP8Dl8iRI1xEOJLlw", "alias": "thai-house-restaurant-east-brookfield", "name": "Thai House Restaurant", "image_url": "https://s3-media3.fl.yelpcdn.com/bphoto/Xk332iy5p35LkQyZbVl6-Q/o.jpg", "is_closed": false, "url": "https://www.yelp.com/biz/thai-house-restaurant-east-brookfield?adjust_creative=asslzE1UV0XuKI953B1vtw&utm_campaign=yelp_api_v3&utm_medium=api_v3_business_search&utm_source=asslzE1UV0XuKI953B1vtw", "review_count": 38, "categories": [{"alias": "thai", "title": "Thai"}], "rating": 4.0, "coordinates": {"latitude": 42.2274131, "longitude": -72.0419256}, "transactions": [], "price": "$$", "location": {"address1": "355 E Main St", "address2": "", "address3": "", "city": "East Brookfield", "zip_code": "01515", "country": "US", "state": "MA", "display_address": ["355 E Main St", "East Brookfield, MA 01515"]}, "phone": "+15088674900", "display_phone": "(508) 867-4900", "distance": 14321.333645254677}, {"id": "7aaixOV3b5CQ-dvYUrwCEg", "alias": "panera-bread-sturbridge", "name": "Panera Bread", "image_url": "https://s3-media4.fl.yelpcdn.com/bphoto/-RnNISRlTYzpxjZueqvFmA/o.jpg", "is_closed": false, "url": "https://www.yelp.com/biz/panera-bread-sturbridge?adjust_creative=asslzE1UV0XuKI953B1vtw&utm_campaign=yelp_api_v3&utm_medium=api_v3_business_search&utm_source=asslzE1UV0XuKI953B1vtw", "review_count": 9, "categories": [{"alias": "salad", "title": "Salad"}, {"alias": "soup", "title": "Soup"}, {"alias": "sandwiches", "title": "Sandwiches"}], "rating": 4.0, "coordinates": {"latitude": 42.11355, "longitude": -72.0853}, "transactions": ["delivery"], "price": "$$", "location": {"address1": "21 New Boston Rd", "address2": null, "address3": null, "city": "Sturbridge", "zip_code": "01566", "country": "US", "state": "MA", "display_address": ["21 New Boston Rd", "Sturbridge, MA 01566"]}, "phone": "+17749221860", "display_phone": "(774) 922-1860", "distance": 1387.174563740455}, {"id": "zO_mZR9-JBJq6e8SaOsGLw", "alias": "village-hotdog-sturbridge", "name": "Village Hotdog", "image_url": "https://s3-media4.fl.yelpcdn.com/bphoto/VHJM9QbGDLZctqiuTY2z0A/o.jpg", "is_closed": false, "url": "https://www.yelp.com/biz/village-hotdog-sturbridge?adjust_creative=asslzE1UV0XuKI953B1vtw&utm_campaign=yelp_api_v3&utm_medium=api_v3_business_search&utm_source=asslzE1UV0XuKI953B1vtw", "review_count": 17, "categories": [{"alias": "hotdog", "title": "Hot Dogs"}], "rating": 4.0, "coordinates": {"latitude": 42.1126999, "longitude": -72.09148}, "transactions": ["delivery"], "price": "$", "location": {"address1": "376 Main St", "address2": "", "address3": "", "city": "Sturbridge", "zip_code": "01566", "country": "US", "state": "MA", "display_address": ["376 Main St", "Sturbridge, MA 01566"]}, "phone": "+17742399998", "display_phone": "(774) 239-9998", "distance": 1546.6832369220926}, {"id": "ASqs5IuqWyJLaWwaup9O9A", "alias": "ronnies-seafood-charlton", "name": "Ronnie's Seafood", "image_url": "https://s3-media3.fl.yelpcdn.com/bphoto/ygwuQVkT925ZrZe9DXdPcg/o.jpg", "is_closed": false, "url": "https://www.yelp.com/biz/ronnies-seafood-charlton?adjust_creative=asslzE1UV0XuKI953B1vtw&utm_campaign=yelp_api_v3&utm_medium=api_v3_business_search&utm_source=asslzE1UV0XuKI953B1vtw", "review_count": 40, "categories": [{"alias": "seafood", "title": "Seafood"}], "rating": 4.0, "coordinates": {"latitude": 42.171999, "longitude": -71.977685}, "transactions": ["delivery"], "price": "$$", "location": {"address1": "208 City Depot Rd", "address2": "", "address3": "", "city": "Charlton", "zip_code": "01507", "country": "US", "state": "MA", "display_address": ["208 City Depot Rd", "Charlton, MA 01507"]}, "phone": "+15082485024", "display_phone": "(508) 248-5024", "distance": 11493.47449525788}, {"id": "aJleDSvGLb0dLrH8GPbVPg", "alias": "westview-farm-creamery-monson", "name": "Westview Farm Creamery", "image_url": "https://s3-media3.fl.yelpcdn.com/bphoto/g1oJzsOrHki5eDoyXoNsXA/o.jpg", "is_closed": false, "url": "https://www.yelp.com/biz/westview-farm-creamery-monson?adjust_creative=asslzE1UV0XuKI953B1vtw&utm_campaign=yelp_api_v3&utm_medium=api_v3_business_search&utm_source=asslzE1UV0XuKI953B1vtw", "review_count": 44, "categories": [{"alias": "icecream", "title": "Ice Cream & Frozen Yogurt"}, {"alias": "tradamerican", "title": "American (Traditional)"}], "rating": 4.0, "coordinates": {"latitude": 42.09952, "longitude": -72.2844}, "transactions": [], "price": "$", "location": {"address1": "111 E Hill Rd", "address2": "", "address3": "", "city": "Monson", "zip_code": "01057", "country": "US", "state": "MA", "display_address": ["111 E Hill Rd", "Monson, MA 01057"]}, "phone": "+14132675355", "display_phone": "(413) 267-5355", "distance": 16872.755693805233}, {"id": "EOaQtECguXla5hB1BJLU-w", "alias": "dynasty-chinese-restaurant-southbridge", "name": "Dynasty Chinese Restaurant", "image_url": "https://s3-media3.fl.yelpcdn.com/bphoto/fmvCaA6FKuwL3jjNk6VKrA/o.jpg", "is_closed": false, "url": "https://www.yelp.com/biz/dynasty-chinese-restaurant-southbridge?adjust_creative=asslzE1UV0XuKI953B1vtw&utm_campaign=yelp_api_v3&utm_medium=api_v3_business_search&utm_source=asslzE1UV0XuKI953B1vtw", "review_count": 33, "categories": [{"alias": "chinese", "title": "Chinese"}], "rating": 3.5, "coordinates": {"latitude": 42.07605, "longitude": -72.03468}, "transactions": ["delivery"], "price": "$", "location": {"address1": "344 Main St", "address2": "", "address3": "", "city": "Southbridge", "zip_code": "01550", "country": "US", "state": "MA", "display_address": ["344 Main St", "Southbridge, MA 01550"]}, "phone": "+15087650398", "display_phone": "(508) 765-0398", "distance": 4697.624658811063}, {"id": "nyhbSselfpJd_ajuEVYNAw", "alias": "uno-pizzeria-and-grill-sturbridge", "name": "Uno Pizzeria & Grill", "image_url": "https://s3-media4.fl.yelpcdn.com/bphoto/kjxDZ4P5Gk_DHqC8H3RBXw/o.jpg", "is_closed": false, "url": "https://www.yelp.com/biz/uno-pizzeria-and-grill-sturbridge?adjust_creative=asslzE1UV0XuKI953B1vtw&utm_campaign=yelp_api_v3&utm_medium=api_v3_business_search&utm_source=asslzE1UV0XuKI953B1vtw", "review_count": 64, "categories": [{"alias": "pizza", "title": "Pizza"}, {"alias": "gluten_free", "title": "Gluten-Free"}, {"alias": "tradamerican", "title": "American (Traditional)"}], "rating": 3.0, "coordinates": {"latitude": 42.124927, "longitude": -72.058578}, "transactions": ["delivery", "pickup"], "price": "$$", "location": {"address1": "100 Charlton Rd", "address2": "", "address3": "", "city": "Sturbridge", "zip_code": "01566", "country": "US", "state": "MA", "display_address": ["100 Charlton Rd", "Sturbridge, MA 01566"]}, "phone": "+15083476420", "display_phone": "(508) 347-6420", "distance": 3121.965853542059}, {"id": "6AhxPdBYNVZsPJo73k2TPg", "alias": "oliver-wight-tavern-sturbridge", "name": "Oliver Wight Tavern", "image_url": "https://s3-media2.fl.yelpcdn.com/bphoto/oN_xaxUA4L8MWiJZkNzftQ/o.jpg", "is_closed": false, "url": "https://www.yelp.com/biz/oliver-wight-tavern-sturbridge?adjust_creative=asslzE1UV0XuKI953B1vtw&utm_campaign=yelp_api_v3&utm_medium=api_v3_business_search&utm_source=asslzE1UV0XuKI953B1vtw", "review_count": 41, "categories": [{"alias": "tradamerican", "title": "American (Traditional)"}], "rating": 2.5, "coordinates": {"latitude": 42.108951, "longitude": -72.098735}, "transactions": [], "price": "$$", "location": {"address1": "1 Old Sturbridge Village Rd", "address2": "", "address3": "Old Sturbridge Village", "city": "Sturbridge", "zip_code": "01566", "country": "US", "state": "MA", "display_address": ["1 Old Sturbridge Village Rd", "Old Sturbridge Village", "Sturbridge, MA 01566"]}, "phone": "+15083470397", "display_phone": "(508) 347-0397", "distance": 1746.5076418555186}, {"id": "wiizkcrFrDbwJBHvAWBUOw", "alias": "rics-place-stafford-springs-2", "name": "Ric's Place", "image_url": "https://s3-media1.fl.yelpcdn.com/bphoto/conD4lf0unpDrqjKdCPKeg/o.jpg", "is_closed": false, "url": "https://www.yelp.com/biz/rics-place-stafford-springs-2?adjust_creative=asslzE1UV0XuKI953B1vtw&utm_campaign=yelp_api_v3&utm_medium=api_v3_business_search&utm_source=asslzE1UV0XuKI953B1vtw", "review_count": 5, "categories": [{"alias": "bars", "title": "Bars"}, {"alias": "tradamerican", "title": "American (Traditional)"}, {"alias": "burgers", "title": "Burgers"}], "rating": 5.0, "coordinates": {"latitude": 41.993641, "longitude": -72.271882}, "transactions": [], "price": "$$", "location": {"address1": "328 East St", "address2": "", "address3": "", "city": "Stafford Springs", "zip_code": "06076", "country": "US", "state": "CT", "display_address": ["328 East St", "Stafford Springs, CT 06076"]}, "phone": "+18608519911", "display_phone": "(860) 851-9911", "distance": 19892.6462996097}, {"id": "2LdyJd-Jumkp0W2adGDa4Q", "alias": "village-pizza-restaurant-fiskdale", "name": "Village Pizza Restaurant", "image_url": "https://s3-media3.fl.yelpcdn.com/bphoto/zMjMstOEM76E5tf2SBnioQ/o.jpg", "is_closed": false, "url": "https://www.yelp.com/biz/village-pizza-restaurant-fiskdale?adjust_creative=asslzE1UV0XuKI953B1vtw&utm_campaign=yelp_api_v3&utm_medium=api_v3_business_search&utm_source=asslzE1UV0XuKI953B1vtw", "review_count": 39, "categories": [{"alias": "pizza", "title": "Pizza"}], "rating": 3.0, "coordinates": {"latitude": 42.11436, "longitude": -72.10714}, "transactions": ["delivery"], "price": "$$", "location": {"address1": "487 Main St", "address2": "", "address3": "", "city": "Fiskdale", "zip_code": "01518", "country": "US", "state": "MA", "display_address": ["487 Main St", "Fiskdale, MA 01518"]}, "phone": "+15083477166", "display_phone": "(508) 347-7166", "distance": 2648.377010242985}, {"id": "kRWGiUKxF_14PzZAgAo89A", "alias": "mexicali-cantina-grill-spencer", "name": "Mexicali Cantina Grill", "image_url": "https://s3-media1.fl.yelpcdn.com/bphoto/x0mEHm-y5XbQaW49354aIQ/o.jpg", "is_closed": false, "url": "https://www.yelp.com/biz/mexicali-cantina-grill-spencer?adjust_creative=asslzE1UV0XuKI953B1vtw&utm_campaign=yelp_api_v3&utm_medium=api_v3_business_search&utm_source=asslzE1UV0XuKI953B1vtw", "review_count": 103, "categories": [{"alias": "mexican", "title": "Mexican"}], "rating": 4.0, "coordinates": {"latitude": 42.244031, "longitude": -71.99444}, "transactions": ["delivery", "pickup"], "price": "$$", "location": {"address1": "117 Main St", "address2": "", "address3": "", "city": "Spencer", "zip_code": "01562", "country": "US", "state": "MA", "display_address": ["117 Main St", "Spencer, MA 01562"]}, "phone": "+17747458200", "display_phone": "(774) 745-8200", "distance": 17319.22704276941}, {"id": "9CB1T3OCrceK3JRmagcoMA", "alias": "308-lakeside-east-brookfield", "name": "308 Lakeside", "image_url": "https://s3-media1.fl.yelpcdn.com/bphoto/u8Fqwre_2Owsm6MLE7bvIA/o.jpg", "is_closed": false, "url": "https://www.yelp.com/biz/308-lakeside-east-brookfield?adjust_creative=asslzE1UV0XuKI953B1vtw&utm_campaign=yelp_api_v3&utm_medium=api_v3_business_search&utm_source=asslzE1UV0XuKI953B1vtw", "review_count": 103, "categories": [{"alias": "newamerican", "title": "American (New)"}, {"alias": "beer_and_wine", "title": "Beer, Wine & Spirits"}], "rating": 3.0, "coordinates": {"latitude": 42.2270431518555, "longitude": -72.0465240478516}, "transactions": ["delivery", "pickup"], "price": "$$", "location": {"address1": "308 E Main St", "address2": "", "address3": "Rt 9", "city": "East Brookfield", "zip_code": "01515", "country": "US", "state": "MA", "display_address": ["308 E Main St", "Rt 9", "East Brookfield, MA 01515"]}, "phone": "+17744498333", "display_phone": "(774) 449-8333", "distance": 14198.374713904745}, {"id": "aGFyqgUCXsusLVNCxZCGBw", "alias": "apple-barn-cafe-brimfield", "name": "Apple Barn Cafe", "image_url": "https://s3-media4.fl.yelpcdn.com/bphoto/3I9H6VSB6Aj4r2Q4WefGhw/o.jpg", "is_closed": false, "url": "https://www.yelp.com/biz/apple-barn-cafe-brimfield?adjust_creative=asslzE1UV0XuKI953B1vtw&utm_campaign=yelp_api_v3&utm_medium=api_v3_business_search&utm_source=asslzE1UV0XuKI953B1vtw", "review_count": 31, "categories": [{"alias": "cafes", "title": "Cafes"}], "rating": 4.5, "coordinates": {"latitude": 42.120546, "longitude": -72.216371}, "transactions": [], "price": "$", "location": {"address1": "52 Palmer Rd", "address2": null, "address3": null, "city": "Brimfield", "zip_code": "01010", "country": "US", "state": "MA", "display_address": ["52 Palmer Rd", "Brimfield, MA 01010"]}, "phone": "+14132454575", "display_phone": "(413) 245-4575", "distance": 11447.850752612445}, {"id": "WxhnbSCk4_X_RNECbOoCDg", "alias": "old-sturbridge-pizza-and-restaurant-sturbridge", "name": "Old Sturbridge Pizza & Restaurant", "image_url": "https://s3-media3.fl.yelpcdn.com/bphoto/TcMHp331e5FuF_vp1ohdNA/o.jpg", "is_closed": false, "url": "https://www.yelp.com/biz/old-sturbridge-pizza-and-restaurant-sturbridge?adjust_creative=asslzE1UV0XuKI953B1vtw&utm_campaign=yelp_api_v3&utm_medium=api_v3_business_search&utm_source=asslzE1UV0XuKI953B1vtw", "review_count": 32, "categories": [{"alias": "pizza", "title": "Pizza"}], "rating": 3.0, "coordinates": {"latitude": 42.1112301914023, "longitude": -72.0940843108447}, "transactions": ["delivery", "pickup"], "price": "$", "location": {"address1": "398 Main St", "address2": "", "address3": "", "city": "Sturbridge", "zip_code": "01566", "country": "US", "state": "MA", "display_address": ["398 Main St", "Sturbridge, MA 01566"]}, "phone": "+15083475111", "display_phone": "(508) 347-5111", "distance": 1573.9275431757446}, {"id": "8rQlNJmWffGVZ0KN7rdA7A", "alias": "fedeles-coffee-shop-and-restaurant-southbridge", "name": "Fedele's Coffee Shop & Restaurant", "image_url": "https://s3-media2.fl.yelpcdn.com/bphoto/kszFyi9EEZF5ncLBBKrCyA/o.jpg", "is_closed": false, "url": "https://www.yelp.com/biz/fedeles-coffee-shop-and-restaurant-southbridge?adjust_creative=asslzE1UV0XuKI953B1vtw&utm_campaign=yelp_api_v3&utm_medium=api_v3_business_search&utm_source=asslzE1UV0XuKI953B1vtw", "review_count": 29, "categories": [{"alias": "diners", "title": "Diners"}], "rating": 4.5, "coordinates": {"latitude": 42.0756589, "longitude": -72.0336335}, "transactions": ["delivery"], "price": "$", "location": {"address1": "13 Central St", "address2": "", "address3": "", "city": "Southbridge", "zip_code": "01550", "country": "US", "state": "MA", "display_address": ["13 Central St", "Southbridge, MA 01550"]}, "phone": "+15087648019", "display_phone": "(508) 764-8019", "distance": 4797.476026885626}, {"id": "6-UBeV-s9neyFr_u6hMh9w", "alias": "churchills-village-eatery-sturbridge", "name": "Churchill's Village Eatery", "image_url": "https://s3-media1.fl.yelpcdn.com/bphoto/KSFReazvN1kTnYG-zubWlQ/o.jpg", "is_closed": false, "url": "https://www.yelp.com/biz/churchills-village-eatery-sturbridge?adjust_creative=asslzE1UV0XuKI953B1vtw&utm_campaign=yelp_api_v3&utm_medium=api_v3_business_search&utm_source=asslzE1UV0XuKI953B1vtw", "review_count": 50, "categories": [{"alias": "tradamerican", "title": "American (Traditional)"}, {"alias": "breakfast_brunch", "title": "Breakfast & Brunch"}, {"alias": "burgers", "title": "Burgers"}], "rating": 4.0, "coordinates": {"latitude": 42.11605, "longitude": -72.10226}, "transactions": ["delivery"], "price": "$", "location": {"address1": "450 Main St", "address2": "", "address3": "", "city": "Sturbridge", "zip_code": "01518", "country": "US", "state": "MA", "display_address": ["450 Main St", "Sturbridge, MA 01518"]}, "phone": "+15083477455", "display_phone": "(508) 347-7455", "distance": 2288.7651774389124}, {"id": "K3bdvsIEAHX53hBMGuko8Q", "alias": "cracker-barrel-old-country-store-sturbridge", "name": "Cracker Barrel Old Country Store", "image_url": "https://s3-media4.fl.yelpcdn.com/bphoto/hK_-AwZKpJMrCCt1vxPY9g/o.jpg", "is_closed": false, "url": "https://www.yelp.com/biz/cracker-barrel-old-country-store-sturbridge?adjust_creative=asslzE1UV0XuKI953B1vtw&utm_campaign=yelp_api_v3&utm_medium=api_v3_business_search&utm_source=asslzE1UV0XuKI953B1vtw", "review_count": 141, "categories": [{"alias": "tradamerican", "title": "American (Traditional)"}, {"alias": "breakfast_brunch", "title": "Breakfast & Brunch"}, {"alias": "southern", "title": "Southern"}], "rating": 3.5, "coordinates": {"latitude": 42.1162022993265, "longitude": -72.0665799951547}, "transactions": [], "price": "$$", "location": {"address1": "215 Charlton Rd", "address2": "", "address3": "", "city": "Sturbridge", "zip_code": "01566", "country": "US", "state": "MA", "display_address": ["215 Charlton Rd", "Sturbridge, MA 01566"]}, "phone": "+15083478925", "display_phone": "(508) 347-8925", "distance": 1948.619714861566}, {"id": "87nWwQ6ApFXYhaKWr3wjrw", "alias": "empire-village-sturbridge", "name": "Empire Village", "image_url": "https://s3-media4.fl.yelpcdn.com/bphoto/RzgZwzlUkvJFiO3Dc94IKQ/o.jpg", "is_closed": false, "url": "https://www.yelp.com/biz/empire-village-sturbridge?adjust_creative=asslzE1UV0XuKI953B1vtw&utm_campaign=yelp_api_v3&utm_medium=api_v3_business_search&utm_source=asslzE1UV0XuKI953B1vtw", "review_count": 53, "categories": [{"alias": "chinese", "title": "Chinese"}, {"alias": "seafood", "title": "Seafood"}, {"alias": "soup", "title": "Soup"}], "rating": 2.5, "coordinates": {"latitude": 42.11386, "longitude": -72.101336}, "transactions": ["delivery"], "price": "$", "location": {"address1": "446 Main St", "address2": "", "address3": "", "city": "Sturbridge", "zip_code": "01566", "country": "US", "state": "MA", "display_address": ["446 Main St", "Sturbridge, MA 01566"]}, "phone": "+15083476588", "display_phone": "(508) 347-6588", "distance": 2221.4868153190937}, {"id": "o-TMMW8o9tLLMzARuAXQ4A", "alias": "applebees-grill-bar-sturbridge", "name": "Applebee's Grill + Bar", "image_url": "https://s3-media1.fl.yelpcdn.com/bphoto/xHoYZjgTPr3rE7takCXSTA/o.jpg", "is_closed": false, "url": "https://www.yelp.com/biz/applebees-grill-bar-sturbridge?adjust_creative=asslzE1UV0XuKI953B1vtw&utm_campaign=yelp_api_v3&utm_medium=api_v3_business_search&utm_source=asslzE1UV0XuKI953B1vtw", "review_count": 29, "categories": [{"alias": "tradamerican", "title": "American (Traditional)"}, {"alias": "sportsbars", "title": "Sports Bars"}, {"alias": "burgers", "title": "Burgers"}], "rating": 2.5, "coordinates": {"latitude": 42.123408, "longitude": -72.058825}, "transactions": [], "price": "$$", "location": {"address1": "120 Charlton Rd", "address2": "", "address3": "", "city": "Sturbridge", "zip_code": "01566", "country": "US", "state": "MA", "display_address": ["120 Charlton Rd", "Sturbridge, MA 01566"]}, "phone": "+15083470174", "display_phone": "(508) 347-0174", "distance": 2972.0479095894807}, {"id": "xHaYttFhZE8GwhkPXP0r8w", "alias": "sturbridge-coffee-house-sturbridge", "name": "Sturbridge Coffee House", "image_url": "https://s3-media2.fl.yelpcdn.com/bphoto/kXJR9Mq9aP3ffd_sqNuIWg/o.jpg", "is_closed": false, "url": "https://www.yelp.com/biz/sturbridge-coffee-house-sturbridge?adjust_creative=asslzE1UV0XuKI953B1vtw&utm_campaign=yelp_api_v3&utm_medium=api_v3_business_search&utm_source=asslzE1UV0XuKI953B1vtw", "review_count": 67, "categories": [{"alias": "tradamerican", "title": "American (Traditional)"}, {"alias": "coffee", "title": "Coffee & Tea"}, {"alias": "breakfast_brunch", "title": "Breakfast & Brunch"}], "rating": 4.0, "coordinates": {"latitude": 42.11097, "longitude": -72.09596}, "transactions": ["delivery"], "price": "$", "location": {"address1": "407B Main St", "address2": null, "address3": "", "city": "Sturbridge", "zip_code": "01566", "country": "US", "state": "MA", "display_address": ["407B Main St", "Sturbridge, MA 01566"]}, "phone": "+15083472288", "display_phone": "(508) 347-2288", "distance": 1727.8573557514658}, {"id": "CFF7RjSKuryLyaC6JipesA", "alias": "great-oak-pizza-southbridge", "name": "Great Oak Pizza", "image_url": "https://s3-media3.fl.yelpcdn.com/bphoto/-n5e-cwycDwi3GpjPS7-fg/o.jpg", "is_closed": false, "url": "https://www.yelp.com/biz/great-oak-pizza-southbridge?adjust_creative=asslzE1UV0XuKI953B1vtw&utm_campaign=yelp_api_v3&utm_medium=api_v3_business_search&utm_source=asslzE1UV0XuKI953B1vtw", "review_count": 12, "categories": [{"alias": "pizza", "title": "Pizza"}, {"alias": "salad", "title": "Salad"}, {"alias": "burgers", "title": "Burgers"}], "rating": 4.0, "coordinates": {"latitude": 42.0819071, "longitude": -72.0478964}, "transactions": ["delivery"], "price": "$$", "location": {"address1": "922 Main St", "address2": "", "address3": "", "city": "Southbridge", "zip_code": "01550", "country": "US", "state": "MA", "display_address": ["922 Main St", "Southbridge, MA 01550"]}, "phone": "+15087652929", "display_phone": "(508) 765-2929", "distance": 3442.307644077667}, {"id": "B4nNgnSMIqxGNyksVG1VZw", "alias": "elm-centre-cafe-southbridge", "name": "Elm Centre Cafe", "image_url": "https://s3-media2.fl.yelpcdn.com/bphoto/6ihpAqOaMjtQ6WH-3_6L0g/o.jpg", "is_closed": false, "url": "https://www.yelp.com/biz/elm-centre-cafe-southbridge?adjust_creative=asslzE1UV0XuKI953B1vtw&utm_campaign=yelp_api_v3&utm_medium=api_v3_business_search&utm_source=asslzE1UV0XuKI953B1vtw", "review_count": 59, "categories": [{"alias": "diners", "title": "Diners"}, {"alias": "breakfast_brunch", "title": "Breakfast & Brunch"}], "rating": 4.5, "coordinates": {"latitude": 42.073748, "longitude": -72.033803}, "transactions": ["delivery"], "price": "$", "location": {"address1": "39 Elm St", "address2": "Ste 1", "address3": "", "city": "Southbridge", "zip_code": "01550", "country": "US", "state": "MA", "display_address": ["39 Elm St", "Ste 1", "Southbridge, MA 01550"]}, "phone": "+15087647288", "display_phone": "(508) 764-7288", "distance": 4888.651085226084}, {"id": "YaUyFH6QUO0Qk4V7pwPrag", "alias": "guaguan\u0107o-restaurant-southbridge", "name": "Guaguan\u0107o Restaurant", "image_url": "https://s3-media4.fl.yelpcdn.com/bphoto/T9XFBy0DCTVUb1cMDqdXCw/o.jpg", "is_closed": false, "url": "https://www.yelp.com/biz/guaguan%C4%87o-restaurant-southbridge?adjust_creative=asslzE1UV0XuKI953B1vtw&utm_campaign=yelp_api_v3&utm_medium=api_v3_business_search&utm_source=asslzE1UV0XuKI953B1vtw", "review_count": 3, "categories": [{"alias": "cuban", "title": "Cuban"}], "rating": 3.5, "coordinates": {"latitude": 42.0803750333197, "longitude": -72.0352535646502}, "transactions": [], "location": {"address1": "12 Crane St", "address2": "", "address3": null, "city": "Southbridge", "zip_code": "01550", "country": "US", "state": "MA", "display_address": ["12 Crane St", "Southbridge, MA 01550"]}, "phone": "+17744028880", "display_phone": "(774) 402-8880", "distance": 4385.520618726792}, {"id": "sPH06k6JL5WtFngmAzp2VA", "alias": "margauxs-deli-and-catering-southbridge", "name": "Margaux's Deli & Catering", "image_url": "https://s3-media3.fl.yelpcdn.com/bphoto/Qab5ZFcDGbKBceMUGj5r2g/o.jpg", "is_closed": false, "url": "https://www.yelp.com/biz/margauxs-deli-and-catering-southbridge?adjust_creative=asslzE1UV0XuKI953B1vtw&utm_campaign=yelp_api_v3&utm_medium=api_v3_business_search&utm_source=asslzE1UV0XuKI953B1vtw", "review_count": 19, "categories": [{"alias": "delis", "title": "Delis"}], "rating": 4.5, "coordinates": {"latitude": 42.0742, "longitude": -72.02733}, "transactions": ["delivery"], "price": "$", "location": {"address1": "33 Crystal St", "address2": "", "address3": "", "city": "Southbridge", "zip_code": "01550", "country": "US", "state": "MA", "display_address": ["33 Crystal St", "Southbridge, MA 01550"]}, "phone": "+15087650954", "display_phone": "(508) 765-0954", "distance": 5311.501753202181}, {"id": "WlSbxf4uAbbcgEot9_9MFg", "alias": "firebrands-bar-and-grill-dudley", "name": "Firebrand's Bar and Grill", "image_url": "https://s3-media4.fl.yelpcdn.com/bphoto/oAwISxkzxACXNXHBBUNl6Q/o.jpg", "is_closed": false, "url": "https://www.yelp.com/biz/firebrands-bar-and-grill-dudley?adjust_creative=asslzE1UV0XuKI953B1vtw&utm_campaign=yelp_api_v3&utm_medium=api_v3_business_search&utm_source=asslzE1UV0XuKI953B1vtw", "review_count": 68, "categories": [{"alias": "bars", "title": "Bars"}, {"alias": "tradamerican", "title": "American (Traditional)"}], "rating": 3.5, "coordinates": {"latitude": 42.042627, "longitude": -71.91253}, "transactions": ["delivery"], "price": "$$", "location": {"address1": "8 Airport Rd", "address2": "", "address3": "", "city": "Dudley", "zip_code": "01571", "country": "US", "state": "MA", "display_address": ["8 Airport Rd", "Dudley, MA 01571"]}, "phone": "+15089498881", "display_phone": "(508) 949-8881", "distance": 15300.777755140609}, {"id": "t48BTpI_RaUbsgw_UVSesQ", "alias": "roms-italian-market-sturbridge", "name": "Rom's Italian Market", "image_url": "", "is_closed": false, "url": "https://www.yelp.com/biz/roms-italian-market-sturbridge?adjust_creative=asslzE1UV0XuKI953B1vtw&utm_campaign=yelp_api_v3&utm_medium=api_v3_business_search&utm_source=asslzE1UV0XuKI953B1vtw", "review_count": 3, "categories": [{"alias": "italian", "title": "Italian"}], "rating": 2.5, "coordinates": {"latitude": 42.0956326234707, "longitude": -72.070764452219}, "transactions": [], "location": {"address1": "139 Main St", "address2": "", "address3": "", "city": "Sturbridge", "zip_code": "01566", "country": "US", "state": "MA", "display_address": ["139 Main St", "Sturbridge, MA 01566"]}, "phone": "+15083471440", "display_phone": "(508) 347-1440", "distance": 1016.3110568567622}, {"id": "yPx4L-3zWVT4bhD9wofJ0Q", "alias": "the-dashboard-diner-spencer", "name": "The Dashboard Diner", "image_url": "https://s3-media2.fl.yelpcdn.com/bphoto/eUHqsO9dzowr6TZxXLuwGg/o.jpg", "is_closed": false, "url": "https://www.yelp.com/biz/the-dashboard-diner-spencer?adjust_creative=asslzE1UV0XuKI953B1vtw&utm_campaign=yelp_api_v3&utm_medium=api_v3_business_search&utm_source=asslzE1UV0XuKI953B1vtw", "review_count": 7, "categories": [{"alias": "hotdog", "title": "Hot Dogs"}, {"alias": "burgers", "title": "Burgers"}, {"alias": "fishnchips", "title": "Fish & Chips"}], "rating": 5.0, "coordinates": {"latitude": 42.2376279610392, "longitude": -72.0048223919266}, "transactions": [], "price": "$", "location": {"address1": "6 W Main St", "address2": null, "address3": "", "city": "Spencer", "zip_code": "01562", "country": "US", "state": "MA", "display_address": ["6 W Main St", "Spencer, MA 01562"]}, "phone": "+15088645472", "display_phone": "(508) 864-5472", "distance": 16328.313300457761}, {"id": "yAZHUhdwTi2ygoFS_J4F0g", "alias": "maine-attraction-holland", "name": "Maine Attraction", "image_url": "https://s3-media2.fl.yelpcdn.com/bphoto/NVkj_B7kO8QmwJxWG4azsA/o.jpg", "is_closed": false, "url": "https://www.yelp.com/biz/maine-attraction-holland?adjust_creative=asslzE1UV0XuKI953B1vtw&utm_campaign=yelp_api_v3&utm_medium=api_v3_business_search&utm_source=asslzE1UV0XuKI953B1vtw", "review_count": 35, "categories": [{"alias": "seafood", "title": "Seafood"}, {"alias": "icecream", "title": "Ice Cream & Frozen Yogurt"}, {"alias": "tradamerican", "title": "American (Traditional)"}], "rating": 3.0, "coordinates": {"latitude": 42.0582043, "longitude": -72.1612952}, "transactions": [], "price": "$$", "location": {"address1": "154 Mashapaug Rd", "address2": "", "address3": "", "city": "Holland", "zip_code": "01521", "country": "US", "state": "MA", "display_address": ["154 Mashapaug Rd", "Holland, MA 01521"]}, "phone": "+14132456043", "display_phone": "(413) 245-6043", "distance": 8278.564013499808}, {"id": "AbtBV17tzg0-IqHnydKqsw", "alias": "francescos-restaurant-brimfield", "name": "Francesco's Restaurant", "image_url": "https://s3-media1.fl.yelpcdn.com/bphoto/1EZ14aKOmBthUK6d94z7Zg/o.jpg", "is_closed": false, "url": "https://www.yelp.com/biz/francescos-restaurant-brimfield?adjust_creative=asslzE1UV0XuKI953B1vtw&utm_campaign=yelp_api_v3&utm_medium=api_v3_business_search&utm_source=asslzE1UV0XuKI953B1vtw", "review_count": 42, "categories": [{"alias": "italian", "title": "Italian"}, {"alias": "pizza", "title": "Pizza"}], "rating": 3.5, "coordinates": {"latitude": 42.1200899, "longitude": -72.2150277}, "transactions": [], "price": "$$", "location": {"address1": "45 Palmer Rd", "address2": "", "address3": "", "city": "Brimfield", "zip_code": "01010", "country": "US", "state": "MA", "display_address": ["45 Palmer Rd", "Brimfield, MA 01010"]}, "phone": "+14132454640", "display_phone": "(413) 245-4640", "distance": 11329.722072215263}, {"id": "hCPrLuebRkRGMJHh1iBY9w", "alias": "johnny-hot-dogs-southbridge", "name": "Johnny Hot Dogs", "image_url": "https://s3-media4.fl.yelpcdn.com/bphoto/VXEXzxY6fwYtfMpZqS64tg/o.jpg", "is_closed": false, "url": "https://www.yelp.com/biz/johnny-hot-dogs-southbridge?adjust_creative=asslzE1UV0XuKI953B1vtw&utm_campaign=yelp_api_v3&utm_medium=api_v3_business_search&utm_source=asslzE1UV0XuKI953B1vtw", "review_count": 2, "categories": [{"alias": "hotdog", "title": "Hot Dogs"}, {"alias": "streetvendors", "title": "Street Vendors"}], "rating": 5.0, "coordinates": {"latitude": 42.0750465393066, "longitude": -72.0327835083008}, "transactions": ["delivery"], "location": {"address1": "256 Main St", "address2": null, "address3": "", "city": "Southbridge", "zip_code": "01550", "country": "US", "state": "MA", "display_address": ["256 Main St", "Southbridge, MA 01550"]}, "phone": "+15082025441", "display_phone": "(508) 202-5441", "distance": 4893.303469080478}, {"id": "77l6FoUUyafxTM1-c3SbJg", "alias": "chef-sau-restaurant-spencer", "name": "Chef Sau Restaurant", "image_url": "https://s3-media4.fl.yelpcdn.com/bphoto/bAZ4EsoOPNyBKn_Ex0UC4Q/o.jpg", "is_closed": false, "url": "https://www.yelp.com/biz/chef-sau-restaurant-spencer?adjust_creative=asslzE1UV0XuKI953B1vtw&utm_campaign=yelp_api_v3&utm_medium=api_v3_business_search&utm_source=asslzE1UV0XuKI953B1vtw", "review_count": 16, "categories": [{"alias": "chinese", "title": "Chinese"}], "rating": 4.0, "coordinates": {"latitude": 42.24369, "longitude": -71.99381}, "transactions": [], "price": "$$", "location": {"address1": "148 Main St", "address2": "", "address3": "", "city": "Spencer", "zip_code": "01562", "country": "US", "state": "MA", "display_address": ["148 Main St", "Spencer, MA 01562"]}, "phone": "+15088853995", "display_phone": "(508) 885-3995", "distance": 17304.395136262247}, {"id": "muaz7D4kw9jGxtkkO297mg", "alias": "five-loaves-bakery-spencer", "name": "Five Loaves Bakery", "image_url": "https://s3-media2.fl.yelpcdn.com/bphoto/ZmhW-JBIdDp6h0bQ9a6iTA/o.jpg", "is_closed": false, "url": "https://www.yelp.com/biz/five-loaves-bakery-spencer?adjust_creative=asslzE1UV0XuKI953B1vtw&utm_campaign=yelp_api_v3&utm_medium=api_v3_business_search&utm_source=asslzE1UV0XuKI953B1vtw", "review_count": 34, "categories": [{"alias": "bakeries", "title": "Bakeries"}, {"alias": "cafes", "title": "Cafes"}, {"alias": "tradamerican", "title": "American (Traditional)"}], "rating": 4.5, "coordinates": {"latitude": 42.2433319091797, "longitude": -71.9930953979492}, "transactions": [], "price": "$$", "location": {"address1": "13 Mechanic St", "address2": null, "address3": null, "city": "Spencer", "zip_code": "01562", "country": "US", "state": "MA", "display_address": ["13 Mechanic St", "Spencer, MA 01562"]}, "phone": "+15088853760", "display_phone": "(508) 885-3760", "distance": 17284.779012676252}, {"id": "aaju-ywg8FrSJ3-DG-rxKQ", "alias": "shades-lounge-southbridge", "name": "Shade's Lounge", "image_url": "https://s3-media2.fl.yelpcdn.com/bphoto/6xBfRQT1bOR66mfsVIgaww/o.jpg", "is_closed": false, "url": "https://www.yelp.com/biz/shades-lounge-southbridge?adjust_creative=asslzE1UV0XuKI953B1vtw&utm_campaign=yelp_api_v3&utm_medium=api_v3_business_search&utm_source=asslzE1UV0XuKI953B1vtw", "review_count": 5, "categories": [{"alias": "tradamerican", "title": "American (Traditional)"}, {"alias": "cocktailbars", "title": "Cocktail Bars"}], "rating": 3.0, "coordinates": {"latitude": 42.07509, "longitude": -72.02553}, "transactions": ["delivery"], "location": {"address1": "14 Mechanic Street", "address2": null, "address3": null, "city": "Southbridge", "zip_code": "01550", "country": "US", "state": "MA", "display_address": ["14 Mechanic Street", "Southbridge, MA 01550"]}, "phone": "+15087654003", "display_phone": "(508) 765-4003", "distance": 5350.233835030219}, {"id": "vO_yNJ3WuJv2Me0L9rxh_A", "alias": "empire-buffet-southbridge", "name": "Empire Buffet", "image_url": "https://s3-media2.fl.yelpcdn.com/bphoto/n7aIk0QtgxkRHm0VJ2jClA/o.jpg", "is_closed": false, "url": "https://www.yelp.com/biz/empire-buffet-southbridge?adjust_creative=asslzE1UV0XuKI953B1vtw&utm_campaign=yelp_api_v3&utm_medium=api_v3_business_search&utm_source=asslzE1UV0XuKI953B1vtw", "review_count": 16, "categories": [{"alias": "chinese", "title": "Chinese"}, {"alias": "buffets", "title": "Buffets"}], "rating": 3.0, "coordinates": {"latitude": 42.081335, "longitude": -72.045451}, "transactions": ["delivery"], "price": "$$", "location": {"address1": "846 Main St", "address2": "", "address3": "", "city": "Southbridge", "zip_code": "01550", "country": "US", "state": "MA", "display_address": ["846 Main St", "Southbridge, MA 01550"]}, "phone": "+15087649801", "display_phone": "(508) 764-9801", "distance": 3638.8866687760005}, {"id": "-y5EdNMcDJwUzs6Tc8lPQw", "alias": "famous-franks-milltown-grille-north-grosvenor-dale", "name": "Famous Franks Milltown Grille", "image_url": "https://s3-media4.fl.yelpcdn.com/bphoto/aG-w0ypy90cIBXfACSUdgA/o.jpg", "is_closed": false, "url": "https://www.yelp.com/biz/famous-franks-milltown-grille-north-grosvenor-dale?adjust_creative=asslzE1UV0XuKI953B1vtw&utm_campaign=yelp_api_v3&utm_medium=api_v3_business_search&utm_source=asslzE1UV0XuKI953B1vtw", "review_count": 20, "categories": [{"alias": "tradamerican", "title": "American (Traditional)"}], "rating": 4.0, "coordinates": {"latitude": 41.9842432657846, "longitude": -71.8962666666748}, "transactions": ["delivery"], "price": "$", "location": {"address1": "897 Riverside Dr", "address2": "", "address3": null, "city": "North Grosvenor Dale", "zip_code": "06255", "country": "US", "state": "CT", "display_address": ["897 Riverside Dr", "North Grosvenor Dale, CT 06255"]}, "phone": "+18609239183", "display_phone": "(860) 923-9183", "distance": 20017.87590851029}, {"id": "8RnBXTS9l6P_J3YBFGP8tA", "alias": "milk-and-sugar-cafe-charlton", "name": "Milk & Sugar Cafe", "image_url": "https://s3-media4.fl.yelpcdn.com/bphoto/TvkLIvAFdqogjIYUSY2SiQ/o.jpg", "is_closed": false, "url": "https://www.yelp.com/biz/milk-and-sugar-cafe-charlton?adjust_creative=asslzE1UV0XuKI953B1vtw&utm_campaign=yelp_api_v3&utm_medium=api_v3_business_search&utm_source=asslzE1UV0XuKI953B1vtw", "review_count": 1, "categories": [{"alias": "cafes", "title": "Cafes"}, {"alias": "coffee", "title": "Coffee & Tea"}, {"alias": "breakfast_brunch", "title": "Breakfast & Brunch"}], "rating": 5.0, "coordinates": {"latitude": 42.146816, "longitude": -71.98802}, "transactions": [], "location": {"address1": "7 Brookfield Rd", "address2": "", "address3": null, "city": "Charlton", "zip_code": "01507", "country": "US", "state": "MA", "display_address": ["7 Brookfield Rd", "Charlton, MA 01507"]}, "phone": "+15084340727", "display_phone": "(508) 434-0727", "distance": 9086.832292866804}, {"id": "t2YP9KwOFbufQ5CdDnGspw", "alias": "howards-drive-in-west-brookfield", "name": "Howards Drive In", "image_url": "https://s3-media1.fl.yelpcdn.com/bphoto/J29KRUefCK0T3bxmW4xEvw/o.jpg", "is_closed": false, "url": "https://www.yelp.com/biz/howards-drive-in-west-brookfield?adjust_creative=asslzE1UV0XuKI953B1vtw&utm_campaign=yelp_api_v3&utm_medium=api_v3_business_search&utm_source=asslzE1UV0XuKI953B1vtw", "review_count": 52, "categories": [{"alias": "tradamerican", "title": "American (Traditional)"}], "rating": 4.0, "coordinates": {"latitude": 42.2305, "longitude": -72.13282}, "transactions": [], "price": "$", "location": {"address1": "121 E Main St", "address2": "", "address3": "", "city": "West Brookfield", "zip_code": "01585", "country": "US", "state": "MA", "display_address": ["121 E Main St", "West Brookfield, MA 01585"]}, "phone": "+15088676504", "display_phone": "(508) 867-6504", "distance": 14973.643912193349}, {"id": "QBugaXvS51_-clEFw-o1VQ", "alias": "woodstock-valley-country-store-and-cafe-woodstock-valley", "name": "Woodstock Valley Country Store and Cafe", "image_url": "https://s3-media3.fl.yelpcdn.com/bphoto/rjD2XOziyg6KpT-TNP4Vcg/o.jpg", "is_closed": false, "url": "https://www.yelp.com/biz/woodstock-valley-country-store-and-cafe-woodstock-valley?adjust_creative=asslzE1UV0XuKI953B1vtw&utm_campaign=yelp_api_v3&utm_medium=api_v3_business_search&utm_source=asslzE1UV0XuKI953B1vtw", "review_count": 2, "categories": [{"alias": "convenience", "title": "Convenience Stores"}, {"alias": "beer_and_wine", "title": "Beer, Wine & Spirits"}, {"alias": "pizza", "title": "Pizza"}], "rating": 4.5, "coordinates": {"latitude": 41.948517, "longitude": -72.05871}, "transactions": [], "location": {"address1": "1484 Route 171", "address2": "", "address3": "", "city": "Woodstock Valley", "zip_code": "06282", "country": "US", "state": "CT", "display_address": ["1484 Route 171", "Woodstock Valley, CT 06282"]}, "phone": "+18609741639", "display_phone": "(860) 974-1639", "distance": 17127.78494291226}, {"id": "QZeRPF40_EJkoHnrxi7bAA", "alias": "friendlys-sturbridge", "name": "Friendly's", "image_url": "https://s3-media4.fl.yelpcdn.com/bphoto/3-sC2VNRMVzbYXCYAkQ2yg/o.jpg", "is_closed": false, "url": "https://www.yelp.com/biz/friendlys-sturbridge?adjust_creative=asslzE1UV0XuKI953B1vtw&utm_campaign=yelp_api_v3&utm_medium=api_v3_business_search&utm_source=asslzE1UV0XuKI953B1vtw", "review_count": 53, "categories": [{"alias": "icecream", "title": "Ice Cream & Frozen Yogurt"}, {"alias": "burgers", "title": "Burgers"}, {"alias": "tradamerican", "title": "American (Traditional)"}], "rating": 2.0, "coordinates": {"latitude": 42.11148, "longitude": -72.08972}, "transactions": ["delivery", "pickup"], "price": "$", "location": {"address1": "367 Main St", "address2": "", "address3": "", "city": "Sturbridge", "zip_code": "01566", "country": "US", "state": "MA", "display_address": ["367 Main St", "Sturbridge, MA 01566"]}, "phone": "+15083477155", "display_phone": "(508) 347-7155", "distance": 1372.2664747454583}, {"id": "gMOB92qCnBO46CtdtgzRgw", "alias": "sunburst-restaurant-sturbridge", "name": "Sunburst Restaurant", "image_url": "https://s3-media3.fl.yelpcdn.com/bphoto/O6DnaY3-hVViK-jmJekOkw/o.jpg", "is_closed": false, "url": "https://www.yelp.com/biz/sunburst-restaurant-sturbridge?adjust_creative=asslzE1UV0XuKI953B1vtw&utm_campaign=yelp_api_v3&utm_medium=api_v3_business_search&utm_source=asslzE1UV0XuKI953B1vtw", "review_count": 17, "categories": [{"alias": "breakfast_brunch", "title": "Breakfast & Brunch"}], "rating": 4.0, "coordinates": {"latitude": 42.11496, "longitude": -72.10682}, "transactions": ["delivery"], "price": "$", "location": {"address1": "484 Main St", "address2": "", "address3": "", "city": "Sturbridge", "zip_code": "01518", "country": "US", "state": "MA", "display_address": ["484 Main St", "Sturbridge, MA 01518"]}, "phone": "+15083473097", "display_phone": "(508) 347-3097", "distance": 2635.7821016918538}, {"id": "qRFuMb17qMMNq3jvJhUpzw", "alias": "zoes-pizza-southbridge", "name": "Zoe's Pizza", "image_url": "https://s3-media3.fl.yelpcdn.com/bphoto/DdEm8KmJhDCJHOle2KSr_w/o.jpg", "is_closed": false, "url": "https://www.yelp.com/biz/zoes-pizza-southbridge?adjust_creative=asslzE1UV0XuKI953B1vtw&utm_campaign=yelp_api_v3&utm_medium=api_v3_business_search&utm_source=asslzE1UV0XuKI953B1vtw", "review_count": 25, "categories": [{"alias": "pizza", "title": "Pizza"}], "rating": 3.5, "coordinates": {"latitude": 42.074879, "longitude": -72.033808}, "transactions": ["delivery"], "price": "$$", "location": {"address1": "289 Main St", "address2": "", "address3": "", "city": "Southbridge", "zip_code": "01550", "country": "US", "state": "MA", "display_address": ["289 Main St", "Southbridge, MA 01550"]}, "phone": "+15087648080", "display_phone": "(508) 764-8080", "distance": 4817.341087132876}, {"id": "qZ2mUZB1EFz2-Was9kft2Q", "alias": "ye-olde-tavern-west-brookfield-3", "name": "Ye Olde Tavern", "image_url": "https://s3-media2.fl.yelpcdn.com/bphoto/feqtvkBcHvmzmclvTYA-WQ/o.jpg", "is_closed": false, "url": "https://www.yelp.com/biz/ye-olde-tavern-west-brookfield-3?adjust_creative=asslzE1UV0XuKI953B1vtw&utm_campaign=yelp_api_v3&utm_medium=api_v3_business_search&utm_source=asslzE1UV0XuKI953B1vtw", "review_count": 31, "categories": [{"alias": "pizza", "title": "Pizza"}], "rating": 3.5, "coordinates": {"latitude": 42.2349328, "longitude": -72.1419567}, "transactions": [], "price": "$$", "location": {"address1": "7 E Main St", "address2": "", "address3": "", "city": "West Brookfield", "zip_code": "01585", "country": "US", "state": "MA", "display_address": ["7 E Main St", "West Brookfield, MA 01585"]}, "phone": "+15088679709", "display_phone": "(508) 867-9709", "distance": 15667.579068647337}, {"id": "BCuYMYSCsV3K2Ei1MLZoLQ", "alias": "panda-garden-southbridge", "name": "Panda Garden", "image_url": "https://s3-media1.fl.yelpcdn.com/bphoto/G3RyZt0NkDwv6X_Xd3oAMA/o.jpg", "is_closed": false, "url": "https://www.yelp.com/biz/panda-garden-southbridge?adjust_creative=asslzE1UV0XuKI953B1vtw&utm_campaign=yelp_api_v3&utm_medium=api_v3_business_search&utm_source=asslzE1UV0XuKI953B1vtw", "review_count": 13, "categories": [{"alias": "chinese", "title": "Chinese"}], "rating": 3.0, "coordinates": {"latitude": 42.07645, "longitude": -72.02657}, "transactions": ["delivery"], "price": "$$", "location": {"address1": "102 Mechanic St", "address2": "", "address3": "", "city": "Southbridge", "zip_code": "01550", "country": "US", "state": "MA", "display_address": ["102 Mechanic St", "Southbridge, MA 01550"]}, "phone": "+15087642052", "display_phone": "(508) 764-2052", "distance": 5224.586199329643}, {"id": "SQ8HF9mJ39f04WN6NSaw7A", "alias": "lake-george-tavern-wales-2", "name": "Lake George Tavern", "image_url": "https://s3-media4.fl.yelpcdn.com/bphoto/ahxT5yqU6nYh2pW2zAAJww/o.jpg", "is_closed": false, "url": "https://www.yelp.com/biz/lake-george-tavern-wales-2?adjust_creative=asslzE1UV0XuKI953B1vtw&utm_campaign=yelp_api_v3&utm_medium=api_v3_business_search&utm_source=asslzE1UV0XuKI953B1vtw", "review_count": 6, "categories": [{"alias": "pizza", "title": "Pizza"}, {"alias": "seafood", "title": "Seafood"}, {"alias": "italian", "title": "Italian"}], "rating": 3.5, "coordinates": {"latitude": 42.0641008810944, "longitude": -72.2226690128446}, "transactions": [], "location": {"address1": "2 Main St", "address2": "", "address3": null, "city": "Wales", "zip_code": "01081", "country": "US", "state": "MA", "display_address": ["2 Main St", "Wales, MA 01081"]}, "phone": "+14132450103", "display_phone": "(413) 245-0103", "distance": 12501.54995817754}, {"id": "ydG7dmQFYzlPBzQuyTprXA", "alias": "the-clam-box-brookfield", "name": "The Clam Box", "image_url": "https://s3-media2.fl.yelpcdn.com/bphoto/Pqk2Fslfyhnap4IagwfaWA/o.jpg", "is_closed": false, "url": "https://www.yelp.com/biz/the-clam-box-brookfield?adjust_creative=asslzE1UV0XuKI953B1vtw&utm_campaign=yelp_api_v3&utm_medium=api_v3_business_search&utm_source=asslzE1UV0XuKI953B1vtw", "review_count": 55, "categories": [{"alias": "tradamerican", "title": "American (Traditional)"}, {"alias": "seafood", "title": "Seafood"}, {"alias": "burgers", "title": "Burgers"}], "rating": 3.0, "coordinates": {"latitude": 42.2111, "longitude": -72.085135}, "transactions": [], "price": "$$", "location": {"address1": "53 S Maple St", "address2": "", "address3": "", "city": "Brookfield", "zip_code": "01506", "country": "US", "state": "MA", "display_address": ["53 S Maple St", "Brookfield, MA 01506"]}, "phone": "+15086371790", "display_phone": "(508) 637-1790", "distance": 12174.035282722856}, {"id": "cGkQfoMkARCvocRUuUCN9w", "alias": "b-kind-cafe-webster", "name": "B Kind Cafe", "image_url": "https://s3-media3.fl.yelpcdn.com/bphoto/OxccC1VBd5BmDNCNUMtARQ/o.jpg", "is_closed": false, "url": "https://www.yelp.com/biz/b-kind-cafe-webster?adjust_creative=asslzE1UV0XuKI953B1vtw&utm_campaign=yelp_api_v3&utm_medium=api_v3_business_search&utm_source=asslzE1UV0XuKI953B1vtw", "review_count": 3, "categories": [{"alias": "cafes", "title": "Cafes"}, {"alias": "bakeries", "title": "Bakeries"}, {"alias": "gluten_free", "title": "Gluten-Free"}], "rating": 4.5, "coordinates": {"latitude": 42.04953617, "longitude": -71.88446617}, "transactions": ["delivery", "pickup"], "location": {"address1": "8 Davis St", "address2": null, "address3": "", "city": "Webster", "zip_code": "01570", "country": "US", "state": "MA", "display_address": ["8 Davis St", "Webster, MA 01570"]}, "phone": "+15084617662", "display_phone": "(508) 461-7662", "distance": 17156.797483726215}, {"id": "Yom8r1dLF2HMO5aSwII0Lw", "alias": "charlies-diner-spencer", "name": "Charlies Diner", "image_url": "https://s3-media4.fl.yelpcdn.com/bphoto/Luprqfrv0Q_XSTQkE10zqQ/o.jpg", "is_closed": false, "url": "https://www.yelp.com/biz/charlies-diner-spencer?adjust_creative=asslzE1UV0XuKI953B1vtw&utm_campaign=yelp_api_v3&utm_medium=api_v3_business_search&utm_source=asslzE1UV0XuKI953B1vtw", "review_count": 99, "categories": [{"alias": "diners", "title": "Diners"}], "rating": 3.0, "coordinates": {"latitude": 42.237049280598, "longitude": -72.010635589954}, "transactions": [], "price": "$$", "location": {"address1": "5 Meadow Rd", "address2": null, "address3": null, "city": "Spencer", "zip_code": "01562", "country": "US", "state": "MA", "display_address": ["5 Meadow Rd", "Spencer, MA 01562"]}, "phone": "+15088854033", "display_phone": "(508) 885-4033", "distance": 16092.629089879443}, {"id": "7GKsD-3YyjvRbl8bf43Rog", "alias": "alexanders-golden-greek-southbridge", "name": "Alexander's Golden Greek", "image_url": "https://s3-media4.fl.yelpcdn.com/bphoto/teM4W4R0oY2krIEXp3rnMA/o.jpg", "is_closed": false, "url": "https://www.yelp.com/biz/alexanders-golden-greek-southbridge?adjust_creative=asslzE1UV0XuKI953B1vtw&utm_campaign=yelp_api_v3&utm_medium=api_v3_business_search&utm_source=asslzE1UV0XuKI953B1vtw", "review_count": 14, "categories": [{"alias": "italian", "title": "Italian"}, {"alias": "greek", "title": "Greek"}, {"alias": "tradamerican", "title": "American (Traditional)"}], "rating": 3.0, "coordinates": {"latitude": 42.067065, "longitude": -72.008723}, "transactions": ["delivery"], "price": "$$", "location": {"address1": "6 Sandersdale Rd", "address2": "", "address3": "", "city": "Southbridge", "zip_code": "01550", "country": "US", "state": "MA", "display_address": ["6 Sandersdale Rd", "Southbridge, MA 01550"]}, "phone": "+15087650211", "display_phone": "(508) 765-0211", "distance": 7025.3248363124185}, {"id": "pMAyOdSf-r0M2Z2bdlpVQw", "alias": "yamato-asian-bistro-spencer", "name": "Yamato Asian Bistro", "image_url": "https://s3-media3.fl.yelpcdn.com/bphoto/-EGCOg_xmnRyvXecFXLq4g/o.jpg", "is_closed": false, "url": "https://www.yelp.com/biz/yamato-asian-bistro-spencer?adjust_creative=asslzE1UV0XuKI953B1vtw&utm_campaign=yelp_api_v3&utm_medium=api_v3_business_search&utm_source=asslzE1UV0XuKI953B1vtw", "review_count": 41, "categories": [{"alias": "asianfusion", "title": "Asian Fusion"}, {"alias": "sushi", "title": "Sushi Bars"}], "rating": 3.5, "coordinates": {"latitude": 42.23375, "longitude": -72.01408}, "transactions": [], "price": "$$", "location": {"address1": "62 West Main St", "address2": null, "address3": "", "city": "Spencer", "zip_code": "01562", "country": "US", "state": "MA", "display_address": ["62 West Main St", "Spencer, MA 01562"]}, "phone": "+15088855288", "display_phone": "(508) 885-5288", "distance": 15643.291736145267}, {"id": "kMwK6GdTF4dXM2axInPl6g", "alias": "our-fathers-table-thompson", "name": "Our Father's Table", "image_url": "https://s3-media4.fl.yelpcdn.com/bphoto/pVSQxC1uOafbj70dlipmGA/o.jpg", "is_closed": false, "url": "https://www.yelp.com/biz/our-fathers-table-thompson?adjust_creative=asslzE1UV0XuKI953B1vtw&utm_campaign=yelp_api_v3&utm_medium=api_v3_business_search&utm_source=asslzE1UV0XuKI953B1vtw", "review_count": 35, "categories": [{"alias": "cafes", "title": "Cafes"}, {"alias": "icecream", "title": "Ice Cream & Frozen Yogurt"}, {"alias": "tradamerican", "title": "American (Traditional)"}], "rating": 4.0, "coordinates": {"latitude": 41.990608244679, "longitude": -71.8970104004334}, "transactions": ["delivery"], "price": "$$", "location": {"address1": "1020 Riverside Dr", "address2": "", "address3": null, "city": "Thompson", "zip_code": "06255", "country": "US", "state": "CT", "display_address": ["1020 Riverside Dr", "Thompson, CT 06255"]}, "phone": "+18603151015", "display_phone": "(860) 315-1015", "distance": 19515.12979744182}, {"id": "sv1DM6SpMcc2IdMCnqYZBg", "alias": "brookies-east-brookfield", "name": "Brookies", "image_url": "https://s3-media4.fl.yelpcdn.com/bphoto/2FfwT0DTSC7L6bNbZUIeKQ/o.jpg", "is_closed": false, "url": "https://www.yelp.com/biz/brookies-east-brookfield?adjust_creative=asslzE1UV0XuKI953B1vtw&utm_campaign=yelp_api_v3&utm_medium=api_v3_business_search&utm_source=asslzE1UV0XuKI953B1vtw", "review_count": 9, "categories": [{"alias": "burgers", "title": "Burgers"}], "rating": 5.0, "coordinates": {"latitude": 42.21592, "longitude": -72.07718}, "transactions": [], "price": "$$", "location": {"address1": "285 W Main St", "address2": "", "address3": "", "city": "East Brookfield", "zip_code": "01515", "country": "US", "state": "MA", "display_address": ["285 W Main St", "East Brookfield, MA 01515"]}, "phone": "+17742000537", "display_phone": "(774) 200-0537", "distance": 12698.421956367749}, {"id": "rfqTgyUyv4zP3aVFXckW0w", "alias": "thai-cuisine-webster-2", "name": "Thai Cuisine", "image_url": "https://s3-media2.fl.yelpcdn.com/bphoto/ZaWdQ97mmxbqDHoke-NBtA/o.jpg", "is_closed": false, "url": "https://www.yelp.com/biz/thai-cuisine-webster-2?adjust_creative=asslzE1UV0XuKI953B1vtw&utm_campaign=yelp_api_v3&utm_medium=api_v3_business_search&utm_source=asslzE1UV0XuKI953B1vtw", "review_count": 46, "categories": [{"alias": "thai", "title": "Thai"}, {"alias": "vegetarian", "title": "Vegetarian"}, {"alias": "asianfusion", "title": "Asian Fusion"}], "rating": 4.5, "coordinates": {"latitude": 42.0495627, "longitude": -71.8821079}, "transactions": ["delivery", "pickup"], "price": "$$", "location": {"address1": "267 Main St", "address2": null, "address3": "", "city": "Webster", "zip_code": "01570", "country": "US", "state": "MA", "display_address": ["267 Main St", "Webster, MA 01570"]}, "phone": "+15089430369", "display_phone": "(508) 943-0369", "distance": 17322.50463587274}, {"id": "oezkPKl17Ik8NLM7Gn83dw", "alias": "pizza-chef-southbridge-2", "name": "Pizza Chef", "image_url": "https://s3-media2.fl.yelpcdn.com/bphoto/MR7sy1rIZUw_Hk_kc1nAAA/o.jpg", "is_closed": false, "url": "https://www.yelp.com/biz/pizza-chef-southbridge-2?adjust_creative=asslzE1UV0XuKI953B1vtw&utm_campaign=yelp_api_v3&utm_medium=api_v3_business_search&utm_source=asslzE1UV0XuKI953B1vtw", "review_count": 18, "categories": [{"alias": "italian", "title": "Italian"}, {"alias": "pizza", "title": "Pizza"}], "rating": 3.5, "coordinates": {"latitude": 42.0777016, "longitude": -72.0346222}, "transactions": ["delivery"], "price": "$", "location": {"address1": "85 Hamilton St", "address2": null, "address3": null, "city": "Southbridge", "zip_code": "01550", "country": "US", "state": "MA", "display_address": ["85 Hamilton St", "Southbridge, MA 01550"]}, "phone": "+15087655979", "display_phone": "(508) 765-5979", "distance": 4601.150993296928}, {"id": "ueCNOJ5EMJBOYaU2BUJ4qw", "alias": "four-corners-restaurant-thompson", "name": "Four Corners Restaurant", "image_url": "https://s3-media2.fl.yelpcdn.com/bphoto/n4Qf0Wom2QeRebtEywB5Cg/o.jpg", "is_closed": false, "url": "https://www.yelp.com/biz/four-corners-restaurant-thompson?adjust_creative=asslzE1UV0XuKI953B1vtw&utm_campaign=yelp_api_v3&utm_medium=api_v3_business_search&utm_source=asslzE1UV0XuKI953B1vtw", "review_count": 5, "categories": [{"alias": "bars", "title": "Bars"}, {"alias": "tradamerican", "title": "American (Traditional)"}], "rating": 3.5, "coordinates": {"latitude": 41.9485233948919, "longitude": -71.8760515742788}, "transactions": [], "location": {"address1": "142 Old Turnpike Rd", "address2": null, "address3": null, "city": "Thompson", "zip_code": "06277", "country": "US", "state": "CT", "display_address": ["142 Old Turnpike Rd", "Thompson, CT 06277"]}, "phone": "+18609355771", "display_phone": "(860) 935-5771", "distance": 20096.101933448692}, {"id": "zJ9X1B8wV4yCTlfvQ7T5SQ", "alias": "danny-gs-sturbridge", "name": "Danny G's", "image_url": "", "is_closed": false, "url": "https://www.yelp.com/biz/danny-gs-sturbridge?adjust_creative=asslzE1UV0XuKI953B1vtw&utm_campaign=yelp_api_v3&utm_medium=api_v3_business_search&utm_source=asslzE1UV0XuKI953B1vtw", "review_count": 1, "categories": [{"alias": "seafood", "title": "Seafood"}], "rating": 2.0, "coordinates": {"latitude": 42.0973344, "longitude": -72.0726332}, "transactions": [], "location": {"address1": "Rt 131", "address2": "", "address3": "", "city": "Sturbridge", "zip_code": "", "country": "US", "state": "MA", "display_address": ["Rt 131", "Sturbridge, MA"]}, "phone": "", "display_phone": "", "distance": 776.052494369516}, {"id": "rNGs_-Ef-MWjnyQxMjarMw", "alias": "haymakers-grille-spencer", "name": "Haymakers Grille", "image_url": "https://s3-media4.fl.yelpcdn.com/bphoto/E72MqmerZQ4x1owwHKkuKQ/o.jpg", "is_closed": false, "url": "https://www.yelp.com/biz/haymakers-grille-spencer?adjust_creative=asslzE1UV0XuKI953B1vtw&utm_campaign=yelp_api_v3&utm_medium=api_v3_business_search&utm_source=asslzE1UV0XuKI953B1vtw", "review_count": 2, "categories": [{"alias": "tradamerican", "title": "American (Traditional)"}, {"alias": "breakfast_brunch", "title": "Breakfast & Brunch"}], "rating": 5.0, "coordinates": {"latitude": 42.243512, "longitude": -71.993321}, "transactions": [], "location": {"address1": "152 Main St", "address2": "", "address3": null, "city": "Spencer", "zip_code": "01562", "country": "US", "state": "MA", "display_address": ["152 Main St", "Spencer, MA 01562"]}, "phone": "+17747458095", "display_phone": "(774) 745-8095", "distance": 17312.49566304373}, {"id": "tvP1MXfXcaJKD8pGyO31Mw", "alias": "matts-breakfast-nook-west-brookfield", "name": "Matt's Breakfast Nook", "image_url": "https://s3-media3.fl.yelpcdn.com/bphoto/BBidKu4IzxWx95_oclff3w/o.jpg", "is_closed": false, "url": "https://www.yelp.com/biz/matts-breakfast-nook-west-brookfield?adjust_creative=asslzE1UV0XuKI953B1vtw&utm_campaign=yelp_api_v3&utm_medium=api_v3_business_search&utm_source=asslzE1UV0XuKI953B1vtw", "review_count": 1, "categories": [{"alias": "breakfast_brunch", "title": "Breakfast & Brunch"}], "rating": 5.0, "coordinates": {"latitude": 42.2351378, "longitude": -72.1417457}, "transactions": [], "location": {"address1": "8 E Main St", "address2": "", "address3": null, "city": "West Brookfield", "zip_code": "01585", "country": "US", "state": "MA", "display_address": ["8 E Main St", "West Brookfield, MA 01585"]}, "phone": "+15086371166", "display_phone": "(508) 637-1166", "distance": 15686.41519372149}, {"id": "h5qoswGegDM9_5p7tL9ZCw", "alias": "crown-fried-chicken-southbridge", "name": "Crown Fried Chicken", "image_url": "https://s3-media1.fl.yelpcdn.com/bphoto/O3EbxIJ3EljzqGelp9daQw/o.jpg", "is_closed": false, "url": "https://www.yelp.com/biz/crown-fried-chicken-southbridge?adjust_creative=asslzE1UV0XuKI953B1vtw&utm_campaign=yelp_api_v3&utm_medium=api_v3_business_search&utm_source=asslzE1UV0XuKI953B1vtw", "review_count": 7, "categories": [{"alias": "chicken_wings", "title": "Chicken Wings"}], "rating": 3.0, "coordinates": {"latitude": 42.07698, "longitude": -72.0340712}, "transactions": ["delivery"], "price": "$", "location": {"address1": "45 Hamilton St", "address2": "", "address3": "", "city": "Southbridge", "zip_code": "01550", "country": "US", "state": "MA", "display_address": ["45 Hamilton St", "Southbridge, MA 01550"]}, "phone": "+15087646363", "display_phone": "(508) 764-6363", "distance": 4679.610925939402}, {"id": "_M9tO4EUkGSL4mtSnECcrA", "alias": "teresas-restaurant-ware", "name": "Teresa's Restaurant", "image_url": "https://s3-media2.fl.yelpcdn.com/bphoto/O7o53uFX5smk1gOJzuoCzw/o.jpg", "is_closed": false, "url": "https://www.yelp.com/biz/teresas-restaurant-ware?adjust_creative=asslzE1UV0XuKI953B1vtw&utm_campaign=yelp_api_v3&utm_medium=api_v3_business_search&utm_source=asslzE1UV0XuKI953B1vtw", "review_count": 48, "categories": [{"alias": "pizza", "title": "Pizza"}, {"alias": "italian", "title": "Italian"}, {"alias": "venues", "title": "Venues & Event Spaces"}], "rating": 3.5, "coordinates": {"latitude": 42.24245, "longitude": -72.274393}, "transactions": [], "price": "$$", "location": {"address1": "315 Palmer Rd", "address2": "", "address3": "", "city": "Ware", "zip_code": "01082", "country": "US", "state": "MA", "display_address": ["315 Palmer Rd", "Ware, MA 01082"]}, "phone": "+14139677601", "display_phone": "(413) 967-7601", "distance": 22397.08881196972}, {"id": "ca3CuO8cgZFfGWYE-t25Qg", "alias": "lins-garden-west-brookfield", "name": "Lin's Garden", "image_url": "https://s3-media4.fl.yelpcdn.com/bphoto/rWLFqA6Nvg7NGPsGDcSTXw/o.jpg", "is_closed": false, "url": "https://www.yelp.com/biz/lins-garden-west-brookfield?adjust_creative=asslzE1UV0XuKI953B1vtw&utm_campaign=yelp_api_v3&utm_medium=api_v3_business_search&utm_source=asslzE1UV0XuKI953B1vtw", "review_count": 38, "categories": [{"alias": "chinese", "title": "Chinese"}, {"alias": "soup", "title": "Soup"}, {"alias": "ramen", "title": "Ramen"}], "rating": 3.5, "coordinates": {"latitude": 42.233873, "longitude": -72.157657}, "transactions": ["delivery", "pickup"], "price": "$$", "location": {"address1": "152 W Main St", "address2": null, "address3": null, "city": "West Brookfield", "zip_code": "01585", "country": "US", "state": "MA", "display_address": ["152 W Main St", "West Brookfield, MA 01585"]}, "phone": "+15088674499", "display_phone": "(508) 867-4499", "distance": 16028.071711684213}, {"id": "A14Eypr5kImN1lKqXeiMKQ", "alias": "charlton-house-of-pizza-and-seafood-charlton", "name": "Charlton House Of Pizza & Seafood", "image_url": "https://s3-media4.fl.yelpcdn.com/bphoto/JDkb410WWA3TZIPJ_DegqQ/o.jpg", "is_closed": false, "url": "https://www.yelp.com/biz/charlton-house-of-pizza-and-seafood-charlton?adjust_creative=asslzE1UV0XuKI953B1vtw&utm_campaign=yelp_api_v3&utm_medium=api_v3_business_search&utm_source=asslzE1UV0XuKI953B1vtw", "review_count": 6, "categories": [{"alias": "pizza", "title": "Pizza"}, {"alias": "seafood", "title": "Seafood"}], "rating": 3.5, "coordinates": {"latitude": 42.13713, "longitude": -71.97024}, "transactions": ["delivery"], "location": {"address1": "109 Masonic Home Rd", "address2": null, "address3": "", "city": "Charlton", "zip_code": "01507", "country": "US", "state": "MA", "display_address": ["109 Masonic Home Rd", "Charlton, MA 01507"]}, "phone": "+15084341666", "display_phone": "(508) 434-1666", "distance": 9837.665560086543}, {"id": "veG-C4-huNWPGHP8-Y51og", "alias": "yummy-restaurant-dudley", "name": "Yummy Restaurant", "image_url": "https://s3-media1.fl.yelpcdn.com/bphoto/M63Yi5mVO6A21gsW8iPawg/o.jpg", "is_closed": false, "url": "https://www.yelp.com/biz/yummy-restaurant-dudley?adjust_creative=asslzE1UV0XuKI953B1vtw&utm_campaign=yelp_api_v3&utm_medium=api_v3_business_search&utm_source=asslzE1UV0XuKI953B1vtw", "review_count": 30, "categories": [{"alias": "chinese", "title": "Chinese"}, {"alias": "asianfusion", "title": "Asian Fusion"}], "rating": 3.0, "coordinates": {"latitude": 42.028531, "longitude": -71.937421}, "transactions": ["delivery"], "price": "$$", "location": {"address1": "3 Center Rd", "address2": "", "address3": "", "city": "Dudley", "zip_code": "01571", "country": "US", "state": "MA", "display_address": ["3 Center Rd", "Dudley, MA 01571"]}, "phone": "+15089497888", "display_phone": "(508) 949-7888", "distance": 14305.767450728828}, {"id": "5IZFgYz6DyePQmLgLc5d-A", "alias": "quarter-keg-pub-charlton", "name": "Quarter Keg Pub", "image_url": "", "is_closed": false, "url": "https://www.yelp.com/biz/quarter-keg-pub-charlton?adjust_creative=asslzE1UV0XuKI953B1vtw&utm_campaign=yelp_api_v3&utm_medium=api_v3_business_search&utm_source=asslzE1UV0XuKI953B1vtw", "review_count": 1, "categories": [{"alias": "restaurants", "title": "Restaurants"}], "rating": 3.0, "coordinates": {"latitude": 42.1543617248535, "longitude": -71.9163665771484}, "transactions": [], "price": "$", "location": {"address1": "443 Worcester Rd", "address2": "", "address3": "", "city": "Charlton", "zip_code": "01507", "country": "US", "state": "MA", "display_address": ["443 Worcester Rd", "Charlton, MA 01507"]}, "phone": "+15082483191", "display_phone": "(508) 248-3191", "distance": 14696.201011194813}, {"id": "LfGNiYd7Bdpt1np7DKYDyw", "alias": "dresser-hills-clam-box-charlton", "name": "Dresser Hill's Clam Box", "image_url": "https://s3-media3.fl.yelpcdn.com/bphoto/czkfVQ39jYuRaabjsCaBmw/o.jpg", "is_closed": false, "url": "https://www.yelp.com/biz/dresser-hills-clam-box-charlton?adjust_creative=asslzE1UV0XuKI953B1vtw&utm_campaign=yelp_api_v3&utm_medium=api_v3_business_search&utm_source=asslzE1UV0XuKI953B1vtw", "review_count": 30, "categories": [{"alias": "seafood", "title": "Seafood"}, {"alias": "icecream", "title": "Ice Cream & Frozen Yogurt"}, {"alias": "hotdog", "title": "Hot Dogs"}], "rating": 2.5, "coordinates": {"latitude": 42.09208, "longitude": -71.97001}, "transactions": ["delivery"], "price": "$$", "location": {"address1": "290 Dresser Hill Rd", "address2": "", "address3": "", "city": "Charlton", "zip_code": "01507", "country": "US", "state": "MA", "display_address": ["290 Dresser Hill Rd", "Charlton, MA 01507"]}, "phone": "+15082487870", "display_phone": "(508) 248-7870", "distance": 9134.442223579488}, {"id": "UDJ3fIh3TjsVrKBFDLzLKg", "alias": "spencer-pizza-house-spencer", "name": "Spencer Pizza House", "image_url": "https://s3-media1.fl.yelpcdn.com/bphoto/GiQku7izwr1tz1zuQliGOw/o.jpg", "is_closed": false, "url": "https://www.yelp.com/biz/spencer-pizza-house-spencer?adjust_creative=asslzE1UV0XuKI953B1vtw&utm_campaign=yelp_api_v3&utm_medium=api_v3_business_search&utm_source=asslzE1UV0XuKI953B1vtw", "review_count": 16, "categories": [{"alias": "pizza", "title": "Pizza"}, {"alias": "seafood", "title": "Seafood"}, {"alias": "sandwiches", "title": "Sandwiches"}], "rating": 4.5, "coordinates": {"latitude": 42.24288, "longitude": -71.99309}, "transactions": [], "price": "$", "location": {"address1": "19 Mechanic St", "address2": "", "address3": "", "city": "Spencer", "zip_code": "01562", "country": "US", "state": "MA", "display_address": ["19 Mechanic St", "Spencer, MA 01562"]}, "phone": "+15088850000", "display_phone": "(508) 885-0000", "distance": 17245.325123577582}, {"id": "lbAWpf-AuXcY6M_DT1ewmw", "alias": "southbridge-village-pizza-southbridge", "name": "Southbridge Village Pizza", "image_url": "https://s3-media2.fl.yelpcdn.com/bphoto/EdVjpvhcpsnaUSj0Nyy36Q/o.jpg", "is_closed": false, "url": "https://www.yelp.com/biz/southbridge-village-pizza-southbridge?adjust_creative=asslzE1UV0XuKI953B1vtw&utm_campaign=yelp_api_v3&utm_medium=api_v3_business_search&utm_source=asslzE1UV0XuKI953B1vtw", "review_count": 14, "categories": [{"alias": "pizza", "title": "Pizza"}], "rating": 3.0, "coordinates": {"latitude": 42.0704117, "longitude": -72.0357971}, "transactions": [], "price": "$", "location": {"address1": "177 Elm St", "address2": "", "address3": "", "city": "Southbridge", "zip_code": "01550", "country": "US", "state": "MA", "display_address": ["177 Elm St", "Southbridge, MA 01550"]}, "phone": "+15087656500", "display_phone": "(508) 765-6500", "distance": 5018.268941660894}, {"id": "ssp1liWG14bxl0ze4Ch-Cg", "alias": "mama-s-kitchen-webster", "name": "Mama\u2019s Kitchen", "image_url": "https://s3-media1.fl.yelpcdn.com/bphoto/5O_uURZjnnxLhSOvBLagmA/o.jpg", "is_closed": false, "url": "https://www.yelp.com/biz/mama-s-kitchen-webster?adjust_creative=asslzE1UV0XuKI953B1vtw&utm_campaign=yelp_api_v3&utm_medium=api_v3_business_search&utm_source=asslzE1UV0XuKI953B1vtw", "review_count": 14, "categories": [{"alias": "breakfast_brunch", "title": "Breakfast & Brunch"}], "rating": 4.5, "coordinates": {"latitude": 42.05275, "longitude": -71.87899}, "transactions": ["pickup", "delivery"], "location": {"address1": "595 S Main St", "address2": "", "address3": null, "city": "Webster", "zip_code": "01570", "country": "US", "state": "MA", "display_address": ["595 S Main St", "Webster, MA 01570"]}, "phone": "+15084617615", "display_phone": "(508) 461-7615", "distance": 17455.3130302389}, {"id": "CQ3cd6hWaPGm8JuLvTAgfg", "alias": "oxford-market-north-oxford-2", "name": "Oxford Market", "image_url": "https://s3-media3.fl.yelpcdn.com/bphoto/3zueavCiQ3SUinF0_l_uIA/o.jpg", "is_closed": false, "url": "https://www.yelp.com/biz/oxford-market-north-oxford-2?adjust_creative=asslzE1UV0XuKI953B1vtw&utm_campaign=yelp_api_v3&utm_medium=api_v3_business_search&utm_source=asslzE1UV0XuKI953B1vtw", "review_count": 5, "categories": [{"alias": "delis", "title": "Delis"}, {"alias": "convenience", "title": "Convenience Stores"}], "rating": 4.0, "coordinates": {"latitude": 42.1600687786239, "longitude": -71.8837795780417}, "transactions": [], "location": {"address1": "676 N Main St", "address2": "", "address3": null, "city": "North Oxford", "zip_code": "01537", "country": "US", "state": "MA", "display_address": ["676 N Main St", "North Oxford, MA 01537"]}, "phone": "+15087316042", "display_phone": "(508) 731-6042", "distance": 17426.702220245388}, {"id": "kF3P6nL9V-OmpPhOfHSdgQ", "alias": "dads-charlton", "name": "Dad's", "image_url": "https://s3-media1.fl.yelpcdn.com/bphoto/dfnn0SCQNovFuQNlIXDnSA/o.jpg", "is_closed": false, "url": "https://www.yelp.com/biz/dads-charlton?adjust_creative=asslzE1UV0XuKI953B1vtw&utm_campaign=yelp_api_v3&utm_medium=api_v3_business_search&utm_source=asslzE1UV0XuKI953B1vtw", "review_count": 33, "categories": [{"alias": "diners", "title": "Diners"}, {"alias": "breakfast_brunch", "title": "Breakfast & Brunch"}, {"alias": "tradamerican", "title": "American (Traditional)"}], "rating": 4.5, "coordinates": {"latitude": 42.152759552002, "longitude": -71.9210891723633}, "transactions": [], "price": "$", "location": {"address1": "417 Worcester Rd", "address2": "", "address3": "", "city": "Charlton", "zip_code": "01507", "country": "US", "state": "MA", "display_address": ["417 Worcester Rd", "Charlton, MA 01507"]}, "phone": "+15082489774", "display_phone": "(508) 248-9774", "distance": 14293.830746628888}, {"id": "V8Bl2d1bY-F2RrqFUBheAQ", "alias": "barbers-crossing-roadhouse-leicester", "name": "Barbers Crossing Roadhouse", "image_url": "https://s3-media4.fl.yelpcdn.com/bphoto/pcDZwJpW-l1zlAEXoCXBug/o.jpg", "is_closed": false, "url": "https://www.yelp.com/biz/barbers-crossing-roadhouse-leicester?adjust_creative=asslzE1UV0XuKI953B1vtw&utm_campaign=yelp_api_v3&utm_medium=api_v3_business_search&utm_source=asslzE1UV0XuKI953B1vtw", "review_count": 38, "categories": [{"alias": "tradamerican", "title": "American (Traditional)"}], "rating": 2.5, "coordinates": {"latitude": 42.2457809, "longitude": -71.8983307}, "transactions": ["delivery"], "price": "$$", "location": {"address1": "861 Main St", "address2": null, "address3": null, "city": "Leicester", "zip_code": "01524", "country": "US", "state": "MA", "display_address": ["861 Main St", "Leicester, MA 01524"]}, "phone": "+15088927575", "display_phone": "(508) 892-7575", "distance": 21901.54955084022}, {"id": "ZB_vKov2iuaNZdUPSNAsrQ", "alias": "wendys-sturbridge", "name": "Wendy's", "image_url": "https://s3-media1.fl.yelpcdn.com/bphoto/ZoFAnwb0Nd9U-YY6ZiP5qQ/o.jpg", "is_closed": false, "url": "https://www.yelp.com/biz/wendys-sturbridge?adjust_creative=asslzE1UV0XuKI953B1vtw&utm_campaign=yelp_api_v3&utm_medium=api_v3_business_search&utm_source=asslzE1UV0XuKI953B1vtw", "review_count": 28, "categories": [{"alias": "hotdogs", "title": "Fast Food"}, {"alias": "burgers", "title": "Burgers"}], "rating": 1.5, "coordinates": {"latitude": 42.116437, "longitude": -72.065888}, "transactions": ["delivery"], "price": "$", "location": {"address1": "211 Charlton Road", "address2": "", "address3": "", "city": "Sturbridge", "zip_code": "01566", "country": "US", "state": "MA", "display_address": ["211 Charlton Road", "Sturbridge, MA 01566"]}, "phone": "+15083478702", "display_phone": "(508) 347-8702", "distance": 2003.435465536197}, {"id": "LMDM5k-YkN_rxeKHAFhXyQ", "alias": "e-b-flatts-east-brookfield", "name": "E.B. Flatts", "image_url": "https://s3-media2.fl.yelpcdn.com/bphoto/7dwd-U0nCvf74XXhwFKY2Q/o.jpg", "is_closed": false, "url": "https://www.yelp.com/biz/e-b-flatts-east-brookfield?adjust_creative=asslzE1UV0XuKI953B1vtw&utm_campaign=yelp_api_v3&utm_medium=api_v3_business_search&utm_source=asslzE1UV0XuKI953B1vtw", "review_count": 57, "categories": [{"alias": "tradamerican", "title": "American (Traditional)"}, {"alias": "breakfast_brunch", "title": "Breakfast & Brunch"}], "rating": 3.5, "coordinates": {"latitude": 42.2192947517887, "longitude": -72.0708427230705}, "transactions": [], "price": "$$", "location": {"address1": "245 W Main St Rte 9", "address2": "", "address3": "", "city": "East Brookfield", "zip_code": "01515", "country": "US", "state": "MA", "display_address": ["245 W Main St Rte 9", "East Brookfield, MA 01515"]}, "phone": "+15088676643", "display_phone": "(508) 867-6643", "distance": 13092.60136189497}, {"id": "5LnJZPd5i8WaQaZSyBzxlw", "alias": "georges-pizza-and-subs-charlton-2", "name": "George's Pizza & Subs", "image_url": "https://s3-media4.fl.yelpcdn.com/bphoto/yakVXZqs_knjbkKEe3wAcA/o.jpg", "is_closed": false, "url": "https://www.yelp.com/biz/georges-pizza-and-subs-charlton-2?adjust_creative=asslzE1UV0XuKI953B1vtw&utm_campaign=yelp_api_v3&utm_medium=api_v3_business_search&utm_source=asslzE1UV0XuKI953B1vtw", "review_count": 10, "categories": [{"alias": "pizza", "title": "Pizza"}, {"alias": "seafood", "title": "Seafood"}, {"alias": "chicken_wings", "title": "Chicken Wings"}], "rating": 2.5, "coordinates": {"latitude": 42.14948, "longitude": -71.98911}, "transactions": ["delivery"], "location": {"address1": "9 City Depot Rd", "address2": "", "address3": null, "city": "Charlton", "zip_code": "01507", "country": "US", "state": "MA", "display_address": ["9 City Depot Rd", "Charlton, MA 01507"]}, "phone": "+15082482048", "display_phone": "(508) 248-2048", "distance": 9182.052771655619}, {"id": "Nb5fL0yMe1YUGQhMwEVsnA", "alias": "rise-n-shine-diner-east-brookfield", "name": "Rise N' Shine Diner", "image_url": "https://s3-media3.fl.yelpcdn.com/bphoto/pRz0fJ8uPJ4CgXUH9Wl-0w/o.jpg", "is_closed": false, "url": "https://www.yelp.com/biz/rise-n-shine-diner-east-brookfield?adjust_creative=asslzE1UV0XuKI953B1vtw&utm_campaign=yelp_api_v3&utm_medium=api_v3_business_search&utm_source=asslzE1UV0XuKI953B1vtw", "review_count": 6, "categories": [{"alias": "diners", "title": "Diners"}], "rating": 4.0, "coordinates": {"latitude": 42.219766, "longitude": -72.069581}, "transactions": [], "price": "$", "location": {"address1": "237 W Main St", "address2": null, "address3": null, "city": "East Brookfield", "zip_code": "01515", "country": "US", "state": "MA", "display_address": ["237 W Main St", "East Brookfield, MA 01515"]}, "phone": "+15088670034", "display_phone": "(508) 867-0034", "distance": 13151.249023008762}, {"id": "TIQWdkWiSr-hsA7wVHzd6g", "alias": "eastern-pearl-webster", "name": "Eastern Pearl", "image_url": "https://s3-media3.fl.yelpcdn.com/bphoto/3M2XARxckCHNfg2wQvnXWw/o.jpg", "is_closed": false, "url": "https://www.yelp.com/biz/eastern-pearl-webster?adjust_creative=asslzE1UV0XuKI953B1vtw&utm_campaign=yelp_api_v3&utm_medium=api_v3_business_search&utm_source=asslzE1UV0XuKI953B1vtw", "review_count": 84, "categories": [{"alias": "chinese", "title": "Chinese"}, {"alias": "japanese", "title": "Japanese"}, {"alias": "sushi", "title": "Sushi Bars"}], "rating": 3.5, "coordinates": {"latitude": 42.0495157688856, "longitude": -71.8815372884274}, "transactions": ["delivery"], "price": "$$", "location": {"address1": "290 Main St", "address2": "", "address3": "", "city": "Webster", "zip_code": "01570", "country": "US", "state": "MA", "display_address": ["290 Main St", "Webster, MA 01570"]}, "phone": "+15086719288", "display_phone": "(508) 671-9288", "distance": 17354.41822743243}, {"id": "nicPTvQYwocy0vZR1hutpg", "alias": "mcdonalds-sturbridge-2", "name": "McDonald's", "image_url": "https://s3-media2.fl.yelpcdn.com/bphoto/lihfLWzcVb-hOSYgs4xkWQ/o.jpg", "is_closed": false, "url": "https://www.yelp.com/biz/mcdonalds-sturbridge-2?adjust_creative=asslzE1UV0XuKI953B1vtw&utm_campaign=yelp_api_v3&utm_medium=api_v3_business_search&utm_source=asslzE1UV0XuKI953B1vtw", "review_count": 19, "categories": [{"alias": "hotdogs", "title": "Fast Food"}, {"alias": "burgers", "title": "Burgers"}, {"alias": "coffee", "title": "Coffee & Tea"}], "rating": 2.5, "coordinates": {"latitude": 42.1122626426317, "longitude": -72.0895305275917}, "transactions": [], "price": "$", "location": {"address1": "366 Main St", "address2": null, "address3": null, "city": "Sturbridge", "zip_code": "01566", "country": "US", "state": "MA", "display_address": ["366 Main St", "Sturbridge, MA 01566"]}, "phone": "+15083475856", "display_phone": "(508) 347-5856", "distance": 1412.8647347513377}, {"id": "mH00R5oYFyvgIi6DsRGspg", "alias": "hearthstone-market-and-catering-fiskdale", "name": "Hearthstone Market & Catering", "image_url": "", "is_closed": false, "url": "https://www.yelp.com/biz/hearthstone-market-and-catering-fiskdale?adjust_creative=asslzE1UV0XuKI953B1vtw&utm_campaign=yelp_api_v3&utm_medium=api_v3_business_search&utm_source=asslzE1UV0XuKI953B1vtw", "review_count": 2, "categories": [{"alias": "salad", "title": "Salad"}, {"alias": "sandwiches", "title": "Sandwiches"}], "rating": 3.0, "coordinates": {"latitude": 42.11431, "longitude": -72.11979}, "transactions": [], "location": {"address1": "630 Main St", "address2": "", "address3": null, "city": "Fiskdale", "zip_code": "01566", "country": "US", "state": "MA", "display_address": ["630 Main St", "Fiskdale, MA 01566"]}, "phone": "+15083477077", "display_phone": "(508) 347-7077", "distance": 3564.4692958829373}, {"id": "IRgfRxgOYrAUAKckb22N1A", "alias": "charlies-diner-brimfield", "name": "Charlie's Diner", "image_url": "https://s3-media1.fl.yelpcdn.com/bphoto/RU4nB5aESMd3EfQZjYzUUg/o.jpg", "is_closed": false, "url": "https://www.yelp.com/biz/charlies-diner-brimfield?adjust_creative=asslzE1UV0XuKI953B1vtw&utm_campaign=yelp_api_v3&utm_medium=api_v3_business_search&utm_source=asslzE1UV0XuKI953B1vtw", "review_count": 2, "categories": [{"alias": "tradamerican", "title": "American (Traditional)"}, {"alias": "breakfast_brunch", "title": "Breakfast & Brunch"}, {"alias": "diners", "title": "Diners"}], "rating": 4.0, "coordinates": {"latitude": 42.1219487485498, "longitude": -72.2029420360923}, "transactions": [], "location": {"address1": "17 Main St", "address2": "", "address3": null, "city": "Brimfield", "zip_code": "01010", "country": "US", "state": "MA", "display_address": ["17 Main St", "Brimfield, MA 01010"]}, "phone": "+14132457711", "display_phone": "(413) 245-7711", "distance": 10393.202647503385}, {"id": "LHP2JAuE1TK-XXxy-xJ1HQ", "alias": "j-anthonys-italian-grill-auburn", "name": "J Anthony's Italian Grill", "image_url": "https://s3-media2.fl.yelpcdn.com/bphoto/zajxnM2tzf3rkWRgSrdIdA/o.jpg", "is_closed": false, "url": "https://www.yelp.com/biz/j-anthonys-italian-grill-auburn?adjust_creative=asslzE1UV0XuKI953B1vtw&utm_campaign=yelp_api_v3&utm_medium=api_v3_business_search&utm_source=asslzE1UV0XuKI953B1vtw", "review_count": 98, "categories": [{"alias": "italian", "title": "Italian"}, {"alias": "venues", "title": "Venues & Event Spaces"}], "rating": 3.0, "coordinates": {"latitude": 42.17315, "longitude": -71.87819}, "transactions": ["delivery"], "price": "$$", "location": {"address1": "917 Southbridge St", "address2": null, "address3": "", "city": "Auburn", "zip_code": "01501", "country": "US", "state": "MA", "display_address": ["917 Southbridge St", "Auburn, MA 01501"]}, "phone": "+15088329705", "display_phone": "(508) 832-9705", "distance": 18431.64636410885}, {"id": "l5EE7aSMsfHiXSu2f9l9Vw", "alias": "fresh-city-charlton", "name": "Fresh City", "image_url": "https://s3-media4.fl.yelpcdn.com/bphoto/nNL4HZRNF-wqCvZI5czxNw/o.jpg", "is_closed": false, "url": "https://www.yelp.com/biz/fresh-city-charlton?adjust_creative=asslzE1UV0XuKI953B1vtw&utm_campaign=yelp_api_v3&utm_medium=api_v3_business_search&utm_source=asslzE1UV0XuKI953B1vtw", "review_count": 31, "categories": [{"alias": "newamerican", "title": "American (New)"}], "rating": 2.0, "coordinates": {"latitude": 42.156628, "longitude": -71.964096}, "transactions": [], "price": "$", "location": {"address1": "1-90 Massachusetts Turnpike", "address2": "Charlton Mass Pike E", "address3": "", "city": "Charlton", "zip_code": "01507", "country": "US", "state": "MA", "display_address": ["1-90 Massachusetts Turnpike", "Charlton Mass Pike E", "Charlton, MA 01507"]}, "phone": "+15082480663", "display_phone": "(508) 248-0663", "distance": 11335.188959346753}, {"id": "LHU-3f0kpPrG8cB7lkDhpw", "alias": "depot-square-deli-and-package-store-east-brookfield", "name": "Depot Square Deli &Package Store", "image_url": "https://s3-media3.fl.yelpcdn.com/bphoto/w5mkcnXJy8KCBx3a3AMLxw/o.jpg", "is_closed": false, "url": "https://www.yelp.com/biz/depot-square-deli-and-package-store-east-brookfield?adjust_creative=asslzE1UV0XuKI953B1vtw&utm_campaign=yelp_api_v3&utm_medium=api_v3_business_search&utm_source=asslzE1UV0XuKI953B1vtw", "review_count": 3, "categories": [{"alias": "desserts", "title": "Desserts"}, {"alias": "delis", "title": "Delis"}, {"alias": "sandwiches", "title": "Sandwiches"}], "rating": 5.0, "coordinates": {"latitude": 42.2256833290215, "longitude": -72.04646605713}, "transactions": [], "price": "$", "location": {"address1": "104 Pleasant St", "address2": "", "address3": "", "city": "East Brookfield", "zip_code": "01515", "country": "US", "state": "MA", "display_address": ["104 Pleasant St", "East Brookfield, MA 01515"]}, "phone": "+15088673412", "display_phone": "(508) 867-3412", "distance": 14054.768606928666}, {"id": "WYLEOjlNyQ2wnMIh9VSTMA", "alias": "gas-light-cafe-dudley", "name": "Gas Light Cafe", "image_url": "", "is_closed": false, "url": "https://www.yelp.com/biz/gas-light-cafe-dudley?adjust_creative=asslzE1UV0XuKI953B1vtw&utm_campaign=yelp_api_v3&utm_medium=api_v3_business_search&utm_source=asslzE1UV0XuKI953B1vtw", "review_count": 2, "categories": [{"alias": "restaurants", "title": "Restaurants"}], "rating": 2.5, "coordinates": {"latitude": 42.0426139831543, "longitude": -71.8905487060547}, "transactions": [], "location": {"address1": "59 Schofield Ave", "address2": null, "address3": null, "city": "Dudley", "zip_code": "01571", "country": "US", "state": "MA", "display_address": ["59 Schofield Ave", "Dudley, MA 01571"]}, "phone": "+15084619981", "display_phone": "(508) 461-9981", "distance": 16951.72680019563}, {"id": "784Vt8PqZY5G_t2Rw_9W9Q", "alias": "may-garden-southbridge", "name": "May Garden", "image_url": "https://s3-media4.fl.yelpcdn.com/bphoto/5o5xFU0R2Fu0N1TloVkbuQ/o.jpg", "is_closed": false, "url": "https://www.yelp.com/biz/may-garden-southbridge?adjust_creative=asslzE1UV0XuKI953B1vtw&utm_campaign=yelp_api_v3&utm_medium=api_v3_business_search&utm_source=asslzE1UV0XuKI953B1vtw", "review_count": 11, "categories": [{"alias": "chinese", "title": "Chinese"}], "rating": 2.0, "coordinates": {"latitude": 42.082959, "longitude": -72.047237}, "transactions": ["delivery"], "price": "$", "location": {"address1": "920 Main St", "address2": "", "address3": "", "city": "Southbridge", "zip_code": "01550", "country": "US", "state": "MA", "display_address": ["920 Main St", "Southbridge, MA 01550"]}, "phone": "+15087651993", "display_phone": "(508) 765-1993", "distance": 3411.3981264758577}, {"id": "Ta3RtU27BULz8gypO2tz1g", "alias": "kostas-cafe-spencer", "name": "Kosta's Cafe", "image_url": "https://s3-media2.fl.yelpcdn.com/bphoto/dkpRMEOYS-1GgEgkVplqwA/o.jpg", "is_closed": false, "url": "https://www.yelp.com/biz/kostas-cafe-spencer?adjust_creative=asslzE1UV0XuKI953B1vtw&utm_campaign=yelp_api_v3&utm_medium=api_v3_business_search&utm_source=asslzE1UV0XuKI953B1vtw", "review_count": 40, "categories": [{"alias": "breakfast_brunch", "title": "Breakfast & Brunch"}, {"alias": "coffee", "title": "Coffee & Tea"}], "rating": 4.0, "coordinates": {"latitude": 42.246032, "longitude": -71.995498}, "transactions": [], "price": "$", "location": {"address1": "31 Pleasant St", "address2": "", "address3": "", "city": "Spencer", "zip_code": "01562", "country": "US", "state": "MA", "display_address": ["31 Pleasant St", "Spencer, MA 01562"]}, "phone": "+15088857705", "display_phone": "(508) 885-7705", "distance": 17487.808460227145}, {"id": "nFJMK142eT2K_F2gqnYAQA", "alias": "l-bs-family-restaurant-north-grosvenordale-7", "name": "L B'S Family Restaurant", "image_url": "https://s3-media1.fl.yelpcdn.com/bphoto/0aPh9zODllFFbfPsB2sAkA/o.jpg", "is_closed": false, "url": "https://www.yelp.com/biz/l-bs-family-restaurant-north-grosvenordale-7?adjust_creative=asslzE1UV0XuKI953B1vtw&utm_campaign=yelp_api_v3&utm_medium=api_v3_business_search&utm_source=asslzE1UV0XuKI953B1vtw", "review_count": 18, "categories": [{"alias": "tradamerican", "title": "American (Traditional)"}, {"alias": "seafood", "title": "Seafood"}, {"alias": "breakfast_brunch", "title": "Breakfast & Brunch"}], "rating": 4.0, "coordinates": {"latitude": 41.981778, "longitude": -71.897967}, "transactions": ["delivery"], "price": "$", "location": {"address1": "860 Riverside Dr", "address2": "", "address3": "", "city": "North Grosvenordale", "zip_code": "06255", "country": "US", "state": "CT", "display_address": ["860 Riverside Dr", "North Grosvenordale, CT 06255"]}, "phone": "+18609231899", "display_phone": "(860) 923-1899", "distance": 20092.86090916051}, {"id": "dGeyKQXRMOtK9AKtT_HAvg", "alias": "wow-cafe-dudley", "name": "Wow Cafe", "image_url": "https://s3-media2.fl.yelpcdn.com/bphoto/4xIuyzOB1aXtW8WrX02pbg/o.jpg", "is_closed": false, "url": "https://www.yelp.com/biz/wow-cafe-dudley?adjust_creative=asslzE1UV0XuKI953B1vtw&utm_campaign=yelp_api_v3&utm_medium=api_v3_business_search&utm_source=asslzE1UV0XuKI953B1vtw", "review_count": 1, "categories": [{"alias": "chicken_wings", "title": "Chicken Wings"}, {"alias": "tradamerican", "title": "American (Traditional)"}], "rating": 3.0, "coordinates": {"latitude": 42.0456326, "longitude": -71.9299202}, "transactions": [], "location": {"address1": "119 Ctr St", "address2": "", "address3": "Nichols College-Fels Student Center", "city": "Dudley", "zip_code": "01571", "country": "US", "state": "MA", "display_address": ["119 Ctr St", "Nichols College-Fels Student Center", "Dudley, MA 01571"]}, "phone": "+15082132251", "display_phone": "(508) 213-2251", "distance": 13864.337582660479}, {"id": "eRuEI6J8ueCxm2NFuGXC_w", "alias": "burger-king-sturbridge-4", "name": "Burger King", "image_url": "https://s3-media4.fl.yelpcdn.com/bphoto/gsi_IcGSCj5FnAHN_cwgGQ/o.jpg", "is_closed": false, "url": "https://www.yelp.com/biz/burger-king-sturbridge-4?adjust_creative=asslzE1UV0XuKI953B1vtw&utm_campaign=yelp_api_v3&utm_medium=api_v3_business_search&utm_source=asslzE1UV0XuKI953B1vtw", "review_count": 4, "categories": [{"alias": "burgers", "title": "Burgers"}, {"alias": "hotdogs", "title": "Fast Food"}], "rating": 3.0, "coordinates": {"latitude": 42.112093, "longitude": -72.09091}, "transactions": [], "price": "$", "location": {"address1": "374 Main Street", "address2": "", "address3": "", "city": "Sturbridge", "zip_code": "01566", "country": "US", "state": "MA", "display_address": ["374 Main Street", "Sturbridge, MA 01566"]}, "phone": "+15083479440", "display_phone": "(508) 347-9440", "distance": 1464.5140989168522}, {"id": "0JAM0038tihMO3MJ7gmcew", "alias": "the-rose-room-webster", "name": "The Rose Room", "image_url": "https://s3-media3.fl.yelpcdn.com/bphoto/-3i_RkwEvog0UAVCNGKjwQ/o.jpg", "is_closed": false, "url": "https://www.yelp.com/biz/the-rose-room-webster?adjust_creative=asslzE1UV0XuKI953B1vtw&utm_campaign=yelp_api_v3&utm_medium=api_v3_business_search&utm_source=asslzE1UV0XuKI953B1vtw", "review_count": 4, "categories": [{"alias": "cafes", "title": "Cafes"}, {"alias": "coffee", "title": "Coffee & Tea"}, {"alias": "breakfast_brunch", "title": "Breakfast & Brunch"}], "rating": 4.5, "coordinates": {"latitude": 42.054225, "longitude": -71.877818}, "transactions": [], "location": {"address1": "4 E Main St", "address2": "", "address3": null, "city": "Webster", "zip_code": "01570", "country": "US", "state": "MA", "display_address": ["4 E Main St", "Webster, MA 01570"]}, "phone": "+15084615344", "display_phone": "(508) 461-5344", "distance": 17497.273275493342}, {"id": "6t8IvGO0TwYwcyckJqCTFw", "alias": "brothers-pizza-house-southbridge", "name": "Brothers Pizza House", "image_url": "https://s3-media2.fl.yelpcdn.com/bphoto/Bg90gUX_UEaavCfXviTl5w/o.jpg", "is_closed": false, "url": "https://www.yelp.com/biz/brothers-pizza-house-southbridge?adjust_creative=asslzE1UV0XuKI953B1vtw&utm_campaign=yelp_api_v3&utm_medium=api_v3_business_search&utm_source=asslzE1UV0XuKI953B1vtw", "review_count": 18, "categories": [{"alias": "pizza", "title": "Pizza"}], "rating": 3.5, "coordinates": {"latitude": 42.0702171, "longitude": -72.0118779}, "transactions": ["delivery"], "price": "$", "location": {"address1": "485 E Main St", "address2": "", "address3": "", "city": "Southbridge", "zip_code": "01550", "country": "US", "state": "MA", "display_address": ["485 E Main St", "Southbridge, MA 01550"]}, "phone": "+15087655857", "display_phone": "(508) 765-5857", "distance": 6974.975671127117}, {"id": "ZrccFWIGcH3YEsu1sS5Efw", "alias": "meiji-asian-cuisine-north-oxford", "name": "Meiji Asian Cuisine", "image_url": "https://s3-media4.fl.yelpcdn.com/bphoto/eT0AvhVVvqIP8-y2P_f8ew/o.jpg", "is_closed": false, "url": "https://www.yelp.com/biz/meiji-asian-cuisine-north-oxford?adjust_creative=asslzE1UV0XuKI953B1vtw&utm_campaign=yelp_api_v3&utm_medium=api_v3_business_search&utm_source=asslzE1UV0XuKI953B1vtw", "review_count": 51, "categories": [{"alias": "japanese", "title": "Japanese"}, {"alias": "sushi", "title": "Sushi Bars"}, {"alias": "chinese", "title": "Chinese"}], "rating": 3.5, "coordinates": {"latitude": 42.1646220982075, "longitude": -71.8916565924883}, "transactions": ["pickup", "delivery"], "price": "$$", "location": {"address1": "24 Leicester St", "address2": "", "address3": "", "city": "North Oxford", "zip_code": "01537", "country": "US", "state": "MA", "display_address": ["24 Leicester St", "North Oxford, MA 01537"]}, "phone": "+15087310120", "display_phone": "(508) 731-0120", "distance": 17058.15717423796}, {"id": "lQPgvmxQjdDUgw24vflGlg", "alias": "dudley-house-of-pizza-dudley", "name": "Dudley House of Pizza", "image_url": "https://s3-media1.fl.yelpcdn.com/bphoto/1rC2ahyx6qMXOiwxQR5gHw/o.jpg", "is_closed": false, "url": "https://www.yelp.com/biz/dudley-house-of-pizza-dudley?adjust_creative=asslzE1UV0XuKI953B1vtw&utm_campaign=yelp_api_v3&utm_medium=api_v3_business_search&utm_source=asslzE1UV0XuKI953B1vtw", "review_count": 12, "categories": [{"alias": "pizza", "title": "Pizza"}], "rating": 3.0, "coordinates": {"latitude": 42.0388857, "longitude": -71.9153258}, "transactions": [], "price": "$$", "location": {"address1": "206 W Main St", "address2": "", "address3": "", "city": "Dudley", "zip_code": "01571", "country": "US", "state": "MA", "display_address": ["206 W Main St", "Dudley, MA 01571"]}, "phone": "+15089490436", "display_phone": "(508) 949-0436", "distance": 15252.119728042626}, {"id": "lvQlT4mEHYkuccxGccTEmA", "alias": "central-pizza-southbridge", "name": "Central Pizza", "image_url": "https://s3-media3.fl.yelpcdn.com/bphoto/BK0A8diN9NEsEVX9xR_dCA/o.jpg", "is_closed": false, "url": "https://www.yelp.com/biz/central-pizza-southbridge?adjust_creative=asslzE1UV0XuKI953B1vtw&utm_campaign=yelp_api_v3&utm_medium=api_v3_business_search&utm_source=asslzE1UV0XuKI953B1vtw", "review_count": 28, "categories": [{"alias": "pizza", "title": "Pizza"}, {"alias": "seafood", "title": "Seafood"}, {"alias": "desserts", "title": "Desserts"}], "rating": 3.0, "coordinates": {"latitude": 42.0763212443091, "longitude": -72.0329223163179}, "transactions": ["pickup", "delivery"], "price": "$", "location": {"address1": "55 Central St", "address2": "", "address3": "", "city": "Southbridge", "zip_code": "01550", "country": "US", "state": "MA", "display_address": ["55 Central St", "Southbridge, MA 01550"]}, "phone": "+15087642541", "display_phone": "(508) 764-2541", "distance": 4781.995418963125}, {"id": "2BIeNbfudbD_sPWyDv0pNQ", "alias": "masons-grille-warren", "name": "Mason's Grille", "image_url": "https://s3-media2.fl.yelpcdn.com/bphoto/KA3N3PP2O1OO_iykU_NoDw/o.jpg", "is_closed": false, "url": "https://www.yelp.com/biz/masons-grille-warren?adjust_creative=asslzE1UV0XuKI953B1vtw&utm_campaign=yelp_api_v3&utm_medium=api_v3_business_search&utm_source=asslzE1UV0XuKI953B1vtw", "review_count": 15, "categories": [{"alias": "breakfast_brunch", "title": "Breakfast & Brunch"}], "rating": 4.0, "coordinates": {"latitude": 42.2128038938205, "longitude": -72.1945668384433}, "transactions": [], "price": "$", "location": {"address1": "14 Milton Fountain Way", "address2": "", "address3": null, "city": "Warren", "zip_code": "01083", "country": "US", "state": "MA", "display_address": ["14 Milton Fountain Way", "Warren, MA 01083"]}, "phone": "+14134368042", "display_phone": "(413) 436-8042", "distance": 15550.146705918532}, {"id": "SAq6WWA5MZOd2kYdvAbq1g", "alias": "joes-drive-in-restaurant-leicester-2", "name": "Joe's Drive-In Restaurant", "image_url": "https://s3-media1.fl.yelpcdn.com/bphoto/woWYoNT40FBr5AVuaPJ1rw/o.jpg", "is_closed": false, "url": "https://www.yelp.com/biz/joes-drive-in-restaurant-leicester-2?adjust_creative=asslzE1UV0XuKI953B1vtw&utm_campaign=yelp_api_v3&utm_medium=api_v3_business_search&utm_source=asslzE1UV0XuKI953B1vtw", "review_count": 11, "categories": [{"alias": "icecream", "title": "Ice Cream & Frozen Yogurt"}, {"alias": "burgers", "title": "Burgers"}, {"alias": "fishnchips", "title": "Fish & Chips"}], "rating": 3.0, "coordinates": {"latitude": 42.249895, "longitude": -71.942238}, "transactions": [], "location": {"address1": "1673 Main St Rte 9", "address2": null, "address3": "", "city": "Leicester", "zip_code": "01524", "country": "US", "state": "MA", "display_address": ["1673 Main St Rte 9", "Leicester, MA 01524"]}, "phone": "+15088921900", "display_phone": "(508) 892-1900", "distance": 20003.00256287917}, {"id": "0u096yYEmPF_74mcDYKFOQ", "alias": "panda-garden-2-east-brookfield", "name": "Panda Garden 2", "image_url": "https://s3-media1.fl.yelpcdn.com/bphoto/F8G-Hgio3ROhaSmbX4d81w/o.jpg", "is_closed": false, "url": "https://www.yelp.com/biz/panda-garden-2-east-brookfield?adjust_creative=asslzE1UV0XuKI953B1vtw&utm_campaign=yelp_api_v3&utm_medium=api_v3_business_search&utm_source=asslzE1UV0XuKI953B1vtw", "review_count": 13, "categories": [{"alias": "chinese", "title": "Chinese"}], "rating": 3.0, "coordinates": {"latitude": 42.219459, "longitude": -72.070868}, "transactions": [], "location": {"address1": "237 W Main St", "address2": "", "address3": "", "city": "East Brookfield", "zip_code": "01515", "country": "US", "state": "MA", "display_address": ["237 W Main St", "East Brookfield, MA 01515"]}, "phone": "+15088673799", "display_phone": "(508) 867-3799", "distance": 13148.317262166118}, {"id": "JYC_tnQbGcwRnyikfusPMQ", "alias": "sweet-evalinas-stand-woodstock", "name": "Sweet Evalina's Stand", "image_url": "https://s3-media4.fl.yelpcdn.com/bphoto/lxWAyiqZ2qT6iUsyCnWD8w/o.jpg", "is_closed": false, "url": "https://www.yelp.com/biz/sweet-evalinas-stand-woodstock?adjust_creative=asslzE1UV0XuKI953B1vtw&utm_campaign=yelp_api_v3&utm_medium=api_v3_business_search&utm_source=asslzE1UV0XuKI953B1vtw", "review_count": 76, "categories": [{"alias": "pizza", "title": "Pizza"}, {"alias": "icecream", "title": "Ice Cream & Frozen Yogurt"}, {"alias": "breakfast_brunch", "title": "Breakfast & Brunch"}], "rating": 4.0, "coordinates": {"latitude": 41.955929, "longitude": -71.981754}, "transactions": ["delivery"], "price": "$", "location": {"address1": "688 Rte 169", "address2": "", "address3": "", "city": "Woodstock", "zip_code": "06281", "country": "US", "state": "CT", "display_address": ["688 Rte 169", "Woodstock, CT 06281"]}, "phone": "+18609284029", "display_phone": "(860) 928-4029", "distance": 18128.274209673153}, {"id": "EFpZHYF6TjVrXTXaWzjQ7A", "alias": "family-house-of-pizza-and-seafood-charlton", "name": "Family House of Pizza & Seafood", "image_url": "https://s3-media3.fl.yelpcdn.com/bphoto/Iz30Dowh5etAodvEKZrpdQ/o.jpg", "is_closed": false, "url": "https://www.yelp.com/biz/family-house-of-pizza-and-seafood-charlton?adjust_creative=asslzE1UV0XuKI953B1vtw&utm_campaign=yelp_api_v3&utm_medium=api_v3_business_search&utm_source=asslzE1UV0XuKI953B1vtw", "review_count": 10, "categories": [{"alias": "seafood", "title": "Seafood"}], "rating": 2.5, "coordinates": {"latitude": 42.1375465393066, "longitude": -71.9712905883789}, "transactions": ["delivery"], "price": "$$", "location": {"address1": "105 Masonic Home Rd", "address2": "", "address3": "", "city": "Charlton", "zip_code": "01507", "country": "US", "state": "MA", "display_address": ["105 Masonic Home Rd", "Charlton, MA 01507"]}, "phone": "+15082480666", "display_phone": "(508) 248-0666", "distance": 9800.557505170822}, {"id": "1LHiNAL-1zFltozdU8ChZw", "alias": "leonis-brick-oven-pizzeria-dudley", "name": "Leoni's Brick Oven Pizzeria", "image_url": "https://s3-media4.fl.yelpcdn.com/bphoto/veCEf0yhjpeZvccG12S9QQ/o.jpg", "is_closed": false, "url": "https://www.yelp.com/biz/leonis-brick-oven-pizzeria-dudley?adjust_creative=asslzE1UV0XuKI953B1vtw&utm_campaign=yelp_api_v3&utm_medium=api_v3_business_search&utm_source=asslzE1UV0XuKI953B1vtw", "review_count": 20, "categories": [{"alias": "pizza", "title": "Pizza"}], "rating": 2.5, "coordinates": {"latitude": 42.04261, "longitude": -71.89055}, "transactions": ["delivery"], "price": "$$", "location": {"address1": "59 Schofield Ave", "address2": "", "address3": "", "city": "Dudley", "zip_code": "01571", "country": "US", "state": "MA", "display_address": ["59 Schofield Ave", "Dudley, MA 01571"]}, "phone": "+15089490533", "display_phone": "(508) 949-0533", "distance": 16951.72680019563}, {"id": "nO0WHyU8hH-fZox4vFx_Tw", "alias": "trolley-stop-restaurant-east-brookfield", "name": "Trolley Stop Restaurant", "image_url": "https://s3-media3.fl.yelpcdn.com/bphoto/ssiKoGUtgz6GULs3biiPxw/o.jpg", "is_closed": false, "url": "https://www.yelp.com/biz/trolley-stop-restaurant-east-brookfield?adjust_creative=asslzE1UV0XuKI953B1vtw&utm_campaign=yelp_api_v3&utm_medium=api_v3_business_search&utm_source=asslzE1UV0XuKI953B1vtw", "review_count": 7, "categories": [{"alias": "breakfast_brunch", "title": "Breakfast & Brunch"}], "rating": 3.5, "coordinates": {"latitude": 42.226512, "longitude": -72.047706}, "transactions": [], "price": "$", "location": {"address1": "294 E Main St", "address2": "", "address3": "", "city": "East Brookfield", "zip_code": "01515", "country": "US", "state": "MA", "display_address": ["294 E Main St", "East Brookfield, MA 01515"]}, "phone": "+15088675995", "display_phone": "(508) 867-5995", "distance": 14130.886140054356}, {"id": "s8ifd_imgK2jH0m0eZDntQ", "alias": "georges-pizza-and-subs-west-brookfield", "name": "George's Pizza and Subs", "image_url": "https://s3-media4.fl.yelpcdn.com/bphoto/Ch0ooY7hZwaElbMHeHk4Yw/o.jpg", "is_closed": false, "url": "https://www.yelp.com/biz/georges-pizza-and-subs-west-brookfield?adjust_creative=asslzE1UV0XuKI953B1vtw&utm_campaign=yelp_api_v3&utm_medium=api_v3_business_search&utm_source=asslzE1UV0XuKI953B1vtw", "review_count": 27, "categories": [{"alias": "salad", "title": "Salad"}, {"alias": "pizza", "title": "Pizza"}, {"alias": "sandwiches", "title": "Sandwiches"}], "rating": 3.5, "coordinates": {"latitude": 42.2348093, "longitude": -72.1424106}, "transactions": [], "price": "$", "location": {"address1": "4 East Main St", "address2": "", "address3": "", "city": "West Brookfield", "zip_code": "01585", "country": "US", "state": "MA", "display_address": ["4 East Main St", "West Brookfield, MA 01585"]}, "phone": "+15088678100", "display_phone": "(508) 867-8100", "distance": 15666.856598405848}, {"id": "LKII1liZPjWE70RJY1CigA", "alias": "focus-fitness-center-southbridge", "name": "Focus Fitness Center", "image_url": "", "is_closed": false, "url": "https://www.yelp.com/biz/focus-fitness-center-southbridge?adjust_creative=asslzE1UV0XuKI953B1vtw&utm_campaign=yelp_api_v3&utm_medium=api_v3_business_search&utm_source=asslzE1UV0XuKI953B1vtw", "review_count": 1, "categories": [{"alias": "hotels", "title": "Hotels"}, {"alias": "restaurants", "title": "Restaurants"}], "rating": 2.0, "coordinates": {"latitude": 42.07509, "longitude": -72.02553}, "transactions": [], "location": {"address1": "14 Mechanic St", "address2": "", "address3": "", "city": "Southbridge", "zip_code": "01550", "country": "US", "state": "MA", "display_address": ["14 Mechanic St", "Southbridge, MA 01550"]}, "phone": "+15087654569", "display_phone": "(508) 765-4569", "distance": 5350.233835030219}, {"id": "49Hp1NIeXJD2GYOtcAqsLQ", "alias": "wings-and-company-leicester", "name": "Wings & Company", "image_url": "https://s3-media2.fl.yelpcdn.com/bphoto/OOgmmgsmNjFEfr1A_luvKg/o.jpg", "is_closed": false, "url": "https://www.yelp.com/biz/wings-and-company-leicester?adjust_creative=asslzE1UV0XuKI953B1vtw&utm_campaign=yelp_api_v3&utm_medium=api_v3_business_search&utm_source=asslzE1UV0XuKI953B1vtw", "review_count": 15, "categories": [{"alias": "chicken_wings", "title": "Chicken Wings"}, {"alias": "chickenshop", "title": "Chicken Shop"}, {"alias": "sandwiches", "title": "Sandwiches"}], "rating": 3.5, "coordinates": {"latitude": 42.2461340494495, "longitude": -71.908789537847}, "transactions": ["delivery"], "price": "$$", "location": {"address1": "1072 Main St", "address2": "", "address3": "", "city": "Leicester", "zip_code": "01524", "country": "US", "state": "MA", "display_address": ["1072 Main St", "Leicester, MA 01524"]}, "phone": "+15088925550", "display_phone": "(508) 892-5550", "distance": 21369.904451510956}, {"id": "eZe_SqA9OCE_UxBfnpIwAA", "alias": "d-angelo-sandwich-shop-charlton", "name": "D'Angelo Sandwich Shop", "image_url": "https://s3-media4.fl.yelpcdn.com/bphoto/UqpzoHw-svV_S_rdsgjLmQ/o.jpg", "is_closed": false, "url": "https://www.yelp.com/biz/d-angelo-sandwich-shop-charlton?adjust_creative=asslzE1UV0XuKI953B1vtw&utm_campaign=yelp_api_v3&utm_medium=api_v3_business_search&utm_source=asslzE1UV0XuKI953B1vtw", "review_count": 7, "categories": [{"alias": "sandwiches", "title": "Sandwiches"}], "rating": 2.0, "coordinates": {"latitude": 42.138691842556, "longitude": -72.0235615968704}, "transactions": ["delivery"], "location": {"address1": "166 Sturbridge Rd", "address2": "", "address3": "", "city": "Charlton", "zip_code": "01507", "country": "US", "state": "MA", "display_address": ["166 Sturbridge Rd", "Charlton, MA 01507"]}, "phone": "+15082481061", "display_phone": "(508) 248-1061", "distance": 6205.6256146893}, {"id": "yihzQwKuCg9p9JlnN47RXQ", "alias": "dominos-pizza-southbridge", "name": "Domino's Pizza", "image_url": "https://s3-media2.fl.yelpcdn.com/bphoto/mV_rJQhMhOk3xCJFAzammw/o.jpg", "is_closed": false, "url": "https://www.yelp.com/biz/dominos-pizza-southbridge?adjust_creative=asslzE1UV0XuKI953B1vtw&utm_campaign=yelp_api_v3&utm_medium=api_v3_business_search&utm_source=asslzE1UV0XuKI953B1vtw", "review_count": 11, "categories": [{"alias": "pizza", "title": "Pizza"}, {"alias": "chicken_wings", "title": "Chicken Wings"}, {"alias": "sandwiches", "title": "Sandwiches"}], "rating": 3.0, "coordinates": {"latitude": 42.08056, "longitude": -72.045192}, "transactions": [], "price": "$", "location": {"address1": "825 Main St", "address2": "", "address3": "", "city": "Southbridge", "zip_code": "01550", "country": "US", "state": "MA", "display_address": ["825 Main St", "Southbridge, MA 01550"]}, "phone": "+15087650822", "display_phone": "(508) 765-0822", "distance": 3706.8644959488975}, {"id": "v_TvPCHeTmIMimXtzwQ1_g", "alias": "riverside-pizza-thompson", "name": "Riverside Pizza", "image_url": "https://s3-media2.fl.yelpcdn.com/bphoto/lN7WBpWP0k0__HL35vSOSw/o.jpg", "is_closed": false, "url": "https://www.yelp.com/biz/riverside-pizza-thompson?adjust_creative=asslzE1UV0XuKI953B1vtw&utm_campaign=yelp_api_v3&utm_medium=api_v3_business_search&utm_source=asslzE1UV0XuKI953B1vtw", "review_count": 14, "categories": [{"alias": "pizza", "title": "Pizza"}], "rating": 4.0, "coordinates": {"latitude": 41.950313, "longitude": -71.88737}, "transactions": ["delivery"], "price": "$", "location": {"address1": "292 Riverside Dr", "address2": null, "address3": null, "city": "Thompson", "zip_code": "06277", "country": "US", "state": "CT", "display_address": ["292 Riverside Dr", "Thompson, CT 06277"]}, "phone": "+18609233500", "display_phone": "(860) 923-3500", "distance": 23162.38686806381}, {"id": "IF3K0XuTBbLQoEXoSquE5w", "alias": "webster-house-of-pizza-webster", "name": "Webster House Of Pizza", "image_url": "https://s3-media4.fl.yelpcdn.com/bphoto/MfiRYSik3xCKY5QIAUluWA/o.jpg", "is_closed": false, "url": "https://www.yelp.com/biz/webster-house-of-pizza-webster?adjust_creative=asslzE1UV0XuKI953B1vtw&utm_campaign=yelp_api_v3&utm_medium=api_v3_business_search&utm_source=asslzE1UV0XuKI953B1vtw", "review_count": 13, "categories": [{"alias": "pizza", "title": "Pizza"}], "rating": 4.5, "coordinates": {"latitude": 42.0547081543662, "longitude": -71.8775855059407}, "transactions": ["delivery"], "location": {"address1": "11 E Main St", "address2": "", "address3": null, "city": "Webster", "zip_code": "01570", "country": "US", "state": "MA", "display_address": ["11 E Main St", "Webster, MA 01570"]}, "phone": "+15089492593", "display_phone": "(508) 949-2593", "distance": 17499.37470367056}, {"id": "rXAGuM-Kjt2pW8r4wk3TtA", "alias": "cheoylee-leicester-2", "name": "CheoyLee", "image_url": "https://s3-media2.fl.yelpcdn.com/bphoto/59aNekdPqmwG5ZnAYf_ooQ/o.jpg", "is_closed": false, "url": "https://www.yelp.com/biz/cheoylee-leicester-2?adjust_creative=asslzE1UV0XuKI953B1vtw&utm_campaign=yelp_api_v3&utm_medium=api_v3_business_search&utm_source=asslzE1UV0XuKI953B1vtw", "review_count": 14, "categories": [{"alias": "chinese", "title": "Chinese"}], "rating": 3.5, "coordinates": {"latitude": 42.244172, "longitude": -71.916669}, "transactions": ["delivery"], "price": "$$", "location": {"address1": "1205 Main St", "address2": null, "address3": null, "city": "Leicester", "zip_code": "01524", "country": "US", "state": "MA", "display_address": ["1205 Main St", "Leicester, MA 01524"]}, "phone": "+15088928441", "display_phone": "(508) 892-8441", "distance": 20780.452930375912}, {"id": "FTTTC5zRb6Ze6E2ImSaCVA", "alias": "papa-ginos-pizzeria-charlton", "name": "Papa Gino's Pizzeria", "image_url": "https://s3-media2.fl.yelpcdn.com/bphoto/JEfWFgP1aeUg44dr3GvOEg/o.jpg", "is_closed": false, "url": "https://www.yelp.com/biz/papa-ginos-pizzeria-charlton?adjust_creative=asslzE1UV0XuKI953B1vtw&utm_campaign=yelp_api_v3&utm_medium=api_v3_business_search&utm_source=asslzE1UV0XuKI953B1vtw", "review_count": 6, "categories": [{"alias": "pizza", "title": "Pizza"}], "rating": 2.0, "coordinates": {"latitude": 42.138411, "longitude": -72.028237}, "transactions": ["delivery"], "location": {"address1": "166 Sturbridge Rd", "address2": null, "address3": null, "city": "Charlton", "zip_code": "01507", "country": "US", "state": "MA", "display_address": ["166 Sturbridge Rd", "Charlton, MA 01507"]}, "phone": "+15082481061", "display_phone": "(508) 248-1061", "distance": 6205.6256146893}, {"id": "UP47x1auB-PfbtfdKrvzoA", "alias": "buddys-leicester", "name": "Buddy's", "image_url": "https://s3-media2.fl.yelpcdn.com/bphoto/nuOnR8z2P-OGmlZVTV6dgg/o.jpg", "is_closed": false, "url": "https://www.yelp.com/biz/buddys-leicester?adjust_creative=asslzE1UV0XuKI953B1vtw&utm_campaign=yelp_api_v3&utm_medium=api_v3_business_search&utm_source=asslzE1UV0XuKI953B1vtw", "review_count": 6, "categories": [{"alias": "tradamerican", "title": "American (Traditional)"}], "rating": 3.0, "coordinates": {"latitude": 42.19471, "longitude": -71.90606}, "transactions": [], "price": "$", "location": {"address1": "1080 Stafford St", "address2": "", "address3": null, "city": "Leicester", "zip_code": "01542", "country": "US", "state": "MA", "display_address": ["1080 Stafford St", "Leicester, MA 01542"]}, "phone": "+15088929087", "display_phone": "(508) 892-9087", "distance": 17699.420755927335}, {"id": "7dP_BDffV8OkuLKEGINoGw", "alias": "subway-sturbridge-6", "name": "Subway", "image_url": "https://s3-media4.fl.yelpcdn.com/bphoto/DSvKHkMBxpDX-qxH3C59XA/o.jpg", "is_closed": false, "url": "https://www.yelp.com/biz/subway-sturbridge-6?adjust_creative=asslzE1UV0XuKI953B1vtw&utm_campaign=yelp_api_v3&utm_medium=api_v3_business_search&utm_source=asslzE1UV0XuKI953B1vtw", "review_count": 2, "categories": [{"alias": "sandwiches", "title": "Sandwiches"}], "rating": 2.0, "coordinates": {"latitude": 42.1160695389239, "longitude": -72.0676040002186}, "transactions": ["pickup", "delivery"], "price": "$", "location": {"address1": "215 Charlton Rd", "address2": null, "address3": null, "city": "Sturbridge", "zip_code": "01566", "country": "US", "state": "MA", "display_address": ["215 Charlton Rd", "Sturbridge, MA 01566"]}, "phone": "+15083475600", "display_phone": "(508) 347-5600", "distance": 1889.7121649091503}, {"id": "emJp6zdSuOZAofvjYunFRA", "alias": "farmhouse-diner-leicester", "name": "Farmhouse Diner", "image_url": "", "is_closed": false, "url": "https://www.yelp.com/biz/farmhouse-diner-leicester?adjust_creative=asslzE1UV0XuKI953B1vtw&utm_campaign=yelp_api_v3&utm_medium=api_v3_business_search&utm_source=asslzE1UV0XuKI953B1vtw", "review_count": 1, "categories": [{"alias": "diners", "title": "Diners"}], "rating": 1.0, "coordinates": {"latitude": 42.245451, "longitude": -71.907035}, "transactions": [], "location": {"address1": "15 S Main St", "address2": null, "address3": "", "city": "Leicester", "zip_code": "01524", "country": "US", "state": "MA", "display_address": ["15 S Main St", "Leicester, MA 01524"]}, "phone": "+15088923222", "display_phone": "(508) 892-3222", "distance": 21436.768744080277}, {"id": "PWkP3vd_SJxEyh5xbYfJ-A", "alias": "pizza-hut-spencer-7", "name": "Pizza Hut", "image_url": "https://s3-media3.fl.yelpcdn.com/bphoto/hTGz8wP4UAjVvGJneraX9w/o.jpg", "is_closed": false, "url": "https://www.yelp.com/biz/pizza-hut-spencer-7?adjust_creative=asslzE1UV0XuKI953B1vtw&utm_campaign=yelp_api_v3&utm_medium=api_v3_business_search&utm_source=asslzE1UV0XuKI953B1vtw", "review_count": 3, "categories": [{"alias": "pizza", "title": "Pizza"}, {"alias": "italian", "title": "Italian"}], "rating": 4.0, "coordinates": {"latitude": 42.2333170257464, "longitude": -72.0150576948935}, "transactions": [], "price": "$", "location": {"address1": "62 W Main St", "address2": "", "address3": "", "city": "Spencer", "zip_code": "01562", "country": "US", "state": "MA", "display_address": ["62 W Main St", "Spencer, MA 01562"]}, "phone": "+15088855345", "display_phone": "(508) 885-5345", "distance": 15576.563487390029}, {"id": "P3GSgNPUBIVmkGJTil5Wwg", "alias": "athens-pizza-brimfield", "name": "Athens Pizza", "image_url": "https://s3-media1.fl.yelpcdn.com/bphoto/jttJHc-xQMWnq1Zod5wIYA/o.jpg", "is_closed": false, "url": "https://www.yelp.com/biz/athens-pizza-brimfield?adjust_creative=asslzE1UV0XuKI953B1vtw&utm_campaign=yelp_api_v3&utm_medium=api_v3_business_search&utm_source=asslzE1UV0XuKI953B1vtw", "review_count": 10, "categories": [{"alias": "pizza", "title": "Pizza"}], "rating": 3.5, "coordinates": {"latitude": 42.11982, "longitude": -72.19916}, "transactions": [], "price": "$", "location": {"address1": "26 Sturbridge Rd", "address2": "", "address3": "", "city": "Brimfield", "zip_code": "01010", "country": "US", "state": "MA", "display_address": ["26 Sturbridge Rd", "Brimfield, MA 01010"]}, "phone": "+14132459437", "display_phone": "(413) 245-9437", "distance": 9997.296443237776}, {"id": "5cPBwjgg7WCa0SgYuocF6Q", "alias": "subway-sturbridge-7", "name": "Subway", "image_url": "https://s3-media3.fl.yelpcdn.com/bphoto/ZDFqf1z7iIVIU9PGhF9ABw/o.jpg", "is_closed": true, "url": "https://www.yelp.com/biz/subway-sturbridge-7?adjust_creative=asslzE1UV0XuKI953B1vtw&utm_campaign=yelp_api_v3&utm_medium=api_v3_business_search&utm_source=asslzE1UV0XuKI953B1vtw", "review_count": 5, "categories": [{"alias": "sandwiches", "title": "Sandwiches"}], "rating": 2.0, "coordinates": {"latitude": 42.1281663, "longitude": -72.060058}, "transactions": [], "price": "$", "location": {"address1": "100 Charlton Rd", "address2": null, "address3": null, "city": "Sturbridge", "zip_code": "01566", "country": "US", "state": "MA", "display_address": ["100 Charlton Rd", "Sturbridge, MA 01566"]}, "phone": "+15083475855", "display_phone": "(508) 347-5855", "distance": 3364.279743782176}, {"id": "Dpyal9p7-E1HJgcRixQLdg", "alias": "american-motor-lodge-best-western-sturbridge", "name": "American Motor Lodge-Best Western", "image_url": "", "is_closed": false, "url": "https://www.yelp.com/biz/american-motor-lodge-best-western-sturbridge?adjust_creative=asslzE1UV0XuKI953B1vtw&utm_campaign=yelp_api_v3&utm_medium=api_v3_business_search&utm_source=asslzE1UV0XuKI953B1vtw", "review_count": 1, "categories": [{"alias": "hotels", "title": "Hotels"}, {"alias": "restaurants", "title": "Restaurants"}], "rating": 1.0, "coordinates": {"latitude": 42.113239, "longitude": -72.084112}, "transactions": [], "location": {"address1": "Rt 20", "address2": "", "address3": "", "city": "Sturbridge", "zip_code": "01566", "country": "US", "state": "MA", "display_address": ["Rt 20", "Sturbridge, MA 01566"]}, "phone": "+15083479121", "display_phone": "(508) 347-9121", "distance": 1324.1610937376183}, {"id": "tvRhb4dXverm3watzDLtGw", "alias": "fresh-city-charlton-2", "name": "Fresh City", "image_url": "https://s3-media1.fl.yelpcdn.com/bphoto/qwDfueXdJ_j9rEKdRCaAVQ/o.jpg", "is_closed": false, "url": "https://www.yelp.com/biz/fresh-city-charlton-2?adjust_creative=asslzE1UV0XuKI953B1vtw&utm_campaign=yelp_api_v3&utm_medium=api_v3_business_search&utm_source=asslzE1UV0XuKI953B1vtw", "review_count": 14, "categories": [{"alias": "delis", "title": "Delis"}, {"alias": "sandwiches", "title": "Sandwiches"}], "rating": 1.5, "coordinates": {"latitude": 42.156434463791, "longitude": -71.9642174128566}, "transactions": [], "price": "$", "location": {"address1": "Massachusetts Turnpike", "address2": "", "address3": "", "city": "Charlton", "zip_code": "01508", "country": "US", "state": "MA", "display_address": ["Massachusetts Turnpike", "Charlton, MA 01508"]}, "phone": "+15082480663", "display_phone": "(508) 248-0663", "distance": 11315.184465037717}, {"id": "9UQg8YZ4jXCLz9tcShEDpw", "alias": "castle-restaurant-leicester", "name": "Castle Restaurant", "image_url": "https://s3-media3.fl.yelpcdn.com/bphoto/-7nsDnvr2kAFDSHYftrZ3w/o.jpg", "is_closed": false, "url": "https://www.yelp.com/biz/castle-restaurant-leicester?adjust_creative=asslzE1UV0XuKI953B1vtw&utm_campaign=yelp_api_v3&utm_medium=api_v3_business_search&utm_source=asslzE1UV0XuKI953B1vtw", "review_count": 80, "categories": [{"alias": "french", "title": "French"}, {"alias": "newamerican", "title": "American (New)"}, {"alias": "tradamerican", "title": "American (Traditional)"}], "rating": 3.5, "coordinates": {"latitude": 42.24453, "longitude": -71.91685}, "transactions": ["delivery"], "price": "$$", "location": {"address1": "1230 Main St", "address2": "", "address3": "", "city": "Leicester", "zip_code": "01524", "country": "US", "state": "MA", "display_address": ["1230 Main St", "Leicester, MA 01524"]}, "phone": "+15088929090", "display_phone": "(508) 892-9090", "distance": 20870.097234868885}, {"id": "Z0-OVloiiicUx54Q_NlXeg", "alias": "papa-ginos-charlton-2", "name": "Papa Gino's", "image_url": "https://s3-media1.fl.yelpcdn.com/bphoto/XMfmh_v23h5Tf8FRb7jx4g/o.jpg", "is_closed": false, "url": "https://www.yelp.com/biz/papa-ginos-charlton-2?adjust_creative=asslzE1UV0XuKI953B1vtw&utm_campaign=yelp_api_v3&utm_medium=api_v3_business_search&utm_source=asslzE1UV0XuKI953B1vtw", "review_count": 5, "categories": [{"alias": "pizza", "title": "Pizza"}], "rating": 3.0, "coordinates": {"latitude": 42.1565865558527, "longitude": -71.9640472644289}, "transactions": ["delivery"], "location": {"address1": "Massachusetts Tpke", "address2": "", "address3": "", "city": "Charlton", "zip_code": "", "country": "US", "state": "MA", "display_address": ["Massachusetts Tpke", "Charlton, MA"]}, "phone": "", "display_phone": "", "distance": 11336.098785071841}, {"id": "JNS8mSTW9fScMeeixiG2lw", "alias": "mcdonalds-southbridge-3", "name": "McDonald's", "image_url": "https://s3-media2.fl.yelpcdn.com/bphoto/4WBiGyCrLtatVLyyJhcgaA/o.jpg", "is_closed": false, "url": "https://www.yelp.com/biz/mcdonalds-southbridge-3?adjust_creative=asslzE1UV0XuKI953B1vtw&utm_campaign=yelp_api_v3&utm_medium=api_v3_business_search&utm_source=asslzE1UV0XuKI953B1vtw", "review_count": 11, "categories": [{"alias": "coffee", "title": "Coffee & Tea"}, {"alias": "burgers", "title": "Burgers"}, {"alias": "hotdogs", "title": "Fast Food"}], "rating": 2.5, "coordinates": {"latitude": 42.0686353173383, "longitude": -72.0091366767883}, "transactions": [], "price": "$", "location": {"address1": "515 E Main St", "address2": null, "address3": null, "city": "Southbridge", "zip_code": "01550", "country": "US", "state": "MA", "display_address": ["515 E Main St", "Southbridge, MA 01550"]}, "phone": "+15087642196", "display_phone": "(508) 764-2196", "distance": 6904.934847082084}, {"id": "_UT5juvQopWG6kje9U1GuA", "alias": "rainbow-pizza-house-webster-2", "name": "Rainbow Pizza House", "image_url": "https://s3-media2.fl.yelpcdn.com/bphoto/VFjpq_4jC_B-ujC6tpgqhQ/o.jpg", "is_closed": false, "url": "https://www.yelp.com/biz/rainbow-pizza-house-webster-2?adjust_creative=asslzE1UV0XuKI953B1vtw&utm_campaign=yelp_api_v3&utm_medium=api_v3_business_search&utm_source=asslzE1UV0XuKI953B1vtw", "review_count": 10, "categories": [{"alias": "pizza", "title": "Pizza"}], "rating": 3.5, "coordinates": {"latitude": 42.049314, "longitude": -71.885598}, "transactions": [], "price": "$", "location": {"address1": "81 Main St", "address2": "", "address3": null, "city": "Webster", "zip_code": "01570", "country": "US", "state": "MA", "display_address": ["81 Main St", "Webster, MA 01570"]}, "phone": "+15089438672", "display_phone": "(508) 943-8672", "distance": 17065.594463094574}, {"id": "vnh055ZHDtJFWGU7HjZaIw", "alias": "jimmys-pizza-dudley-5", "name": "Jimmy's Pizza", "image_url": "https://s3-media1.fl.yelpcdn.com/bphoto/eiIT-vfcbKTNkEoJ0mknyg/o.jpg", "is_closed": false, "url": "https://www.yelp.com/biz/jimmys-pizza-dudley-5?adjust_creative=asslzE1UV0XuKI953B1vtw&utm_campaign=yelp_api_v3&utm_medium=api_v3_business_search&utm_source=asslzE1UV0XuKI953B1vtw", "review_count": 30, "categories": [{"alias": "pizza", "title": "Pizza"}], "rating": 3.5, "coordinates": {"latitude": 42.0404091, "longitude": -71.9116898}, "transactions": [], "price": "$", "location": {"address1": "185 W Main St", "address2": "Ste 7", "address3": "", "city": "Dudley", "zip_code": "01571", "country": "US", "state": "MA", "display_address": ["185 W Main St", "Ste 7", "Dudley, MA 01571"]}, "phone": "+15089490722", "display_phone": "(508) 949-0722", "distance": 15538.770861293913}, {"id": "a337zkmoaGIJGUApn46wGA", "alias": "d-angelo-natick-2", "name": "D'Angelo", "image_url": "https://s3-media1.fl.yelpcdn.com/bphoto/uS3563JIhI5YPG4UJJNZHw/o.jpg", "is_closed": false, "url": "https://www.yelp.com/biz/d-angelo-natick-2?adjust_creative=asslzE1UV0XuKI953B1vtw&utm_campaign=yelp_api_v3&utm_medium=api_v3_business_search&utm_source=asslzE1UV0XuKI953B1vtw", "review_count": 2, "categories": [{"alias": "sandwiches", "title": "Sandwiches"}], "rating": 3.0, "coordinates": {"latitude": 42.1565304953665, "longitude": -71.9640567173507}, "transactions": [], "location": {"address1": "117 Mass Turnpike W", "address2": "", "address3": "", "city": "Natick", "zip_code": "02062", "country": "US", "state": "MA", "display_address": ["117 Mass Turnpike W", "Natick, MA 02062"]}, "phone": "+15086552958", "display_phone": "(508) 655-2958", "distance": 11332.092812885}, {"id": "korFZpunosGkNq5HYJkuhg", "alias": "johns-pizza-spencer", "name": "John's Pizza", "image_url": "https://s3-media2.fl.yelpcdn.com/bphoto/WK44ri8DaBsfonFXQwUrdg/o.jpg", "is_closed": false, "url": "https://www.yelp.com/biz/johns-pizza-spencer?adjust_creative=asslzE1UV0XuKI953B1vtw&utm_campaign=yelp_api_v3&utm_medium=api_v3_business_search&utm_source=asslzE1UV0XuKI953B1vtw", "review_count": 23, "categories": [{"alias": "pizza", "title": "Pizza"}], "rating": 3.0, "coordinates": {"latitude": 42.24354, "longitude": -71.99274}, "transactions": [], "price": "$$", "location": {"address1": "158 Main St", "address2": "Ste 3", "address3": "", "city": "Spencer", "zip_code": "01562", "country": "US", "state": "MA", "display_address": ["158 Main St", "Ste 3", "Spencer, MA 01562"]}, "phone": "+15088856936", "display_phone": "(508) 885-6936", "distance": 17322.413736287264}, {"id": "HknqAjrc3oM277HLASIMzg", "alias": "thompson-house-of-pizza-north-grosvenor-dale", "name": "Thompson House of Pizza", "image_url": "https://s3-media1.fl.yelpcdn.com/bphoto/-ExABgh40Q6REJveTC0D7A/o.jpg", "is_closed": false, "url": "https://www.yelp.com/biz/thompson-house-of-pizza-north-grosvenor-dale?adjust_creative=asslzE1UV0XuKI953B1vtw&utm_campaign=yelp_api_v3&utm_medium=api_v3_business_search&utm_source=asslzE1UV0XuKI953B1vtw", "review_count": 17, "categories": [{"alias": "pizza", "title": "Pizza"}, {"alias": "chicken_wings", "title": "Chicken Wings"}], "rating": 3.5, "coordinates": {"latitude": 41.99894, "longitude": -71.8988}, "transactions": ["delivery"], "price": "$", "location": {"address1": "1139 Riverside Dr", "address2": "", "address3": "", "city": "North Grosvenor Dale", "zip_code": "06255", "country": "US", "state": "CT", "display_address": ["1139 Riverside Dr", "North Grosvenor Dale, CT 06255"]}, "phone": "+18609233018", "display_phone": "(860) 923-3018", "distance": 18842.332437001074}, {"id": "BU6RpebYFrKuP8xfwXRubg", "alias": "franks-franks-auburn", "name": "Frank'S Franks", "image_url": "https://s3-media4.fl.yelpcdn.com/bphoto/c-KZD08a_4u9QaqoupEdlg/o.jpg", "is_closed": false, "url": "https://www.yelp.com/biz/franks-franks-auburn?adjust_creative=asslzE1UV0XuKI953B1vtw&utm_campaign=yelp_api_v3&utm_medium=api_v3_business_search&utm_source=asslzE1UV0XuKI953B1vtw", "review_count": 1, "categories": [{"alias": "newamerican", "title": "American (New)"}], "rating": 2.0, "coordinates": {"latitude": 42.1749534606934, "longitude": -71.8760375976562}, "transactions": [], "price": "$", "location": {"address1": "879-889 Southbridge Rd", "address2": "", "address3": "", "city": "Auburn", "zip_code": "01501", "country": "US", "state": "MA", "display_address": ["879-889 Southbridge Rd", "Auburn, MA 01501"]}, "phone": "", "display_phone": "", "distance": 18678.651897882377}, {"id": "uLvlyJle6VxAdZyw5wGqKg", "alias": "astronaut-pizza-house-ware", "name": "Astronaut Pizza House", "image_url": "https://s3-media1.fl.yelpcdn.com/bphoto/hnCmjlVlZG-RPFldt0QL7A/o.jpg", "is_closed": false, "url": "https://www.yelp.com/biz/astronaut-pizza-house-ware?adjust_creative=asslzE1UV0XuKI953B1vtw&utm_campaign=yelp_api_v3&utm_medium=api_v3_business_search&utm_source=asslzE1UV0XuKI953B1vtw", "review_count": 8, "categories": [{"alias": "pizza", "title": "Pizza"}], "rating": 2.5, "coordinates": {"latitude": 42.251477, "longitude": -72.258679}, "transactions": [], "price": "$$", "location": {"address1": "197 West St", "address2": "", "address3": "", "city": "Ware", "zip_code": "01082", "country": "US", "state": "MA", "display_address": ["197 West St", "Ware, MA 01082"]}, "phone": "+14139675685", "display_phone": "(413) 967-5685", "distance": 22230.26648047227}, {"id": "GevCzGJJNY7wggXDp-bdkg", "alias": "d-angelo-sandwich-shops-charlton", "name": "D'Angelo Sandwich Shops", "image_url": "https://s3-media2.fl.yelpcdn.com/bphoto/DOv0KrDMhZbPlp_qQIypuw/o.jpg", "is_closed": false, "url": "https://www.yelp.com/biz/d-angelo-sandwich-shops-charlton?adjust_creative=asslzE1UV0XuKI953B1vtw&utm_campaign=yelp_api_v3&utm_medium=api_v3_business_search&utm_source=asslzE1UV0XuKI953B1vtw", "review_count": 4, "categories": [{"alias": "sandwiches", "title": "Sandwiches"}], "rating": 2.0, "coordinates": {"latitude": 42.158604, "longitude": -71.965294}, "transactions": [], "location": {"address1": "Mass Pike Westbound", "address2": "", "address3": "", "city": "Charlton", "zip_code": "01507", "country": "US", "state": "MA", "display_address": ["Mass Pike Westbound", "Charlton, MA 01507"]}, "phone": "+15082485216", "display_phone": "(508) 248-5216", "distance": 11372.61164107412}, {"id": "xuNN23A2qEoy3AkH7M6ytQ", "alias": "dairy-queen-grill-and-chill-spencer", "name": "Dairy Queen Grill & Chill", "image_url": "https://s3-media4.fl.yelpcdn.com/bphoto/jzL6q6MxKOihP9Yv4L5K_Q/o.jpg", "is_closed": false, "url": "https://www.yelp.com/biz/dairy-queen-grill-and-chill-spencer?adjust_creative=asslzE1UV0XuKI953B1vtw&utm_campaign=yelp_api_v3&utm_medium=api_v3_business_search&utm_source=asslzE1UV0XuKI953B1vtw", "review_count": 15, "categories": [{"alias": "icecream", "title": "Ice Cream & Frozen Yogurt"}, {"alias": "hotdogs", "title": "Fast Food"}, {"alias": "burgers", "title": "Burgers"}], "rating": 3.5, "coordinates": {"latitude": 42.2501839275466, "longitude": -71.9803109765053}, "transactions": [], "price": "$", "location": {"address1": "291 Main St", "address2": "", "address3": "", "city": "Spencer", "zip_code": "01562", "country": "US", "state": "MA", "display_address": ["291 Main St", "Spencer, MA 01562"]}, "phone": "+15088852748", "display_phone": "(508) 885-2748", "distance": 18434.417101533858}, {"id": "vqp0j29yDKzpeSm-qPXAJQ", "alias": "bills-pizza-rochdale", "name": "Bill's Pizza", "image_url": "https://s3-media4.fl.yelpcdn.com/bphoto/bZ0bsdXPWToC5E7Ke_jLIg/o.jpg", "is_closed": false, "url": "https://www.yelp.com/biz/bills-pizza-rochdale?adjust_creative=asslzE1UV0XuKI953B1vtw&utm_campaign=yelp_api_v3&utm_medium=api_v3_business_search&utm_source=asslzE1UV0XuKI953B1vtw", "review_count": 22, "categories": [{"alias": "pizza", "title": "Pizza"}, {"alias": "beer_and_wine", "title": "Beer, Wine & Spirits"}], "rating": 3.0, "coordinates": {"latitude": 42.1917114, "longitude": -71.9091873}, "transactions": ["delivery"], "price": "$", "location": {"address1": "1141 Stafford St", "address2": null, "address3": null, "city": "Rochdale", "zip_code": "01542", "country": "US", "state": "MA", "display_address": ["1141 Stafford St", "Rochdale, MA 01542"]}, "phone": "+15088920082", "display_phone": "(508) 892-0082", "distance": 17276.38592119368}, {"id": "0GF5VFxjfJZqJ3lb69RZbQ", "alias": "uncle-sams-pizza-east-brookfield", "name": "Uncle Sam's Pizza", "image_url": "https://s3-media3.fl.yelpcdn.com/bphoto/rJTXt0bkE5p4q83tG5v0cw/o.jpg", "is_closed": false, "url": "https://www.yelp.com/biz/uncle-sams-pizza-east-brookfield?adjust_creative=asslzE1UV0XuKI953B1vtw&utm_campaign=yelp_api_v3&utm_medium=api_v3_business_search&utm_source=asslzE1UV0XuKI953B1vtw", "review_count": 11, "categories": [{"alias": "pizza", "title": "Pizza"}], "rating": 3.0, "coordinates": {"latitude": 42.22993, "longitude": -72.0374}, "transactions": [], "price": "$", "location": {"address1": "400 E Main St", "address2": "", "address3": "", "city": "East Brookfield", "zip_code": "01515", "country": "US", "state": "MA", "display_address": ["400 E Main St", "East Brookfield, MA 01515"]}, "phone": "+15088855019", "display_phone": "(508) 885-5019", "distance": 14633.680963923665}, {"id": "d3kdqVe74sUBPio0fugN4w", "alias": "subway-leicester-11", "name": "Subway", "image_url": "https://s3-media1.fl.yelpcdn.com/bphoto/oAUVnb7sOuyF3ue2xeOtZw/o.jpg", "is_closed": false, "url": "https://www.yelp.com/biz/subway-leicester-11?adjust_creative=asslzE1UV0XuKI953B1vtw&utm_campaign=yelp_api_v3&utm_medium=api_v3_business_search&utm_source=asslzE1UV0XuKI953B1vtw", "review_count": 2, "categories": [{"alias": "sandwiches", "title": "Sandwiches"}], "rating": 4.0, "coordinates": {"latitude": 42.2447087976669, "longitude": -71.914986594792}, "transactions": [], "price": "$", "location": {"address1": "1199 Main St", "address2": "", "address3": "", "city": "Leicester", "zip_code": "01524", "country": "US", "state": "MA", "display_address": ["1199 Main St", "Leicester, MA 01524"]}, "phone": "+15088924421", "display_phone": "(508) 892-4421", "distance": 20915.77570962615}, {"id": "JuRhlHEW3hF8kQgy4U5ScQ", "alias": "village-pizza-spencer", "name": "Village Pizza", "image_url": "https://s3-media2.fl.yelpcdn.com/bphoto/rJGgd3rsr_-bWlKI3W4Fsg/o.jpg", "is_closed": false, "url": "https://www.yelp.com/biz/village-pizza-spencer?adjust_creative=asslzE1UV0XuKI953B1vtw&utm_campaign=yelp_api_v3&utm_medium=api_v3_business_search&utm_source=asslzE1UV0XuKI953B1vtw", "review_count": 7, "categories": [{"alias": "pizza", "title": "Pizza"}], "rating": 3.0, "coordinates": {"latitude": 42.2514224052429, "longitude": -71.9771010428667}, "transactions": [], "location": {"address1": "320 Main St", "address2": "Ste 2", "address3": "", "city": "Spencer", "zip_code": "01562", "country": "US", "state": "MA", "display_address": ["320 Main St", "Ste 2", "Spencer, MA 01562"]}, "phone": "+15088851114", "display_phone": "(508) 885-1114", "distance": 18671.339209133654}, {"id": "5Reotu9GfyMCaMcAC4ET0w", "alias": "east-brookfield-pizza-east-brookfield", "name": "East Brookfield Pizza", "image_url": "https://s3-media1.fl.yelpcdn.com/bphoto/basBKLvUpIDlq39TVjad6w/o.jpg", "is_closed": false, "url": "https://www.yelp.com/biz/east-brookfield-pizza-east-brookfield?adjust_creative=asslzE1UV0XuKI953B1vtw&utm_campaign=yelp_api_v3&utm_medium=api_v3_business_search&utm_source=asslzE1UV0XuKI953B1vtw", "review_count": 8, "categories": [{"alias": "pizza", "title": "Pizza"}], "rating": 3.5, "coordinates": {"latitude": 42.226144, "longitude": -72.047749}, "transactions": [], "price": "$$", "location": {"address1": "289 East Main St", "address2": null, "address3": null, "city": "East Brookfield", "zip_code": "01515", "country": "US", "state": "MA", "display_address": ["289 East Main St", "East Brookfield, MA 01515"]}, "phone": "+15088678777", "display_phone": "(508) 867-8777", "distance": 14084.706444069523}, {"id": "Kbe0Tmm-vICNFo_Vez-U8Q", "alias": "big-als-pizza-plus-dudley", "name": "Big Al's Pizza Plus", "image_url": "https://s3-media1.fl.yelpcdn.com/bphoto/2cbzUhWFMJsp-pE6-r98kQ/o.jpg", "is_closed": false, "url": "https://www.yelp.com/biz/big-als-pizza-plus-dudley?adjust_creative=asslzE1UV0XuKI953B1vtw&utm_campaign=yelp_api_v3&utm_medium=api_v3_business_search&utm_source=asslzE1UV0XuKI953B1vtw", "review_count": 25, "categories": [{"alias": "pizza", "title": "Pizza"}, {"alias": "seafood", "title": "Seafood"}, {"alias": "sandwiches", "title": "Sandwiches"}], "rating": 3.0, "coordinates": {"latitude": 42.0433731079102, "longitude": -71.8918533325195}, "transactions": ["delivery"], "price": "$", "location": {"address1": "23 Brandon Rd", "address2": null, "address3": null, "city": "Dudley", "zip_code": "01571", "country": "US", "state": "MA", "display_address": ["23 Brandon Rd", "Dudley, MA 01571"]}, "phone": "+15084617446", "display_phone": "(508) 461-7446", "distance": 16824.659121335262}, {"id": "LtCwcvjmjXvEYnjnPtkNoA", "alias": "mcdonalds-charlton-8", "name": "McDonald's", "image_url": "https://s3-media1.fl.yelpcdn.com/bphoto/_kT0RkE8Ml38lP5xNfSOxA/o.jpg", "is_closed": false, "url": "https://www.yelp.com/biz/mcdonalds-charlton-8?adjust_creative=asslzE1UV0XuKI953B1vtw&utm_campaign=yelp_api_v3&utm_medium=api_v3_business_search&utm_source=asslzE1UV0XuKI953B1vtw", "review_count": 24, "categories": [{"alias": "hotdogs", "title": "Fast Food"}, {"alias": "burgers", "title": "Burgers"}, {"alias": "coffee", "title": "Coffee & Tea"}], "rating": 1.5, "coordinates": {"latitude": 42.15299, "longitude": -71.97941}, "transactions": [], "price": "$", "location": {"address1": "Mass Pike I-90 Service Area Milepost 89", "address2": null, "address3": null, "city": "Charlton", "zip_code": "01507", "country": "US", "state": "MA", "display_address": ["Mass Pike I-90 Service Area Milepost 89", "Charlton, MA 01507"]}, "phone": "+15082486788", "display_phone": "(508) 248-6788", "distance": 11297.521620849877}, {"id": "JDJEMD0M4Q0l31-YS0mC-w", "alias": "northeast-pizza-west-brookfield", "name": "Northeast Pizza", "image_url": "https://s3-media2.fl.yelpcdn.com/bphoto/JY4uYYJAdshPFLYGjWeFjw/o.jpg", "is_closed": false, "url": "https://www.yelp.com/biz/northeast-pizza-west-brookfield?adjust_creative=asslzE1UV0XuKI953B1vtw&utm_campaign=yelp_api_v3&utm_medium=api_v3_business_search&utm_source=asslzE1UV0XuKI953B1vtw", "review_count": 12, "categories": [{"alias": "pizza", "title": "Pizza"}], "rating": 2.0, "coordinates": {"latitude": 42.2389831542969, "longitude": -72.1653747558594}, "transactions": [], "price": "$", "location": {"address1": "208 W Main St", "address2": null, "address3": null, "city": "West Brookfield", "zip_code": "01585", "country": "US", "state": "MA", "display_address": ["208 W Main St", "West Brookfield, MA 01585"]}, "phone": "+15088679567", "display_phone": "(508) 867-9567", "distance": 16811.870785446645}, {"id": "Hy4KaXrFXFX3p0OOIywiyQ", "alias": "subway-dudley-4", "name": "Subway", "image_url": "https://s3-media2.fl.yelpcdn.com/bphoto/ohCyo3PEPfoephIi8KS5EQ/o.jpg", "is_closed": false, "url": "https://www.yelp.com/biz/subway-dudley-4?adjust_creative=asslzE1UV0XuKI953B1vtw&utm_campaign=yelp_api_v3&utm_medium=api_v3_business_search&utm_source=asslzE1UV0XuKI953B1vtw", "review_count": 6, "categories": [{"alias": "sandwiches", "title": "Sandwiches"}], "rating": 2.0, "coordinates": {"latitude": 42.0420636730551, "longitude": -71.9071146184027}, "transactions": [], "price": "$", "location": {"address1": "157 W Main St", "address2": "", "address3": "", "city": "Dudley", "zip_code": "01571", "country": "US", "state": "MA", "display_address": ["157 W Main St", "Dudley, MA 01571"]}, "phone": "+15089498665", "display_phone": "(508) 949-8665", "distance": 15731.963228348151}, {"id": "0WQaFHl-lowsJHlt8kaDFA", "alias": "good-guys-pizza-leicester", "name": "Good Guys Pizza", "image_url": "https://s3-media1.fl.yelpcdn.com/bphoto/jOSblXT33-vTSC2SblTVjw/o.jpg", "is_closed": false, "url": "https://www.yelp.com/biz/good-guys-pizza-leicester?adjust_creative=asslzE1UV0XuKI953B1vtw&utm_campaign=yelp_api_v3&utm_medium=api_v3_business_search&utm_source=asslzE1UV0XuKI953B1vtw", "review_count": 16, "categories": [{"alias": "pizza", "title": "Pizza"}, {"alias": "desserts", "title": "Desserts"}, {"alias": "salad", "title": "Salad"}], "rating": 3.0, "coordinates": {"latitude": 42.2458763, "longitude": -71.898784}, "transactions": ["delivery"], "price": "$", "location": {"address1": "865 Main St", "address2": "", "address3": "", "city": "Leicester", "zip_code": "01524", "country": "US", "state": "MA", "display_address": ["865 Main St", "Leicester, MA 01524"]}, "phone": "+15088923200", "display_phone": "(508) 892-3200", "distance": 21906.451049863834}, {"id": "wYKhpMsBZFpS-4wkN9nawg", "alias": "northeast-pizza-leicester", "name": "Northeast Pizza", "image_url": "https://s3-media4.fl.yelpcdn.com/bphoto/3jYNOiEFa-lLQtckTm_80w/o.jpg", "is_closed": false, "url": "https://www.yelp.com/biz/northeast-pizza-leicester?adjust_creative=asslzE1UV0XuKI953B1vtw&utm_campaign=yelp_api_v3&utm_medium=api_v3_business_search&utm_source=asslzE1UV0XuKI953B1vtw", "review_count": 16, "categories": [{"alias": "pizza", "title": "Pizza"}], "rating": 3.0, "coordinates": {"latitude": 42.2442284, "longitude": -71.9163132}, "transactions": ["delivery"], "price": "$", "location": {"address1": "1205 Main St", "address2": "", "address3": "", "city": "Leicester", "zip_code": "01524", "country": "US", "state": "MA", "display_address": ["1205 Main St", "Leicester, MA 01524"]}, "phone": "+15088929276", "display_phone": "(508) 892-9276", "distance": 20798.14294261531}, {"id": "W84Be-TGzND8-MIfmwT8ow", "alias": "mcdonalds-charlton-2", "name": "McDonald's", "image_url": "https://s3-media4.fl.yelpcdn.com/bphoto/Pffw3GCKc7MDT7_30eHitA/o.jpg", "is_closed": false, "url": "https://www.yelp.com/biz/mcdonalds-charlton-2?adjust_creative=asslzE1UV0XuKI953B1vtw&utm_campaign=yelp_api_v3&utm_medium=api_v3_business_search&utm_source=asslzE1UV0XuKI953B1vtw", "review_count": 11, "categories": [{"alias": "hotdogs", "title": "Fast Food"}, {"alias": "burgers", "title": "Burgers"}, {"alias": "coffee", "title": "Coffee & Tea"}], "rating": 2.0, "coordinates": {"latitude": 42.145532, "longitude": -71.9873243}, "transactions": [], "price": "$", "location": {"address1": "38 Worcester Rd", "address2": "", "address3": "", "city": "Charlton", "zip_code": "01507", "country": "US", "state": "MA", "display_address": ["38 Worcester Rd", "Charlton, MA 01507"]}, "phone": "+15082487040", "display_phone": "(508) 248-7040", "distance": 9038.197313639817}, {"id": "a4BtLxq7zyevP_ceyFTTMA", "alias": "mcdonalds-spencer-2", "name": "McDonald's", "image_url": "https://s3-media1.fl.yelpcdn.com/bphoto/AkOAfQAISQcyF_nS7Rx2sw/o.jpg", "is_closed": false, "url": "https://www.yelp.com/biz/mcdonalds-spencer-2?adjust_creative=asslzE1UV0XuKI953B1vtw&utm_campaign=yelp_api_v3&utm_medium=api_v3_business_search&utm_source=asslzE1UV0XuKI953B1vtw", "review_count": 13, "categories": [{"alias": "hotdogs", "title": "Fast Food"}, {"alias": "burgers", "title": "Burgers"}, {"alias": "coffee", "title": "Coffee & Tea"}], "rating": 2.5, "coordinates": {"latitude": 42.233007, "longitude": -72.012469}, "transactions": [], "price": "$", "location": {"address1": "59 W Main St", "address2": "", "address3": "", "city": "Spencer", "zip_code": "01562", "country": "US", "state": "MA", "display_address": ["59 W Main St", "Spencer, MA 01562"]}, "phone": "+15088853355", "display_phone": "(508) 885-3355", "distance": 15618.856145971919}, {"id": "QRYb653_lWE9Hf1KlzykNg", "alias": "mcdonalds-charlton-7", "name": "McDonald's", "image_url": "https://s3-media4.fl.yelpcdn.com/bphoto/KuCRqa0z50L4TM1QrE6L8A/o.jpg", "is_closed": false, "url": "https://www.yelp.com/biz/mcdonalds-charlton-7?adjust_creative=asslzE1UV0XuKI953B1vtw&utm_campaign=yelp_api_v3&utm_medium=api_v3_business_search&utm_source=asslzE1UV0XuKI953B1vtw", "review_count": 9, "categories": [{"alias": "hotdogs", "title": "Fast Food"}, {"alias": "burgers", "title": "Burgers"}, {"alias": "coffee", "title": "Coffee & Tea"}], "rating": 1.5, "coordinates": {"latitude": 42.15299, "longitude": -71.97941}, "transactions": [], "price": "$", "location": {"address1": "Mass Pike I-90 Service Area Eastbound", "address2": "", "address3": "", "city": "Charlton", "zip_code": "01508", "country": "US", "state": "MA", "display_address": ["Mass Pike I-90 Service Area Eastbound", "Charlton, MA 01508"]}, "phone": "+15082480517", "display_phone": "(508) 248-0517", "distance": 9032.195149169671}]