[{"id": "2Xp8K5kCnUIEYFKFfTokZQ", "alias": "once-upon-a-table-stockbridge", "name": "Once Upon A Table", "image_url": "https://s3-media3.fl.yelpcdn.com/bphoto/vR4uWZ3rfBiwfKYSaB-e6Q/o.jpg", "is_closed": false, "url": "https://www.yelp.com/biz/once-upon-a-table-stockbridge?adjust_creative=ywY5UnLZrNrRl2b93Ruy_g&utm_campaign=yelp_api_v3&utm_medium=api_v3_business_search&utm_source=ywY5UnLZrNrRl2b93Ruy_g", "review_count": 170, "categories": [{"alias": "tradamerican", "title": "American (Traditional)"}], "rating": 4.0, "coordinates": {"latitude": 42.28175, "longitude": -73.31132}, "transactions": ["delivery"], "price": "$$", "location": {"address1": "36 Main St", "address2": "", "address3": "", "city": "Stockbridge", "zip_code": "01262", "country": "US", "state": "MA", "display_address": ["36 Main St", "Stockbridge, MA 01262"]}, "phone": "+14132983870", "display_phone": "(413) 298-3870", "distance": 2764.056797884273}, {"id": "gJeTDn1BUdcbyotYFyTRiA", "alias": "nudel-lenox", "name": "Nudel", "image_url": "https://s3-media1.fl.yelpcdn.com/bphoto/wAMoTy4KTYYaLoQcXr_8yA/o.jpg", "is_closed": false, "url": "https://www.yelp.com/biz/nudel-lenox?adjust_creative=ywY5UnLZrNrRl2b93Ruy_g&utm_campaign=yelp_api_v3&utm_medium=api_v3_business_search&utm_source=ywY5UnLZrNrRl2b93Ruy_g", "review_count": 277, "categories": [{"alias": "newamerican", "title": "American (New)"}], "rating": 4.5, "coordinates": {"latitude": 42.3573399, "longitude": -73.2832715}, "transactions": ["restaurant_reservation", "delivery"], "price": "$$$", "location": {"address1": "37 Church St", "address2": null, "address3": null, "city": "Lenox", "zip_code": "01240", "country": "US", "state": "MA", "display_address": ["37 Church St", "Lenox, MA 01240"]}, "phone": "+14135517183", "display_phone": "(413) 551-7183", "distance": 6037.6990142223485}, {"id": "YYArsKISWhpsOSyO3Yh93w", "alias": "brava-lenox", "name": "Brava", "image_url": "https://s3-media2.fl.yelpcdn.com/bphoto/5mjmMq-ftS5-EzpwVnpTfQ/o.jpg", "is_closed": false, "url": "https://www.yelp.com/biz/brava-lenox?adjust_creative=ywY5UnLZrNrRl2b93Ruy_g&utm_campaign=yelp_api_v3&utm_medium=api_v3_business_search&utm_source=ywY5UnLZrNrRl2b93Ruy_g", "review_count": 196, "categories": [{"alias": "bars", "title": "Bars"}, {"alias": "italian", "title": "Italian"}], "rating": 4.5, "coordinates": {"latitude": 42.357857, "longitude": -73.283105}, "transactions": ["delivery"], "price": "$$", "location": {"address1": "27 Housatonic St", "address2": "", "address3": "", "city": "Lenox", "zip_code": "01240", "country": "US", "state": "MA", "display_address": ["27 Housatonic St", "Lenox, MA 01240"]}, "phone": "+14136379171", "display_phone": "(413) 637-9171", "distance": 6075.2136042445745}, {"id": "o972aKqdzYGiCzWWZx6vWQ", "alias": "chez-nous-lee", "name": "Chez Nous", "image_url": "https://s3-media3.fl.yelpcdn.com/bphoto/iBqQB-SYonf87TmSaxy4XA/o.jpg", "is_closed": false, "url": "https://www.yelp.com/biz/chez-nous-lee?adjust_creative=ywY5UnLZrNrRl2b93Ruy_g&utm_campaign=yelp_api_v3&utm_medium=api_v3_business_search&utm_source=ywY5UnLZrNrRl2b93Ruy_g", "review_count": 195, "categories": [{"alias": "french", "title": "French"}], "rating": 4.5, "coordinates": {"latitude": 42.30769, "longitude": -73.25031}, "transactions": ["pickup", "restaurant_reservation", "delivery"], "price": "$$$", "location": {"address1": "150 Main St", "address2": "", "address3": "", "city": "Lee", "zip_code": "01238", "country": "US", "state": "MA", "display_address": ["150 Main St", "Lee, MA 01238"]}, "phone": "+14132436397", "display_phone": "(413) 243-6397", "distance": 4765.229546414488}, {"id": "aLQjKHWKHyUI4EC_Z1ySQA", "alias": "brick-house-pub-housatonic", "name": "Brick House Pub", "image_url": "https://s3-media4.fl.yelpcdn.com/bphoto/2tvL1uWe0EyfcJ0fh5BfmQ/o.jpg", "is_closed": false, "url": "https://www.yelp.com/biz/brick-house-pub-housatonic?adjust_creative=ywY5UnLZrNrRl2b93Ruy_g&utm_campaign=yelp_api_v3&utm_medium=api_v3_business_search&utm_source=ywY5UnLZrNrRl2b93Ruy_g", "review_count": 91, "categories": [{"alias": "tradamerican", "title": "American (Traditional)"}, {"alias": "pubs", "title": "Pubs"}, {"alias": "musicvenues", "title": "Music Venues"}], "rating": 4.0, "coordinates": {"latitude": 42.254366, "longitude": -73.36588}, "transactions": [], "price": "$$", "location": {"address1": "425 Park St", "address2": "", "address3": "", "city": "Housatonic", "zip_code": "01236", "country": "US", "state": "MA", "display_address": ["425 Park St", "Housatonic, MA 01236"]}, "phone": "+14132740020", "display_phone": "(413) 274-0020", "distance": 7484.361196841528}, {"id": "1rI6pNcpm187YIP4Q1kIkw", "alias": "51-park-restaurant-and-tavern-lee", "name": "51 Park Restaurant & Tavern", "image_url": "https://s3-media4.fl.yelpcdn.com/bphoto/i8pfpWfkKcDreIreT5F80Q/o.jpg", "is_closed": false, "url": "https://www.yelp.com/biz/51-park-restaurant-and-tavern-lee?adjust_creative=ywY5UnLZrNrRl2b93Ruy_g&utm_campaign=yelp_api_v3&utm_medium=api_v3_business_search&utm_source=ywY5UnLZrNrRl2b93Ruy_g", "review_count": 293, "categories": [{"alias": "pizza", "title": "Pizza"}, {"alias": "bars", "title": "Bars"}, {"alias": "tradamerican", "title": "American (Traditional)"}], "rating": 4.0, "coordinates": {"latitude": 42.3041968750153, "longitude": -73.2482657867333}, "transactions": ["delivery"], "price": "$$", "location": {"address1": "51 Park St", "address2": "", "address3": "", "city": "Lee", "zip_code": "01238", "country": "US", "state": "MA", "display_address": ["51 Park St", "Lee, MA 01238"]}, "phone": "+14132432153", "display_phone": "(413) 243-2153", "distance": 4946.459496397936}, {"id": "Uup9c0pISgIdS8ra98H97A", "alias": "rouge-restaurant-and-bistro-west-stockbridge", "name": "Rouge Restaurant & Bistro", "image_url": "https://s3-media2.fl.yelpcdn.com/bphoto/JtcWlJS09JY1G_IbAxn93Q/o.jpg", "is_closed": false, "url": "https://www.yelp.com/biz/rouge-restaurant-and-bistro-west-stockbridge?adjust_creative=ywY5UnLZrNrRl2b93Ruy_g&utm_campaign=yelp_api_v3&utm_medium=api_v3_business_search&utm_source=ywY5UnLZrNrRl2b93Ruy_g", "review_count": 108, "categories": [{"alias": "newamerican", "title": "American (New)"}, {"alias": "french", "title": "French"}], "rating": 4.0, "coordinates": {"latitude": 42.33366, "longitude": -73.36783}, "transactions": [], "price": "$$$", "location": {"address1": "3 Center St", "address2": "", "address3": "", "city": "West Stockbridge", "zip_code": "01266", "country": "US", "state": "MA", "display_address": ["3 Center St", "West Stockbridge, MA 01266"]}, "phone": "+14132324111", "display_phone": "(413) 232-4111", "distance": 5750.393126535387}, {"id": "NQILKfW2PMwlWb1V-ppJMQ", "alias": "morgan-house-lee", "name": "Morgan House", "image_url": "https://s3-media3.fl.yelpcdn.com/bphoto/AWQ6KBz-N19MXaHmW_2BiQ/o.jpg", "is_closed": false, "url": "https://www.yelp.com/biz/morgan-house-lee?adjust_creative=ywY5UnLZrNrRl2b93Ruy_g&utm_campaign=yelp_api_v3&utm_medium=api_v3_business_search&utm_source=ywY5UnLZrNrRl2b93Ruy_g", "review_count": 110, "categories": [{"alias": "bedbreakfast", "title": "Bed & Breakfast"}, {"alias": "newamerican", "title": "American (New)"}, {"alias": "tradamerican", "title": "American (Traditional)"}], "rating": 4.0, "coordinates": {"latitude": 42.30484, "longitude": -73.24921}, "transactions": ["delivery"], "price": "$$", "location": {"address1": "33 Main St", "address2": "", "address3": "", "city": "Lee", "zip_code": "01238", "country": "US", "state": "MA", "display_address": ["33 Main St", "Lee, MA 01238"]}, "phone": "+14132433661", "display_phone": "(413) 243-3661", "distance": 4855.036734385502}, {"id": "UE7ZoJkkX3Enq8MS5X4ASw", "alias": "alpamayo-restaurant-lee-2", "name": "Alpamayo Restaurant", "image_url": "https://s3-media2.fl.yelpcdn.com/bphoto/5jIxLQ4LXaiJPpyTnJ1d9g/o.jpg", "is_closed": false, "url": "https://www.yelp.com/biz/alpamayo-restaurant-lee-2?adjust_creative=ywY5UnLZrNrRl2b93Ruy_g&utm_campaign=yelp_api_v3&utm_medium=api_v3_business_search&utm_source=ywY5UnLZrNrRl2b93Ruy_g", "review_count": 120, "categories": [{"alias": "peruvian", "title": "Peruvian"}, {"alias": "seafood", "title": "Seafood"}, {"alias": "soup", "title": "Soup"}], "rating": 4.0, "coordinates": {"latitude": 42.3056, "longitude": -73.249264}, "transactions": ["delivery"], "price": "$$", "location": {"address1": "60 Main St", "address2": "", "address3": "", "city": "Lee", "zip_code": "01238", "country": "US", "state": "MA", "display_address": ["60 Main St", "Lee, MA 01238"]}, "phone": "+14132436000", "display_phone": "(413) 243-6000", "distance": 4858.701836450796}, {"id": "Rr4cVS2LhKTmPM8bozHf_A", "alias": "post-eatery-and-bar-lee", "name": "Post Eatery & Bar", "image_url": "https://s3-media3.fl.yelpcdn.com/bphoto/UaHbdUfgC0rrX2R43_mKDQ/o.jpg", "is_closed": false, "url": "https://www.yelp.com/biz/post-eatery-and-bar-lee?adjust_creative=ywY5UnLZrNrRl2b93Ruy_g&utm_campaign=yelp_api_v3&utm_medium=api_v3_business_search&utm_source=ywY5UnLZrNrRl2b93Ruy_g", "review_count": 42, "categories": [{"alias": "newamerican", "title": "American (New)"}], "rating": 4.5, "coordinates": {"latitude": 42.30537, "longitude": -73.24988}, "transactions": [], "location": {"address1": "5 Railroad St", "address2": "", "address3": null, "city": "Lee", "zip_code": "01238", "country": "US", "state": "MA", "display_address": ["5 Railroad St", "Lee, MA 01238"]}, "phone": "+14133944275", "display_phone": "(413) 394-4275", "distance": 4804.519314861154}, {"id": "gYAP3sXJ_X4wG6djLj1Obw", "alias": "widow-binghams-tavern-stockbridge", "name": "Widow Bingham's Tavern", "image_url": "https://s3-media2.fl.yelpcdn.com/bphoto/LJDeLi5WNNgB6aeMVfKSgA/o.jpg", "is_closed": false, "url": "https://www.yelp.com/biz/widow-binghams-tavern-stockbridge?adjust_creative=ywY5UnLZrNrRl2b93Ruy_g&utm_campaign=yelp_api_v3&utm_medium=api_v3_business_search&utm_source=ywY5UnLZrNrRl2b93Ruy_g", "review_count": 3, "categories": [{"alias": "tradamerican", "title": "American (Traditional)"}, {"alias": "wine_bars", "title": "Wine Bars"}], "rating": 3.5, "coordinates": {"latitude": 42.2820863585488, "longitude": -73.3115655889174}, "transactions": ["delivery"], "location": {"address1": "30 Main St", "address2": "", "address3": null, "city": "Stockbridge", "zip_code": "01262", "country": "US", "state": "MA", "display_address": ["30 Main St", "Stockbridge, MA 01262"]}, "phone": "+14132985545", "display_phone": "(413) 298-5545", "distance": 2728.003420857022}, {"id": "Aj3tRLhyQYIzSbh8kLvEdA", "alias": "alta-restaurant-and-wine-bar-lenox", "name": "Alta Restaurant & Wine Bar", "image_url": "https://s3-media2.fl.yelpcdn.com/bphoto/c7-dhTmWiV7CRBN2BAZCdA/o.jpg", "is_closed": false, "url": "https://www.yelp.com/biz/alta-restaurant-and-wine-bar-lenox?adjust_creative=ywY5UnLZrNrRl2b93Ruy_g&utm_campaign=yelp_api_v3&utm_medium=api_v3_business_search&utm_source=ywY5UnLZrNrRl2b93Ruy_g", "review_count": 239, "categories": [{"alias": "newamerican", "title": "American (New)"}, {"alias": "wine_bars", "title": "Wine Bars"}, {"alias": "breakfast_brunch", "title": "Breakfast & Brunch"}], "rating": 4.5, "coordinates": {"latitude": 42.35731, "longitude": -73.28289}, "transactions": ["delivery"], "price": "$$$", "location": {"address1": "34 Church St", "address2": "", "address3": "", "city": "Lenox", "zip_code": "01240", "country": "US", "state": "MA", "display_address": ["34 Church St", "Lenox, MA 01240"]}, "phone": "+14136370003", "display_phone": "(413) 637-0003", "distance": 6025.0571168691085}, {"id": "wv-iymLQsllwM_YRAkTQvA", "alias": "michaels-stockbridge", "name": "Michael's", "image_url": "https://s3-media1.fl.yelpcdn.com/bphoto/UvG1sX_h5e4Th0UV3yQSqQ/o.jpg", "is_closed": false, "url": "https://www.yelp.com/biz/michaels-stockbridge?adjust_creative=ywY5UnLZrNrRl2b93Ruy_g&utm_campaign=yelp_api_v3&utm_medium=api_v3_business_search&utm_source=ywY5UnLZrNrRl2b93Ruy_g", "review_count": 52, "categories": [{"alias": "tradamerican", "title": "American (Traditional)"}, {"alias": "newamerican", "title": "American (New)"}], "rating": 3.0, "coordinates": {"latitude": 42.28076, "longitude": -73.31001}, "transactions": ["delivery"], "price": "$$", "location": {"address1": "5 Elm St", "address2": "", "address3": "", "city": "Stockbridge", "zip_code": "01262", "country": "US", "state": "MA", "display_address": ["5 Elm St", "Stockbridge, MA 01262"]}, "phone": "+14132983530", "display_phone": "(413) 298-3530", "distance": 2852.15137376082}, {"id": "a3Y0KJZ0Xl3gzRysPO4prg", "alias": "wheatleigh-lenox", "name": "Wheatleigh", "image_url": "https://s3-media2.fl.yelpcdn.com/bphoto/A1J3Ld1Wz6DKPZZxOhYPaw/o.jpg", "is_closed": false, "url": "https://www.yelp.com/biz/wheatleigh-lenox?adjust_creative=ywY5UnLZrNrRl2b93Ruy_g&utm_campaign=yelp_api_v3&utm_medium=api_v3_business_search&utm_source=ywY5UnLZrNrRl2b93Ruy_g", "review_count": 32, "categories": [{"alias": "hotels", "title": "Hotels"}, {"alias": "french", "title": "French"}, {"alias": "newamerican", "title": "American (New)"}], "rating": 4.0, "coordinates": {"latitude": 42.3426224796575, "longitude": -73.3048152923584}, "transactions": [], "price": "$$$$", "location": {"address1": "11 Hawthorne Rd", "address2": "", "address3": "", "city": "Lenox", "zip_code": "01240", "country": "US", "state": "MA", "display_address": ["11 Hawthorne Rd", "Lenox, MA 01240"]}, "phone": "+14136370610", "display_phone": "(413) 637-0610", "distance": 4026.6820129452626}, {"id": "XZzN-OoOF8BuVrmNz9SvvA", "alias": "six-depot-roastery-and-cafe-west-stockbridge", "name": "Six Depot Roastery and Cafe", "image_url": "https://s3-media3.fl.yelpcdn.com/bphoto/FLh8_tCK2sEWDUTukPxbTQ/o.jpg", "is_closed": false, "url": "https://www.yelp.com/biz/six-depot-roastery-and-cafe-west-stockbridge?adjust_creative=ywY5UnLZrNrRl2b93Ruy_g&utm_campaign=yelp_api_v3&utm_medium=api_v3_business_search&utm_source=ywY5UnLZrNrRl2b93Ruy_g", "review_count": 186, "categories": [{"alias": "cafes", "title": "Cafes"}, {"alias": "coffeeroasteries", "title": "Coffee Roasteries"}], "rating": 4.5, "coordinates": {"latitude": 42.3339804633494, "longitude": -73.3684249511008}, "transactions": [], "price": "$$", "location": {"address1": "6 Depot St", "address2": "", "address3": "", "city": "West Stockbridge", "zip_code": "01266", "country": "US", "state": "MA", "display_address": ["6 Depot St", "West Stockbridge, MA 01266"]}, "phone": "+14132320205", "display_phone": "(413) 232-0205", "distance": 5808.8792525794925}, {"id": "bwKFfSyhtACDwJJu1SX90Q", "alias": "mint-indian-lakeside-dining-lee", "name": "Mint - Indian Lakeside Dining", "image_url": "https://s3-media3.fl.yelpcdn.com/bphoto/9_C5f6ZUtfaNxhaLothc1Q/o.jpg", "is_closed": false, "url": "https://www.yelp.com/biz/mint-indian-lakeside-dining-lee?adjust_creative=ywY5UnLZrNrRl2b93Ruy_g&utm_campaign=yelp_api_v3&utm_medium=api_v3_business_search&utm_source=ywY5UnLZrNrRl2b93Ruy_g", "review_count": 113, "categories": [{"alias": "indpak", "title": "Indian"}], "rating": 3.5, "coordinates": {"latitude": 42.32158, "longitude": -73.25985}, "transactions": ["pickup"], "price": "$$", "location": {"address1": "435 Laurel St", "address2": null, "address3": "", "city": "Lee", "zip_code": "01238", "country": "US", "state": "MA", "display_address": ["435 Laurel St", "Lee, MA 01238"]}, "phone": "+14132436731", "display_phone": "(413) 243-6731", "distance": 4306.451840163855}, {"id": "Phznchi6ENLtuFJ8mw7hQw", "alias": "frankies-ristorante-italiano-lenox", "name": "Frankie's Ristorante Italiano", "image_url": "https://s3-media3.fl.yelpcdn.com/bphoto/EwMJTuzSxAN5joXKplYbzA/o.jpg", "is_closed": false, "url": "https://www.yelp.com/biz/frankies-ristorante-italiano-lenox?adjust_creative=ywY5UnLZrNrRl2b93Ruy_g&utm_campaign=yelp_api_v3&utm_medium=api_v3_business_search&utm_source=ywY5UnLZrNrRl2b93Ruy_g", "review_count": 83, "categories": [{"alias": "italian", "title": "Italian"}, {"alias": "wine_bars", "title": "Wine Bars"}], "rating": 3.5, "coordinates": {"latitude": 42.35926, "longitude": -73.28348}, "transactions": ["delivery"], "price": "$$", "location": {"address1": "80 Main St", "address2": "", "address3": "", "city": "Lenox", "zip_code": "01240", "country": "US", "state": "MA", "display_address": ["80 Main St", "Lenox, MA 01240"]}, "phone": "+14136374455", "display_phone": "(413) 637-4455", "distance": 6218.941224744677}, {"id": "5LnwS_kqnyooA4DAeo5TtQ", "alias": "baja-charlies-lee", "name": "Baja Charlie's", "image_url": "https://s3-media3.fl.yelpcdn.com/bphoto/VHSamI5wGd2TzCuZwkIFbQ/o.jpg", "is_closed": false, "url": "https://www.yelp.com/biz/baja-charlies-lee?adjust_creative=ywY5UnLZrNrRl2b93Ruy_g&utm_campaign=yelp_api_v3&utm_medium=api_v3_business_search&utm_source=ywY5UnLZrNrRl2b93Ruy_g", "review_count": 140, "categories": [{"alias": "newamerican", "title": "American (New)"}, {"alias": "mexican", "title": "Mexican"}], "rating": 4.0, "coordinates": {"latitude": 42.3100508004427, "longitude": -73.2527308166027}, "transactions": ["delivery"], "price": "$$", "location": {"address1": "62 W Center St", "address2": "", "address3": "", "city": "Lee", "zip_code": "01238", "country": "US", "state": "MA", "display_address": ["62 W Center St", "Lee, MA 01238"]}, "phone": "+14132434322", "display_phone": "(413) 243-4322", "distance": 4572.7422172027145}, {"id": "bPB51VTWLgvlO_afOXGfVg", "alias": "lucias-latin-kitchen-lee", "name": "Lucia's Latin Kitchen", "image_url": "https://s3-media2.fl.yelpcdn.com/bphoto/m7K8y3UcSnE_wc6EZBkDJQ/o.jpg", "is_closed": false, "url": "https://www.yelp.com/biz/lucias-latin-kitchen-lee?adjust_creative=ywY5UnLZrNrRl2b93Ruy_g&utm_campaign=yelp_api_v3&utm_medium=api_v3_business_search&utm_source=ywY5UnLZrNrRl2b93Ruy_g", "review_count": 17, "categories": [{"alias": "latin", "title": "Latin American"}], "rating": 4.5, "coordinates": {"latitude": 42.30863, "longitude": -73.25241}, "transactions": ["delivery"], "location": {"address1": "109 Railroad St", "address2": "", "address3": null, "city": "Lee", "zip_code": "01238", "country": "US", "state": "MA", "display_address": ["109 Railroad St", "Lee, MA 01238"]}, "phone": "+14133945009", "display_phone": "(413) 394-5009", "distance": 4603.854585108215}, {"id": "pqX6xDHUOPS46A0J2RX1ig", "alias": "berkshire-mountain-bakery-housatonic", "name": "Berkshire Mountain Bakery", "image_url": "https://s3-media1.fl.yelpcdn.com/bphoto/MzGyxKNuw2ttFFEMHminDw/o.jpg", "is_closed": false, "url": "https://www.yelp.com/biz/berkshire-mountain-bakery-housatonic?adjust_creative=ywY5UnLZrNrRl2b93Ruy_g&utm_campaign=yelp_api_v3&utm_medium=api_v3_business_search&utm_source=ywY5UnLZrNrRl2b93Ruy_g", "review_count": 53, "categories": [{"alias": "bakeries", "title": "Bakeries"}, {"alias": "pizza", "title": "Pizza"}], "rating": 4.5, "coordinates": {"latitude": 42.2507939734799, "longitude": -73.3638707368851}, "transactions": [], "price": "$$", "location": {"address1": "367 Park St", "address2": "", "address3": "Rte 183", "city": "Housatonic", "zip_code": "01236", "country": "US", "state": "MA", "display_address": ["367 Park St", "Rte 183", "Housatonic, MA 01236"]}, "phone": "+14132743412", "display_phone": "(413) 274-3412", "distance": 7697.327969725602}, {"id": "kikbfGQqB_s-Fstuix0S3w", "alias": "timothys-grill-and-pizzeria-lee", "name": "Timothy's Grill and Pizzeria", "image_url": "https://s3-media2.fl.yelpcdn.com/bphoto/mr6czjgrgKtj_zbKLm_0gw/o.jpg", "is_closed": false, "url": "https://www.yelp.com/biz/timothys-grill-and-pizzeria-lee?adjust_creative=ywY5UnLZrNrRl2b93Ruy_g&utm_campaign=yelp_api_v3&utm_medium=api_v3_business_search&utm_source=ywY5UnLZrNrRl2b93Ruy_g", "review_count": 61, "categories": [{"alias": "pizza", "title": "Pizza"}], "rating": 3.5, "coordinates": {"latitude": 42.30556, "longitude": -73.2491299}, "transactions": ["delivery"], "price": "$$", "location": {"address1": "54 Main St", "address2": "", "address3": "", "city": "Lee", "zip_code": "01238", "country": "US", "state": "MA", "display_address": ["54 Main St", "Lee, MA 01238"]}, "phone": "+14132438220", "display_phone": "(413) 243-8220", "distance": 4869.940881608596}, {"id": "Ij8RafJOGZno1-M4ueMrdQ", "alias": "salmon-run-fish-house-lee", "name": "Salmon Run Fish House", "image_url": "https://s3-media2.fl.yelpcdn.com/bphoto/HHwT3NihuQCFUc2ba2-8uQ/o.jpg", "is_closed": false, "url": "https://www.yelp.com/biz/salmon-run-fish-house-lee?adjust_creative=ywY5UnLZrNrRl2b93Ruy_g&utm_campaign=yelp_api_v3&utm_medium=api_v3_business_search&utm_source=ywY5UnLZrNrRl2b93Ruy_g", "review_count": 146, "categories": [{"alias": "seafood", "title": "Seafood"}], "rating": 3.5, "coordinates": {"latitude": 42.3060492, "longitude": -73.2495023}, "transactions": ["pickup", "delivery"], "price": "$$", "location": {"address1": "78 Main St", "address2": "", "address3": "", "city": "Lee", "zip_code": "01238", "country": "US", "state": "MA", "display_address": ["78 Main St", "Lee, MA 01238"]}, "phone": "+14132433900", "display_phone": "(413) 243-3900", "distance": 4841.474851690697}, {"id": "j1Caj8bDL2gm4Q4OppvMQQ", "alias": "cork-n-hearth-lee-2", "name": "Cork N' Hearth", "image_url": "https://s3-media1.fl.yelpcdn.com/bphoto/NP_IxYEUvuC983-ZmoND3w/o.jpg", "is_closed": false, "url": "https://www.yelp.com/biz/cork-n-hearth-lee-2?adjust_creative=ywY5UnLZrNrRl2b93Ruy_g&utm_campaign=yelp_api_v3&utm_medium=api_v3_business_search&utm_source=ywY5UnLZrNrRl2b93Ruy_g", "review_count": 29, "categories": [{"alias": "desserts", "title": "Desserts"}, {"alias": "wine_bars", "title": "Wine Bars"}, {"alias": "diners", "title": "Diners"}], "rating": 3.5, "coordinates": {"latitude": 42.32676, "longitude": -73.26269}, "transactions": ["delivery"], "price": "$$$", "location": {"address1": "635 Laurel St", "address2": "", "address3": "", "city": "Lee", "zip_code": "01238", "country": "US", "state": "MA", "display_address": ["635 Laurel St", "Lee, MA 01238"]}, "phone": "+14132430535", "display_phone": "(413) 243-0535", "distance": 4386.4585415934125}, {"id": "Cpk70Wzg3urDSoKTdEn2mg", "alias": "truc-orient-express-restaurant-west-stockbridge", "name": "Truc Orient Express Restaurant", "image_url": "https://s3-media2.fl.yelpcdn.com/bphoto/e6Wxu6ZtbvWtXwuSp1invg/o.jpg", "is_closed": false, "url": "https://www.yelp.com/biz/truc-orient-express-restaurant-west-stockbridge?adjust_creative=ywY5UnLZrNrRl2b93Ruy_g&utm_campaign=yelp_api_v3&utm_medium=api_v3_business_search&utm_source=ywY5UnLZrNrRl2b93Ruy_g", "review_count": 33, "categories": [{"alias": "vietnamese", "title": "Vietnamese"}, {"alias": "salad", "title": "Salad"}, {"alias": "vegetarian", "title": "Vegetarian"}], "rating": 3.0, "coordinates": {"latitude": 42.3329692899726, "longitude": -73.3681175330594}, "transactions": [], "price": "$$", "location": {"address1": "3 Harris St", "address2": "", "address3": "", "city": "West Stockbridge", "zip_code": "01266", "country": "US", "state": "MA", "display_address": ["3 Harris St", "West Stockbridge, MA 01266"]}, "phone": "+14132324204", "display_phone": "(413) 232-4204", "distance": 5728.8693044444735}, {"id": "_IeXgcpDnbba34__lW7eVA", "alias": "pleasant-and-main-housatonic", "name": "Pleasant and Main", "image_url": "https://s3-media2.fl.yelpcdn.com/bphoto/5wvDuE7IzPwXzRQL_LZjAA/o.jpg", "is_closed": false, "url": "https://www.yelp.com/biz/pleasant-and-main-housatonic?adjust_creative=ywY5UnLZrNrRl2b93Ruy_g&utm_campaign=yelp_api_v3&utm_medium=api_v3_business_search&utm_source=ywY5UnLZrNrRl2b93Ruy_g", "review_count": 124, "categories": [{"alias": "cafes", "title": "Cafes"}, {"alias": "breakfast_brunch", "title": "Breakfast & Brunch"}, {"alias": "creperies", "title": "Creperies"}], "rating": 4.0, "coordinates": {"latitude": 42.2558373814533, "longitude": -73.3685981023773}, "transactions": [], "price": "$$", "location": {"address1": "1063 Main St", "address2": "", "address3": "", "city": "Housatonic", "zip_code": "01236", "country": "US", "state": "MA", "display_address": ["1063 Main St", "Housatonic, MA 01236"]}, "phone": "+14132746303", "display_phone": "(413) 274-6303", "distance": 7504.587194995478}, {"id": "Cf0M6Q1TguRB3Ax_nplI1Q", "alias": "taphouse-at-shaker-mill-west-stockbridge", "name": "Taphouse at Shaker Mill", "image_url": "https://s3-media1.fl.yelpcdn.com/bphoto/iY6FuI9yljD1rgY1XDmbuQ/o.jpg", "is_closed": false, "url": "https://www.yelp.com/biz/taphouse-at-shaker-mill-west-stockbridge?adjust_creative=ywY5UnLZrNrRl2b93Ruy_g&utm_campaign=yelp_api_v3&utm_medium=api_v3_business_search&utm_source=ywY5UnLZrNrRl2b93Ruy_g", "review_count": 7, "categories": [{"alias": "tradamerican", "title": "American (Traditional)"}], "rating": 2.5, "coordinates": {"latitude": 42.335416, "longitude": -73.369229}, "transactions": [], "location": {"address1": "5 Albany Rd", "address2": "", "address3": null, "city": "West Stockbridge", "zip_code": "01266", "country": "US", "state": "MA", "display_address": ["5 Albany Rd", "West Stockbridge, MA 01266"]}, "phone": "+14132328565", "display_phone": "(413) 232-8565", "distance": 5957.42698718953}, {"id": "ovwzwdxgYMUC5gLrPAcL_w", "alias": "prime-italian-steakhouse-and-bar-lenox", "name": "Prime Italian Steakhouse and Bar", "image_url": "https://s3-media1.fl.yelpcdn.com/bphoto/gqVBRAd7RBRubH1kXPUGlA/o.jpg", "is_closed": false, "url": "https://www.yelp.com/biz/prime-italian-steakhouse-and-bar-lenox?adjust_creative=ywY5UnLZrNrRl2b93Ruy_g&utm_campaign=yelp_api_v3&utm_medium=api_v3_business_search&utm_source=ywY5UnLZrNrRl2b93Ruy_g", "review_count": 67, "categories": [{"alias": "bars", "title": "Bars"}, {"alias": "steak", "title": "Steakhouses"}], "rating": 3.5, "coordinates": {"latitude": 42.3599, "longitude": -73.2829}, "transactions": ["delivery"], "price": "$$$", "location": {"address1": "15 Franklin St", "address2": "", "address3": "", "city": "Lenox", "zip_code": "01240", "country": "US", "state": "MA", "display_address": ["15 Franklin St", "Lenox, MA 01240"]}, "phone": "+14136372998", "display_phone": "(413) 637-2998", "distance": 6292.706488540663}, {"id": "1y5jl7wdDoJ3RacNAcZreA", "alias": "olde-heritage-tavern-lenox", "name": "Olde Heritage Tavern", "image_url": "https://s3-media3.fl.yelpcdn.com/bphoto/6kOEapqe-SHI52hNBKbRwg/o.jpg", "is_closed": false, "url": "https://www.yelp.com/biz/olde-heritage-tavern-lenox?adjust_creative=ywY5UnLZrNrRl2b93Ruy_g&utm_campaign=yelp_api_v3&utm_medium=api_v3_business_search&utm_source=ywY5UnLZrNrRl2b93Ruy_g", "review_count": 144, "categories": [{"alias": "tradamerican", "title": "American (Traditional)"}, {"alias": "bars", "title": "Bars"}], "rating": 3.5, "coordinates": {"latitude": 42.357731, "longitude": -73.284032}, "transactions": ["delivery"], "price": "$$", "location": {"address1": "12 Housatonic St", "address2": "", "address3": "", "city": "Lenox", "zip_code": "01240", "country": "US", "state": "MA", "display_address": ["12 Housatonic St", "Lenox, MA 01240"]}, "phone": "+14136370884", "display_phone": "(413) 637-0884", "distance": 6040.469611600491}, {"id": "D4_xUi9BdkjQeet8G1cogA", "alias": "the-bistro-lenox", "name": "The Bistro", "image_url": "https://s3-media1.fl.yelpcdn.com/bphoto/ez0NuT9or3hcVzek-8khbQ/o.jpg", "is_closed": false, "url": "https://www.yelp.com/biz/the-bistro-lenox?adjust_creative=ywY5UnLZrNrRl2b93Ruy_g&utm_campaign=yelp_api_v3&utm_medium=api_v3_business_search&utm_source=ywY5UnLZrNrRl2b93Ruy_g", "review_count": 5, "categories": [{"alias": "diners", "title": "Diners"}, {"alias": "bars", "title": "Bars"}, {"alias": "breakfast_brunch", "title": "Breakfast & Brunch"}], "rating": 4.5, "coordinates": {"latitude": 42.33615, "longitude": -73.25892}, "transactions": [], "location": {"address1": "16 Blantyre Rd", "address2": null, "address3": "", "city": "Lenox", "zip_code": "01240", "country": "US", "state": "MA", "display_address": ["16 Blantyre Rd", "Lenox, MA 01240"]}, "phone": "+14136373556", "display_phone": "(413) 637-3556", "distance": 5229.565640356069}, {"id": "iiGIFPHoEO1J2LyPq7eaiQ", "alias": "bistro-zinc-lenox-3", "name": "Bistro Zinc", "image_url": "https://s3-media2.fl.yelpcdn.com/bphoto/f7jUclzsroTnOYHfGTkE-g/o.jpg", "is_closed": false, "url": "https://www.yelp.com/biz/bistro-zinc-lenox-3?adjust_creative=ywY5UnLZrNrRl2b93Ruy_g&utm_campaign=yelp_api_v3&utm_medium=api_v3_business_search&utm_source=ywY5UnLZrNrRl2b93Ruy_g", "review_count": 121, "categories": [{"alias": "french", "title": "French"}, {"alias": "lounges", "title": "Lounges"}], "rating": 3.5, "coordinates": {"latitude": 42.358163503434, "longitude": -73.282507695418}, "transactions": ["delivery"], "price": "$$$", "location": {"address1": "56 Church St", "address2": "", "address3": "", "city": "Lenox", "zip_code": "01240", "country": "US", "state": "MA", "display_address": ["56 Church St", "Lenox, MA 01240"]}, "phone": "+14136378800", "display_phone": "(413) 637-8800", "distance": 6124.10420652136}, {"id": "A40Rx6mb2y4rX3bz2tCMug", "alias": "buckys-tavern-lee-2", "name": "Bucky's Tavern", "image_url": "", "is_closed": false, "url": "https://www.yelp.com/biz/buckys-tavern-lee-2?adjust_creative=ywY5UnLZrNrRl2b93Ruy_g&utm_campaign=yelp_api_v3&utm_medium=api_v3_business_search&utm_source=ywY5UnLZrNrRl2b93Ruy_g", "review_count": 3, "categories": [{"alias": "tradamerican", "title": "American (Traditional)"}, {"alias": "bars", "title": "Bars"}], "rating": 4.0, "coordinates": {"latitude": 42.3052711, "longitude": -73.2502518}, "transactions": ["delivery"], "location": {"address1": "25 Consolati Way", "address2": "", "address3": "", "city": "Lee", "zip_code": "01238", "country": "US", "state": "MA", "display_address": ["25 Consolati Way", "Lee, MA 01238"]}, "phone": "+14132436484", "display_phone": "(413) 243-6484", "distance": 4821.55382666556}, {"id": "M9sdEGo6VeKbvGtNDlbVFA", "alias": "cafe-lucia-lenox-2", "name": "Cafe Lucia", "image_url": "https://s3-media1.fl.yelpcdn.com/bphoto/dMq3G8lv-DjNe80DafdNQQ/o.jpg", "is_closed": false, "url": "https://www.yelp.com/biz/cafe-lucia-lenox-2?adjust_creative=ywY5UnLZrNrRl2b93Ruy_g&utm_campaign=yelp_api_v3&utm_medium=api_v3_business_search&utm_source=ywY5UnLZrNrRl2b93Ruy_g", "review_count": 45, "categories": [{"alias": "italian", "title": "Italian"}, {"alias": "bars", "title": "Bars"}], "rating": 3.5, "coordinates": {"latitude": 42.3571485742368, "longitude": -73.2831001281738}, "transactions": ["delivery"], "price": "$$$", "location": {"address1": "80 Church St", "address2": "", "address3": "", "city": "Lenox", "zip_code": "01240", "country": "US", "state": "MA", "display_address": ["80 Church St", "Lenox, MA 01240"]}, "phone": "+14136372640", "display_phone": "(413) 637-2640", "distance": 6001.374946076065}, {"id": "p-HyVSwogxhHQs8xJ-t9vQ", "alias": "the-starving-artist-creperie-and-cafe-lee", "name": "The Starving Artist Creperie and Cafe", "image_url": "https://s3-media1.fl.yelpcdn.com/bphoto/HQIOZG95zR30GCSYkwInNw/o.jpg", "is_closed": false, "url": "https://www.yelp.com/biz/the-starving-artist-creperie-and-cafe-lee?adjust_creative=ywY5UnLZrNrRl2b93Ruy_g&utm_campaign=yelp_api_v3&utm_medium=api_v3_business_search&utm_source=ywY5UnLZrNrRl2b93Ruy_g", "review_count": 204, "categories": [{"alias": "creperies", "title": "Creperies"}, {"alias": "cafes", "title": "Cafes"}], "rating": 4.0, "coordinates": {"latitude": 42.30504, "longitude": -73.24892}, "transactions": ["delivery"], "price": "$$", "location": {"address1": "40 Main St", "address2": "Ste 2", "address3": "", "city": "Lee", "zip_code": "01238", "country": "US", "state": "MA", "display_address": ["40 Main St", "Ste 2", "Lee, MA 01238"]}, "phone": "+14133945046", "display_phone": "(413) 394-5046", "distance": 4878.426012357922}, {"id": "Bqhtws5XxV3xtS8GitivdQ", "alias": "firefly-lenox", "name": "Firefly", "image_url": "https://s3-media1.fl.yelpcdn.com/bphoto/XHlGbpy1-XxX1T76rUGb4A/o.jpg", "is_closed": false, "url": "https://www.yelp.com/biz/firefly-lenox?adjust_creative=ywY5UnLZrNrRl2b93Ruy_g&utm_campaign=yelp_api_v3&utm_medium=api_v3_business_search&utm_source=ywY5UnLZrNrRl2b93Ruy_g", "review_count": 119, "categories": [{"alias": "newamerican", "title": "American (New)"}, {"alias": "comfortfood", "title": "Comfort Food"}, {"alias": "gastropubs", "title": "Gastropubs"}], "rating": 3.0, "coordinates": {"latitude": 42.359059665822, "longitude": -73.282512986181}, "transactions": ["delivery"], "price": "$$$", "location": {"address1": "71 Church St", "address2": "", "address3": "", "city": "Lenox", "zip_code": "01240", "country": "US", "state": "MA", "display_address": ["71 Church St", "Lenox, MA 01240"]}, "phone": "+14136372700", "display_phone": "(413) 637-2700", "distance": 6217.51604554124}, {"id": "YxyGGdlxUYVA3vkINjyNTQ", "alias": "locker-room-sports-bar-lee", "name": "Locker Room Sports Bar", "image_url": "https://s3-media2.fl.yelpcdn.com/bphoto/doxj4Q4nlRYbGy4Uf9IajA/o.jpg", "is_closed": false, "url": "https://www.yelp.com/biz/locker-room-sports-bar-lee?adjust_creative=ywY5UnLZrNrRl2b93Ruy_g&utm_campaign=yelp_api_v3&utm_medium=api_v3_business_search&utm_source=ywY5UnLZrNrRl2b93Ruy_g", "review_count": 49, "categories": [{"alias": "tradamerican", "title": "American (Traditional)"}, {"alias": "sportsbars", "title": "Sports Bars"}], "rating": 3.5, "coordinates": {"latitude": 42.309491, "longitude": -73.251066}, "transactions": ["delivery"], "price": "$$", "location": {"address1": "232 Main St", "address2": "", "address3": "", "city": "Lee", "zip_code": "01238", "country": "US", "state": "MA", "display_address": ["232 Main St", "Lee, MA 01238"]}, "phone": "+14132432662", "display_phone": "(413) 243-2662", "distance": 4704.1216074734}, {"id": "Ag_IxQNO_Ta9EXkMYiwyxA", "alias": "elm-street-market-stockbridge-2", "name": "Elm Street Market", "image_url": "https://s3-media3.fl.yelpcdn.com/bphoto/zi4IDgWR2QOuvqvUiUFbfQ/o.jpg", "is_closed": false, "url": "https://www.yelp.com/biz/elm-street-market-stockbridge-2?adjust_creative=ywY5UnLZrNrRl2b93Ruy_g&utm_campaign=yelp_api_v3&utm_medium=api_v3_business_search&utm_source=ywY5UnLZrNrRl2b93Ruy_g", "review_count": 18, "categories": [{"alias": "grocery", "title": "Grocery"}, {"alias": "breakfast_brunch", "title": "Breakfast & Brunch"}, {"alias": "delis", "title": "Delis"}], "rating": 3.5, "coordinates": {"latitude": 42.2812543, "longitude": -73.3107069}, "transactions": [], "price": "$", "location": {"address1": "4 Elm St", "address2": null, "address3": null, "city": "Stockbridge", "zip_code": "01262", "country": "US", "state": "MA", "display_address": ["4 Elm St", "Stockbridge, MA 01262"]}, "phone": "+14132983634", "display_phone": "(413) 298-3634", "distance": 2814.3207988878517}, {"id": "G0fnN-H65DmDBcHWDwuOqA", "alias": "stockbridge-general-store-stockbridge", "name": "Stockbridge General Store", "image_url": "https://s3-media4.fl.yelpcdn.com/bphoto/5XQ8mO6_mWrK05oe8Vf1lQ/o.jpg", "is_closed": false, "url": "https://www.yelp.com/biz/stockbridge-general-store-stockbridge?adjust_creative=ywY5UnLZrNrRl2b93Ruy_g&utm_campaign=yelp_api_v3&utm_medium=api_v3_business_search&utm_source=ywY5UnLZrNrRl2b93Ruy_g", "review_count": 9, "categories": [{"alias": "grocery", "title": "Grocery"}, {"alias": "icecream", "title": "Ice Cream & Frozen Yogurt"}, {"alias": "cafes", "title": "Cafes"}], "rating": 3.0, "coordinates": {"latitude": 42.28177, "longitude": -73.31113}, "transactions": [], "location": {"address1": "40 Main St", "address2": "", "address3": "", "city": "Stockbridge", "zip_code": "01262", "country": "US", "state": "MA", "display_address": ["40 Main St", "Stockbridge, MA 01262"]}, "phone": "+14132983060", "display_phone": "(413) 298-3060", "distance": 2757.7255229210778}, {"id": "ix1WhyVc9cWYQExuGrlQDQ", "alias": "vivaldis-pizzeria-lee", "name": "Vivaldi's Pizzeria", "image_url": "https://s3-media1.fl.yelpcdn.com/bphoto/BSFVi2zKRZfkvT4GkrgZzw/o.jpg", "is_closed": false, "url": "https://www.yelp.com/biz/vivaldis-pizzeria-lee?adjust_creative=ywY5UnLZrNrRl2b93Ruy_g&utm_campaign=yelp_api_v3&utm_medium=api_v3_business_search&utm_source=ywY5UnLZrNrRl2b93Ruy_g", "review_count": 27, "categories": [{"alias": "pizza", "title": "Pizza"}], "rating": 3.5, "coordinates": {"latitude": 42.303386, "longitude": -73.247599}, "transactions": ["delivery"], "price": "$$", "location": {"address1": "33 Park Plz", "address2": "", "address3": "", "city": "Lee", "zip_code": "01238", "country": "US", "state": "MA", "display_address": ["33 Park Plz", "Lee, MA 01238"]}, "phone": "+14132434041", "display_phone": "(413) 243-4041", "distance": 5006.685911184734}, {"id": "jNP39BLUtsilVi9Kyz1WPQ", "alias": "gateways-inn-and-restaurant-lenox", "name": "Gateways Inn & Restaurant", "image_url": "https://s3-media3.fl.yelpcdn.com/bphoto/Lb87k03FvKSWwwROXsjcfw/o.jpg", "is_closed": false, "url": "https://www.yelp.com/biz/gateways-inn-and-restaurant-lenox?adjust_creative=ywY5UnLZrNrRl2b93Ruy_g&utm_campaign=yelp_api_v3&utm_medium=api_v3_business_search&utm_source=ywY5UnLZrNrRl2b93Ruy_g", "review_count": 28, "categories": [{"alias": "restaurants", "title": "Restaurants"}, {"alias": "bedbreakfast", "title": "Bed & Breakfast"}], "rating": 3.5, "coordinates": {"latitude": 42.35599, "longitude": -73.282639}, "transactions": [], "price": "$$$$", "location": {"address1": "51 Walker St", "address2": "", "address3": "", "city": "Lenox", "zip_code": "01240", "country": "US", "state": "MA", "display_address": ["51 Walker St", "Lenox, MA 01240"]}, "phone": "+14136372532", "display_phone": "(413) 637-2532", "distance": 5894.140042908184}, {"id": "ftLxE19Q1XcETl3PppYLXQ", "alias": "soma-catering-cafe-west-stockbridge", "name": "Soma Catering - Cafe", "image_url": "https://s3-media1.fl.yelpcdn.com/bphoto/VyKwfK-HhFu-sdfWvVrc0g/o.jpg", "is_closed": false, "url": "https://www.yelp.com/biz/soma-catering-cafe-west-stockbridge?adjust_creative=ywY5UnLZrNrRl2b93Ruy_g&utm_campaign=yelp_api_v3&utm_medium=api_v3_business_search&utm_source=ywY5UnLZrNrRl2b93Ruy_g", "review_count": 5, "categories": [{"alias": "cafes", "title": "Cafes"}], "rating": 5.0, "coordinates": {"latitude": 42.3349405594726, "longitude": -73.3677865192294}, "transactions": [], "price": "$$", "location": {"address1": "4 Albany Rd", "address2": "", "address3": "", "city": "West Stockbridge", "zip_code": "01266", "country": "US", "state": "MA", "display_address": ["4 Albany Rd", "West Stockbridge, MA 01266"]}, "phone": "+14132320007", "display_phone": "(413) 232-0007", "distance": 5821.561608328017}, {"id": "b_hxjuPRzTaoziLzP0s-ow", "alias": "table-six-restaurant-lenox", "name": "Table Six Restaurant", "image_url": "https://s3-media4.fl.yelpcdn.com/bphoto/ctraVfDUctH5StpTtYbakw/o.jpg", "is_closed": false, "url": "https://www.yelp.com/biz/table-six-restaurant-lenox?adjust_creative=ywY5UnLZrNrRl2b93Ruy_g&utm_campaign=yelp_api_v3&utm_medium=api_v3_business_search&utm_source=ywY5UnLZrNrRl2b93Ruy_g", "review_count": 94, "categories": [{"alias": "newamerican", "title": "American (New)"}, {"alias": "coffee", "title": "Coffee & Tea"}], "rating": 3.5, "coordinates": {"latitude": 42.3546982, "longitude": -73.2828674}, "transactions": ["delivery"], "price": "$$$", "location": {"address1": "2 Kemble St", "address2": null, "address3": "", "city": "Lenox", "zip_code": "01240", "country": "US", "state": "MA", "display_address": ["2 Kemble St", "Lenox, MA 01240"]}, "phone": "+14136374113", "display_phone": "(413) 637-4113", "distance": 5754.2744575881525}, {"id": "Ih_1dL1e_GcnZMCIzyWPxw", "alias": "river-dale-market-and-deli-lenox-dale", "name": "River Dale Market and Deli", "image_url": "https://s3-media4.fl.yelpcdn.com/bphoto/MTcXOfPq309gYnidVS3QMA/o.jpg", "is_closed": false, "url": "https://www.yelp.com/biz/river-dale-market-and-deli-lenox-dale?adjust_creative=ywY5UnLZrNrRl2b93Ruy_g&utm_campaign=yelp_api_v3&utm_medium=api_v3_business_search&utm_source=ywY5UnLZrNrRl2b93Ruy_g", "review_count": 1, "categories": [{"alias": "delis", "title": "Delis"}, {"alias": "convenience", "title": "Convenience Stores"}, {"alias": "meats", "title": "Meat Shops"}], "rating": 5.0, "coordinates": {"latitude": 42.33335, "longitude": -73.24598}, "transactions": [], "location": {"address1": "2 Crystal St", "address2": null, "address3": "", "city": "Lenox Dale", "zip_code": "01242", "country": "US", "state": "MA", "display_address": ["2 Crystal St", "Lenox Dale, MA 01242"]}, "phone": "+14138814136", "display_phone": "(413) 881-4136", "distance": 5933.08739677554}, {"id": "nXyo2FXl0dvF8EdJI_NvSA", "alias": "haven-cafe-and-bakery-lenox", "name": "Haven Cafe & Bakery", "image_url": "https://s3-media3.fl.yelpcdn.com/bphoto/6F3x9fSCiVx7ZkUsu2EXjw/o.jpg", "is_closed": false, "url": "https://www.yelp.com/biz/haven-cafe-and-bakery-lenox?adjust_creative=ywY5UnLZrNrRl2b93Ruy_g&utm_campaign=yelp_api_v3&utm_medium=api_v3_business_search&utm_source=ywY5UnLZrNrRl2b93Ruy_g", "review_count": 283, "categories": [{"alias": "bakeries", "title": "Bakeries"}, {"alias": "cafes", "title": "Cafes"}], "rating": 4.0, "coordinates": {"latitude": 42.3596, "longitude": -73.2833}, "transactions": ["delivery"], "price": "$$", "location": {"address1": "8 Franklin St", "address2": "", "address3": "", "city": "Lenox", "zip_code": "01240", "country": "US", "state": "MA", "display_address": ["8 Franklin St", "Lenox, MA 01240"]}, "phone": "+14136378948", "display_phone": "(413) 637-8948", "distance": 6252.510354251452}, {"id": "paVKtaYXqJJF41qNzLaaVQ", "alias": "taft-farms-great-barrington", "name": "Taft Farms", "image_url": "https://s3-media2.fl.yelpcdn.com/bphoto/KG4bZ_R-Q3aDQM-QVzFXRg/o.jpg", "is_closed": false, "url": "https://www.yelp.com/biz/taft-farms-great-barrington?adjust_creative=ywY5UnLZrNrRl2b93Ruy_g&utm_campaign=yelp_api_v3&utm_medium=api_v3_business_search&utm_source=ywY5UnLZrNrRl2b93Ruy_g", "review_count": 30, "categories": [{"alias": "farmersmarket", "title": "Farmers Market"}, {"alias": "delis", "title": "Delis"}], "rating": 4.0, "coordinates": {"latitude": 42.2326395706116, "longitude": -73.3466951849741}, "transactions": [], "price": "$$", "location": {"address1": "119 Park St N", "address2": null, "address3": "", "city": "Great Barrington", "zip_code": "01230", "country": "US", "state": "MA", "display_address": ["119 Park St N", "Great Barrington, MA 01230"]}, "phone": "+14135281515", "display_phone": "(413) 528-1515", "distance": 8798.898640113912}, {"id": "iJzH7sbo1H7VWWLSVjzxrw", "alias": "new-england-wraps-lee", "name": "New England Wraps", "image_url": "https://s3-media3.fl.yelpcdn.com/bphoto/8kEwgGyDR5LV_fR8krxaNg/o.jpg", "is_closed": false, "url": "https://www.yelp.com/biz/new-england-wraps-lee?adjust_creative=ywY5UnLZrNrRl2b93Ruy_g&utm_campaign=yelp_api_v3&utm_medium=api_v3_business_search&utm_source=ywY5UnLZrNrRl2b93Ruy_g", "review_count": 1, "categories": [{"alias": "wraps", "title": "Wraps"}, {"alias": "burgers", "title": "Burgers"}, {"alias": "sandwiches", "title": "Sandwiches"}], "rating": 5.0, "coordinates": {"latitude": 42.305738, "longitude": -73.249225}, "transactions": ["pickup", "delivery"], "location": {"address1": "62 Main St", "address2": null, "address3": null, "city": "Lee", "zip_code": "01238", "country": "US", "state": "MA", "display_address": ["62 Main St", "Lee, MA 01238"]}, "phone": "+14133944081", "display_phone": "(413) 394-4081", "distance": 4853.9275833727725}, {"id": "7eYkLZ4rnX_Fs-de-R5VnA", "alias": "athenas-pizza-house-lee", "name": "Athena's Pizza House", "image_url": "https://s3-media2.fl.yelpcdn.com/bphoto/ej1eFj3hU3ZUFKJBue3MvA/o.jpg", "is_closed": false, "url": "https://www.yelp.com/biz/athenas-pizza-house-lee?adjust_creative=ywY5UnLZrNrRl2b93Ruy_g&utm_campaign=yelp_api_v3&utm_medium=api_v3_business_search&utm_source=ywY5UnLZrNrRl2b93Ruy_g", "review_count": 3, "categories": [{"alias": "pizza", "title": "Pizza"}], "rating": 3.5, "coordinates": {"latitude": 42.303669, "longitude": -73.245622}, "transactions": ["delivery"], "location": {"address1": "30 Housatonic St", "address2": "", "address3": "", "city": "Lee", "zip_code": "01238", "country": "US", "state": "MA", "display_address": ["30 Housatonic St", "Lee, MA 01238"]}, "phone": "+14132431223", "display_phone": "(413) 243-1223", "distance": 5166.863602778152}, {"id": "u3vTda2vtkOdRqya20iSyg", "alias": "red-apple-lee", "name": "Red Apple", "image_url": "https://s3-media4.fl.yelpcdn.com/bphoto/SzCdSb27YWsrutpUqmmzFg/o.jpg", "is_closed": false, "url": "https://www.yelp.com/biz/red-apple-lee?adjust_creative=ywY5UnLZrNrRl2b93Ruy_g&utm_campaign=yelp_api_v3&utm_medium=api_v3_business_search&utm_source=ywY5UnLZrNrRl2b93Ruy_g", "review_count": 15, "categories": [{"alias": "chinese", "title": "Chinese"}], "rating": 3.5, "coordinates": {"latitude": 42.3042413144758, "longitude": -73.246378730496}, "transactions": ["delivery"], "price": "$", "location": {"address1": "23 Park Plz", "address2": "Ste A", "address3": "", "city": "Lee", "zip_code": "01238", "country": "US", "state": "MA", "display_address": ["23 Park Plz", "Ste A", "Lee, MA 01238"]}, "phone": "+14132434027", "display_phone": "(413) 243-4027", "distance": 5031.117728506764}, {"id": "JeS_6EKfI6Qik3PzBc27uQ", "alias": "highwood-manor-house-lenox", "name": "Highwood Manor House", "image_url": "", "is_closed": false, "url": "https://www.yelp.com/biz/highwood-manor-house-lenox?adjust_creative=ywY5UnLZrNrRl2b93Ruy_g&utm_campaign=yelp_api_v3&utm_medium=api_v3_business_search&utm_source=ywY5UnLZrNrRl2b93Ruy_g", "review_count": 3, "categories": [{"alias": "buffets", "title": "Buffets"}], "rating": 3.5, "coordinates": {"latitude": 42.3526, "longitude": -73.30924}, "transactions": [], "location": {"address1": "297 W St", "address2": "", "address3": null, "city": "Lenox", "zip_code": "01240", "country": "US", "state": "MA", "display_address": ["297 W St", "Lenox, MA 01240"]}, "phone": "+14136374486", "display_phone": "(413) 637-4486", "distance": 5104.661734554113}, {"id": "6VWXDm7k3-iPfm0cArdRdA", "alias": "athenas-restaurant-and-pizzeria-lee", "name": "Athena's Restaurant & Pizzeria", "image_url": "https://s3-media1.fl.yelpcdn.com/bphoto/CAFnvS_aLKojUvTSKoM3RQ/o.jpg", "is_closed": false, "url": "https://www.yelp.com/biz/athenas-restaurant-and-pizzeria-lee?adjust_creative=ywY5UnLZrNrRl2b93Ruy_g&utm_campaign=yelp_api_v3&utm_medium=api_v3_business_search&utm_source=ywY5UnLZrNrRl2b93Ruy_g", "review_count": 40, "categories": [{"alias": "italian", "title": "Italian"}, {"alias": "burgers", "title": "Burgers"}, {"alias": "mediterranean", "title": "Mediterranean"}], "rating": 2.5, "coordinates": {"latitude": 42.303675, "longitude": -73.245625}, "transactions": [], "price": "$", "location": {"address1": "30 Housatonic St", "address2": "", "address3": "", "city": "Lee", "zip_code": "01238", "country": "US", "state": "MA", "display_address": ["30 Housatonic St", "Lee, MA 01238"]}, "phone": "+14132431215", "display_phone": "(413) 243-1215", "distance": 5166.576454942862}, {"id": "wWubTfJNuTLgoBocXHvTuQ", "alias": "bettys-pizza-shack-lenox", "name": "Betty's Pizza Shack", "image_url": "https://s3-media4.fl.yelpcdn.com/bphoto/hSgobMniX4KSkF3SW6Uhkw/o.jpg", "is_closed": false, "url": "https://www.yelp.com/biz/bettys-pizza-shack-lenox?adjust_creative=ywY5UnLZrNrRl2b93Ruy_g&utm_campaign=yelp_api_v3&utm_medium=api_v3_business_search&utm_source=ywY5UnLZrNrRl2b93Ruy_g", "review_count": 66, "categories": [{"alias": "pizza", "title": "Pizza"}], "rating": 3.5, "coordinates": {"latitude": 42.3575673, "longitude": -73.2831226}, "transactions": ["delivery"], "price": "$", "location": {"address1": "26 Housatonic St", "address2": "", "address3": "", "city": "Lenox", "zip_code": "01240", "country": "US", "state": "MA", "display_address": ["26 Housatonic St", "Lenox, MA 01240"]}, "phone": "+14136378171", "display_phone": "(413) 637-8171", "distance": 6042.647177810047}, {"id": "y6UTWVCEElf-FSp6p6DxDw", "alias": "chef-express-lee", "name": "Chef Express", "image_url": "https://s3-media4.fl.yelpcdn.com/bphoto/Puthelxsj7iaXoyBw5EH8Q/o.jpg", "is_closed": false, "url": "https://www.yelp.com/biz/chef-express-lee?adjust_creative=ywY5UnLZrNrRl2b93Ruy_g&utm_campaign=yelp_api_v3&utm_medium=api_v3_business_search&utm_source=ywY5UnLZrNrRl2b93Ruy_g", "review_count": 10, "categories": [{"alias": "indpak", "title": "Indian"}], "rating": 3.0, "coordinates": {"latitude": 42.30535, "longitude": -73.24909}, "transactions": ["delivery"], "price": "$$", "location": {"address1": "62 Main St", "address2": null, "address3": "", "city": "Lee", "zip_code": "01238", "country": "US", "state": "MA", "display_address": ["62 Main St", "Lee, MA 01238"]}, "phone": "+14133944081", "display_phone": "(413) 394-4081", "distance": 4853.9275833727725}, {"id": "A40q8l7bgxcZuD3MrjWXbA", "alias": "apple-tree-inn-and-restaurant-lenox", "name": "Apple Tree Inn & Restaurant", "image_url": "", "is_closed": false, "url": "https://www.yelp.com/biz/apple-tree-inn-and-restaurant-lenox?adjust_creative=ywY5UnLZrNrRl2b93Ruy_g&utm_campaign=yelp_api_v3&utm_medium=api_v3_business_search&utm_source=ywY5UnLZrNrRl2b93Ruy_g", "review_count": 11, "categories": [{"alias": "tradamerican", "title": "American (Traditional)"}], "rating": 3.5, "coordinates": {"latitude": 42.35373, "longitude": -73.31594}, "transactions": [], "price": "$$$$", "location": {"address1": "10 Richmond Mountain Rd", "address2": "", "address3": "", "city": "Lenox", "zip_code": "01240", "country": "US", "state": "MA", "display_address": ["10 Richmond Mountain Rd", "Lenox, MA 01240"]}, "phone": "+14136371477", "display_phone": "(413) 637-1477", "distance": 5286.905744835303}, {"id": "lpeKmfeaYaNmdoPGWFBGIA", "alias": "d-angelo-lee", "name": "D'angelo", "image_url": "https://s3-media4.fl.yelpcdn.com/bphoto/cb5yh3PsNyDNz3AKGm-qPQ/o.jpg", "is_closed": false, "url": "https://www.yelp.com/biz/d-angelo-lee?adjust_creative=ywY5UnLZrNrRl2b93Ruy_g&utm_campaign=yelp_api_v3&utm_medium=api_v3_business_search&utm_source=ywY5UnLZrNrRl2b93Ruy_g", "review_count": 4, "categories": [{"alias": "delis", "title": "Delis"}], "rating": 2.0, "coordinates": {"latitude": 42.297125533502, "longitude": -73.275692678397}, "transactions": [], "price": "$$", "location": {"address1": "370 Stockbridge Rd", "address2": "", "address3": "", "city": "Lee", "zip_code": "01238", "country": "US", "state": "MA", "display_address": ["370 Stockbridge Rd", "Lee, MA 01238"]}, "phone": "+14132431380", "display_phone": "(413) 243-1380", "distance": 2879.884653890187}, {"id": "Y1LHCbMdBzHUx6B329tNaQ", "alias": "on-a-roll-cafe-lenox-2", "name": "On A Roll Cafe", "image_url": "https://s3-media4.fl.yelpcdn.com/bphoto/R1T8Rd17eqVqxVcingGhXg/o.jpg", "is_closed": false, "url": "https://www.yelp.com/biz/on-a-roll-cafe-lenox-2?adjust_creative=ywY5UnLZrNrRl2b93Ruy_g&utm_campaign=yelp_api_v3&utm_medium=api_v3_business_search&utm_source=ywY5UnLZrNrRl2b93Ruy_g", "review_count": 53, "categories": [{"alias": "cafes", "title": "Cafes"}, {"alias": "breakfast_brunch", "title": "Breakfast & Brunch"}], "rating": 4.0, "coordinates": {"latitude": 42.377329, "longitude": -73.278509}, "transactions": ["delivery"], "price": "$", "location": {"address1": "55 Pittsfield Rd", "address2": "", "address3": "", "city": "Lenox", "zip_code": "01240", "country": "US", "state": "MA", "display_address": ["55 Pittsfield Rd", "Lenox, MA 01240"]}, "phone": "+14136379544", "display_phone": "(413) 637-9544", "distance": 8248.13491371555}, {"id": "EVGrHXuAo1bPFzs187TqDA", "alias": "wyndhurst-restaurant-at-cranwell-lenox-2", "name": "Wyndhurst Restaurant At Cranwell", "image_url": "https://s3-media3.fl.yelpcdn.com/bphoto/7WxPFjXNfs5lkNKvGBV2uA/o.jpg", "is_closed": false, "url": "https://www.yelp.com/biz/wyndhurst-restaurant-at-cranwell-lenox-2?adjust_creative=ywY5UnLZrNrRl2b93Ruy_g&utm_campaign=yelp_api_v3&utm_medium=api_v3_business_search&utm_source=ywY5UnLZrNrRl2b93Ruy_g", "review_count": 12, "categories": [{"alias": "coffee", "title": "Coffee & Tea"}, {"alias": "breakfast_brunch", "title": "Breakfast & Brunch"}, {"alias": "buffets", "title": "Buffets"}], "rating": 3.5, "coordinates": {"latitude": 42.33985, "longitude": -73.265758}, "transactions": ["delivery"], "price": "$$$", "location": {"address1": "55 Lee Rd", "address2": "", "address3": "", "city": "Lenox", "zip_code": "01240", "country": "US", "state": "MA", "display_address": ["55 Lee Rd", "Lenox, MA 01240"]}, "phone": "+14136371364", "display_phone": "(413) 637-1364", "distance": 5099.162161149999}, {"id": "5ZUVWF9rUGvrT2lx4kle0w", "alias": "loebs-foodtown-lenox", "name": "Loeb's Foodtown", "image_url": "https://s3-media1.fl.yelpcdn.com/bphoto/e_NV-aJTmklW2PN-gOmyrQ/o.jpg", "is_closed": false, "url": "https://www.yelp.com/biz/loebs-foodtown-lenox?adjust_creative=ywY5UnLZrNrRl2b93Ruy_g&utm_campaign=yelp_api_v3&utm_medium=api_v3_business_search&utm_source=ywY5UnLZrNrRl2b93Ruy_g", "review_count": 17, "categories": [{"alias": "grocery", "title": "Grocery"}, {"alias": "delis", "title": "Delis"}], "rating": 3.0, "coordinates": {"latitude": 42.358152, "longitude": -73.284163}, "transactions": [], "price": "$$", "location": {"address1": "42 Main St", "address2": "", "address3": "", "city": "Lenox", "zip_code": "01240", "country": "US", "state": "MA", "display_address": ["42 Main St", "Lenox, MA 01240"]}, "phone": "+14136370270", "display_phone": "(413) 637-0270", "distance": 6079.942790019625}, {"id": "8nhaIMcLJMrfsiic0hSoOg", "alias": "roses-restaurant-lee", "name": "Roses Restaurant", "image_url": "https://s3-media1.fl.yelpcdn.com/bphoto/SoMhXPFohMvzs8eTUHG14w/o.jpg", "is_closed": false, "url": "https://www.yelp.com/biz/roses-restaurant-lee?adjust_creative=ywY5UnLZrNrRl2b93Ruy_g&utm_campaign=yelp_api_v3&utm_medium=api_v3_business_search&utm_source=ywY5UnLZrNrRl2b93Ruy_g", "review_count": 83, "categories": [{"alias": "breakfast_brunch", "title": "Breakfast & Brunch"}], "rating": 3.5, "coordinates": {"latitude": 42.300715, "longitude": -73.243111}, "transactions": ["delivery"], "price": "$", "location": {"address1": "160 Housatonic St", "address2": "", "address3": "", "city": "Lee", "zip_code": "01238", "country": "US", "state": "MA", "display_address": ["160 Housatonic St", "Lee, MA 01238"]}, "phone": "+14132433333", "display_phone": "(413) 243-3333", "distance": 5402.341525213445}, {"id": "xoajVHJmQPp4kc5qgGc1BA", "alias": "joes-diner-lee", "name": "Joe's Diner", "image_url": "https://s3-media3.fl.yelpcdn.com/bphoto/o7RM3UUFkrYh2oTkctdouQ/o.jpg", "is_closed": false, "url": "https://www.yelp.com/biz/joes-diner-lee?adjust_creative=ywY5UnLZrNrRl2b93Ruy_g&utm_campaign=yelp_api_v3&utm_medium=api_v3_business_search&utm_source=ywY5UnLZrNrRl2b93Ruy_g", "review_count": 83, "categories": [{"alias": "tradamerican", "title": "American (Traditional)"}, {"alias": "diners", "title": "Diners"}, {"alias": "breakfast_brunch", "title": "Breakfast & Brunch"}], "rating": 3.5, "coordinates": {"latitude": 42.310245, "longitude": -73.252144}, "transactions": ["delivery"], "price": "$", "location": {"address1": "85 Central St", "address2": null, "address3": "", "city": "Lee", "zip_code": "01238", "country": "US", "state": "MA", "display_address": ["85 Central St", "Lee, MA 01238"]}, "phone": "+14132439756", "display_phone": "(413) 243-9756", "distance": 4639.350483708086}, {"id": "hXSi6voU0mmcyr0SHHbSVQ", "alias": "joel-s-hot-dog-cart-lenox", "name": "Joel\u2019s Hot Dog Cart", "image_url": "https://s3-media4.fl.yelpcdn.com/bphoto/B8jFXBhCnKV2H_PVdL8TsQ/o.jpg", "is_closed": false, "url": "https://www.yelp.com/biz/joel-s-hot-dog-cart-lenox?adjust_creative=ywY5UnLZrNrRl2b93Ruy_g&utm_campaign=yelp_api_v3&utm_medium=api_v3_business_search&utm_source=ywY5UnLZrNrRl2b93Ruy_g", "review_count": 2, "categories": [{"alias": "hotdog", "title": "Hot Dogs"}, {"alias": "streetvendors", "title": "Street Vendors"}], "rating": 5.0, "coordinates": {"latitude": 42.36819, "longitude": -73.28831}, "transactions": [], "location": {"address1": "", "address2": "", "address3": null, "city": "Lenox", "zip_code": "01240", "country": "US", "state": "MA", "display_address": ["Lenox, MA 01240"]}, "phone": "", "display_phone": "", "distance": 8123.0324065008035}, {"id": "_44KcXxrWxc025YsRUq2Gw", "alias": "prado-s-cafe-lee", "name": "Prado\u2019s Cafe", "image_url": "https://s3-media3.fl.yelpcdn.com/bphoto/p6UYYaeX6jK3U7Hfgv20JA/o.jpg", "is_closed": false, "url": "https://www.yelp.com/biz/prado-s-cafe-lee?adjust_creative=ywY5UnLZrNrRl2b93Ruy_g&utm_campaign=yelp_api_v3&utm_medium=api_v3_business_search&utm_source=ywY5UnLZrNrRl2b93Ruy_g", "review_count": 7, "categories": [{"alias": "breakfast_brunch", "title": "Breakfast & Brunch"}, {"alias": "cafes", "title": "Cafes"}], "rating": 3.5, "coordinates": {"latitude": 42.30594, "longitude": -73.24992}, "transactions": ["pickup", "delivery"], "location": {"address1": "85 Main St", "address2": null, "address3": "", "city": "Lee", "zip_code": "01238", "country": "US", "state": "MA", "display_address": ["85 Main St", "Lee, MA 01238"]}, "phone": "+14132436561", "display_phone": "(413) 243-6561", "distance": 4802.717770017837}, {"id": "sw_fMcE7mDh9UgDAinEh4A", "alias": "papa-ginos-lee-3", "name": "Papa Gino's", "image_url": "https://s3-media2.fl.yelpcdn.com/bphoto/UtAfL7Ion7B70KTnpMkkjA/o.jpg", "is_closed": false, "url": "https://www.yelp.com/biz/papa-ginos-lee-3?adjust_creative=ywY5UnLZrNrRl2b93Ruy_g&utm_campaign=yelp_api_v3&utm_medium=api_v3_business_search&utm_source=ywY5UnLZrNrRl2b93Ruy_g", "review_count": 1, "categories": [{"alias": "pizza", "title": "Pizza"}], "rating": 2.0, "coordinates": {"latitude": 42.2956547, "longitude": -73.2708765}, "transactions": ["delivery"], "location": {"address1": "370 Stockbridge Rd", "address2": "", "address3": null, "city": "Lee", "zip_code": "01238", "country": "US", "state": "MA", "display_address": ["370 Stockbridge Rd", "Lee, MA 01238"]}, "phone": "+14132431380", "display_phone": "(413) 243-1380", "distance": 2960.6009905648584}, {"id": "oP6MxD_tKqBF_hCgk9dOmg", "alias": "east-lee-package-store-lee", "name": "East Lee Package Store", "image_url": "https://s3-media4.fl.yelpcdn.com/bphoto/ZFn3i5E5fflh0nviMpXBgw/o.jpg", "is_closed": false, "url": "https://www.yelp.com/biz/east-lee-package-store-lee?adjust_creative=ywY5UnLZrNrRl2b93Ruy_g&utm_campaign=yelp_api_v3&utm_medium=api_v3_business_search&utm_source=ywY5UnLZrNrRl2b93Ruy_g", "review_count": 11, "categories": [{"alias": "beer_and_wine", "title": "Beer, Wine & Spirits"}, {"alias": "delis", "title": "Delis"}], "rating": 3.5, "coordinates": {"latitude": 42.2972074, "longitude": -73.2314694}, "transactions": [], "price": "$", "location": {"address1": "185 Water St", "address2": "", "address3": "", "city": "Lee", "zip_code": "01238", "country": "US", "state": "MA", "display_address": ["185 Water St", "Lee, MA 01238"]}, "phone": "+14132439768", "display_phone": "(413) 243-9768", "distance": 6396.756571340764}, {"id": "2SCtabMTxctlLgbar3-diA", "alias": "lenox-coffee-lenox", "name": "Lenox Coffee", "image_url": "https://s3-media3.fl.yelpcdn.com/bphoto/sQ8SqpEmWgACa9dKP2kXrA/o.jpg", "is_closed": false, "url": "https://www.yelp.com/biz/lenox-coffee-lenox?adjust_creative=ywY5UnLZrNrRl2b93Ruy_g&utm_campaign=yelp_api_v3&utm_medium=api_v3_business_search&utm_source=ywY5UnLZrNrRl2b93Ruy_g", "review_count": 65, "categories": [{"alias": "coffee", "title": "Coffee & Tea"}, {"alias": "cafes", "title": "Cafes"}], "rating": 4.0, "coordinates": {"latitude": 42.3584016606754, "longitude": -73.2836276361217}, "transactions": ["delivery"], "price": "$", "location": {"address1": "52 Main St", "address2": "", "address3": "", "city": "Lenox", "zip_code": "01240", "country": "US", "state": "MA", "display_address": ["52 Main St", "Lenox, MA 01240"]}, "phone": "+14136371606", "display_phone": "(413) 637-1606", "distance": 6117.775169110678}, {"id": "C4OiIXuNN6PbCq8gaMyc1Q", "alias": "papas-best-batch-red-hook", "name": "Papa's Best Batch", "image_url": "https://s3-media2.fl.yelpcdn.com/bphoto/TP_X6t_lwfuT-1MI915hhA/o.jpg", "is_closed": false, "url": "https://www.yelp.com/biz/papas-best-batch-red-hook?adjust_creative=ywY5UnLZrNrRl2b93Ruy_g&utm_campaign=yelp_api_v3&utm_medium=api_v3_business_search&utm_source=ywY5UnLZrNrRl2b93Ruy_g", "review_count": 44, "categories": [{"alias": "bbq", "title": "Barbeque"}, {"alias": "foodtrucks", "title": "Food Trucks"}], "rating": 5.0, "coordinates": {"latitude": 42.028686, "longitude": -73.852675}, "transactions": [], "price": "$$", "location": {"address1": "243 Pitcher Ln", "address2": "", "address3": "Greig Farm", "city": "Red Hook", "zip_code": "12571", "country": "US", "state": "NY", "display_address": ["243 Pitcher Ln", "Greig Farm", "Red Hook, NY 12571"]}, "phone": "+19143885202", "display_phone": "(914) 388-5202", "distance": 54469.353738900376}, {"id": "Y5fUpTFQ-9MFrUa1s8jSRg", "alias": "panda-garden-lee", "name": "Panda Garden", "image_url": "https://s3-media3.fl.yelpcdn.com/bphoto/tIpsLe_VXudyUGKFuLpPhg/o.jpg", "is_closed": false, "url": "https://www.yelp.com/biz/panda-garden-lee?adjust_creative=ywY5UnLZrNrRl2b93Ruy_g&utm_campaign=yelp_api_v3&utm_medium=api_v3_business_search&utm_source=ywY5UnLZrNrRl2b93Ruy_g", "review_count": 12, "categories": [{"alias": "chinese", "title": "Chinese"}], "rating": 3.0, "coordinates": {"latitude": 42.3060799, "longitude": -73.2501526}, "transactions": ["delivery"], "price": "$", "location": {"address1": "95 Main St", "address2": null, "address3": null, "city": "Lee", "zip_code": "01238", "country": "US", "state": "MA", "display_address": ["95 Main St", "Lee, MA 01238"]}, "phone": "+14132439188", "display_phone": "(413) 243-9188", "distance": 4793.7040971513725}, {"id": "KZBbwy47pY-Xj4a51CHGzg", "alias": "bagel-and-brew-lenox", "name": "Bagel And Brew", "image_url": "https://s3-media2.fl.yelpcdn.com/bphoto/jymeELaqVRRrs-YLCscAlQ/o.jpg", "is_closed": false, "url": "https://www.yelp.com/biz/bagel-and-brew-lenox?adjust_creative=ywY5UnLZrNrRl2b93Ruy_g&utm_campaign=yelp_api_v3&utm_medium=api_v3_business_search&utm_source=ywY5UnLZrNrRl2b93Ruy_g", "review_count": 40, "categories": [{"alias": "breakfast_brunch", "title": "Breakfast & Brunch"}, {"alias": "bagels", "title": "Bagels"}], "rating": 4.0, "coordinates": {"latitude": 42.35951, "longitude": -73.28298}, "transactions": ["delivery"], "price": "$", "location": {"address1": "18 Franklin St", "address2": "", "address3": "", "city": "Lenox", "zip_code": "01240", "country": "US", "state": "MA", "display_address": ["18 Franklin St", "Lenox, MA 01240"]}, "phone": "+14136370055", "display_phone": "(413) 637-0055", "distance": 6259.739768591321}, {"id": "4NosW9Y5YnRNcqbRxR_ySw", "alias": "fresh-city-lee", "name": "Fresh City", "image_url": "https://s3-media2.fl.yelpcdn.com/bphoto/yAdVL_Tv2vTtdKd2oe3EUQ/o.jpg", "is_closed": false, "url": "https://www.yelp.com/biz/fresh-city-lee?adjust_creative=ywY5UnLZrNrRl2b93Ruy_g&utm_campaign=yelp_api_v3&utm_medium=api_v3_business_search&utm_source=ywY5UnLZrNrRl2b93Ruy_g", "review_count": 15, "categories": [{"alias": "food_court", "title": "Food Court"}], "rating": 2.0, "coordinates": {"latitude": 42.3054990935517, "longitude": -73.2489395141602}, "transactions": [], "price": "$", "location": {"address1": "370 Stockbridge Rd", "address2": "", "address3": "", "city": "Lee", "zip_code": "01238", "country": "US", "state": "MA", "display_address": ["370 Stockbridge Rd", "Lee, MA 01238"]}, "phone": "+14132433268", "display_phone": "(413) 243-3268", "distance": 4885.627786171673}, {"id": "1abRo8so6LKnAwAouIzOtQ", "alias": "simply-grillicious-lee", "name": "Simply Grillicious", "image_url": "https://s3-media3.fl.yelpcdn.com/bphoto/iW-mbQ3JwkTXSnfpbVXXYQ/o.jpg", "is_closed": false, "url": "https://www.yelp.com/biz/simply-grillicious-lee?adjust_creative=ywY5UnLZrNrRl2b93Ruy_g&utm_campaign=yelp_api_v3&utm_medium=api_v3_business_search&utm_source=ywY5UnLZrNrRl2b93Ruy_g", "review_count": 3, "categories": [{"alias": "newamerican", "title": "American (New)"}], "rating": 2.5, "coordinates": {"latitude": 42.294388, "longitude": -73.234434}, "transactions": [], "price": "$", "location": {"address1": "50 Water St", "address2": "", "address3": "", "city": "Lee", "zip_code": "01238", "country": "US", "state": "MA", "display_address": ["50 Water St", "Lee, MA 01238"]}, "phone": "+14132431345", "display_phone": "(413) 243-1345", "distance": 6225.262338636242}, {"id": "UpGxqkYYWLe3aXvHAaA6iw", "alias": "sloanes-restaurant-and-bar-lenox-2", "name": "Sloane's Restaurant & Bar", "image_url": "https://s3-media4.fl.yelpcdn.com/bphoto/pbN3999sshy1WyjCSu4A2w/o.jpg", "is_closed": false, "url": "https://www.yelp.com/biz/sloanes-restaurant-and-bar-lenox-2?adjust_creative=ywY5UnLZrNrRl2b93Ruy_g&utm_campaign=yelp_api_v3&utm_medium=api_v3_business_search&utm_source=ywY5UnLZrNrRl2b93Ruy_g", "review_count": 21, "categories": [{"alias": "salad", "title": "Salad"}, {"alias": "tradamerican", "title": "American (Traditional)"}, {"alias": "sandwiches", "title": "Sandwiches"}], "rating": 2.5, "coordinates": {"latitude": 42.34162, "longitude": -73.26428}, "transactions": [], "price": "$$", "location": {"address1": "55 Lee Rd", "address2": "", "address3": "", "city": "Lenox", "zip_code": "01240", "country": "US", "state": "MA", "display_address": ["55 Lee Rd", "Lenox, MA 01240"]}, "phone": "+14136371364", "display_phone": "(413) 637-1364", "distance": 5418.0525904883125}, {"id": "OKFMX6hUhzA2MfnyrSRnFg", "alias": "mcdonalds-lee-6", "name": "McDonald's", "image_url": "https://s3-media1.fl.yelpcdn.com/bphoto/CAKblQXDMWh4Zy881GXPFg/o.jpg", "is_closed": false, "url": "https://www.yelp.com/biz/mcdonalds-lee-6?adjust_creative=ywY5UnLZrNrRl2b93Ruy_g&utm_campaign=yelp_api_v3&utm_medium=api_v3_business_search&utm_source=ywY5UnLZrNrRl2b93Ruy_g", "review_count": 5, "categories": [{"alias": "burgers", "title": "Burgers"}, {"alias": "hotdogs", "title": "Fast Food"}, {"alias": "coffee", "title": "Coffee & Tea"}], "rating": 2.0, "coordinates": {"latitude": 42.298505, "longitude": -73.27465333}, "transactions": [], "price": "$", "location": {"address1": "240 West Rd", "address2": "", "address3": "", "city": "Lee", "zip_code": "01238", "country": "US", "state": "MA", "display_address": ["240 West Rd", "Lee, MA 01238"]}, "phone": "+14132436695", "display_phone": "(413) 243-6695", "distance": 2922.0975784749367}, {"id": "fgQXVuAG-qRZeGgBiD_2Uw", "alias": "shots-cafe-lenox", "name": "Shots Cafe", "image_url": "https://s3-media4.fl.yelpcdn.com/bphoto/m6e3OSpqy6R3pyjw7QbEVA/o.jpg", "is_closed": false, "url": "https://www.yelp.com/biz/shots-cafe-lenox?adjust_creative=ywY5UnLZrNrRl2b93Ruy_g&utm_campaign=yelp_api_v3&utm_medium=api_v3_business_search&utm_source=ywY5UnLZrNrRl2b93Ruy_g", "review_count": 81, "categories": [{"alias": "cafes", "title": "Cafes"}], "rating": 3.0, "coordinates": {"latitude": 42.35786, "longitude": -73.2831}, "transactions": ["delivery"], "price": "$$", "location": {"address1": "27 Housatonic St", "address2": "Ste D", "address3": "", "city": "Lenox", "zip_code": "01240", "country": "US", "state": "MA", "display_address": ["27 Housatonic St", "Ste D", "Lenox, MA 01240"]}, "phone": "+14136371055", "display_phone": "(413) 637-1055", "distance": 6074.546890612836}, {"id": "dEt-yktUtzEXyyspQfm_fQ", "alias": "orient-taste-lee", "name": "Orient Taste", "image_url": "https://s3-media2.fl.yelpcdn.com/bphoto/ieopyNkFT4bVtLzNmz3CZw/o.jpg", "is_closed": false, "url": "https://www.yelp.com/biz/orient-taste-lee?adjust_creative=ywY5UnLZrNrRl2b93Ruy_g&utm_campaign=yelp_api_v3&utm_medium=api_v3_business_search&utm_source=ywY5UnLZrNrRl2b93Ruy_g", "review_count": 2, "categories": [{"alias": "chinese", "title": "Chinese"}], "rating": 1.0, "coordinates": {"latitude": 42.294122, "longitude": -73.233635}, "transactions": [], "price": "$$", "location": {"address1": "50 Water St", "address2": "", "address3": "", "city": "Lee", "zip_code": "01238", "country": "US", "state": "MA", "display_address": ["50 Water St", "Lee, MA 01238"]}, "phone": "+14132436028", "display_phone": "(413) 243-6028", "distance": 6295.847440108758}, {"id": "REAEo2X_Do9fvZTMTPYUEA", "alias": "sweet-and-savoury-on-main-lee", "name": "Sweet and Savoury On Main", "image_url": "", "is_closed": false, "url": "https://www.yelp.com/biz/sweet-and-savoury-on-main-lee?adjust_creative=ywY5UnLZrNrRl2b93Ruy_g&utm_campaign=yelp_api_v3&utm_medium=api_v3_business_search&utm_source=ywY5UnLZrNrRl2b93Ruy_g", "review_count": 1, "categories": [{"alias": "bakeries", "title": "Bakeries"}, {"alias": "cafes", "title": "Cafes"}], "rating": 3.0, "coordinates": {"latitude": 42.305557, "longitude": -73.249139}, "transactions": [], "location": {"address1": "56 Main St", "address2": "", "address3": null, "city": "Lee", "zip_code": "01238", "country": "US", "state": "MA", "display_address": ["56 Main St", "Lee, MA 01238"]}, "phone": "+14132437777", "display_phone": "(413) 243-7777", "distance": 4872.347260257385}, {"id": "R1ByTPNBUAPP96XKKkk0GQ", "alias": "rising-dale-cafe-great-barrington", "name": "Rising Dale Cafe", "image_url": "", "is_closed": false, "url": "https://www.yelp.com/biz/rising-dale-cafe-great-barrington?adjust_creative=ywY5UnLZrNrRl2b93Ruy_g&utm_campaign=yelp_api_v3&utm_medium=api_v3_business_search&utm_source=ywY5UnLZrNrRl2b93Ruy_g", "review_count": 2, "categories": [{"alias": "restaurants", "title": "Restaurants"}], "rating": 3.0, "coordinates": {"latitude": 42.240545, "longitude": -73.355646}, "transactions": [], "location": {"address1": "290 Park St", "address2": "", "address3": "", "city": "Great Barrington", "zip_code": "01230", "country": "US", "state": "MA", "display_address": ["290 Park St", "Great Barrington, MA 01230"]}, "phone": "+14132746185", "display_phone": "(413) 274-6185", "distance": 8318.187402538813}, {"id": "1T67DQkg_Guyvlkqhqu7Mw", "alias": "mcdonalds-lee", "name": "McDonald's", "image_url": "https://s3-media3.fl.yelpcdn.com/bphoto/wQLfIJNysnYKaJsoDropJg/o.jpg", "is_closed": false, "url": "https://www.yelp.com/biz/mcdonalds-lee?adjust_creative=ywY5UnLZrNrRl2b93Ruy_g&utm_campaign=yelp_api_v3&utm_medium=api_v3_business_search&utm_source=ywY5UnLZrNrRl2b93Ruy_g", "review_count": 7, "categories": [{"alias": "burgers", "title": "Burgers"}, {"alias": "hotdogs", "title": "Fast Food"}, {"alias": "coffee", "title": "Coffee & Tea"}], "rating": 2.5, "coordinates": {"latitude": 42.2969521, "longitude": -73.274561}, "transactions": [], "price": "$", "location": {"address1": "370 W Stockbridge Rd", "address2": "", "address3": "", "city": "Lee", "zip_code": "01238", "country": "US", "state": "MA", "display_address": ["370 W Stockbridge Rd", "Lee, MA 01238"]}, "phone": "+14132434666", "display_phone": "(413) 243-4666", "distance": 2973.667482365502}, {"id": "2-qHSKRWlFMEBRiRbRSrzg", "alias": "villa-pizza-lee", "name": "Villa Pizza", "image_url": "https://s3-media4.fl.yelpcdn.com/bphoto/_OxZVubHLEvolZjZD3P9yg/o.jpg", "is_closed": false, "url": "https://www.yelp.com/biz/villa-pizza-lee?adjust_creative=ywY5UnLZrNrRl2b93Ruy_g&utm_campaign=yelp_api_v3&utm_medium=api_v3_business_search&utm_source=ywY5UnLZrNrRl2b93Ruy_g", "review_count": 1, "categories": [{"alias": "pizza", "title": "Pizza"}], "rating": 2.0, "coordinates": {"latitude": 42.294695, "longitude": -73.23371}, "transactions": [], "location": {"address1": "50 Water St", "address2": "", "address3": "", "city": "Lee", "zip_code": "01238", "country": "US", "state": "MA", "display_address": ["50 Water St", "Lee, MA 01238"]}, "phone": "+14133949940", "display_phone": "(413) 394-9940", "distance": 6276.1633434595315}, {"id": "TIYWAT8N9h-K2loTE-HH4A", "alias": "subway-lee-5", "name": "Subway", "image_url": "https://s3-media3.fl.yelpcdn.com/bphoto/XLEgFt-LDGyaXTFgPgYVBg/o.jpg", "is_closed": false, "url": "https://www.yelp.com/biz/subway-lee-5?adjust_creative=ywY5UnLZrNrRl2b93Ruy_g&utm_campaign=yelp_api_v3&utm_medium=api_v3_business_search&utm_source=ywY5UnLZrNrRl2b93Ruy_g", "review_count": 3, "categories": [{"alias": "sandwiches", "title": "Sandwiches"}], "rating": 3.0, "coordinates": {"latitude": 42.3092762, "longitude": -73.2511555276127}, "transactions": [], "price": "$", "location": {"address1": "236 Main St", "address2": null, "address3": null, "city": "Lee", "zip_code": "01238", "country": "US", "state": "MA", "display_address": ["236 Main St", "Lee, MA 01238"]}, "phone": "+14132434142", "display_phone": "(413) 243-4142", "distance": 4712.075535010832}, {"id": "1KvLXb2nhGIUXwFUmfYolw", "alias": "subway-lee-6", "name": "Subway", "image_url": "https://s3-media2.fl.yelpcdn.com/bphoto/S_313jZ8G7Mzgzlegnia4Q/o.jpg", "is_closed": false, "url": "https://www.yelp.com/biz/subway-lee-6?adjust_creative=ywY5UnLZrNrRl2b93Ruy_g&utm_campaign=yelp_api_v3&utm_medium=api_v3_business_search&utm_source=ywY5UnLZrNrRl2b93Ruy_g", "review_count": 3, "categories": [{"alias": "sandwiches", "title": "Sandwiches"}], "rating": 1.5, "coordinates": {"latitude": 42.294582, "longitude": -73.233724}, "transactions": [], "price": "$", "location": {"address1": "50 Water St", "address2": "Unit H380D", "address3": "", "city": "Lee", "zip_code": "01238", "country": "US", "state": "MA", "display_address": ["50 Water St", "Unit H380D", "Lee, MA 01238"]}, "phone": "+14132438292", "display_phone": "(413) 243-8292", "distance": 6276.18269821647}, {"id": "y-WH9WEyQNpsAWCoffxn1A", "alias": "mcdonalds-lee-4", "name": "McDonald's", "image_url": "https://s3-media2.fl.yelpcdn.com/bphoto/wjob_R0ECBWIvqTEItS3pw/o.jpg", "is_closed": false, "url": "https://www.yelp.com/biz/mcdonalds-lee-4?adjust_creative=ywY5UnLZrNrRl2b93Ruy_g&utm_campaign=yelp_api_v3&utm_medium=api_v3_business_search&utm_source=ywY5UnLZrNrRl2b93Ruy_g", "review_count": 9, "categories": [{"alias": "burgers", "title": "Burgers"}, {"alias": "hotdogs", "title": "Fast Food"}, {"alias": "coffee", "title": "Coffee & Tea"}], "rating": 2.0, "coordinates": {"latitude": 42.2991668943395, "longitude": -73.240801692009}, "transactions": [], "price": "$", "location": {"address1": "245 Housatonic St", "address2": "", "address3": "", "city": "Lee", "zip_code": "01238", "country": "US", "state": "MA", "display_address": ["245 Housatonic St", "Lee, MA 01238"]}, "phone": "+14132432253", "display_phone": "(413) 243-2253", "distance": 5613.437726447489}, {"id": "qqA8YX58xnmEXLyanHfdUg", "alias": "stufd-food-truck-brooklyn", "name": "Stuf'd Food Truck", "image_url": "https://s3-media2.fl.yelpcdn.com/bphoto/_Wn0i-tLIOFinw8BPAqxPA/o.jpg", "is_closed": false, "url": "https://www.yelp.com/biz/stufd-food-truck-brooklyn?adjust_creative=ywY5UnLZrNrRl2b93Ruy_g&utm_campaign=yelp_api_v3&utm_medium=api_v3_business_search&utm_source=ywY5UnLZrNrRl2b93Ruy_g", "review_count": 4, "categories": [{"alias": "sandwiches", "title": "Sandwiches"}, {"alias": "foodtrucks", "title": "Food Trucks"}], "rating": 4.0, "coordinates": {"latitude": 40.7124539, "longitude": -73.9287374}, "transactions": [], "location": {"address1": "178 Varick Ave", "address2": "", "address3": null, "city": "Brooklyn", "zip_code": "11237", "country": "US", "state": "NY", "display_address": ["178 Varick Ave", "Brooklyn, NY 11237"]}, "phone": "+18457091808", "display_phone": "(845) 709-1808", "distance": 184623.09600482543}]