[{"id": "E4RyhqBNIZ6AvdFTNRrmUQ", "alias": "mccarthys-pub-belchertown", "name": "McCarthy's Pub", "image_url": "https://s3-media3.fl.yelpcdn.com/bphoto/rItSlXr6jR0p5dkjXzgz1g/o.jpg", "is_closed": false, "url": "https://www.yelp.com/biz/mccarthys-pub-belchertown?adjust_creative=HdhkN5EEH6lAqE3kwhsHEQ&utm_campaign=yelp_api_v3&utm_medium=api_v3_business_search&utm_source=HdhkN5EEH6lAqE3kwhsHEQ", "review_count": 51, "categories": [{"alias": "bars", "title": "Bars"}, {"alias": "irish", "title": "Irish"}], "rating": 4.0, "coordinates": {"latitude": 42.2802, "longitude": -72.4032299}, "transactions": [], "price": "$$", "location": {"address1": "5 E Walnut St", "address2": null, "address3": "", "city": "Belchertown", "zip_code": "01007", "country": "US", "state": "MA", "display_address": ["5 E Walnut St", "Belchertown, MA 01007"]}, "phone": "+14133236420", "display_phone": "(413) 323-6420", "distance": 922.6539919691738}, {"id": "pJ_sOJl6j4NULj38TLlSpg", "alias": "la-trattoria-pizzeria-and-ristorante-belchertown", "name": "La Trattoria Pizzeria & Ristorante", "image_url": "", "is_closed": false, "url": "https://www.yelp.com/biz/la-trattoria-pizzeria-and-ristorante-belchertown?adjust_creative=HdhkN5EEH6lAqE3kwhsHEQ&utm_campaign=yelp_api_v3&utm_medium=api_v3_business_search&utm_source=HdhkN5EEH6lAqE3kwhsHEQ", "review_count": 15, "categories": [{"alias": "italian", "title": "Italian"}, {"alias": "pizza", "title": "Pizza"}], "rating": 4.0, "coordinates": {"latitude": 42.271956, "longitude": -72.410926}, "transactions": [], "price": "$", "location": {"address1": "37 State St", "address2": "", "address3": "", "city": "Belchertown", "zip_code": "01007", "country": "US", "state": "MA", "display_address": ["37 State St", "Belchertown, MA 01007"]}, "phone": "+14133230706", "display_phone": "(413) 323-0706", "distance": 794.0891131079776}, {"id": "AlqOI5JtcvjDua4CERhGMA", "alias": "antonios-pizza-belchertown-2", "name": "Antonio's Pizza", "image_url": "https://s3-media2.fl.yelpcdn.com/bphoto/Yg3GSQ3svSFiBOFwTJM_eg/o.jpg", "is_closed": false, "url": "https://www.yelp.com/biz/antonios-pizza-belchertown-2?adjust_creative=HdhkN5EEH6lAqE3kwhsHEQ&utm_campaign=yelp_api_v3&utm_medium=api_v3_business_search&utm_source=HdhkN5EEH6lAqE3kwhsHEQ", "review_count": 68, "categories": [{"alias": "pizza", "title": "Pizza"}], "rating": 4.0, "coordinates": {"latitude": 42.2898815960091, "longitude": -72.4088935579308}, "transactions": [], "price": "$$", "location": {"address1": "31 Federal St", "address2": "", "address3": "", "city": "Belchertown", "zip_code": "01007", "country": "US", "state": "MA", "display_address": ["31 Federal St", "Belchertown, MA 01007"]}, "phone": "+14133236844", "display_phone": "(413) 323-6844", "distance": 2080.1268995946766}, {"id": "gDTCV0OBNL7Kk3c3_rg4Fg", "alias": "almeidas-country-cafe-belchertown", "name": "Almeida's Country Cafe", "image_url": "https://s3-media3.fl.yelpcdn.com/bphoto/O3Uw2mulEZDPQ3_SlcGlJw/o.jpg", "is_closed": false, "url": "https://www.yelp.com/biz/almeidas-country-cafe-belchertown?adjust_creative=HdhkN5EEH6lAqE3kwhsHEQ&utm_campaign=yelp_api_v3&utm_medium=api_v3_business_search&utm_source=HdhkN5EEH6lAqE3kwhsHEQ", "review_count": 29, "categories": [{"alias": "breakfast_brunch", "title": "Breakfast & Brunch"}, {"alias": "coffee", "title": "Coffee & Tea"}, {"alias": "cafes", "title": "Cafes"}], "rating": 4.0, "coordinates": {"latitude": 42.2690146, "longitude": -72.415876}, "transactions": [], "price": "$", "location": {"address1": "146 State St", "address2": "", "address3": "", "city": "Belchertown", "zip_code": "01007", "country": "US", "state": "MA", "display_address": ["146 State St", "Belchertown, MA 01007"]}, "phone": "+14133236360", "display_phone": "(413) 323-6360", "distance": 1247.6681872439083}, {"id": "oCq_1uSutCa1PgUrnplA9w", "alias": "kristinas-kafe-and-bakery-belchertown", "name": "Kristina's Kafe and Bakery", "image_url": "https://s3-media1.fl.yelpcdn.com/bphoto/qM1fvwP0mKdskWc8TeZaOA/o.jpg", "is_closed": false, "url": "https://www.yelp.com/biz/kristinas-kafe-and-bakery-belchertown?adjust_creative=HdhkN5EEH6lAqE3kwhsHEQ&utm_campaign=yelp_api_v3&utm_medium=api_v3_business_search&utm_source=HdhkN5EEH6lAqE3kwhsHEQ", "review_count": 71, "categories": [{"alias": "bakeries", "title": "Bakeries"}, {"alias": "breakfast_brunch", "title": "Breakfast & Brunch"}, {"alias": "sandwiches", "title": "Sandwiches"}], "rating": 4.0, "coordinates": {"latitude": 42.28034, "longitude": -72.40398}, "transactions": [], "price": "$$", "location": {"address1": "9 N Main St", "address2": "", "address3": "", "city": "Belchertown", "zip_code": "01007", "country": "US", "state": "MA", "display_address": ["9 N Main St", "Belchertown, MA 01007"]}, "phone": "+14133235733", "display_phone": "(413) 323-5733", "distance": 947.2448104649492}, {"id": "i1290e-E1YNWw3vusBjMKg", "alias": "the-grapevine-grille-belchertown", "name": "The Grapevine Grille", "image_url": "https://s3-media2.fl.yelpcdn.com/bphoto/Ufy9aBObcFQi0CbSgyqo2Q/o.jpg", "is_closed": false, "url": "https://www.yelp.com/biz/the-grapevine-grille-belchertown?adjust_creative=HdhkN5EEH6lAqE3kwhsHEQ&utm_campaign=yelp_api_v3&utm_medium=api_v3_business_search&utm_source=HdhkN5EEH6lAqE3kwhsHEQ", "review_count": 32, "categories": [{"alias": "italian", "title": "Italian"}, {"alias": "tradamerican", "title": "American (Traditional)"}, {"alias": "greek", "title": "Greek"}], "rating": 3.5, "coordinates": {"latitude": 42.26436, "longitude": -72.41944}, "transactions": [], "price": "$$", "location": {"address1": "62 Turkey Hill Rd", "address2": "", "address3": "", "city": "Belchertown", "zip_code": "01007", "country": "US", "state": "MA", "display_address": ["62 Turkey Hill Rd", "Belchertown, MA 01007"]}, "phone": "+14133234117", "display_phone": "(413) 323-4117", "distance": 1712.1190616509448}, {"id": "Tl4vnrf3G4sSXzpSgvKczQ", "alias": "tables-at-the-farm-palmer", "name": "Tables at the Farm", "image_url": "https://s3-media1.fl.yelpcdn.com/bphoto/gpx2Q9o1H7Ijnpc2GYyF5w/o.jpg", "is_closed": false, "url": "https://www.yelp.com/biz/tables-at-the-farm-palmer?adjust_creative=HdhkN5EEH6lAqE3kwhsHEQ&utm_campaign=yelp_api_v3&utm_medium=api_v3_business_search&utm_source=HdhkN5EEH6lAqE3kwhsHEQ", "review_count": 19, "categories": [{"alias": "breakfast_brunch", "title": "Breakfast & Brunch"}, {"alias": "tradamerican", "title": "American (Traditional)"}], "rating": 4.0, "coordinates": {"latitude": 42.192764, "longitude": -72.35028967}, "transactions": [], "location": {"address1": "3092 Palmer St", "address2": "Ma-181", "address3": "", "city": "Palmer", "zip_code": "01069", "country": "US", "state": "MA", "display_address": ["3092 Palmer St", "Ma-181", "Palmer, MA 01069"]}, "phone": "+14133242986", "display_phone": "(413) 324-2986", "distance": 8972.747841517888}, {"id": "HQEBY4lEJxmn6G5tDYWEVg", "alias": "russos-lakeside-seafood-and-steakhouse-palmer", "name": "Russo's Lakeside Seafood & Steakhouse", "image_url": "https://s3-media3.fl.yelpcdn.com/bphoto/cE5L8cxQbGhT18yqnV8RWw/o.jpg", "is_closed": false, "url": "https://www.yelp.com/biz/russos-lakeside-seafood-and-steakhouse-palmer?adjust_creative=HdhkN5EEH6lAqE3kwhsHEQ&utm_campaign=yelp_api_v3&utm_medium=api_v3_business_search&utm_source=HdhkN5EEH6lAqE3kwhsHEQ", "review_count": 45, "categories": [{"alias": "seafood", "title": "Seafood"}, {"alias": "steak", "title": "Steakhouses"}], "rating": 4.0, "coordinates": {"latitude": 42.210545, "longitude": -72.307816}, "transactions": ["pickup", "delivery"], "price": "$$", "location": {"address1": "702 River St", "address2": "", "address3": "", "city": "Palmer", "zip_code": "01069", "country": "US", "state": "MA", "display_address": ["702 River St", "Palmer, MA 01069"]}, "phone": "+14132892360", "display_phone": "(413) 289-2360", "distance": 10293.4595649521}, {"id": "vzN_ZSBdj5m3hppudN541Q", "alias": "chubbys-belchertown", "name": "Chubby'S", "image_url": "https://s3-media2.fl.yelpcdn.com/bphoto/Ivz9D71Jim0K_BscNuemEw/o.jpg", "is_closed": false, "url": "https://www.yelp.com/biz/chubbys-belchertown?adjust_creative=HdhkN5EEH6lAqE3kwhsHEQ&utm_campaign=yelp_api_v3&utm_medium=api_v3_business_search&utm_source=HdhkN5EEH6lAqE3kwhsHEQ", "review_count": 11, "categories": [{"alias": "icecream", "title": "Ice Cream & Frozen Yogurt"}, {"alias": "tradamerican", "title": "American (Traditional)"}], "rating": 2.5, "coordinates": {"latitude": 42.2719, "longitude": -72.41029}, "transactions": [], "price": "$$", "location": {"address1": "2 Stadler St", "address2": "", "address3": "", "city": "Belchertown", "zip_code": "01007", "country": "US", "state": "MA", "display_address": ["2 Stadler St", "Belchertown, MA 01007"]}, "phone": "+14133236861", "display_phone": "(413) 323-6861", "distance": 747.324311075857}, {"id": "F0kbFudS4Fj_UT0cJPn4Tg", "alias": "wong-garden-belchertown", "name": "Wong Garden", "image_url": "https://s3-media4.fl.yelpcdn.com/bphoto/NIF9q-xwMzYkmFyE2BCJDQ/o.jpg", "is_closed": false, "url": "https://www.yelp.com/biz/wong-garden-belchertown?adjust_creative=HdhkN5EEH6lAqE3kwhsHEQ&utm_campaign=yelp_api_v3&utm_medium=api_v3_business_search&utm_source=HdhkN5EEH6lAqE3kwhsHEQ", "review_count": 30, "categories": [{"alias": "chinese", "title": "Chinese"}], "rating": 3.0, "coordinates": {"latitude": 42.2887515, "longitude": -72.406968}, "transactions": [], "price": "$", "location": {"address1": "147 N Main St", "address2": null, "address3": null, "city": "Belchertown", "zip_code": "01007", "country": "US", "state": "MA", "display_address": ["147 N Main St", "Belchertown, MA 01007"]}, "phone": "+14133236200", "display_phone": "(413) 323-6200", "distance": 1925.4563997386547}, {"id": "vk2DFcUOZPFd9TprRxmCoQ", "alias": "min-fen-kitchen-belchertown-2", "name": "Min Fen Kitchen", "image_url": "https://s3-media3.fl.yelpcdn.com/bphoto/sOURdtV6vvpwfx4UbMRCwQ/o.jpg", "is_closed": false, "url": "https://www.yelp.com/biz/min-fen-kitchen-belchertown-2?adjust_creative=HdhkN5EEH6lAqE3kwhsHEQ&utm_campaign=yelp_api_v3&utm_medium=api_v3_business_search&utm_source=HdhkN5EEH6lAqE3kwhsHEQ", "review_count": 12, "categories": [{"alias": "chinese", "title": "Chinese"}], "rating": 3.5, "coordinates": {"latitude": 42.277134, "longitude": -72.401396}, "transactions": [], "price": "$", "location": {"address1": "11 Main St", "address2": "", "address3": "", "city": "Belchertown", "zip_code": "01007", "country": "US", "state": "MA", "display_address": ["11 Main St", "Belchertown, MA 01007"]}, "phone": "+14133238228", "display_phone": "(413) 323-8228", "distance": 566.0921354231401}, {"id": "CUhWTw6pJoTt81sMf1d2jQ", "alias": "the-belchertown-pizza-shop-belchertown-2", "name": "The Belchertown Pizza Shop", "image_url": "https://s3-media1.fl.yelpcdn.com/bphoto/hYRDG0r-R9o82ZtplReY9A/o.jpg", "is_closed": false, "url": "https://www.yelp.com/biz/the-belchertown-pizza-shop-belchertown-2?adjust_creative=HdhkN5EEH6lAqE3kwhsHEQ&utm_campaign=yelp_api_v3&utm_medium=api_v3_business_search&utm_source=HdhkN5EEH6lAqE3kwhsHEQ", "review_count": 21, "categories": [{"alias": "pizza", "title": "Pizza"}, {"alias": "desserts", "title": "Desserts"}, {"alias": "salad", "title": "Salad"}], "rating": 2.5, "coordinates": {"latitude": 42.2770346, "longitude": -72.4008884}, "transactions": [], "price": "$$", "location": {"address1": "4 Park St", "address2": "", "address3": "", "city": "Belchertown", "zip_code": "01007", "country": "US", "state": "MA", "display_address": ["4 Park St", "Belchertown, MA 01007"]}, "phone": "+14133230300", "display_phone": "(413) 323-0300", "distance": 555.8665514664708}, {"id": "gjEJbmb3zxK79b1gCZkEUw", "alias": "north-hot-pot-amherst", "name": "North Hot Pot", "image_url": "https://s3-media2.fl.yelpcdn.com/bphoto/Xm6uqML_YYRG1sn2cy-YYw/o.jpg", "is_closed": false, "url": "https://www.yelp.com/biz/north-hot-pot-amherst?adjust_creative=HdhkN5EEH6lAqE3kwhsHEQ&utm_campaign=yelp_api_v3&utm_medium=api_v3_business_search&utm_source=HdhkN5EEH6lAqE3kwhsHEQ", "review_count": 31, "categories": [{"alias": "chinese", "title": "Chinese"}, {"alias": "hotpot", "title": "Hot Pot"}], "rating": 4.5, "coordinates": {"latitude": 42.37233, "longitude": -72.49943}, "transactions": ["delivery"], "location": {"address1": "20 Belchertown Rd", "address2": null, "address3": "", "city": "Amherst", "zip_code": "01002", "country": "US", "state": "MA", "display_address": ["20 Belchertown Rd", "Amherst, MA 01002"]}, "phone": "+14138350351", "display_phone": "(413) 835-0351", "distance": 13824.756955442193}, {"id": "FhaArV8Sex3wL-Wyv6MQuw", "alias": "gin-mill-palmer", "name": "Gin Mill", "image_url": "https://s3-media1.fl.yelpcdn.com/bphoto/hzab8IojP7MVbmN__a9RtQ/o.jpg", "is_closed": false, "url": "https://www.yelp.com/biz/gin-mill-palmer?adjust_creative=HdhkN5EEH6lAqE3kwhsHEQ&utm_campaign=yelp_api_v3&utm_medium=api_v3_business_search&utm_source=HdhkN5EEH6lAqE3kwhsHEQ", "review_count": 11, "categories": [{"alias": "divebars", "title": "Dive Bars"}, {"alias": "tradamerican", "title": "American (Traditional)"}], "rating": 4.5, "coordinates": {"latitude": 42.213802, "longitude": -72.344717}, "transactions": [], "price": "$", "location": {"address1": "3095 Main St", "address2": "", "address3": "", "city": "Palmer", "zip_code": "01069", "country": "US", "state": "MA", "display_address": ["3095 Main St", "Palmer, MA 01069"]}, "phone": "+14132832014", "display_phone": "(413) 283-2014", "distance": 7976.037618033084}, {"id": "_NBRK7gTiowu-v2oMO1q_w", "alias": "bistro-21-belchertown", "name": "Bistro 21", "image_url": "", "is_closed": false, "url": "https://www.yelp.com/biz/bistro-21-belchertown?adjust_creative=HdhkN5EEH6lAqE3kwhsHEQ&utm_campaign=yelp_api_v3&utm_medium=api_v3_business_search&utm_source=HdhkN5EEH6lAqE3kwhsHEQ", "review_count": 17, "categories": [{"alias": "newamerican", "title": "American (New)"}, {"alias": "bars", "title": "Bars"}], "rating": 2.5, "coordinates": {"latitude": 42.2433781, "longitude": -72.409838}, "transactions": [], "price": "$$", "location": {"address1": "330 Chauncey Walker St", "address2": "", "address3": "", "city": "Belchertown", "zip_code": "01007", "country": "US", "state": "MA", "display_address": ["330 Chauncey Walker St", "Belchertown, MA 01007"]}, "phone": "+14133234888", "display_phone": "(413) 323-4888", "distance": 3264.4380112736167}, {"id": "0_n0QgP_AookwqzVfZIFgQ", "alias": "mission-cantina-amherst-2", "name": "Mission Cantina", "image_url": "https://s3-media4.fl.yelpcdn.com/bphoto/LZMh8ZoJ1M6C05M3kS8tcg/o.jpg", "is_closed": false, "url": "https://www.yelp.com/biz/mission-cantina-amherst-2?adjust_creative=HdhkN5EEH6lAqE3kwhsHEQ&utm_campaign=yelp_api_v3&utm_medium=api_v3_business_search&utm_source=HdhkN5EEH6lAqE3kwhsHEQ", "review_count": 316, "categories": [{"alias": "mexican", "title": "Mexican"}], "rating": 4.0, "coordinates": {"latitude": 42.3397429940276, "longitude": -72.5209043590139}, "transactions": ["pickup", "delivery"], "price": "$$", "location": {"address1": "485 W St", "address2": "", "address3": "", "city": "Amherst", "zip_code": "01002", "country": "US", "state": "MA", "display_address": ["485 W St", "Amherst, MA 01002"]}, "phone": "+14132303580", "display_phone": "(413) 230-3580", "distance": 12387.431655075628}, {"id": "nS5i9j0suJPnuCGOccGjdQ", "alias": "earlee-mug-granby", "name": "Earlee Mug", "image_url": "https://s3-media3.fl.yelpcdn.com/bphoto/uXDANPxSKoLiu239vlcsqA/o.jpg", "is_closed": false, "url": "https://www.yelp.com/biz/earlee-mug-granby?adjust_creative=HdhkN5EEH6lAqE3kwhsHEQ&utm_campaign=yelp_api_v3&utm_medium=api_v3_business_search&utm_source=HdhkN5EEH6lAqE3kwhsHEQ", "review_count": 17, "categories": [{"alias": "breakfast_brunch", "title": "Breakfast & Brunch"}, {"alias": "diners", "title": "Diners"}], "rating": 4.0, "coordinates": {"latitude": 42.2624359677306, "longitude": -72.5024160370231}, "transactions": [], "price": "$", "location": {"address1": "337 E State St", "address2": "", "address3": "", "city": "Granby", "zip_code": "01033", "country": "US", "state": "MA", "display_address": ["337 E State St", "Granby, MA 01033"]}, "phone": "+14134673244", "display_phone": "(413) 467-3244", "distance": 8390.719939417415}, {"id": "Lwjwq2MI6EBw-adaJCv4zQ", "alias": "roadhouse-cafe-belchertown", "name": "Roadhouse Cafe", "image_url": "https://s3-media4.fl.yelpcdn.com/bphoto/pX6Z4TaChsSy3q0PHpP1EQ/o.jpg", "is_closed": false, "url": "https://www.yelp.com/biz/roadhouse-cafe-belchertown?adjust_creative=HdhkN5EEH6lAqE3kwhsHEQ&utm_campaign=yelp_api_v3&utm_medium=api_v3_business_search&utm_source=HdhkN5EEH6lAqE3kwhsHEQ", "review_count": 78, "categories": [{"alias": "breakfast_brunch", "title": "Breakfast & Brunch"}, {"alias": "cafes", "title": "Cafes"}], "rating": 3.0, "coordinates": {"latitude": 42.29843, "longitude": -72.41532}, "transactions": [], "price": "$$", "location": {"address1": "178 Federal St", "address2": "", "address3": "", "city": "Belchertown", "zip_code": "01007", "country": "US", "state": "MA", "display_address": ["178 Federal St", "Belchertown, MA 01007"]}, "phone": "+14133236175", "display_phone": "(413) 323-6175", "distance": 3155.823371386763}, {"id": "1K-cj8tD7mHMuDxvkeI-xw", "alias": "omi-omy-amherst", "name": "Omi Omy", "image_url": "https://s3-media2.fl.yelpcdn.com/bphoto/hpTgx-fE3TBg4ow70fPRuQ/o.jpg", "is_closed": false, "url": "https://www.yelp.com/biz/omi-omy-amherst?adjust_creative=HdhkN5EEH6lAqE3kwhsHEQ&utm_campaign=yelp_api_v3&utm_medium=api_v3_business_search&utm_source=HdhkN5EEH6lAqE3kwhsHEQ", "review_count": 44, "categories": [{"alias": "vietnamese", "title": "Vietnamese"}, {"alias": "sandwiches", "title": "Sandwiches"}, {"alias": "soup", "title": "Soup"}], "rating": 4.5, "coordinates": {"latitude": 42.36781, "longitude": -72.53494}, "transactions": ["pickup", "delivery"], "price": "$", "location": {"address1": "181 University Dr", "address2": "Ste D", "address3": "", "city": "Amherst", "zip_code": "01002", "country": "US", "state": "MA", "display_address": ["181 University Dr", "Ste D", "Amherst, MA 01002"]}, "phone": "+14132303766", "display_phone": "(413) 230-3766", "distance": 15327.622938346785}, {"id": "AosVp_67irlM1MzpgURciw", "alias": "el-comalito-amherst", "name": "El Comalito", "image_url": "https://s3-media4.fl.yelpcdn.com/bphoto/AUZgmbAEqMb52HMmPUOO5w/o.jpg", "is_closed": false, "url": "https://www.yelp.com/biz/el-comalito-amherst?adjust_creative=HdhkN5EEH6lAqE3kwhsHEQ&utm_campaign=yelp_api_v3&utm_medium=api_v3_business_search&utm_source=HdhkN5EEH6lAqE3kwhsHEQ", "review_count": 131, "categories": [{"alias": "mexican", "title": "Mexican"}, {"alias": "salvadoran", "title": "Salvadoran"}, {"alias": "bars", "title": "Bars"}], "rating": 4.0, "coordinates": {"latitude": 42.3405129991382, "longitude": -72.5193391647356}, "transactions": ["delivery"], "price": "$$", "location": {"address1": "460 W St", "address2": "", "address3": "", "city": "Amherst", "zip_code": "01002", "country": "US", "state": "MA", "display_address": ["460 W St", "Amherst, MA 01002"]}, "phone": "+14132599999", "display_phone": "(413) 259-9999", "distance": 12338.061644054287}, {"id": "_M9tO4EUkGSL4mtSnECcrA", "alias": "teresas-restaurant-ware", "name": "Teresa's Restaurant", "image_url": "https://s3-media2.fl.yelpcdn.com/bphoto/O7o53uFX5smk1gOJzuoCzw/o.jpg", "is_closed": false, "url": "https://www.yelp.com/biz/teresas-restaurant-ware?adjust_creative=HdhkN5EEH6lAqE3kwhsHEQ&utm_campaign=yelp_api_v3&utm_medium=api_v3_business_search&utm_source=HdhkN5EEH6lAqE3kwhsHEQ", "review_count": 48, "categories": [{"alias": "pizza", "title": "Pizza"}, {"alias": "italian", "title": "Italian"}, {"alias": "venues", "title": "Venues & Event Spaces"}], "rating": 3.5, "coordinates": {"latitude": 42.24245, "longitude": -72.274393}, "transactions": [], "price": "$$", "location": {"address1": "315 Palmer Rd", "address2": "", "address3": "", "city": "Ware", "zip_code": "01082", "country": "US", "state": "MA", "display_address": ["315 Palmer Rd", "Ware, MA 01082"]}, "phone": "+14139677601", "display_phone": "(413) 967-7601", "distance": 10948.518737872382}, {"id": "PZolckom78iMsIJY-lKb_g", "alias": "checkers-general-store-and-deli-belchertown", "name": "Checkers General Store & Deli", "image_url": "https://s3-media1.fl.yelpcdn.com/bphoto/JwOLm9DtfNR2wNS-II-3_g/o.jpg", "is_closed": false, "url": "https://www.yelp.com/biz/checkers-general-store-and-deli-belchertown?adjust_creative=HdhkN5EEH6lAqE3kwhsHEQ&utm_campaign=yelp_api_v3&utm_medium=api_v3_business_search&utm_source=HdhkN5EEH6lAqE3kwhsHEQ", "review_count": 8, "categories": [{"alias": "grocery", "title": "Grocery"}, {"alias": "delis", "title": "Delis"}, {"alias": "beer_and_wine", "title": "Beer, Wine & Spirits"}], "rating": 3.0, "coordinates": {"latitude": 42.2723345449639, "longitude": -72.4103921048211}, "transactions": ["pickup"], "price": "$", "location": {"address1": "2 Stadler St", "address2": "", "address3": "", "city": "Belchertown", "zip_code": "01007", "country": "US", "state": "MA", "display_address": ["2 Stadler St", "Belchertown, MA 01007"]}, "phone": "+14133234599", "display_phone": "(413) 323-4599", "distance": 750.794581554227}, {"id": "2gHV3VBB6TvviL9xQN8aVA", "alias": "cindys-drive-in-granby", "name": "Cindy's Drive In", "image_url": "https://s3-media2.fl.yelpcdn.com/bphoto/mHKINrLX8ibWwSws11nAdw/o.jpg", "is_closed": false, "url": "https://www.yelp.com/biz/cindys-drive-in-granby?adjust_creative=HdhkN5EEH6lAqE3kwhsHEQ&utm_campaign=yelp_api_v3&utm_medium=api_v3_business_search&utm_source=HdhkN5EEH6lAqE3kwhsHEQ", "review_count": 46, "categories": [{"alias": "icecream", "title": "Ice Cream & Frozen Yogurt"}, {"alias": "burgers", "title": "Burgers"}, {"alias": "sandwiches", "title": "Sandwiches"}], "rating": 4.5, "coordinates": {"latitude": 42.2646768906583, "longitude": -72.4798295893378}, "transactions": [], "price": "$", "location": {"address1": "455 E State St", "address2": "", "address3": "", "city": "Granby", "zip_code": "01033", "country": "US", "state": "MA", "display_address": ["455 E State St", "Granby, MA 01033"]}, "phone": "+14134679866", "display_phone": "(413) 467-9866", "distance": 6515.468240491524}, {"id": "bB2PCxshQ1rRqI5cMUfIhg", "alias": "randalls-farm-ludlow", "name": "Randall's Farm", "image_url": "https://s3-media2.fl.yelpcdn.com/bphoto/so2L0aEwZv2ZEWPLRicq_w/o.jpg", "is_closed": false, "url": "https://www.yelp.com/biz/randalls-farm-ludlow?adjust_creative=HdhkN5EEH6lAqE3kwhsHEQ&utm_campaign=yelp_api_v3&utm_medium=api_v3_business_search&utm_source=HdhkN5EEH6lAqE3kwhsHEQ", "review_count": 50, "categories": [{"alias": "markets", "title": "Fruits & Veggies"}, {"alias": "delis", "title": "Delis"}, {"alias": "bakeries", "title": "Bakeries"}], "rating": 4.0, "coordinates": {"latitude": 42.17961, "longitude": -72.4728}, "transactions": ["delivery"], "price": "$$", "location": {"address1": "631 Center St", "address2": "", "address3": "", "city": "Ludlow", "zip_code": "01056", "country": "US", "state": "MA", "display_address": ["631 Center St", "Ludlow, MA 01056"]}, "phone": "+14135897071", "display_phone": "(413) 589-7071", "distance": 11803.531016670742}, {"id": "B64xV_p3vrtrcyRoFK2DIQ", "alias": "burgundy-brook-cafe-three-rivers", "name": "Burgundy Brook Cafe", "image_url": "https://s3-media2.fl.yelpcdn.com/bphoto/RPDX7aqpoHYxn2gLVQ4OCw/o.jpg", "is_closed": false, "url": "https://www.yelp.com/biz/burgundy-brook-cafe-three-rivers?adjust_creative=HdhkN5EEH6lAqE3kwhsHEQ&utm_campaign=yelp_api_v3&utm_medium=api_v3_business_search&utm_source=HdhkN5EEH6lAqE3kwhsHEQ", "review_count": 100, "categories": [{"alias": "delis", "title": "Delis"}, {"alias": "sandwiches", "title": "Sandwiches"}, {"alias": "breakfast_brunch", "title": "Breakfast & Brunch"}], "rating": 3.5, "coordinates": {"latitude": 42.180909, "longitude": -72.363095}, "transactions": [], "price": "$$", "location": {"address1": "2048 Main St", "address2": null, "address3": null, "city": "Three Rivers", "zip_code": "01080", "country": "US", "state": "MA", "display_address": ["2048 Main St", "Three Rivers, MA 01080"]}, "phone": "+14132896359", "display_phone": "(413) 289-6359", "distance": 10610.154651450825}, {"id": "QAYlKRxw_hdSe8PjkVbgrg", "alias": "alvin-rondeaus-dairy-bar-palmer", "name": "Alvin Rondeau's Dairy Bar", "image_url": "https://s3-media2.fl.yelpcdn.com/bphoto/P7hATNpoqavOsVP2iG9akg/o.jpg", "is_closed": false, "url": "https://www.yelp.com/biz/alvin-rondeaus-dairy-bar-palmer?adjust_creative=HdhkN5EEH6lAqE3kwhsHEQ&utm_campaign=yelp_api_v3&utm_medium=api_v3_business_search&utm_source=HdhkN5EEH6lAqE3kwhsHEQ", "review_count": 33, "categories": [{"alias": "foodstands", "title": "Food Stands"}, {"alias": "hotdog", "title": "Hot Dogs"}, {"alias": "seafood", "title": "Seafood"}], "rating": 4.0, "coordinates": {"latitude": 42.21143, "longitude": -72.3027}, "transactions": [], "price": "$", "location": {"address1": "1300 Ware St", "address2": "", "address3": "", "city": "Palmer", "zip_code": "01069", "country": "US", "state": "MA", "display_address": ["1300 Ware St", "Palmer, MA 01069"]}, "phone": "+14132835281", "display_phone": "(413) 283-5281", "distance": 10531.732377496834}, {"id": "2xvvqUWeYDsMgixuZCpyLQ", "alias": "hangar-pub-and-grill-amherst-2", "name": "Hangar Pub & Grill", "image_url": "https://s3-media4.fl.yelpcdn.com/bphoto/KIfRNP6aRjAtfcTkSFepyg/o.jpg", "is_closed": false, "url": "https://www.yelp.com/biz/hangar-pub-and-grill-amherst-2?adjust_creative=HdhkN5EEH6lAqE3kwhsHEQ&utm_campaign=yelp_api_v3&utm_medium=api_v3_business_search&utm_source=HdhkN5EEH6lAqE3kwhsHEQ", "review_count": 129, "categories": [{"alias": "pubs", "title": "Pubs"}, {"alias": "arcades", "title": "Arcades"}, {"alias": "tradamerican", "title": "American (Traditional)"}], "rating": 3.5, "coordinates": {"latitude": 42.3733375, "longitude": -72.5326808}, "transactions": ["pickup", "delivery"], "price": "$$", "location": {"address1": "10 University Dr", "address2": "", "address3": "", "city": "Amherst", "zip_code": "01002", "country": "US", "state": "MA", "display_address": ["10 University Dr", "Amherst, MA 01002"]}, "phone": "+14135499461", "display_phone": "(413) 549-9461", "distance": 15511.405421311767}, {"id": "5Cx_U0_NCW4GQfpeaf50rw", "alias": "radars-pub-three-rivers", "name": "Radar's Pub", "image_url": "https://s3-media1.fl.yelpcdn.com/bphoto/bygx9tBJhB56ciwwoDxBYw/o.jpg", "is_closed": false, "url": "https://www.yelp.com/biz/radars-pub-three-rivers?adjust_creative=HdhkN5EEH6lAqE3kwhsHEQ&utm_campaign=yelp_api_v3&utm_medium=api_v3_business_search&utm_source=HdhkN5EEH6lAqE3kwhsHEQ", "review_count": 3, "categories": [{"alias": "seafood", "title": "Seafood"}, {"alias": "sandwiches", "title": "Sandwiches"}, {"alias": "burgers", "title": "Burgers"}], "rating": 2.5, "coordinates": {"latitude": 42.180993, "longitude": -72.3629807308316}, "transactions": [], "location": {"address1": "2052 Main St", "address2": "", "address3": null, "city": "Three Rivers", "zip_code": "01080", "country": "US", "state": "MA", "display_address": ["2052 Main St", "Three Rivers, MA 01080"]}, "phone": "+14132836989", "display_phone": "(413) 283-6989", "distance": 10604.027405121946}, {"id": "Dh1VmD7hHemz_J1iysZs_A", "alias": "subway-belchertown-3", "name": "Subway", "image_url": "https://s3-media1.fl.yelpcdn.com/bphoto/ToB9Q7CWePLRA8IBmfANBA/o.jpg", "is_closed": false, "url": "https://www.yelp.com/biz/subway-belchertown-3?adjust_creative=HdhkN5EEH6lAqE3kwhsHEQ&utm_campaign=yelp_api_v3&utm_medium=api_v3_business_search&utm_source=HdhkN5EEH6lAqE3kwhsHEQ", "review_count": 3, "categories": [{"alias": "sandwiches", "title": "Sandwiches"}], "rating": 3.0, "coordinates": {"latitude": 42.2886725, "longitude": -72.4075052577242}, "transactions": [], "price": "$", "location": {"address1": "145 N Main St", "address2": "", "address3": "", "city": "Belchertown", "zip_code": "01007", "country": "US", "state": "MA", "display_address": ["145 N Main St", "Belchertown, MA 01007"]}, "phone": "+14133234735", "display_phone": "(413) 323-4735", "distance": 1918.7391004097578}, {"id": "GyiGG91uCWHNkg8uUJHbDg", "alias": "joys-restaurant-ludlow", "name": "Joy's Restaurant", "image_url": "https://s3-media1.fl.yelpcdn.com/bphoto/NKMn2T4gcZA8Pr5arra5Yw/o.jpg", "is_closed": false, "url": "https://www.yelp.com/biz/joys-restaurant-ludlow?adjust_creative=HdhkN5EEH6lAqE3kwhsHEQ&utm_campaign=yelp_api_v3&utm_medium=api_v3_business_search&utm_source=HdhkN5EEH6lAqE3kwhsHEQ", "review_count": 18, "categories": [{"alias": "italian", "title": "Italian"}], "rating": 3.0, "coordinates": {"latitude": 42.17153, "longitude": -72.47933}, "transactions": ["delivery"], "price": "$", "location": {"address1": "481 Center St", "address2": "", "address3": "", "city": "Ludlow", "zip_code": "01056", "country": "US", "state": "MA", "display_address": ["481 Center St", "Ludlow, MA 01056"]}, "phone": "+14135472640", "display_phone": "(413) 547-2640", "distance": 12916.472953979435}, {"id": "_-DpIGE758Vq2hSJTF-P2w", "alias": "johnnys-roadside-diner-hadley", "name": "Johnny's Roadside Diner", "image_url": "https://s3-media2.fl.yelpcdn.com/bphoto/XlgfWs2nB0vm2QV5VJ7lyw/o.jpg", "is_closed": false, "url": "https://www.yelp.com/biz/johnnys-roadside-diner-hadley?adjust_creative=HdhkN5EEH6lAqE3kwhsHEQ&utm_campaign=yelp_api_v3&utm_medium=api_v3_business_search&utm_source=HdhkN5EEH6lAqE3kwhsHEQ", "review_count": 128, "categories": [{"alias": "tradamerican", "title": "American (Traditional)"}, {"alias": "diners", "title": "Diners"}, {"alias": "breakfast_brunch", "title": "Breakfast & Brunch"}], "rating": 3.5, "coordinates": {"latitude": 42.3655072874757, "longitude": -72.5364167243242}, "transactions": ["pickup", "delivery"], "price": "$$", "location": {"address1": "458 Russell St", "address2": "", "address3": "Campus Plaza Shopping Ctr", "city": "Hadley", "zip_code": "01035", "country": "US", "state": "MA", "display_address": ["458 Russell St", "Campus Plaza Shopping Ctr", "Hadley, MA 01035"]}, "phone": "+14132568000", "display_phone": "(413) 256-8000", "distance": 15213.940482879689}, {"id": "0msAbcZIxbd0SNScpNaDkg", "alias": "ginger-garden-amherst", "name": "Ginger Garden", "image_url": "https://s3-media2.fl.yelpcdn.com/bphoto/js4UWunD8xiJmWjFWuerWw/o.jpg", "is_closed": false, "url": "https://www.yelp.com/biz/ginger-garden-amherst?adjust_creative=HdhkN5EEH6lAqE3kwhsHEQ&utm_campaign=yelp_api_v3&utm_medium=api_v3_business_search&utm_source=HdhkN5EEH6lAqE3kwhsHEQ", "review_count": 170, "categories": [{"alias": "chinese", "title": "Chinese"}, {"alias": "asianfusion", "title": "Asian Fusion"}, {"alias": "japanese", "title": "Japanese"}], "rating": 3.5, "coordinates": {"latitude": 42.3669775033261, "longitude": -72.5339299812913}, "transactions": ["delivery"], "price": "$$", "location": {"address1": "351 Northampton Rd", "address2": "", "address3": "", "city": "Amherst", "zip_code": "01002", "country": "US", "state": "MA", "display_address": ["351 Northampton Rd", "Amherst, MA 01002"]}, "phone": "+14132566666", "display_phone": "(413) 256-6666", "distance": 15178.413866756655}, {"id": "R_Dbzv_Qldr8iQSurwMgNQ", "alias": "friendlys-hadley", "name": "Friendly's", "image_url": "https://s3-media1.fl.yelpcdn.com/bphoto/qcBD0f0dXi-o-3DxaVbfhA/o.jpg", "is_closed": false, "url": "https://www.yelp.com/biz/friendlys-hadley?adjust_creative=HdhkN5EEH6lAqE3kwhsHEQ&utm_campaign=yelp_api_v3&utm_medium=api_v3_business_search&utm_source=HdhkN5EEH6lAqE3kwhsHEQ", "review_count": 12, "categories": [{"alias": "icecream", "title": "Ice Cream & Frozen Yogurt"}, {"alias": "burgers", "title": "Burgers"}, {"alias": "tradamerican", "title": "American (Traditional)"}], "rating": 4.0, "coordinates": {"latitude": 42.3637771606445, "longitude": -72.5378112792969}, "transactions": [], "price": "$$", "location": {"address1": "455 Russell St", "address2": "", "address3": "", "city": "Hadley", "zip_code": "01035", "country": "US", "state": "MA", "display_address": ["455 Russell St", "Hadley, MA 01035"]}, "phone": "+14132537640", "display_phone": "(413) 253-7640", "distance": 15173.301176062032}, {"id": "kYYsLTt2VK4YuXT15AC2Gw", "alias": "pride-convenience-ludlow", "name": "Pride Convenience", "image_url": "https://s3-media1.fl.yelpcdn.com/bphoto/tYXqCSUxsEIu4sw8nLMqkw/o.jpg", "is_closed": false, "url": "https://www.yelp.com/biz/pride-convenience-ludlow?adjust_creative=HdhkN5EEH6lAqE3kwhsHEQ&utm_campaign=yelp_api_v3&utm_medium=api_v3_business_search&utm_source=HdhkN5EEH6lAqE3kwhsHEQ", "review_count": 1, "categories": [{"alias": "servicestations", "title": "Gas Stations"}, {"alias": "convenience", "title": "Convenience Stores"}, {"alias": "delis", "title": "Delis"}], "rating": 5.0, "coordinates": {"latitude": 42.17062, "longitude": -72.47868}, "transactions": [], "location": {"address1": "478 Center St", "address2": "", "address3": "", "city": "Ludlow", "zip_code": "01056", "country": "US", "state": "MA", "display_address": ["478 Center St", "Ludlow, MA 01056"]}, "phone": "+14137376992", "display_phone": "(413) 737-6992", "distance": 12955.384722225728}, {"id": "BV7lzWCXot_NQaQ5YS9z7Q", "alias": "30-boltwood-amherst-2", "name": "30 Boltwood", "image_url": "https://s3-media1.fl.yelpcdn.com/bphoto/CeAd9sSs2k6QHFBtCyx0GQ/o.jpg", "is_closed": false, "url": "https://www.yelp.com/biz/30-boltwood-amherst-2?adjust_creative=HdhkN5EEH6lAqE3kwhsHEQ&utm_campaign=yelp_api_v3&utm_medium=api_v3_business_search&utm_source=HdhkN5EEH6lAqE3kwhsHEQ", "review_count": 67, "categories": [{"alias": "newamerican", "title": "American (New)"}, {"alias": "bars", "title": "Bars"}, {"alias": "breakfast_brunch", "title": "Breakfast & Brunch"}], "rating": 3.5, "coordinates": {"latitude": 42.37452, "longitude": -72.51826}, "transactions": ["delivery"], "price": "$$$", "location": {"address1": "30 Boltwood Ave", "address2": "", "address3": "", "city": "Amherst", "zip_code": "01002", "country": "US", "state": "MA", "display_address": ["30 Boltwood Ave", "Amherst, MA 01002"]}, "phone": "+14138352011", "display_phone": "(413) 835-2011", "distance": 14921.201830859238}, {"id": "08KuvUqdONvE2YE9OGKqWQ", "alias": "sibies-pizza-amherst", "name": "Sibie's Pizza", "image_url": "https://s3-media4.fl.yelpcdn.com/bphoto/FT0_Pmw4uTNcR1gItpb9mg/o.jpg", "is_closed": false, "url": "https://www.yelp.com/biz/sibies-pizza-amherst?adjust_creative=HdhkN5EEH6lAqE3kwhsHEQ&utm_campaign=yelp_api_v3&utm_medium=api_v3_business_search&utm_source=HdhkN5EEH6lAqE3kwhsHEQ", "review_count": 44, "categories": [{"alias": "pizza", "title": "Pizza"}, {"alias": "chicken_wings", "title": "Chicken Wings"}, {"alias": "vegan", "title": "Vegan"}], "rating": 4.0, "coordinates": {"latitude": 42.339745, "longitude": -72.520776}, "transactions": ["pickup", "delivery"], "price": "$", "location": {"address1": "481 West St", "address2": "", "address3": "", "city": "Amherst", "zip_code": "01002", "country": "US", "state": "MA", "display_address": ["481 West St", "Amherst, MA 01002"]}, "phone": "+14132566100", "display_phone": "(413) 256-6100", "distance": 12395.22914587164}, {"id": "7xfUwsnwfiI-FppHfXeq8w", "alias": "mcdonalds-belchertown", "name": "McDonald's", "image_url": "https://s3-media3.fl.yelpcdn.com/bphoto/vEDcWwtTZSaulesDaa94JA/o.jpg", "is_closed": false, "url": "https://www.yelp.com/biz/mcdonalds-belchertown?adjust_creative=HdhkN5EEH6lAqE3kwhsHEQ&utm_campaign=yelp_api_v3&utm_medium=api_v3_business_search&utm_source=HdhkN5EEH6lAqE3kwhsHEQ", "review_count": 12, "categories": [{"alias": "hotdogs", "title": "Fast Food"}, {"alias": "burgers", "title": "Burgers"}, {"alias": "coffee", "title": "Coffee & Tea"}], "rating": 1.5, "coordinates": {"latitude": 42.2883518825547, "longitude": -72.4062457680702}, "transactions": [], "price": "$", "location": {"address1": "148 N Main St", "address2": "", "address3": "", "city": "Belchertown", "zip_code": "01007", "country": "US", "state": "MA", "display_address": ["148 N Main St", "Belchertown, MA 01007"]}, "phone": "+14133236498", "display_phone": "(413) 323-6498", "distance": 1858.903141954053}, {"id": "9Vn2Ol3v1B3OOm1j8-Bu7g", "alias": "great-wall-chicopee-2", "name": "Great Wall", "image_url": "https://s3-media4.fl.yelpcdn.com/bphoto/zWgdyqnTJvtHNQj0AqqWHg/o.jpg", "is_closed": false, "url": "https://www.yelp.com/biz/great-wall-chicopee-2?adjust_creative=HdhkN5EEH6lAqE3kwhsHEQ&utm_campaign=yelp_api_v3&utm_medium=api_v3_business_search&utm_source=HdhkN5EEH6lAqE3kwhsHEQ", "review_count": 10, "categories": [{"alias": "chinese", "title": "Chinese"}], "rating": 4.0, "coordinates": {"latitude": 42.173807, "longitude": -72.534199}, "transactions": ["delivery"], "price": "$$", "location": {"address1": "27 White Birch Plz", "address2": "", "address3": "", "city": "Chicopee", "zip_code": "01020", "country": "US", "state": "MA", "display_address": ["27 White Birch Plz", "Chicopee, MA 01020"]}, "phone": "+14135924504", "display_phone": "(413) 592-4504", "distance": 15463.598528667879}, {"id": "6syoJQk4jH34ix5ox1zzkQ", "alias": "cruis-in-cafe-granby", "name": "Cruis-in Cafe", "image_url": "", "is_closed": false, "url": "https://www.yelp.com/biz/cruis-in-cafe-granby?adjust_creative=HdhkN5EEH6lAqE3kwhsHEQ&utm_campaign=yelp_api_v3&utm_medium=api_v3_business_search&utm_source=HdhkN5EEH6lAqE3kwhsHEQ", "review_count": 1, "categories": [{"alias": "diners", "title": "Diners"}, {"alias": "breakfast_brunch", "title": "Breakfast & Brunch"}, {"alias": "tradamerican", "title": "American (Traditional)"}], "rating": 1.0, "coordinates": {"latitude": 42.252963, "longitude": -72.527756}, "transactions": [], "location": {"address1": "172 W State St", "address2": "", "address3": "", "city": "Granby", "zip_code": "01033", "country": "US", "state": "MA", "display_address": ["172 W State St", "Granby, MA 01033"]}, "phone": "+14134679073", "display_phone": "(413) 467-9073", "distance": 10655.089249825323}, {"id": "vDSCyD_k2dq0wtG-8Zuw_A", "alias": "poppis-pizzeria-ludlow", "name": "Poppi's Pizzeria", "image_url": "https://s3-media3.fl.yelpcdn.com/bphoto/l_ZpbIwsi6sHRAjfYcp92A/o.jpg", "is_closed": false, "url": "https://www.yelp.com/biz/poppis-pizzeria-ludlow?adjust_creative=HdhkN5EEH6lAqE3kwhsHEQ&utm_campaign=yelp_api_v3&utm_medium=api_v3_business_search&utm_source=HdhkN5EEH6lAqE3kwhsHEQ", "review_count": 14, "categories": [{"alias": "pizza", "title": "Pizza"}, {"alias": "salad", "title": "Salad"}, {"alias": "wraps", "title": "Wraps"}], "rating": 4.0, "coordinates": {"latitude": 42.18312, "longitude": -72.5057}, "transactions": ["delivery"], "price": "$", "location": {"address1": "351 West St", "address2": null, "address3": null, "city": "Ludlow", "zip_code": "01056", "country": "US", "state": "MA", "display_address": ["351 West St", "Ludlow, MA 01056"]}, "phone": "+14135837828", "display_phone": "(413) 583-7828", "distance": 13112.085489694804}, {"id": "AN0qA-CvLXIZV86DLS0hqg", "alias": "d-angelo-sandwich-ludlow", "name": "D'angelo Sandwich", "image_url": "https://s3-media3.fl.yelpcdn.com/bphoto/ogglnHYgMd9zcReFZJMeLw/o.jpg", "is_closed": false, "url": "https://www.yelp.com/biz/d-angelo-sandwich-ludlow?adjust_creative=HdhkN5EEH6lAqE3kwhsHEQ&utm_campaign=yelp_api_v3&utm_medium=api_v3_business_search&utm_source=HdhkN5EEH6lAqE3kwhsHEQ", "review_count": 6, "categories": [{"alias": "sandwiches", "title": "Sandwiches"}], "rating": 3.5, "coordinates": {"latitude": 42.171, "longitude": -72.4554988871617}, "transactions": ["delivery"], "location": {"address1": "Mass Pike Plaza Milepost Marker 60", "address2": "", "address3": "", "city": "Ludlow", "zip_code": "01056", "country": "US", "state": "MA", "display_address": ["Mass Pike Plaza Milepost Marker 60", "Ludlow, MA 01056"]}, "phone": "+14135899321", "display_phone": "(413) 589-9321", "distance": 12090.24578117933}, {"id": "63xKdxToPIiBZj5Isiq91w", "alias": "oscars-pizza-restaurant-ludlow", "name": "Oscar's Pizza Restaurant", "image_url": "https://s3-media3.fl.yelpcdn.com/bphoto/c_xkfCluNujtIuypIlg1JQ/o.jpg", "is_closed": false, "url": "https://www.yelp.com/biz/oscars-pizza-restaurant-ludlow?adjust_creative=HdhkN5EEH6lAqE3kwhsHEQ&utm_campaign=yelp_api_v3&utm_medium=api_v3_business_search&utm_source=HdhkN5EEH6lAqE3kwhsHEQ", "review_count": 19, "categories": [{"alias": "pizza", "title": "Pizza"}], "rating": 3.5, "coordinates": {"latitude": 42.171461, "longitude": -72.444013}, "transactions": ["delivery"], "price": "$", "location": {"address1": "973 East St", "address2": "", "address3": "", "city": "Ludlow", "zip_code": "01056", "country": "US", "state": "MA", "display_address": ["973 East St", "Ludlow, MA 01056"]}, "phone": "+14135476010", "display_phone": "(413) 547-6010", "distance": 11718.348891230713}, {"id": "WQkrz00jNyQsaJadxL0h7Q", "alias": "kellys-restaurant-amherst", "name": "Kelly's Restaurant", "image_url": "https://s3-media4.fl.yelpcdn.com/bphoto/hwuMSRbWALIzfeUkyoHXWA/o.jpg", "is_closed": false, "url": "https://www.yelp.com/biz/kellys-restaurant-amherst?adjust_creative=HdhkN5EEH6lAqE3kwhsHEQ&utm_campaign=yelp_api_v3&utm_medium=api_v3_business_search&utm_source=HdhkN5EEH6lAqE3kwhsHEQ", "review_count": 19, "categories": [{"alias": "newamerican", "title": "American (New)"}, {"alias": "breakfast_brunch", "title": "Breakfast & Brunch"}], "rating": 3.5, "coordinates": {"latitude": 42.373229, "longitude": -72.503424}, "transactions": ["delivery"], "price": "$", "location": {"address1": "314 College St", "address2": "", "address3": "", "city": "Amherst", "zip_code": "01002", "country": "US", "state": "MA", "display_address": ["314 College St", "Amherst, MA 01002"]}, "phone": "+14132539521", "display_phone": "(413) 253-9521", "distance": 14039.839417867151}, {"id": "MwToLNoS7ocAP983G30vrg", "alias": "wendys-palmer-2", "name": "Wendy's", "image_url": "https://s3-media3.fl.yelpcdn.com/bphoto/xOLby4pZ-wowdApIyQMYkw/o.jpg", "is_closed": false, "url": "https://www.yelp.com/biz/wendys-palmer-2?adjust_creative=HdhkN5EEH6lAqE3kwhsHEQ&utm_campaign=yelp_api_v3&utm_medium=api_v3_business_search&utm_source=HdhkN5EEH6lAqE3kwhsHEQ", "review_count": 5, "categories": [{"alias": "burgers", "title": "Burgers"}, {"alias": "hotdogs", "title": "Fast Food"}], "rating": 2.0, "coordinates": {"latitude": 42.17377, "longitude": -72.32249}, "transactions": [], "price": "$", "location": {"address1": "1213 Thorndyke St", "address2": "", "address3": "", "city": "Palmer", "zip_code": "01069", "country": "US", "state": "MA", "display_address": ["1213 Thorndyke St", "Palmer, MA 01069"]}, "phone": "+14132833037", "display_phone": "(413) 283-3037", "distance": 12706.58685967529}, {"id": "-QyJ17Tl5StCDa-J4tWCQw", "alias": "valentine-dining-hall-amherst", "name": "Valentine Dining Hall", "image_url": "https://s3-media2.fl.yelpcdn.com/bphoto/MElCxmjV49nCBS6tStIZBw/o.jpg", "is_closed": false, "url": "https://www.yelp.com/biz/valentine-dining-hall-amherst?adjust_creative=HdhkN5EEH6lAqE3kwhsHEQ&utm_campaign=yelp_api_v3&utm_medium=api_v3_business_search&utm_source=HdhkN5EEH6lAqE3kwhsHEQ", "review_count": 3, "categories": [{"alias": "tradamerican", "title": "American (Traditional)"}, {"alias": "diners", "title": "Diners"}, {"alias": "breakfast_brunch", "title": "Breakfast & Brunch"}], "rating": 2.5, "coordinates": {"latitude": 42.3731250339904, "longitude": -72.51625}, "transactions": [], "location": {"address1": "59 College St", "address2": "", "address3": null, "city": "Amherst", "zip_code": "01002", "country": "US", "state": "MA", "display_address": ["59 College St", "Amherst, MA 01002"]}, "phone": "+14135422220", "display_phone": "(413) 542-2220", "distance": 14634.588346674798}, {"id": "Eu9D2dTHMxUZifR8Nw_7sg", "alias": "dominos-pizza-hadley-2", "name": "Domino's Pizza", "image_url": "https://s3-media4.fl.yelpcdn.com/bphoto/WhZ0RjxN0fl-omymcOPiow/o.jpg", "is_closed": false, "url": "https://www.yelp.com/biz/dominos-pizza-hadley-2?adjust_creative=HdhkN5EEH6lAqE3kwhsHEQ&utm_campaign=yelp_api_v3&utm_medium=api_v3_business_search&utm_source=HdhkN5EEH6lAqE3kwhsHEQ", "review_count": 28, "categories": [{"alias": "pizza", "title": "Pizza"}, {"alias": "chicken_wings", "title": "Chicken Wings"}, {"alias": "sandwiches", "title": "Sandwiches"}], "rating": 1.5, "coordinates": {"latitude": 42.36456463353, "longitude": -72.5365933603404}, "transactions": [], "price": "$", "location": {"address1": "459 Russell St", "address2": "", "address3": "", "city": "Hadley", "zip_code": "01035", "country": "US", "state": "MA", "display_address": ["459 Russell St", "Hadley, MA 01035"]}, "phone": "+14132568911", "display_phone": "(413) 256-8911", "distance": 15153.253360475186}, {"id": "clTGqlSS0PZftqYiuLE0QA", "alias": "ludlow-pizza-ludlow", "name": "Ludlow Pizza", "image_url": "https://s3-media1.fl.yelpcdn.com/bphoto/mbbAmpJWMlveG-GXLd1nGg/o.jpg", "is_closed": false, "url": "https://www.yelp.com/biz/ludlow-pizza-ludlow?adjust_creative=HdhkN5EEH6lAqE3kwhsHEQ&utm_campaign=yelp_api_v3&utm_medium=api_v3_business_search&utm_source=HdhkN5EEH6lAqE3kwhsHEQ", "review_count": 11, "categories": [{"alias": "pizza", "title": "Pizza"}], "rating": 2.5, "coordinates": {"latitude": 42.180795, "longitude": -72.487059}, "transactions": ["pickup", "delivery"], "price": "$", "location": {"address1": "257 Fuller St", "address2": null, "address3": "", "city": "Ludlow", "zip_code": "01056", "country": "US", "state": "MA", "display_address": ["257 Fuller St", "Ludlow, MA 01056"]}, "phone": "+14135834077", "display_phone": "(413) 583-4077", "distance": 12362.841533057259}, {"id": "6P4QXEPF6LlOapSRenAaRQ", "alias": "country-trading-and-restaurant-chicopee", "name": "Country Trading & Restaurant", "image_url": "https://s3-media1.fl.yelpcdn.com/bphoto/Ln9w6WgiSc3rvqffYAf5gQ/o.jpg", "is_closed": false, "url": "https://www.yelp.com/biz/country-trading-and-restaurant-chicopee?adjust_creative=HdhkN5EEH6lAqE3kwhsHEQ&utm_campaign=yelp_api_v3&utm_medium=api_v3_business_search&utm_source=HdhkN5EEH6lAqE3kwhsHEQ", "review_count": 9, "categories": [{"alias": "breakfast_brunch", "title": "Breakfast & Brunch"}], "rating": 3.0, "coordinates": {"latitude": 42.17407, "longitude": -72.53474}, "transactions": ["delivery"], "price": "$", "location": {"address1": "771 Burnett Rd", "address2": "", "address3": "", "city": "Chicopee", "zip_code": "01020", "country": "US", "state": "MA", "display_address": ["771 Burnett Rd", "Chicopee, MA 01020"]}, "phone": "+14135921641", "display_phone": "(413) 592-1641", "distance": 15475.48981941512}, {"id": "aZ0spgQ-Hfr3j8OLbtQ8kQ", "alias": "zhangs-kitchen-amherst", "name": "Zhang's Kitchen", "image_url": "https://s3-media2.fl.yelpcdn.com/bphoto/wsG_-KqgFhk91wyJLPNOvw/o.jpg", "is_closed": false, "url": "https://www.yelp.com/biz/zhangs-kitchen-amherst?adjust_creative=HdhkN5EEH6lAqE3kwhsHEQ&utm_campaign=yelp_api_v3&utm_medium=api_v3_business_search&utm_source=HdhkN5EEH6lAqE3kwhsHEQ", "review_count": 28, "categories": [{"alias": "chinese", "title": "Chinese"}], "rating": 2.5, "coordinates": {"latitude": 42.3407759993207, "longitude": -72.5196475170102}, "transactions": ["pickup", "delivery"], "price": "$", "location": {"address1": "460 West St", "address2": "", "address3": "", "city": "Amherst", "zip_code": "01002", "country": "US", "state": "MA", "display_address": ["460 West St", "Amherst, MA 01002"]}, "phone": "+14132530584", "display_phone": "(413) 253-0584", "distance": 12376.047444102422}, {"id": "AR37mJt6vRJfHQqkK87_lA", "alias": "palermos-restaurant-and-pizzeria-ludlow", "name": "Palermo's Restaurant & Pizzeria", "image_url": "https://s3-media1.fl.yelpcdn.com/bphoto/5miclRXq26qHnCSy3VDu3g/o.jpg", "is_closed": false, "url": "https://www.yelp.com/biz/palermos-restaurant-and-pizzeria-ludlow?adjust_creative=HdhkN5EEH6lAqE3kwhsHEQ&utm_campaign=yelp_api_v3&utm_medium=api_v3_business_search&utm_source=HdhkN5EEH6lAqE3kwhsHEQ", "review_count": 19, "categories": [{"alias": "pizza", "title": "Pizza"}], "rating": 4.0, "coordinates": {"latitude": 42.17423, "longitude": -72.47452}, "transactions": ["delivery"], "price": "$", "location": {"address1": "546 Center St", "address2": "", "address3": "", "city": "Ludlow", "zip_code": "01056", "country": "US", "state": "MA", "display_address": ["546 Center St", "Ludlow, MA 01056"]}, "phone": "+14135891416", "display_phone": "(413) 589-1416", "distance": 12433.785518124792}, {"id": "ez4AzmdJiafQdc4Gk9BQFA", "alias": "subway-ludlow-5", "name": "Subway", "image_url": "https://s3-media3.fl.yelpcdn.com/bphoto/R-0u6WJLEVhg3Mue63je8Q/o.jpg", "is_closed": false, "url": "https://www.yelp.com/biz/subway-ludlow-5?adjust_creative=HdhkN5EEH6lAqE3kwhsHEQ&utm_campaign=yelp_api_v3&utm_medium=api_v3_business_search&utm_source=HdhkN5EEH6lAqE3kwhsHEQ", "review_count": 5, "categories": [{"alias": "sandwiches", "title": "Sandwiches"}], "rating": 3.0, "coordinates": {"latitude": 42.1715462, "longitude": -72.479713626105}, "transactions": ["delivery", "pickup"], "price": "$", "location": {"address1": "477 Center St", "address2": "", "address3": "", "city": "Ludlow", "zip_code": "01056", "country": "US", "state": "MA", "display_address": ["477 Center St", "Ludlow, MA 01056"]}, "phone": "+14135478370", "display_phone": "(413) 547-8370", "distance": 12907.164727195346}, {"id": "TwRfJJSAOATywnZaRdeOsQ", "alias": "pizza-palace-restaurant-chicopee-2", "name": "Pizza Palace Restaurant", "image_url": "https://s3-media4.fl.yelpcdn.com/bphoto/Y2mzCbCsCseh7XUFVwLrZw/o.jpg", "is_closed": false, "url": "https://www.yelp.com/biz/pizza-palace-restaurant-chicopee-2?adjust_creative=HdhkN5EEH6lAqE3kwhsHEQ&utm_campaign=yelp_api_v3&utm_medium=api_v3_business_search&utm_source=HdhkN5EEH6lAqE3kwhsHEQ", "review_count": 13, "categories": [{"alias": "pizza", "title": "Pizza"}, {"alias": "italian", "title": "Italian"}], "rating": 4.0, "coordinates": {"latitude": 42.1739353, "longitude": -72.5341894}, "transactions": ["delivery"], "price": "$", "location": {"address1": "17 White Birch Plz", "address2": "", "address3": "", "city": "Chicopee", "zip_code": "01020", "country": "US", "state": "MA", "display_address": ["17 White Birch Plz", "Chicopee, MA 01020"]}, "phone": "+14135920413", "display_phone": "(413) 592-0413", "distance": 15452.956428416279}, {"id": "i36ybHMGuHOgH7BN7cFN1A", "alias": "mcdonalds-palmer-4", "name": "McDonald's", "image_url": "https://s3-media3.fl.yelpcdn.com/bphoto/OHjM5Gi4Hm6A4yeWkbCCgg/o.jpg", "is_closed": false, "url": "https://www.yelp.com/biz/mcdonalds-palmer-4?adjust_creative=HdhkN5EEH6lAqE3kwhsHEQ&utm_campaign=yelp_api_v3&utm_medium=api_v3_business_search&utm_source=HdhkN5EEH6lAqE3kwhsHEQ", "review_count": 6, "categories": [{"alias": "coffee", "title": "Coffee & Tea"}, {"alias": "burgers", "title": "Burgers"}, {"alias": "hotdogs", "title": "Fast Food"}], "rating": 3.0, "coordinates": {"latitude": 42.1744, "longitude": -72.32263}, "transactions": [], "price": "$", "location": {"address1": "1184 Thorndike St", "address2": null, "address3": null, "city": "Palmer", "zip_code": "01069", "country": "US", "state": "MA", "display_address": ["1184 Thorndike St", "Palmer, MA 01069"]}, "phone": "+14132839095", "display_phone": "(413) 283-9095", "distance": 12631.934852974751}, {"id": "Im68PoWLtYHB7AcxGfoM_A", "alias": "athenas-pizza-amherst", "name": "Athena's Pizza", "image_url": "https://s3-media1.fl.yelpcdn.com/bphoto/Jp1WPOmRPFycwGfsgFEYqA/o.jpg", "is_closed": false, "url": "https://www.yelp.com/biz/athenas-pizza-amherst?adjust_creative=HdhkN5EEH6lAqE3kwhsHEQ&utm_campaign=yelp_api_v3&utm_medium=api_v3_business_search&utm_source=HdhkN5EEH6lAqE3kwhsHEQ", "review_count": 27, "categories": [{"alias": "greek", "title": "Greek"}, {"alias": "pizza", "title": "Pizza"}, {"alias": "chicken_wings", "title": "Chicken Wings"}], "rating": 4.0, "coordinates": {"latitude": 42.371578, "longitude": -72.533959}, "transactions": ["delivery", "pickup"], "price": "$", "location": {"address1": "65 University Dr", "address2": "Ste 1", "address3": "", "city": "Amherst", "zip_code": "01002", "country": "US", "state": "MA", "display_address": ["65 University Dr", "Ste 1", "Amherst, MA 01002"]}, "phone": "+14135499900", "display_phone": "(413) 549-9900", "distance": 15528.845169805501}, {"id": "DqykbdUgYwboKgNhqjuAIA", "alias": "dominos-pizza-palmer", "name": "Domino's Pizza", "image_url": "", "is_closed": false, "url": "https://www.yelp.com/biz/dominos-pizza-palmer?adjust_creative=HdhkN5EEH6lAqE3kwhsHEQ&utm_campaign=yelp_api_v3&utm_medium=api_v3_business_search&utm_source=HdhkN5EEH6lAqE3kwhsHEQ", "review_count": 3, "categories": [{"alias": "chicken_wings", "title": "Chicken Wings"}, {"alias": "pizza", "title": "Pizza"}, {"alias": "sandwiches", "title": "Sandwiches"}], "rating": 3.5, "coordinates": {"latitude": 42.1744194030762, "longitude": -72.3206405639648}, "transactions": [], "price": "$", "location": {"address1": "1219 Thorndike St", "address2": null, "address3": null, "city": "Palmer", "zip_code": "01069", "country": "US", "state": "MA", "display_address": ["1219 Thorndike St", "Palmer, MA 01069"]}, "phone": "+14132896245", "display_phone": "(413) 289-6245", "distance": 12695.251149925029}, {"id": "JaK65vrVBKsDNCU5GCIg7w", "alias": "mcdonalds-ludlow-4", "name": "McDonalds", "image_url": "https://s3-media4.fl.yelpcdn.com/bphoto/IyHiwgjF-DfC-VGVRtZowg/o.jpg", "is_closed": false, "url": "https://www.yelp.com/biz/mcdonalds-ludlow-4?adjust_creative=HdhkN5EEH6lAqE3kwhsHEQ&utm_campaign=yelp_api_v3&utm_medium=api_v3_business_search&utm_source=HdhkN5EEH6lAqE3kwhsHEQ", "review_count": 8, "categories": [{"alias": "hotdogs", "title": "Fast Food"}, {"alias": "burgers", "title": "Burgers"}, {"alias": "coffee", "title": "Coffee & Tea"}], "rating": 2.5, "coordinates": {"latitude": 42.16934, "longitude": -72.46196}, "transactions": [], "price": "$$", "location": {"address1": "Mass Pike E Travel Plz", "address2": "", "address3": "", "city": "Ludlow", "zip_code": "01056", "country": "US", "state": "MA", "display_address": ["Mass Pike E Travel Plz", "Ludlow, MA 01056"]}, "phone": "+14135891790", "display_phone": "(413) 589-1790", "distance": 12087.299574387922}, {"id": "Io4C5tUwnb_YzeaMXHBqBA", "alias": "shuckin-truck-narragansett-2", "name": "Shuckin Truck", "image_url": "https://s3-media2.fl.yelpcdn.com/bphoto/r7QRORfe9UYVS7GGzUm9DQ/o.jpg", "is_closed": false, "url": "https://www.yelp.com/biz/shuckin-truck-narragansett-2?adjust_creative=HdhkN5EEH6lAqE3kwhsHEQ&utm_campaign=yelp_api_v3&utm_medium=api_v3_business_search&utm_source=HdhkN5EEH6lAqE3kwhsHEQ", "review_count": 24, "categories": [{"alias": "foodtrucks", "title": "Food Trucks"}, {"alias": "seafood", "title": "Seafood"}], "rating": 4.5, "coordinates": {"latitude": 41.4274482727051, "longitude": -71.4597778320313}, "transactions": [], "price": "$$", "location": {"address1": "", "address2": "", "address3": "", "city": "Narragansett", "zip_code": "02882", "country": "US", "state": "RI", "display_address": ["Narragansett, RI 02882"]}, "phone": "+14017415953", "display_phone": "(401) 741-5953", "distance": 123071.00329676563}, {"id": "qqA8YX58xnmEXLyanHfdUg", "alias": "stufd-food-truck-brooklyn", "name": "Stuf'd Food Truck", "image_url": "https://s3-media2.fl.yelpcdn.com/bphoto/_Wn0i-tLIOFinw8BPAqxPA/o.jpg", "is_closed": false, "url": "https://www.yelp.com/biz/stufd-food-truck-brooklyn?adjust_creative=HdhkN5EEH6lAqE3kwhsHEQ&utm_campaign=yelp_api_v3&utm_medium=api_v3_business_search&utm_source=HdhkN5EEH6lAqE3kwhsHEQ", "review_count": 4, "categories": [{"alias": "sandwiches", "title": "Sandwiches"}, {"alias": "foodtrucks", "title": "Food Trucks"}], "rating": 4.0, "coordinates": {"latitude": 40.7124539, "longitude": -73.9287374}, "transactions": [], "location": {"address1": "178 Varick Ave", "address2": "", "address3": null, "city": "Brooklyn", "zip_code": "11237", "country": "US", "state": "NY", "display_address": ["178 Varick Ave", "Brooklyn, NY 11237"]}, "phone": "+18457091808", "display_phone": "(845) 709-1808", "distance": 215071.22048583446}]