[{"id": "ZmPTUYgoiEzlZP772EJApg", "alias": "bourbons-kitchen-and-cocktails-framingham", "name": "Bourbon's Kitchen & Cocktails", "image_url": "https://s3-media3.fl.yelpcdn.com/bphoto/lWNQywtVZR7d6KG6-jRrMw/o.jpg", "is_closed": false, "url": "https://www.yelp.com/biz/bourbons-kitchen-and-cocktails-framingham?adjust_creative=HdhkN5EEH6lAqE3kwhsHEQ&utm_campaign=yelp_api_v3&utm_medium=api_v3_business_search&utm_source=HdhkN5EEH6lAqE3kwhsHEQ", "review_count": 264, "categories": [{"alias": "cocktailbars", "title": "Cocktail Bars"}, {"alias": "comfortfood", "title": "Comfort Food"}], "rating": 4.0, "coordinates": {"latitude": 42.299978, "longitude": -71.408681}, "transactions": ["delivery"], "price": "$$", "location": {"address1": "47 Beacon St", "address2": "", "address3": null, "city": "Framingham", "zip_code": "01701", "country": "US", "state": "MA", "display_address": ["47 Beacon St", "Framingham, MA 01701"]}, "phone": "+15088617997", "display_phone": "(508) 861-7997", "distance": 2407.877473900349}, {"id": "rz8nWIucaqxorjEtS_xHwQ", "alias": "jacks-abby-brewing-framingham-3", "name": "Jack's Abby Brewing", "image_url": "https://s3-media4.fl.yelpcdn.com/bphoto/RS-AIrdoTyEMzQ4Jc6PTyg/o.jpg", "is_closed": false, "url": "https://www.yelp.com/biz/jacks-abby-brewing-framingham-3?adjust_creative=HdhkN5EEH6lAqE3kwhsHEQ&utm_campaign=yelp_api_v3&utm_medium=api_v3_business_search&utm_source=HdhkN5EEH6lAqE3kwhsHEQ", "review_count": 500, "categories": [{"alias": "pizza", "title": "Pizza"}, {"alias": "brewpubs", "title": "Brewpubs"}], "rating": 4.0, "coordinates": {"latitude": 42.280188, "longitude": -71.411168}, "transactions": ["pickup", "delivery"], "price": "$$", "location": {"address1": "100 Clinton St", "address2": "", "address3": "", "city": "Framingham", "zip_code": "01702", "country": "US", "state": "MA", "display_address": ["100 Clinton St", "Framingham, MA 01702"]}, "phone": "+15088720900", "display_phone": "(508) 872-0900", "distance": 717.7472755038235}, {"id": "-G_N8I-SY0QUJJHwBfqKpA", "alias": "stones-public-house-ashland", "name": "Stone's Public House", "image_url": "https://s3-media2.fl.yelpcdn.com/bphoto/OLsLSLvI3yPCysgr5jzd2w/o.jpg", "is_closed": false, "url": "https://www.yelp.com/biz/stones-public-house-ashland?adjust_creative=HdhkN5EEH6lAqE3kwhsHEQ&utm_campaign=yelp_api_v3&utm_medium=api_v3_business_search&utm_source=HdhkN5EEH6lAqE3kwhsHEQ", "review_count": 367, "categories": [{"alias": "newamerican", "title": "American (New)"}, {"alias": "beer_and_wine", "title": "Beer, Wine & Spirits"}, {"alias": "irish_pubs", "title": "Irish Pub"}], "rating": 4.0, "coordinates": {"latitude": 42.25967, "longitude": -71.46477}, "transactions": ["delivery"], "price": "$$", "location": {"address1": "179 Main St", "address2": "", "address3": "", "city": "Ashland", "zip_code": "01721", "country": "US", "state": "MA", "display_address": ["179 Main St", "Ashland, MA 01721"]}, "phone": "+15088811778", "display_phone": "(508) 881-1778", "distance": 4314.281006493223}, {"id": "GNy7MSsyyDAo5f3RowmRyw", "alias": "burtons-grill-and-bar-of-framingham-framingham", "name": "Burtons Grill and Bar of Framingham", "image_url": "https://s3-media3.fl.yelpcdn.com/bphoto/QTHPqBCCnatYsIY02XxPJw/o.jpg", "is_closed": false, "url": "https://www.yelp.com/biz/burtons-grill-and-bar-of-framingham-framingham?adjust_creative=HdhkN5EEH6lAqE3kwhsHEQ&utm_campaign=yelp_api_v3&utm_medium=api_v3_business_search&utm_source=HdhkN5EEH6lAqE3kwhsHEQ", "review_count": 77, "categories": [{"alias": "newamerican", "title": "American (New)"}], "rating": 4.0, "coordinates": {"latitude": 42.298263, "longitude": -71.394092}, "transactions": [], "price": "$$", "location": {"address1": "30 Worcester Rd", "address2": "", "address3": null, "city": "Framingham", "zip_code": "01702", "country": "US", "state": "MA", "display_address": ["30 Worcester Rd", "Framingham, MA 01702"]}, "phone": "+17745406005", "display_phone": "(774) 540-6005", "distance": 2939.125097740649}, {"id": "YtqttC1C9QPvb_XLoA2qEA", "alias": "terra-brasilis-restaurant-union-avenue-framingham-2", "name": "Terra Brasilis Restaurant - Union Avenue", "image_url": "https://s3-media3.fl.yelpcdn.com/bphoto/7zkstxH699O3ODoEZSqPaQ/o.jpg", "is_closed": false, "url": "https://www.yelp.com/biz/terra-brasilis-restaurant-union-avenue-framingham-2?adjust_creative=HdhkN5EEH6lAqE3kwhsHEQ&utm_campaign=yelp_api_v3&utm_medium=api_v3_business_search&utm_source=HdhkN5EEH6lAqE3kwhsHEQ", "review_count": 69, "categories": [{"alias": "brazilian", "title": "Brazilian"}], "rating": 4.0, "coordinates": {"latitude": 42.2800234, "longitude": -71.4178008}, "transactions": [], "price": "$$", "location": {"address1": "94 Union Ave", "address2": "", "address3": "", "city": "Framingham", "zip_code": "01702", "country": "US", "state": "MA", "display_address": ["94 Union Ave", "Framingham, MA 01702"]}, "phone": "+15086209354", "display_phone": "(508) 620-9354", "distance": 171.7659026642413}, {"id": "D7HEd6Kb3M95rdS1DdNWMg", "alias": "marao-burgers-framingham-framingham", "name": "Marao Burgers Framingham", "image_url": "https://s3-media1.fl.yelpcdn.com/bphoto/LKxsVETt7RAB5uFKhRTztg/o.jpg", "is_closed": false, "url": "https://www.yelp.com/biz/marao-burgers-framingham-framingham?adjust_creative=HdhkN5EEH6lAqE3kwhsHEQ&utm_campaign=yelp_api_v3&utm_medium=api_v3_business_search&utm_source=HdhkN5EEH6lAqE3kwhsHEQ", "review_count": 4, "categories": [{"alias": "burgers", "title": "Burgers"}], "rating": 5.0, "coordinates": {"latitude": 42.2754042030101, "longitude": -71.4172186636085}, "transactions": ["pickup", "delivery"], "location": {"address1": "61 Hollis St", "address2": null, "address3": "", "city": "Framingham", "zip_code": "01702", "country": "US", "state": "MA", "display_address": ["61 Hollis St", "Framingham, MA 01702"]}, "phone": "+15083094001", "display_phone": "(508) 309-4001", "distance": 540.1712389370539}, {"id": "G8InAKB7_GFCGGnMncvyyA", "alias": "rice-noodle-thai-eatery-natick", "name": "Rice Noodle Thai Eatery", "image_url": "https://s3-media1.fl.yelpcdn.com/bphoto/zq0FdYSJ00s9oiORp3iUdw/o.jpg", "is_closed": false, "url": "https://www.yelp.com/biz/rice-noodle-thai-eatery-natick?adjust_creative=HdhkN5EEH6lAqE3kwhsHEQ&utm_campaign=yelp_api_v3&utm_medium=api_v3_business_search&utm_source=HdhkN5EEH6lAqE3kwhsHEQ", "review_count": 46, "categories": [{"alias": "thai", "title": "Thai"}], "rating": 4.5, "coordinates": {"latitude": 42.282997, "longitude": -71.380166}, "transactions": ["pickup", "delivery"], "price": "$$", "location": {"address1": "179 West Central St", "address2": "Unit 7", "address3": "", "city": "Natick", "zip_code": "01760", "country": "US", "state": "MA", "display_address": ["179 West Central St", "Unit 7", "Natick, MA 01760"]}, "phone": "+15086552888", "display_phone": "(508) 655-2888", "distance": 3285.3890997675103}, {"id": "p-Egb9MzL23g82IertqWzQ", "alias": "doragon-ramen-ashland", "name": "Doragon Ramen", "image_url": "https://s3-media1.fl.yelpcdn.com/bphoto/rCXT2K1BnQpXNQ5P_EcXrw/o.jpg", "is_closed": false, "url": "https://www.yelp.com/biz/doragon-ramen-ashland?adjust_creative=HdhkN5EEH6lAqE3kwhsHEQ&utm_campaign=yelp_api_v3&utm_medium=api_v3_business_search&utm_source=HdhkN5EEH6lAqE3kwhsHEQ", "review_count": 192, "categories": [{"alias": "noodles", "title": "Noodles"}, {"alias": "ramen", "title": "Ramen"}, {"alias": "chicken_wings", "title": "Chicken Wings"}], "rating": 4.5, "coordinates": {"latitude": 42.25556, "longitude": -71.46764}, "transactions": ["delivery"], "price": "$$", "location": {"address1": "1 West Union St", "address2": null, "address3": "", "city": "Ashland", "zip_code": "01721", "country": "US", "state": "MA", "display_address": ["1 West Union St", "Ashland, MA 01721"]}, "phone": "+15083093416", "display_phone": "(508) 309-3416", "distance": 4784.833695431722}, {"id": "Bo2ejnXcwf0XxzYCledJxg", "alias": "nzuko-restaurant-framingham-2", "name": "Nzuko Restaurant", "image_url": "https://s3-media2.fl.yelpcdn.com/bphoto/MXNlG0yoW83FsL0YJcNSNg/o.jpg", "is_closed": false, "url": "https://www.yelp.com/biz/nzuko-restaurant-framingham-2?adjust_creative=HdhkN5EEH6lAqE3kwhsHEQ&utm_campaign=yelp_api_v3&utm_medium=api_v3_business_search&utm_source=HdhkN5EEH6lAqE3kwhsHEQ", "review_count": 244, "categories": [{"alias": "caribbean", "title": "Caribbean"}, {"alias": "mediterranean", "title": "Mediterranean"}], "rating": 4.5, "coordinates": {"latitude": 42.30188, "longitude": -71.40162}, "transactions": ["pickup", "delivery"], "price": "$$", "location": {"address1": "341 Cochituate Rd", "address2": "", "address3": null, "city": "Framingham", "zip_code": "01701", "country": "US", "state": "MA", "display_address": ["341 Cochituate Rd", "Framingham, MA 01701"]}, "phone": "+15086201024", "display_phone": "(508) 620-1024", "distance": 2852.2803546757777}, {"id": "4Ja7FZdGOGDLgSB2me7u4w", "alias": "taqueria-mexico-framingham-2", "name": "Taqueria Mexico", "image_url": "https://s3-media3.fl.yelpcdn.com/bphoto/1koQTCjV9yvtlVLDjxKPkA/o.jpg", "is_closed": false, "url": "https://www.yelp.com/biz/taqueria-mexico-framingham-2?adjust_creative=HdhkN5EEH6lAqE3kwhsHEQ&utm_campaign=yelp_api_v3&utm_medium=api_v3_business_search&utm_source=HdhkN5EEH6lAqE3kwhsHEQ", "review_count": 58, "categories": [{"alias": "mexican", "title": "Mexican"}, {"alias": "bars", "title": "Bars"}], "rating": 4.0, "coordinates": {"latitude": 42.2774467, "longitude": -71.416975}, "transactions": ["pickup", "delivery"], "price": "$$", "location": {"address1": "40 Concord St", "address2": "", "address3": "", "city": "Framingham", "zip_code": "01702", "country": "US", "state": "MA", "display_address": ["40 Concord St", "Framingham, MA 01702"]}, "phone": "+15088753900", "display_phone": "(508) 875-3900", "distance": 367.4722205652174}, {"id": "oHKh6unDm1_Egh0adJVXuA", "alias": "mi-cocina-mexicana-framingham", "name": "Mi Cocina Mexicana", "image_url": "https://s3-media1.fl.yelpcdn.com/bphoto/Xfde-W-FG1R4N_gH2l4RzQ/o.jpg", "is_closed": false, "url": "https://www.yelp.com/biz/mi-cocina-mexicana-framingham?adjust_creative=HdhkN5EEH6lAqE3kwhsHEQ&utm_campaign=yelp_api_v3&utm_medium=api_v3_business_search&utm_source=HdhkN5EEH6lAqE3kwhsHEQ", "review_count": 13, "categories": [{"alias": "mexican", "title": "Mexican"}], "rating": 4.5, "coordinates": {"latitude": 42.27185, "longitude": -71.42904}, "transactions": ["pickup", "delivery"], "location": {"address1": "740 Waverly St", "address2": "", "address3": null, "city": "Framingham", "zip_code": "01702", "country": "US", "state": "MA", "display_address": ["740 Waverly St", "Framingham, MA 01702"]}, "phone": "+15084942146", "display_phone": "(508) 494-2146", "distance": 1172.0524363931654}, {"id": "ABS9t3H709qViXk4xvTWsw", "alias": "sichuan-gourmet-framingham", "name": "Sichuan Gourmet", "image_url": "https://s3-media1.fl.yelpcdn.com/bphoto/oxtdX2yV7S4ID2POZu0Xlg/o.jpg", "is_closed": false, "url": "https://www.yelp.com/biz/sichuan-gourmet-framingham?adjust_creative=HdhkN5EEH6lAqE3kwhsHEQ&utm_campaign=yelp_api_v3&utm_medium=api_v3_business_search&utm_source=HdhkN5EEH6lAqE3kwhsHEQ", "review_count": 549, "categories": [{"alias": "szechuan", "title": "Szechuan"}, {"alias": "seafood", "title": "Seafood"}, {"alias": "soup", "title": "Soup"}], "rating": 4.0, "coordinates": {"latitude": 42.29885, "longitude": -71.40559}, "transactions": ["delivery"], "price": "$$", "location": {"address1": "271 Worcester Rd", "address2": null, "address3": "", "city": "Framingham", "zip_code": "01701", "country": "US", "state": "MA", "display_address": ["271 Worcester Rd", "Framingham, MA 01701"]}, "phone": "+15086260248", "display_phone": "(508) 626-0248", "distance": 2407.447012043054}, {"id": "L5eY76T3iu6S1reZXUhc-g", "alias": "franklin-st-cafe-framingham", "name": "Franklin St Cafe", "image_url": "https://s3-media1.fl.yelpcdn.com/bphoto/HPRRq_tergiJUPFd3Yu8AA/o.jpg", "is_closed": false, "url": "https://www.yelp.com/biz/franklin-st-cafe-framingham?adjust_creative=HdhkN5EEH6lAqE3kwhsHEQ&utm_campaign=yelp_api_v3&utm_medium=api_v3_business_search&utm_source=HdhkN5EEH6lAqE3kwhsHEQ", "review_count": 8, "categories": [{"alias": "cafes", "title": "Cafes"}, {"alias": "brazilian", "title": "Brazilian"}, {"alias": "tradamerican", "title": "American (Traditional)"}], "rating": 4.5, "coordinates": {"latitude": 42.281131, "longitude": -71.42016}, "transactions": ["pickup", "delivery"], "location": {"address1": "134 Franklin St", "address2": "", "address3": null, "city": "Framingham", "zip_code": "01702", "country": "US", "state": "MA", "display_address": ["134 Franklin St", "Framingham, MA 01702"]}, "phone": "+15088793400", "display_phone": "(508) 879-3400", "distance": 126.17800126936694}, {"id": "X3_7S0TjBlFl6gUm3uV2Qw", "alias": "pueblito-paisa-colombia-restaurant-framingham", "name": "Pueblito Paisa Colombia Restaurant", "image_url": "https://s3-media1.fl.yelpcdn.com/bphoto/KKaXmVSHNuDlRwUQYu5jAQ/o.jpg", "is_closed": false, "url": "https://www.yelp.com/biz/pueblito-paisa-colombia-restaurant-framingham?adjust_creative=HdhkN5EEH6lAqE3kwhsHEQ&utm_campaign=yelp_api_v3&utm_medium=api_v3_business_search&utm_source=HdhkN5EEH6lAqE3kwhsHEQ", "review_count": 50, "categories": [{"alias": "colombian", "title": "Colombian"}], "rating": 4.5, "coordinates": {"latitude": 42.2755518415666, "longitude": -71.4170571304936}, "transactions": [], "price": "$$", "location": {"address1": "66 Hollis St", "address2": "", "address3": "", "city": "Framingham", "zip_code": "01702", "country": "US", "state": "MA", "display_address": ["66 Hollis St", "Framingham, MA 01702"]}, "phone": "+15084241125", "display_phone": "(508) 424-1125", "distance": 543.9810688716799}, {"id": "Y8_5k4ZRCRfb7FFAiSOhAg", "alias": "la-cantina-italiana-framingham", "name": "La Cantina Italiana", "image_url": "https://s3-media1.fl.yelpcdn.com/bphoto/uN7ah8TyPZDluX6Okbs7pQ/o.jpg", "is_closed": false, "url": "https://www.yelp.com/biz/la-cantina-italiana-framingham?adjust_creative=HdhkN5EEH6lAqE3kwhsHEQ&utm_campaign=yelp_api_v3&utm_medium=api_v3_business_search&utm_source=HdhkN5EEH6lAqE3kwhsHEQ", "review_count": 172, "categories": [{"alias": "italian", "title": "Italian"}], "rating": 3.5, "coordinates": {"latitude": 42.2742999, "longitude": -71.43571}, "transactions": ["pickup", "delivery"], "price": "$$", "location": {"address1": "911 Waverly St", "address2": "", "address3": "", "city": "Framingham", "zip_code": "01702", "country": "US", "state": "MA", "display_address": ["911 Waverly St", "Framingham, MA 01702"]}, "phone": "+15088797874", "display_phone": "(508) 879-7874", "distance": 1457.8118308019093}, {"id": "DB4GzBKB0aGM_JZJa_3o1g", "alias": "andaman-thai-cuisine-framingham", "name": "Andaman Thai Cuisine", "image_url": "https://s3-media2.fl.yelpcdn.com/bphoto/UaYHzNdQy8b4cIA9f-cjXw/o.jpg", "is_closed": false, "url": "https://www.yelp.com/biz/andaman-thai-cuisine-framingham?adjust_creative=HdhkN5EEH6lAqE3kwhsHEQ&utm_campaign=yelp_api_v3&utm_medium=api_v3_business_search&utm_source=HdhkN5EEH6lAqE3kwhsHEQ", "review_count": 112, "categories": [{"alias": "thai", "title": "Thai"}], "rating": 4.0, "coordinates": {"latitude": 42.3010290482927, "longitude": -71.4368093477313}, "transactions": ["pickup", "delivery"], "price": "$$", "location": {"address1": "963 Worcester Rd", "address2": "", "address3": null, "city": "Framingham", "zip_code": "01701", "country": "US", "state": "MA", "display_address": ["963 Worcester Rd", "Framingham, MA 01701"]}, "phone": "+15088799696", "display_phone": "(508) 879-9696", "distance": 2723.8150817055543}, {"id": "XHeWHCcNoLQY1UhPmX6JpA", "alias": "tropical-cafe-framingham", "name": "Tropical Cafe", "image_url": "https://s3-media1.fl.yelpcdn.com/bphoto/sStK9og-L67siNHsDI7ffA/o.jpg", "is_closed": false, "url": "https://www.yelp.com/biz/tropical-cafe-framingham?adjust_creative=HdhkN5EEH6lAqE3kwhsHEQ&utm_campaign=yelp_api_v3&utm_medium=api_v3_business_search&utm_source=HdhkN5EEH6lAqE3kwhsHEQ", "review_count": 58, "categories": [{"alias": "brazilian", "title": "Brazilian"}], "rating": 3.5, "coordinates": {"latitude": 42.2751566, "longitude": -71.4175709}, "transactions": ["pickup", "delivery"], "price": "$$", "location": {"address1": "85 Hollis St", "address2": "", "address3": "", "city": "Framingham", "zip_code": "01702", "country": "US", "state": "MA", "display_address": ["85 Hollis St", "Framingham, MA 01702"]}, "phone": "+15088798765", "display_phone": "(508) 879-8765", "distance": 568.4717492867921}, {"id": "SRvE8KbmSwo9Bs9fJLjbPQ", "alias": "volturno-framingham-2", "name": "Volturno", "image_url": "https://s3-media3.fl.yelpcdn.com/bphoto/-k-x9iouXVNWGQj1hsj4Ew/o.jpg", "is_closed": false, "url": "https://www.yelp.com/biz/volturno-framingham-2?adjust_creative=HdhkN5EEH6lAqE3kwhsHEQ&utm_campaign=yelp_api_v3&utm_medium=api_v3_business_search&utm_source=HdhkN5EEH6lAqE3kwhsHEQ", "review_count": 121, "categories": [{"alias": "pizza", "title": "Pizza"}, {"alias": "italian", "title": "Italian"}], "rating": 4.0, "coordinates": {"latitude": 42.30072, "longitude": -71.4337}, "transactions": ["delivery"], "price": "$$", "location": {"address1": "1 Edgell Rd", "address2": "", "address3": null, "city": "Framingham", "zip_code": "01701", "country": "US", "state": "MA", "display_address": ["1 Edgell Rd", "Framingham, MA 01701"]}, "phone": "+15088757105", "display_phone": "(508) 875-7105", "distance": 2590.3756455204816}, {"id": "0iiZ4MKUz8-a8YI961aHvw", "alias": "aoi-japanese-restaurant-framingham", "name": "Aoi Japanese Restaurant", "image_url": "https://s3-media1.fl.yelpcdn.com/bphoto/JmLlZZqA9oJ_tfLjFxud9A/o.jpg", "is_closed": false, "url": "https://www.yelp.com/biz/aoi-japanese-restaurant-framingham?adjust_creative=HdhkN5EEH6lAqE3kwhsHEQ&utm_campaign=yelp_api_v3&utm_medium=api_v3_business_search&utm_source=HdhkN5EEH6lAqE3kwhsHEQ", "review_count": 148, "categories": [{"alias": "japanese", "title": "Japanese"}, {"alias": "soup", "title": "Soup"}, {"alias": "sushi", "title": "Sushi Bars"}], "rating": 4.0, "coordinates": {"latitude": 42.300304, "longitude": -71.432399}, "transactions": ["pickup"], "price": "$$", "location": {"address1": "855 Worcester Rd", "address2": "", "address3": "", "city": "Framingham", "zip_code": "01701", "country": "US", "state": "MA", "display_address": ["855 Worcester Rd", "Framingham, MA 01701"]}, "phone": "+15088613613", "display_phone": "(508) 861-3613", "distance": 2483.9207876278087}, {"id": "5r85usjiA4B13b0Xn6T51Q", "alias": "aegean-restaurant-framingham", "name": "Aegean Restaurant", "image_url": "https://s3-media1.fl.yelpcdn.com/bphoto/ARJTgRYawa9A8sEBcGJsLg/o.jpg", "is_closed": false, "url": "https://www.yelp.com/biz/aegean-restaurant-framingham?adjust_creative=HdhkN5EEH6lAqE3kwhsHEQ&utm_campaign=yelp_api_v3&utm_medium=api_v3_business_search&utm_source=HdhkN5EEH6lAqE3kwhsHEQ", "review_count": 336, "categories": [{"alias": "greek", "title": "Greek"}, {"alias": "mediterranean", "title": "Mediterranean"}, {"alias": "tradamerican", "title": "American (Traditional)"}], "rating": 3.5, "coordinates": {"latitude": 42.30192, "longitude": -71.4034}, "transactions": ["delivery"], "price": "$$", "location": {"address1": "257 Cochituate Rd", "address2": "", "address3": "", "city": "Framingham", "zip_code": "01701", "country": "US", "state": "MA", "display_address": ["257 Cochituate Rd", "Framingham, MA 01701"]}, "phone": "+15088798424", "display_phone": "(508) 879-8424", "distance": 2801.571817964202}, {"id": "4LZqDKa6Sw9OJAMT_sj3cw", "alias": "welcome-india-framingham", "name": "Welcome India", "image_url": "https://s3-media3.fl.yelpcdn.com/bphoto/7j3aAl2afvGODDugi_p-YQ/o.jpg", "is_closed": false, "url": "https://www.yelp.com/biz/welcome-india-framingham?adjust_creative=HdhkN5EEH6lAqE3kwhsHEQ&utm_campaign=yelp_api_v3&utm_medium=api_v3_business_search&utm_source=HdhkN5EEH6lAqE3kwhsHEQ", "review_count": 193, "categories": [{"alias": "indpak", "title": "Indian"}], "rating": 4.0, "coordinates": {"latitude": 42.298893, "longitude": -71.428481}, "transactions": ["pickup", "delivery"], "price": "$$", "location": {"address1": "770 Worcester Rd", "address2": "", "address3": "", "city": "Framingham", "zip_code": "01702", "country": "US", "state": "MA", "display_address": ["770 Worcester Rd", "Framingham, MA 01702"]}, "phone": "+15083709977", "display_phone": "(508) 370-9977", "distance": 2220.1954450031876}, {"id": "aYhV6N9oy-MCMzHkxs82TA", "alias": "la-pupusa-loca-grille-framingham", "name": "La Pupusa Loca Grille", "image_url": "https://s3-media1.fl.yelpcdn.com/bphoto/d0Sk3Nz4JoI2eqYGHJ__xg/o.jpg", "is_closed": false, "url": "https://www.yelp.com/biz/la-pupusa-loca-grille-framingham?adjust_creative=HdhkN5EEH6lAqE3kwhsHEQ&utm_campaign=yelp_api_v3&utm_medium=api_v3_business_search&utm_source=HdhkN5EEH6lAqE3kwhsHEQ", "review_count": 4, "categories": [{"alias": "salvadoran", "title": "Salvadoran"}, {"alias": "tacos", "title": "Tacos"}], "rating": 5.0, "coordinates": {"latitude": 42.2791017642954, "longitude": -71.4058427834752}, "transactions": [], "location": {"address1": "144 Waverly St", "address2": "", "address3": null, "city": "Framingham", "zip_code": "01702", "country": "US", "state": "MA", "display_address": ["144 Waverly St", "Framingham, MA 01702"]}, "phone": "+17747775960", "display_phone": "(774) 777-5960", "distance": 1159.5152129047892}, {"id": "o56tgSF7UwGE_OzdlknGxA", "alias": "john-harvards-brewery-and-ale-house-framingham", "name": "John Harvard's Brewery & Ale House", "image_url": "https://s3-media1.fl.yelpcdn.com/bphoto/a_G2a3ht25MzWq6xGMB9Zw/o.jpg", "is_closed": false, "url": "https://www.yelp.com/biz/john-harvards-brewery-and-ale-house-framingham?adjust_creative=HdhkN5EEH6lAqE3kwhsHEQ&utm_campaign=yelp_api_v3&utm_medium=api_v3_business_search&utm_source=HdhkN5EEH6lAqE3kwhsHEQ", "review_count": 375, "categories": [{"alias": "tradamerican", "title": "American (Traditional)"}, {"alias": "brewpubs", "title": "Brewpubs"}], "rating": 3.5, "coordinates": {"latitude": 42.304195, "longitude": -71.396231}, "transactions": ["delivery"], "price": "$$", "location": {"address1": "1 Worcester Rd", "address2": "", "address3": "", "city": "Framingham", "zip_code": "01701", "country": "US", "state": "MA", "display_address": ["1 Worcester Rd", "Framingham, MA 01701"]}, "phone": "+15088752337", "display_phone": "(508) 875-2337", "distance": 3322.710367486673}, {"id": "gPKCuyFsrxLR5ob-WkTrzg", "alias": "bella-costa-ristorante-framingham", "name": "Bella Costa Ristorante", "image_url": "https://s3-media4.fl.yelpcdn.com/bphoto/kjklSNwJjNJzczeX3XanPQ/o.jpg", "is_closed": false, "url": "https://www.yelp.com/biz/bella-costa-ristorante-framingham?adjust_creative=HdhkN5EEH6lAqE3kwhsHEQ&utm_campaign=yelp_api_v3&utm_medium=api_v3_business_search&utm_source=HdhkN5EEH6lAqE3kwhsHEQ", "review_count": 209, "categories": [{"alias": "italian", "title": "Italian"}, {"alias": "bars", "title": "Bars"}], "rating": 3.5, "coordinates": {"latitude": 42.3007935, "longitude": -71.408002}, "transactions": [], "price": "$$", "location": {"address1": "147 Cochituate Rd", "address2": "", "address3": "", "city": "Framingham", "zip_code": "01701", "country": "US", "state": "MA", "display_address": ["147 Cochituate Rd", "Framingham, MA 01701"]}, "phone": "+15086261726", "display_phone": "(508) 626-1726", "distance": 2513.084831236814}, {"id": "Zlnt7VXPEjqXncvWs0y7yg", "alias": "pollo-royal-framingham", "name": "Pollo Royal", "image_url": "https://s3-media4.fl.yelpcdn.com/bphoto/TyDmHpYJ312T_b69EEerNw/o.jpg", "is_closed": false, "url": "https://www.yelp.com/biz/pollo-royal-framingham?adjust_creative=HdhkN5EEH6lAqE3kwhsHEQ&utm_campaign=yelp_api_v3&utm_medium=api_v3_business_search&utm_source=HdhkN5EEH6lAqE3kwhsHEQ", "review_count": 8, "categories": [{"alias": "latin", "title": "Latin American"}], "rating": 3.5, "coordinates": {"latitude": 42.276186, "longitude": -71.4165695}, "transactions": ["pickup", "delivery"], "location": {"address1": "18 Irving St", "address2": null, "address3": "", "city": "Framingham", "zip_code": "01702", "country": "US", "state": "MA", "display_address": ["18 Irving St", "Framingham, MA 01702"]}, "phone": "+17747775872", "display_phone": "(774) 777-5872", "distance": 479.3872786926749}, {"id": "tWDUFOYF3kiHCt7FV8iqLg", "alias": "minado-natick", "name": "Minado", "image_url": "https://s3-media1.fl.yelpcdn.com/bphoto/XBDqrJBKKyfxsv-15fMUHQ/o.jpg", "is_closed": false, "url": "https://www.yelp.com/biz/minado-natick?adjust_creative=HdhkN5EEH6lAqE3kwhsHEQ&utm_campaign=yelp_api_v3&utm_medium=api_v3_business_search&utm_source=HdhkN5EEH6lAqE3kwhsHEQ", "review_count": 874, "categories": [{"alias": "japanese", "title": "Japanese"}, {"alias": "buffets", "title": "Buffets"}, {"alias": "seafood", "title": "Seafood"}], "rating": 3.5, "coordinates": {"latitude": 42.298366901886, "longitude": -71.3819347759186}, "transactions": [], "price": "$$", "location": {"address1": "1282 Worcester Rd", "address2": "", "address3": "", "city": "Natick", "zip_code": "01760", "country": "US", "state": "MA", "display_address": ["1282 Worcester Rd", "Natick, MA 01760"]}, "phone": "+15086470495", "display_phone": "(508) 647-0495", "distance": 3732.2169477520806}, {"id": "IIby6dJ6mvG5_xP8o7KAQg", "alias": "rincon-latino-framingham", "name": "Rincon Latino", "image_url": "https://s3-media2.fl.yelpcdn.com/bphoto/o-jYf1Rh2gmf91KN40uqQg/o.jpg", "is_closed": false, "url": "https://www.yelp.com/biz/rincon-latino-framingham?adjust_creative=HdhkN5EEH6lAqE3kwhsHEQ&utm_campaign=yelp_api_v3&utm_medium=api_v3_business_search&utm_source=HdhkN5EEH6lAqE3kwhsHEQ", "review_count": 16, "categories": [{"alias": "latin", "title": "Latin American"}, {"alias": "mexican", "title": "Mexican"}], "rating": 4.5, "coordinates": {"latitude": 42.2759552, "longitude": -71.4169998}, "transactions": ["delivery"], "price": "$$", "location": {"address1": "39 Hollis St", "address2": null, "address3": null, "city": "Framingham", "zip_code": "01702", "country": "US", "state": "MA", "display_address": ["39 Hollis St", "Framingham, MA 01702"]}, "phone": "+15088797406", "display_phone": "(508) 879-7406", "distance": 506.1392946817037}, {"id": "SN-UVz74CvBWTZrI7M-5FA", "alias": "el-mariachi-restaurant-framingham", "name": "El Mariachi Restaurant", "image_url": "https://s3-media3.fl.yelpcdn.com/bphoto/QX7HV_4ov7HGI1H3H5EDcg/o.jpg", "is_closed": false, "url": "https://www.yelp.com/biz/el-mariachi-restaurant-framingham?adjust_creative=HdhkN5EEH6lAqE3kwhsHEQ&utm_campaign=yelp_api_v3&utm_medium=api_v3_business_search&utm_source=HdhkN5EEH6lAqE3kwhsHEQ", "review_count": 64, "categories": [{"alias": "mexican", "title": "Mexican"}, {"alias": "breakfast_brunch", "title": "Breakfast & Brunch"}], "rating": 4.0, "coordinates": {"latitude": 42.2769199, "longitude": -71.41449}, "transactions": ["pickup", "delivery"], "price": "$$", "location": {"address1": "358 Waverly St", "address2": null, "address3": "", "city": "Framingham", "zip_code": "01702", "country": "US", "state": "MA", "display_address": ["358 Waverly St", "Framingham, MA 01702"]}, "phone": "+15084051187", "display_phone": "(508) 405-1187", "distance": 544.1238634170759}, {"id": "BFgB9zWbPqY73WrqvgBW2w", "alias": "ashland-ale-house-ashland", "name": "Ashland Ale House", "image_url": "https://s3-media3.fl.yelpcdn.com/bphoto/rv_s6gdLmkjqZYs8501gVA/o.jpg", "is_closed": false, "url": "https://www.yelp.com/biz/ashland-ale-house-ashland?adjust_creative=HdhkN5EEH6lAqE3kwhsHEQ&utm_campaign=yelp_api_v3&utm_medium=api_v3_business_search&utm_source=HdhkN5EEH6lAqE3kwhsHEQ", "review_count": 211, "categories": [{"alias": "tradamerican", "title": "American (Traditional)"}, {"alias": "pubs", "title": "Pubs"}, {"alias": "desserts", "title": "Desserts"}], "rating": 3.5, "coordinates": {"latitude": 42.2583308, "longitude": -71.4248727}, "transactions": ["pickup", "delivery"], "price": "$$", "location": {"address1": "23 Pond St", "address2": "", "address3": "", "city": "Ashland", "zip_code": "01721", "country": "US", "state": "MA", "display_address": ["23 Pond St", "Ashland, MA 01721"]}, "phone": "+15088617780", "display_phone": "(508) 861-7780", "distance": 2441.218932615006}, {"id": "roUolHHoaIP57Kz1oxpK6A", "alias": "anastasia-s-pizza-oven-and-grill-framingham", "name": "Anastasia\u2019s Pizza, Oven And Grill", "image_url": "https://s3-media4.fl.yelpcdn.com/bphoto/YeQzsVZxlrsWBGPUm5E4xA/o.jpg", "is_closed": false, "url": "https://www.yelp.com/biz/anastasia-s-pizza-oven-and-grill-framingham?adjust_creative=HdhkN5EEH6lAqE3kwhsHEQ&utm_campaign=yelp_api_v3&utm_medium=api_v3_business_search&utm_source=HdhkN5EEH6lAqE3kwhsHEQ", "review_count": 92, "categories": [{"alias": "pizza", "title": "Pizza"}, {"alias": "tradamerican", "title": "American (Traditional)"}], "rating": 3.5, "coordinates": {"latitude": 42.2794983, "longitude": -71.4174188}, "transactions": ["pickup", "delivery"], "price": "$", "location": {"address1": "12 Union Ave", "address2": "", "address3": "", "city": "Framingham", "zip_code": "01702", "country": "US", "state": "MA", "display_address": ["12 Union Ave", "Framingham, MA 01702"]}, "phone": "+15086206972", "display_phone": "(508) 620-6972", "distance": 257.3965874949385}, {"id": "O2UC2mzauF0uQSnEqjjU6g", "alias": "mexico-city-taqueria-and-bar-ashland", "name": "Mexico City Taqueria and Bar", "image_url": "https://s3-media2.fl.yelpcdn.com/bphoto/SG87aCtsPg6ujMpVRXucJA/o.jpg", "is_closed": false, "url": "https://www.yelp.com/biz/mexico-city-taqueria-and-bar-ashland?adjust_creative=HdhkN5EEH6lAqE3kwhsHEQ&utm_campaign=yelp_api_v3&utm_medium=api_v3_business_search&utm_source=HdhkN5EEH6lAqE3kwhsHEQ", "review_count": 251, "categories": [{"alias": "mexican", "title": "Mexican"}], "rating": 4.0, "coordinates": {"latitude": 42.255652, "longitude": -71.467566}, "transactions": ["pickup", "delivery"], "price": "$", "location": {"address1": "1 W Union St", "address2": "", "address3": "", "city": "Ashland", "zip_code": "01721", "country": "US", "state": "MA", "display_address": ["1 W Union St", "Ashland, MA 01721"]}, "phone": "+15088813500", "display_phone": "(508) 881-3500", "distance": 4765.0175007878315}, {"id": "-i0cnObK8Jv4u2xN-UL6pw", "alias": "el-pikante-foods-framingham", "name": "El Pikante foods", "image_url": "https://s3-media3.fl.yelpcdn.com/bphoto/l3NtIe4RK85kw8ZzkZtx8w/o.jpg", "is_closed": false, "url": "https://www.yelp.com/biz/el-pikante-foods-framingham?adjust_creative=HdhkN5EEH6lAqE3kwhsHEQ&utm_campaign=yelp_api_v3&utm_medium=api_v3_business_search&utm_source=HdhkN5EEH6lAqE3kwhsHEQ", "review_count": 10, "categories": [{"alias": "mexican", "title": "Mexican"}, {"alias": "latin", "title": "Latin American"}], "rating": 4.0, "coordinates": {"latitude": 42.27528, "longitude": -71.42094}, "transactions": ["pickup", "delivery"], "price": "$$", "location": {"address1": "530 Waverly St", "address2": null, "address3": "", "city": "Framingham", "zip_code": "01702", "country": "US", "state": "MA", "display_address": ["530 Waverly St", "Framingham, MA 01702"]}, "phone": "+15082703077", "display_phone": "(508) 270-3077", "distance": 517.3219601745146}, {"id": "IsW3LPtqllximnBi0lKkrw", "alias": "miranda-bread-framingham", "name": "Miranda Bread", "image_url": "https://s3-media3.fl.yelpcdn.com/bphoto/gm0xYmU5yTcpBye_K3aWjw/o.jpg", "is_closed": false, "url": "https://www.yelp.com/biz/miranda-bread-framingham?adjust_creative=HdhkN5EEH6lAqE3kwhsHEQ&utm_campaign=yelp_api_v3&utm_medium=api_v3_business_search&utm_source=HdhkN5EEH6lAqE3kwhsHEQ", "review_count": 12, "categories": [{"alias": "bakeries", "title": "Bakeries"}, {"alias": "brazilian", "title": "Brazilian"}, {"alias": "cafes", "title": "Cafes"}], "rating": 4.5, "coordinates": {"latitude": 42.276099, "longitude": -71.418842}, "transactions": ["pickup", "delivery"], "location": {"address1": "470 Waverly St", "address2": "", "address3": null, "city": "Framingham", "zip_code": "01702", "country": "US", "state": "MA", "display_address": ["470 Waverly St", "Framingham, MA 01702"]}, "phone": "+15084051444", "display_phone": "(508) 405-1444", "distance": 439.28252838686603}, {"id": "e5F228JcJZtPp4I6Bslv_Q", "alias": "bawarchi-biryanis-framingham-2", "name": "Bawarchi Biryanis", "image_url": "https://s3-media1.fl.yelpcdn.com/bphoto/ZXI_wiB08DlIxbzevOyJJw/o.jpg", "is_closed": false, "url": "https://www.yelp.com/biz/bawarchi-biryanis-framingham-2?adjust_creative=HdhkN5EEH6lAqE3kwhsHEQ&utm_campaign=yelp_api_v3&utm_medium=api_v3_business_search&utm_source=HdhkN5EEH6lAqE3kwhsHEQ", "review_count": 93, "categories": [{"alias": "indpak", "title": "Indian"}], "rating": 3.5, "coordinates": {"latitude": 42.298246, "longitude": -71.425975}, "transactions": ["pickup", "delivery"], "price": "$$", "location": {"address1": "700 Worcester Rd", "address2": null, "address3": "", "city": "Framingham", "zip_code": "01702", "country": "US", "state": "MA", "display_address": ["700 Worcester Rd", "Framingham, MA 01702"]}, "phone": "+15087437755", "display_phone": "(508) 743-7755", "distance": 2092.44539707054}, {"id": "JAq7S7Bld016uQPdeHmxyg", "alias": "rr6-kitchen-and-bar-framingham", "name": "RR6 Kitchen & Bar", "image_url": "https://s3-media4.fl.yelpcdn.com/bphoto/VkpHJVXPvi4LdTppMD-xfg/o.jpg", "is_closed": false, "url": "https://www.yelp.com/biz/rr6-kitchen-and-bar-framingham?adjust_creative=HdhkN5EEH6lAqE3kwhsHEQ&utm_campaign=yelp_api_v3&utm_medium=api_v3_business_search&utm_source=HdhkN5EEH6lAqE3kwhsHEQ", "review_count": 11, "categories": [{"alias": "bars", "title": "Bars"}, {"alias": "newmexican", "title": "New Mexican Cuisine"}, {"alias": "latin", "title": "Latin American"}], "rating": 3.5, "coordinates": {"latitude": 42.2766923, "longitude": -71.4164004}, "transactions": ["pickup", "delivery"], "location": {"address1": "398 Waverly St", "address2": null, "address3": "", "city": "Framingham", "zip_code": "01702", "country": "US", "state": "MA", "display_address": ["398 Waverly St", "Framingham, MA 01702"]}, "phone": "+15088200333", "display_phone": "(508) 820-0333", "distance": 489.4116653586244}, {"id": "c_zJ4-P-WFC7QxxcQnu3fQ", "alias": "legal-sea-foods-framingham-4", "name": "Legal Sea Foods", "image_url": "https://s3-media1.fl.yelpcdn.com/bphoto/f_rw5679aK9RKgnCLl5CsQ/o.jpg", "is_closed": false, "url": "https://www.yelp.com/biz/legal-sea-foods-framingham-4?adjust_creative=HdhkN5EEH6lAqE3kwhsHEQ&utm_campaign=yelp_api_v3&utm_medium=api_v3_business_search&utm_source=HdhkN5EEH6lAqE3kwhsHEQ", "review_count": 347, "categories": [{"alias": "seafood", "title": "Seafood"}, {"alias": "bars", "title": "Bars"}], "rating": 3.5, "coordinates": {"latitude": 42.298195, "longitude": -71.394981}, "transactions": ["delivery"], "price": "$$$", "location": {"address1": "50-60 Worcester Rd", "address2": "", "address3": "", "city": "Framingham", "zip_code": "01702", "country": "US", "state": "MA", "display_address": ["50-60 Worcester Rd", "Framingham, MA 01702"]}, "phone": "+15087660600", "display_phone": "(508) 766-0600", "distance": 2881.454294230956}, {"id": "SVNkzkyiEnozlhyEvehLdg", "alias": "j-and-m-diner-framingham-2", "name": "J & M Diner", "image_url": "https://s3-media2.fl.yelpcdn.com/bphoto/JpZ-mtnKcNMP-7go7MPD7Q/o.jpg", "is_closed": false, "url": "https://www.yelp.com/biz/j-and-m-diner-framingham-2?adjust_creative=HdhkN5EEH6lAqE3kwhsHEQ&utm_campaign=yelp_api_v3&utm_medium=api_v3_business_search&utm_source=HdhkN5EEH6lAqE3kwhsHEQ", "review_count": 863, "categories": [{"alias": "breakfast_brunch", "title": "Breakfast & Brunch"}], "rating": 4.5, "coordinates": {"latitude": 42.29812, "longitude": -71.39505}, "transactions": [], "price": "$$", "location": {"address1": "50 Worcester Rd", "address2": "Ste 9e", "address3": "", "city": "Framingham", "zip_code": "01701", "country": "US", "state": "MA", "display_address": ["50 Worcester Rd", "Ste 9e", "Framingham, MA 01701"]}, "phone": "+15088757811", "display_phone": "(508) 875-7811", "distance": 2873.4795206384047}, {"id": "qJf2ohYLes0L7nURMbrwdQ", "alias": "sol-de-mexico-cafe-and-grill-natick", "name": "Sol de Mexico Cafe & Grill", "image_url": "https://s3-media3.fl.yelpcdn.com/bphoto/TPDPkngM8xQNfV04eF5kPQ/o.jpg", "is_closed": false, "url": "https://www.yelp.com/biz/sol-de-mexico-cafe-and-grill-natick?adjust_creative=HdhkN5EEH6lAqE3kwhsHEQ&utm_campaign=yelp_api_v3&utm_medium=api_v3_business_search&utm_source=HdhkN5EEH6lAqE3kwhsHEQ", "review_count": 49, "categories": [{"alias": "mexican", "title": "Mexican"}, {"alias": "breakfast_brunch", "title": "Breakfast & Brunch"}, {"alias": "desserts", "title": "Desserts"}], "rating": 4.5, "coordinates": {"latitude": 42.282829, "longitude": -71.38514}, "transactions": ["pickup", "delivery"], "location": {"address1": "215 W Central St", "address2": "", "address3": null, "city": "Natick", "zip_code": "01760", "country": "US", "state": "MA", "display_address": ["215 W Central St", "Natick, MA 01760"]}, "phone": "+15085451185", "display_phone": "(508) 545-1185", "distance": 2877.338297668853}, {"id": "oXajRzvfDqwkYqNgSskd8w", "alias": "temazcal-tequila-cantina-framingham", "name": "Temazcal Tequila Cantina", "image_url": "https://s3-media3.fl.yelpcdn.com/bphoto/0QQ0Mcqb6qdktxMDlFdDPg/o.jpg", "is_closed": false, "url": "https://www.yelp.com/biz/temazcal-tequila-cantina-framingham?adjust_creative=HdhkN5EEH6lAqE3kwhsHEQ&utm_campaign=yelp_api_v3&utm_medium=api_v3_business_search&utm_source=HdhkN5EEH6lAqE3kwhsHEQ", "review_count": 109, "categories": [{"alias": "mexican", "title": "Mexican"}], "rating": 3.0, "coordinates": {"latitude": 42.2994, "longitude": -71.40122}, "transactions": [], "price": "$$", "location": {"address1": "155 Worcester Rd", "address2": "", "address3": null, "city": "Framingham", "zip_code": "01701", "country": "US", "state": "MA", "display_address": ["155 Worcester Rd", "Framingham, MA 01701"]}, "phone": "+17745057744", "display_phone": "(774) 505-7744", "distance": 2706.9386987069092}, {"id": "xdLLw6SY4-rla-UhzCPWEw", "alias": "terra-brasilis-framingham-5", "name": "Terra Brasilis", "image_url": "https://s3-media1.fl.yelpcdn.com/bphoto/Ny2b77CXNaSPtKl3q0Q8Ig/o.jpg", "is_closed": false, "url": "https://www.yelp.com/biz/terra-brasilis-framingham-5?adjust_creative=HdhkN5EEH6lAqE3kwhsHEQ&utm_campaign=yelp_api_v3&utm_medium=api_v3_business_search&utm_source=HdhkN5EEH6lAqE3kwhsHEQ", "review_count": 43, "categories": [{"alias": "brazilian", "title": "Brazilian"}], "rating": 4.0, "coordinates": {"latitude": 42.280129, "longitude": -71.403535}, "transactions": [], "price": "$$", "location": {"address1": "264 Waverley St", "address2": "", "address3": "", "city": "Framingham", "zip_code": "01702", "country": "US", "state": "MA", "display_address": ["264 Waverley St", "Framingham, MA 01702"]}, "phone": "+15086656740", "display_phone": "(508) 665-6740", "distance": 1345.4220638912218}, {"id": "w_owR8b1OnaUKYv0isPSmQ", "alias": "sabor-de-minas-restaurant-framingham", "name": "Sabor De Minas Restaurant", "image_url": "", "is_closed": false, "url": "https://www.yelp.com/biz/sabor-de-minas-restaurant-framingham?adjust_creative=HdhkN5EEH6lAqE3kwhsHEQ&utm_campaign=yelp_api_v3&utm_medium=api_v3_business_search&utm_source=HdhkN5EEH6lAqE3kwhsHEQ", "review_count": 1, "categories": [{"alias": "brazilian", "title": "Brazilian"}], "rating": 5.0, "coordinates": {"latitude": 42.2783203, "longitude": -71.413208}, "transactions": ["delivery"], "location": {"address1": "240 Howard St", "address2": null, "address3": null, "city": "Framingham", "zip_code": "01702", "country": "US", "state": "MA", "display_address": ["240 Howard St", "Framingham, MA 01702"]}, "phone": "+15088750202", "display_phone": "(508) 875-0202", "distance": 584.6966131221179}, {"id": "DJjApygSrmFrRilufnzj7Q", "alias": "beerworks-no-6-framingham-framingham", "name": "BEERWORKS No. 6 Framingham", "image_url": "https://s3-media2.fl.yelpcdn.com/bphoto/AKGC0AG9RR8uVslOgO3FDg/o.jpg", "is_closed": false, "url": "https://www.yelp.com/biz/beerworks-no-6-framingham-framingham?adjust_creative=HdhkN5EEH6lAqE3kwhsHEQ&utm_campaign=yelp_api_v3&utm_medium=api_v3_business_search&utm_source=HdhkN5EEH6lAqE3kwhsHEQ", "review_count": 310, "categories": [{"alias": "brewpubs", "title": "Brewpubs"}, {"alias": "tradamerican", "title": "American (Traditional)"}, {"alias": "beerbar", "title": "Beer Bar"}], "rating": 3.0, "coordinates": {"latitude": 42.3020897, "longitude": -71.4001312}, "transactions": ["delivery"], "price": "$$", "location": {"address1": "345 Cochituate Rd", "address2": "", "address3": "", "city": "Framingham", "zip_code": "01701", "country": "US", "state": "MA", "display_address": ["345 Cochituate Rd", "Framingham, MA 01701"]}, "phone": "+15083093373", "display_phone": "(508) 309-3373", "distance": 2946.8573167232116}, {"id": "88ezJDgmDDix39QHkAROOA", "alias": "guanachapis-express-framingham", "name": "Guanachapis Express", "image_url": "https://s3-media1.fl.yelpcdn.com/bphoto/DTCq5NtBL76QpEnd4ZjVrA/o.jpg", "is_closed": false, "url": "https://www.yelp.com/biz/guanachapis-express-framingham?adjust_creative=HdhkN5EEH6lAqE3kwhsHEQ&utm_campaign=yelp_api_v3&utm_medium=api_v3_business_search&utm_source=HdhkN5EEH6lAqE3kwhsHEQ", "review_count": 7, "categories": [{"alias": "salvadoran", "title": "Salvadoran"}], "rating": 3.5, "coordinates": {"latitude": 42.2757691087835, "longitude": -71.4279530082267}, "transactions": ["pickup", "delivery"], "location": {"address1": "102 Fountain St", "address2": "", "address3": null, "city": "Framingham", "zip_code": "01702", "country": "US", "state": "MA", "display_address": ["102 Fountain St", "Framingham, MA 01702"]}, "phone": "+15084054441", "display_phone": "(508) 405-4441", "distance": 882.2907452836916}, {"id": "3TApr2QbYFjv6rPTR6hEwg", "alias": "the-4s-sports-pub-framingham-2", "name": "The 4's Sports Pub", "image_url": "https://s3-media3.fl.yelpcdn.com/bphoto/sRNdRe6pfqJo6kOHR_sO1g/o.jpg", "is_closed": false, "url": "https://www.yelp.com/biz/the-4s-sports-pub-framingham-2?adjust_creative=HdhkN5EEH6lAqE3kwhsHEQ&utm_campaign=yelp_api_v3&utm_medium=api_v3_business_search&utm_source=HdhkN5EEH6lAqE3kwhsHEQ", "review_count": 11, "categories": [{"alias": "pizza", "title": "Pizza"}, {"alias": "sportsbars", "title": "Sports Bars"}], "rating": 4.5, "coordinates": {"latitude": 42.27341, "longitude": -71.426246}, "transactions": ["delivery"], "price": "$", "location": {"address1": "666 Waverly St", "address2": "", "address3": "", "city": "Framingham", "zip_code": "01702", "country": "US", "state": "MA", "display_address": ["666 Waverly St", "Framingham, MA 01702"]}, "phone": "+15088791579", "display_phone": "(508) 879-1579", "distance": 899.7688962319457}, {"id": "P4DEA6guA8M21oZBqn1PxA", "alias": "uncle-cheungs-framingham", "name": "Uncle Cheung's", "image_url": "https://s3-media3.fl.yelpcdn.com/bphoto/lnGlfBOr1d-xsXH9t4tuJQ/o.jpg", "is_closed": false, "url": "https://www.yelp.com/biz/uncle-cheungs-framingham?adjust_creative=HdhkN5EEH6lAqE3kwhsHEQ&utm_campaign=yelp_api_v3&utm_medium=api_v3_business_search&utm_source=HdhkN5EEH6lAqE3kwhsHEQ", "review_count": 156, "categories": [{"alias": "chinese", "title": "Chinese"}, {"alias": "gluten_free", "title": "Gluten-Free"}], "rating": 3.5, "coordinates": {"latitude": 42.298124, "longitude": -71.405217}, "transactions": ["delivery"], "price": "$$", "location": {"address1": "266 Worcester Rd", "address2": "", "address3": "", "city": "Framingham", "zip_code": "01702", "country": "US", "state": "MA", "display_address": ["266 Worcester Rd", "Framingham, MA 01702"]}, "phone": "+15088729200", "display_phone": "(508) 872-9200", "distance": 2354.4781254624017}, {"id": "vbaICFwF-PaiSMrY1kE64A", "alias": "pho-dakao-framingham", "name": "Pho Dakao", "image_url": "https://s3-media1.fl.yelpcdn.com/bphoto/1uo-rF3seu0Qh9GcS4IcIw/o.jpg", "is_closed": false, "url": "https://www.yelp.com/biz/pho-dakao-framingham?adjust_creative=HdhkN5EEH6lAqE3kwhsHEQ&utm_campaign=yelp_api_v3&utm_medium=api_v3_business_search&utm_source=HdhkN5EEH6lAqE3kwhsHEQ", "review_count": 324, "categories": [{"alias": "vietnamese", "title": "Vietnamese"}, {"alias": "bars", "title": "Bars"}], "rating": 3.5, "coordinates": {"latitude": 42.2785784304142, "longitude": -71.4167044311762}, "transactions": ["pickup", "delivery"], "price": "$$", "location": {"address1": "101 Concord St", "address2": null, "address3": "", "city": "Framingham", "zip_code": "01702", "country": "US", "state": "MA", "display_address": ["101 Concord St", "Framingham, MA 01702"]}, "phone": "+15088722211", "display_phone": "(508) 872-2211", "distance": 315.8241309108672}, {"id": "eS23Opvv1b6JCU_dN8_o5g", "alias": "kens-steak-house-framingham", "name": "Ken's Steak House", "image_url": "https://s3-media4.fl.yelpcdn.com/bphoto/k8Ls8BSURCpEd-T3U8r1pA/o.jpg", "is_closed": false, "url": "https://www.yelp.com/biz/kens-steak-house-framingham?adjust_creative=HdhkN5EEH6lAqE3kwhsHEQ&utm_campaign=yelp_api_v3&utm_medium=api_v3_business_search&utm_source=HdhkN5EEH6lAqE3kwhsHEQ", "review_count": 286, "categories": [{"alias": "steak", "title": "Steakhouses"}, {"alias": "newamerican", "title": "American (New)"}, {"alias": "cocktailbars", "title": "Cocktail Bars"}], "rating": 3.0, "coordinates": {"latitude": 42.2989669, "longitude": -71.397302}, "transactions": ["delivery"], "price": "$$", "location": {"address1": "95 Worcester Rd", "address2": "", "address3": "", "city": "Framingham", "zip_code": "01701", "country": "US", "state": "MA", "display_address": ["95 Worcester Rd", "Framingham, MA 01701"]}, "phone": "+15088754455", "display_phone": "(508) 875-4455", "distance": 2774.193938332137}, {"id": "uO8rW2JeQmyHK5Vq3vqmJA", "alias": "the-cheesecake-factory-natick", "name": "The Cheesecake Factory", "image_url": "https://s3-media3.fl.yelpcdn.com/bphoto/q8eJ9P7QXVWF95wO2acbjA/o.jpg", "is_closed": false, "url": "https://www.yelp.com/biz/the-cheesecake-factory-natick?adjust_creative=HdhkN5EEH6lAqE3kwhsHEQ&utm_campaign=yelp_api_v3&utm_medium=api_v3_business_search&utm_source=HdhkN5EEH6lAqE3kwhsHEQ", "review_count": 349, "categories": [{"alias": "tradamerican", "title": "American (Traditional)"}, {"alias": "desserts", "title": "Desserts"}], "rating": 3.0, "coordinates": {"latitude": 42.300253, "longitude": -71.384755}, "transactions": [], "price": "$$", "location": {"address1": "1245 Worcester St", "address2": "", "address3": "", "city": "Natick", "zip_code": "01760", "country": "US", "state": "MA", "display_address": ["1245 Worcester St", "Natick, MA 01760"]}, "phone": "+15086530011", "display_phone": "(508) 653-0011", "distance": 3665.574121173045}, {"id": "a4pYrn8xCtLUSoTZhpaTWg", "alias": "imperial-china-framingham", "name": "Imperial China", "image_url": "https://s3-media4.fl.yelpcdn.com/bphoto/skepxJ_Im68h7s9t9NhATg/o.jpg", "is_closed": false, "url": "https://www.yelp.com/biz/imperial-china-framingham?adjust_creative=HdhkN5EEH6lAqE3kwhsHEQ&utm_campaign=yelp_api_v3&utm_medium=api_v3_business_search&utm_source=HdhkN5EEH6lAqE3kwhsHEQ", "review_count": 91, "categories": [{"alias": "chinese", "title": "Chinese"}], "rating": 3.5, "coordinates": {"latitude": 42.2983856201172, "longitude": -71.4122009277344}, "transactions": ["delivery"], "price": "$$", "location": {"address1": "413 Worcester Rd", "address2": "", "address3": "", "city": "Framingham", "zip_code": "01701", "country": "US", "state": "MA", "display_address": ["413 Worcester Rd", "Framingham, MA 01701"]}, "phone": "+15088723939", "display_phone": "(508) 872-3939", "distance": 2139.817447008877}, {"id": "E1BLgwhAoOuSBmXM8a2sNg", "alias": "murphys-eats-and-treats-ashland", "name": "Murphy's Eats and Treats", "image_url": "https://s3-media4.fl.yelpcdn.com/bphoto/9pNWB9w4DkcRZi1JTf5vqw/o.jpg", "is_closed": false, "url": "https://www.yelp.com/biz/murphys-eats-and-treats-ashland?adjust_creative=HdhkN5EEH6lAqE3kwhsHEQ&utm_campaign=yelp_api_v3&utm_medium=api_v3_business_search&utm_source=HdhkN5EEH6lAqE3kwhsHEQ", "review_count": 50, "categories": [{"alias": "burgers", "title": "Burgers"}, {"alias": "seafood", "title": "Seafood"}, {"alias": "icecream", "title": "Ice Cream & Frozen Yogurt"}], "rating": 4.5, "coordinates": {"latitude": 42.2546688, "longitude": -71.4678833}, "transactions": ["delivery"], "location": {"address1": "16 W Union St", "address2": null, "address3": "", "city": "Ashland", "zip_code": "01721", "country": "US", "state": "MA", "display_address": ["16 W Union St", "Ashland, MA 01721"]}, "phone": "+15085994770", "display_phone": "(508) 599-4770", "distance": 4866.651436564891}, {"id": "D4td4L1AHvQSOc7H9N2FrQ", "alias": "trolley-dogs-ashland", "name": "Trolley Dogs", "image_url": "https://s3-media4.fl.yelpcdn.com/bphoto/VGZuOp-SO6qL5kefkRz5sw/o.jpg", "is_closed": false, "url": "https://www.yelp.com/biz/trolley-dogs-ashland?adjust_creative=HdhkN5EEH6lAqE3kwhsHEQ&utm_campaign=yelp_api_v3&utm_medium=api_v3_business_search&utm_source=HdhkN5EEH6lAqE3kwhsHEQ", "review_count": 2, "categories": [{"alias": "foodtrucks", "title": "Food Trucks"}, {"alias": "hotdog", "title": "Hot Dogs"}], "rating": 4.0, "coordinates": {"latitude": 42.2707875498244, "longitude": -71.4310725971105}, "transactions": ["delivery"], "location": {"address1": "50 Main St", "address2": "", "address3": null, "city": "Ashland", "zip_code": "01721", "country": "US", "state": "MA", "display_address": ["50 Main St", "Ashland, MA 01721"]}, "phone": "+17818882930", "display_phone": "(781) 888-2930", "distance": 1374.8060457395857}, {"id": "qAZL1fL2VaCW2NFovdQMfA", "alias": "skybokx-109-natick", "name": "SKYBOKX 109", "image_url": "https://s3-media4.fl.yelpcdn.com/bphoto/skj15Licg2z4xmawzZiQFw/o.jpg", "is_closed": false, "url": "https://www.yelp.com/biz/skybokx-109-natick?adjust_creative=HdhkN5EEH6lAqE3kwhsHEQ&utm_campaign=yelp_api_v3&utm_medium=api_v3_business_search&utm_source=HdhkN5EEH6lAqE3kwhsHEQ", "review_count": 246, "categories": [{"alias": "sportsbars", "title": "Sports Bars"}, {"alias": "tradamerican", "title": "American (Traditional)"}, {"alias": "burgers", "title": "Burgers"}], "rating": 3.0, "coordinates": {"latitude": 42.3025499, "longitude": -71.37799}, "transactions": ["delivery", "pickup"], "price": "$$", "location": {"address1": "319 Speen St", "address2": "", "address3": "", "city": "Natick", "zip_code": "01760", "country": "US", "state": "MA", "display_address": ["319 Speen St", "Natick, MA 01760"]}, "phone": "+15089031600", "display_phone": "(508) 903-1600", "distance": 4294.942631238095}, {"id": "RyZCPq98JyTvxc_3frEhgg", "alias": "framingham-baking-framingham-4", "name": "Framingham Baking", "image_url": "https://s3-media3.fl.yelpcdn.com/bphoto/KWZmjbpwqb4WqhiEj2gTyw/o.jpg", "is_closed": false, "url": "https://www.yelp.com/biz/framingham-baking-framingham-4?adjust_creative=HdhkN5EEH6lAqE3kwhsHEQ&utm_campaign=yelp_api_v3&utm_medium=api_v3_business_search&utm_source=HdhkN5EEH6lAqE3kwhsHEQ", "review_count": 69, "categories": [{"alias": "bakeries", "title": "Bakeries"}, {"alias": "pizza", "title": "Pizza"}, {"alias": "desserts", "title": "Desserts"}], "rating": 4.5, "coordinates": {"latitude": 42.273368, "longitude": -71.433364}, "transactions": [], "price": "$", "location": {"address1": "840 Waverly St", "address2": "", "address3": "", "city": "Framingham", "zip_code": "01702", "country": "US", "state": "MA", "display_address": ["840 Waverly St", "Framingham, MA 01702"]}, "phone": "+15088754125", "display_phone": "(508) 875-4125", "distance": 1330.2292230175603}, {"id": "jfgO-kZE1eBhQxD-VQYamw", "alias": "the-aztec-framingham", "name": "The Aztec", "image_url": "https://s3-media2.fl.yelpcdn.com/bphoto/Rt268Tpjvi8KZ4aM4TFCEw/o.jpg", "is_closed": false, "url": "https://www.yelp.com/biz/the-aztec-framingham?adjust_creative=HdhkN5EEH6lAqE3kwhsHEQ&utm_campaign=yelp_api_v3&utm_medium=api_v3_business_search&utm_source=HdhkN5EEH6lAqE3kwhsHEQ", "review_count": 120, "categories": [{"alias": "mexican", "title": "Mexican"}, {"alias": "desserts", "title": "Desserts"}, {"alias": "seafood", "title": "Seafood"}], "rating": 3.5, "coordinates": {"latitude": 42.280219, "longitude": -71.399759}, "transactions": ["delivery", "pickup"], "price": "$$", "location": {"address1": "2 Waverly St", "address2": "", "address3": "", "city": "Framingham", "zip_code": "01702", "country": "US", "state": "MA", "display_address": ["2 Waverly St", "Framingham, MA 01702"]}, "phone": "+15088202523", "display_phone": "(508) 820-2523", "distance": 1656.183367306126}, {"id": "N9a2V5O7WYeC1EtO3oPQqA", "alias": "the-pantry-natick", "name": "The Pantry", "image_url": "https://s3-media1.fl.yelpcdn.com/bphoto/69yTFRiN9w5gS53Wwd3e5g/o.jpg", "is_closed": false, "url": "https://www.yelp.com/biz/the-pantry-natick?adjust_creative=HdhkN5EEH6lAqE3kwhsHEQ&utm_campaign=yelp_api_v3&utm_medium=api_v3_business_search&utm_source=HdhkN5EEH6lAqE3kwhsHEQ", "review_count": 50, "categories": [{"alias": "comfortfood", "title": "Comfort Food"}, {"alias": "newamerican", "title": "American (New)"}], "rating": 3.0, "coordinates": {"latitude": 42.298118, "longitude": -71.38892}, "transactions": ["restaurant_reservation"], "price": "$$", "location": {"address1": "1360 Worcester St", "address2": "", "address3": "", "city": "Natick", "zip_code": "01760", "country": "US", "state": "MA", "display_address": ["1360 Worcester St", "Natick, MA 01760"]}, "phone": "+15084161352", "display_phone": "(508) 416-1352", "distance": 3249.5511892908003}, {"id": "RMXrZVSTIJPHsGRz1forHA", "alias": "star-house-chinese-framingham", "name": "Star House Chinese", "image_url": "https://s3-media2.fl.yelpcdn.com/bphoto/1xE40eGQNaFt-RLwjYZi-A/o.jpg", "is_closed": false, "url": "https://www.yelp.com/biz/star-house-chinese-framingham?adjust_creative=HdhkN5EEH6lAqE3kwhsHEQ&utm_campaign=yelp_api_v3&utm_medium=api_v3_business_search&utm_source=HdhkN5EEH6lAqE3kwhsHEQ", "review_count": 25, "categories": [{"alias": "chinese", "title": "Chinese"}, {"alias": "asianfusion", "title": "Asian Fusion"}], "rating": 3.0, "coordinates": {"latitude": 42.2752219, "longitude": -71.4225485}, "transactions": ["delivery", "pickup"], "price": "$", "location": {"address1": "595 Waverly St", "address2": "", "address3": "", "city": "Framingham", "zip_code": "01702", "country": "US", "state": "MA", "display_address": ["595 Waverly St", "Framingham, MA 01702"]}, "phone": "+15088728881", "display_phone": "(508) 872-8881", "distance": 581.9950802430856}, {"id": "h_Pxi9qT8cYnUlGhW4dwmg", "alias": "2-mauro-s-cafe-ashland", "name": "2 Mauro\u2019s Cafe", "image_url": "https://s3-media3.fl.yelpcdn.com/bphoto/MThkRv-R9nzgLqrc9I52ZQ/o.jpg", "is_closed": false, "url": "https://www.yelp.com/biz/2-mauro-s-cafe-ashland?adjust_creative=HdhkN5EEH6lAqE3kwhsHEQ&utm_campaign=yelp_api_v3&utm_medium=api_v3_business_search&utm_source=HdhkN5EEH6lAqE3kwhsHEQ", "review_count": 23, "categories": [{"alias": "breakfast_brunch", "title": "Breakfast & Brunch"}], "rating": 4.5, "coordinates": {"latitude": 42.25531, "longitude": -71.46558}, "transactions": [], "location": {"address1": "372 Union St", "address2": "", "address3": null, "city": "Ashland", "zip_code": "01721", "country": "US", "state": "MA", "display_address": ["372 Union St", "Ashland, MA 01721"]}, "phone": "+15083093127", "display_phone": "(508) 309-3127", "distance": 4650.032327274422}, {"id": "haPclgQ_Qq8Jw7liUVW7yg", "alias": "giovannis-famous-pizza-natick", "name": "Giovanni's Famous Pizza", "image_url": "https://s3-media4.fl.yelpcdn.com/bphoto/18eAxAe73ml2XTaORZT66g/o.jpg", "is_closed": false, "url": "https://www.yelp.com/biz/giovannis-famous-pizza-natick?adjust_creative=HdhkN5EEH6lAqE3kwhsHEQ&utm_campaign=yelp_api_v3&utm_medium=api_v3_business_search&utm_source=HdhkN5EEH6lAqE3kwhsHEQ", "review_count": 85, "categories": [{"alias": "pizza", "title": "Pizza"}, {"alias": "italian", "title": "Italian"}], "rating": 4.0, "coordinates": {"latitude": 42.2825137, "longitude": -71.3783979}, "transactions": ["delivery"], "price": "$", "location": {"address1": "160 W Central St", "address2": "", "address3": "", "city": "Natick", "zip_code": "01760", "country": "US", "state": "MA", "display_address": ["160 W Central St", "Natick, MA 01760"]}, "phone": "+15085452291", "display_phone": "(508) 545-2291", "distance": 3424.925403911009}, {"id": "fd7qzTDtPUO2vEJ1hS0yHw", "alias": "ericas-ristorante-ashland", "name": "Erica's Ristorante", "image_url": "https://s3-media2.fl.yelpcdn.com/bphoto/Hdw77e72XEQAZev2qHhPfw/o.jpg", "is_closed": false, "url": "https://www.yelp.com/biz/ericas-ristorante-ashland?adjust_creative=HdhkN5EEH6lAqE3kwhsHEQ&utm_campaign=yelp_api_v3&utm_medium=api_v3_business_search&utm_source=HdhkN5EEH6lAqE3kwhsHEQ", "review_count": 76, "categories": [{"alias": "italian", "title": "Italian"}, {"alias": "cocktailbars", "title": "Cocktail Bars"}, {"alias": "pizza", "title": "Pizza"}], "rating": 3.5, "coordinates": {"latitude": 42.260497, "longitude": -71.462923}, "transactions": ["delivery"], "price": "$$", "location": {"address1": "78 Front St", "address2": "", "address3": null, "city": "Ashland", "zip_code": "01721", "country": "US", "state": "MA", "display_address": ["78 Front St", "Ashland, MA 01721"]}, "phone": "+15088811982", "display_phone": "(508) 881-1982", "distance": 4150.781030106808}, {"id": "r1Z4AId4yteQzjNy4f0n3g", "alias": "trend-pure-asian-cuisine-natick-2", "name": "Trend Pure Asian Cuisine", "image_url": "https://s3-media1.fl.yelpcdn.com/bphoto/mUXNTF8VOYjaKuY2nlpbjw/o.jpg", "is_closed": false, "url": "https://www.yelp.com/biz/trend-pure-asian-cuisine-natick-2?adjust_creative=HdhkN5EEH6lAqE3kwhsHEQ&utm_campaign=yelp_api_v3&utm_medium=api_v3_business_search&utm_source=HdhkN5EEH6lAqE3kwhsHEQ", "review_count": 156, "categories": [{"alias": "sushi", "title": "Sushi Bars"}, {"alias": "dimsum", "title": "Dim Sum"}, {"alias": "asianfusion", "title": "Asian Fusion"}], "rating": 3.5, "coordinates": {"latitude": 42.2981258491968, "longitude": -71.3924073055387}, "transactions": ["delivery", "pickup"], "price": "$$", "location": {"address1": "1400 Worcester St", "address2": "", "address3": null, "city": "Natick", "zip_code": "01760", "country": "US", "state": "MA", "display_address": ["1400 Worcester St", "Natick, MA 01760"]}, "phone": "+15088751888", "display_phone": "(508) 875-1888", "distance": 3030.5057146547524}, {"id": "bUYd84cK0avcWzEGo7r3bQ", "alias": "bazille-temporarily-closed-natick", "name": "Bazille - Temporarily Closed", "image_url": "https://s3-media4.fl.yelpcdn.com/bphoto/P2u6tTjho_yA5du8rxEphQ/o.jpg", "is_closed": false, "url": "https://www.yelp.com/biz/bazille-temporarily-closed-natick?adjust_creative=HdhkN5EEH6lAqE3kwhsHEQ&utm_campaign=yelp_api_v3&utm_medium=api_v3_business_search&utm_source=HdhkN5EEH6lAqE3kwhsHEQ", "review_count": 8, "categories": [{"alias": "newamerican", "title": "American (New)"}, {"alias": "cocktailbars", "title": "Cocktail Bars"}], "rating": 4.0, "coordinates": {"latitude": 42.30197967, "longitude": -71.38306183}, "transactions": [], "location": {"address1": "290 Speen St", "address2": "", "address3": null, "city": "Natick", "zip_code": "01760", "country": "US", "state": "MA", "display_address": ["290 Speen St", "Natick, MA 01760"]}, "phone": "+15083182600", "display_phone": "(508) 318-2600", "distance": 3956.4777110974474}, {"id": "cCny1egwYJTIKj5UsX4SpQ", "alias": "samba-steak-and-sushi-framingham", "name": "Samba Steak & Sushi", "image_url": "https://s3-media1.fl.yelpcdn.com/bphoto/TOqLRT-M3hbI5a71pVpHqw/o.jpg", "is_closed": false, "url": "https://www.yelp.com/biz/samba-steak-and-sushi-framingham?adjust_creative=HdhkN5EEH6lAqE3kwhsHEQ&utm_campaign=yelp_api_v3&utm_medium=api_v3_business_search&utm_source=HdhkN5EEH6lAqE3kwhsHEQ", "review_count": 315, "categories": [{"alias": "sushi", "title": "Sushi Bars"}, {"alias": "japanese", "title": "Japanese"}, {"alias": "cocktailbars", "title": "Cocktail Bars"}], "rating": 3.5, "coordinates": {"latitude": 42.29869, "longitude": -71.44372}, "transactions": ["delivery", "pickup"], "price": "$$", "location": {"address1": "1138 Worcester Rd", "address2": "", "address3": "", "city": "Framingham", "zip_code": "01702", "country": "US", "state": "MA", "display_address": ["1138 Worcester Rd", "Framingham, MA 01702"]}, "phone": "+15086280288", "display_phone": "(508) 628-0288", "distance": 2860.1998815562006}, {"id": "LCbJ315rLDFRz918sF5QOg", "alias": "heritage-of-sherborn-pub-sherborn", "name": "Heritage of Sherborn - Pub", "image_url": "https://s3-media2.fl.yelpcdn.com/bphoto/8adnabFz3hC7whr77FcHWA/o.jpg", "is_closed": false, "url": "https://www.yelp.com/biz/heritage-of-sherborn-pub-sherborn?adjust_creative=HdhkN5EEH6lAqE3kwhsHEQ&utm_campaign=yelp_api_v3&utm_medium=api_v3_business_search&utm_source=HdhkN5EEH6lAqE3kwhsHEQ", "review_count": 45, "categories": [{"alias": "gastropubs", "title": "Gastropubs"}], "rating": 3.0, "coordinates": {"latitude": 42.247421211407, "longitude": -71.3693882830941}, "transactions": ["delivery", "pickup"], "price": "$$", "location": {"address1": "33 N Main St", "address2": "", "address3": "", "city": "Sherborn", "zip_code": "01770", "country": "US", "state": "MA", "display_address": ["33 N Main St", "Sherborn, MA 01770"]}, "phone": "+15086559521", "display_phone": "(508) 655-9521", "distance": 5510.9527540980325}, {"id": "CMMMeT6zq7jTnmaeLOM_Vw", "alias": "sorianos-pizza-ashland", "name": "Soriano's Pizza", "image_url": "https://s3-media2.fl.yelpcdn.com/bphoto/GfW3DDWbzr8h9Z7RzTWFlQ/o.jpg", "is_closed": false, "url": "https://www.yelp.com/biz/sorianos-pizza-ashland?adjust_creative=HdhkN5EEH6lAqE3kwhsHEQ&utm_campaign=yelp_api_v3&utm_medium=api_v3_business_search&utm_source=HdhkN5EEH6lAqE3kwhsHEQ", "review_count": 4, "categories": [{"alias": "pizza", "title": "Pizza"}], "rating": 5.0, "coordinates": {"latitude": 42.255686, "longitude": -71.427871}, "transactions": ["delivery", "pickup"], "location": {"address1": "67 Pond St", "address2": "", "address3": null, "city": "Ashland", "zip_code": "01721", "country": "US", "state": "MA", "display_address": ["67 Pond St", "Ashland, MA 01721"]}, "phone": "+15088723003", "display_phone": "(508) 872-3003", "distance": 2776.5928144966106}, {"id": "s5RDI5JH7Caera1Z-ARhdA", "alias": "biryani-pot-framingham-2", "name": "Biryani Pot", "image_url": "https://s3-media1.fl.yelpcdn.com/bphoto/HFuLB6b7P8gryWRxPpUcgw/o.jpg", "is_closed": false, "url": "https://www.yelp.com/biz/biryani-pot-framingham-2?adjust_creative=HdhkN5EEH6lAqE3kwhsHEQ&utm_campaign=yelp_api_v3&utm_medium=api_v3_business_search&utm_source=HdhkN5EEH6lAqE3kwhsHEQ", "review_count": 153, "categories": [{"alias": "indpak", "title": "Indian"}], "rating": 3.5, "coordinates": {"latitude": 42.298834, "longitude": -71.4050136}, "transactions": ["delivery", "pickup"], "price": "$$", "location": {"address1": "255 Worcester Rd", "address2": "", "address3": null, "city": "Framingham", "zip_code": "01701", "country": "US", "state": "MA", "display_address": ["255 Worcester Rd", "Framingham, MA 01701"]}, "phone": "+15088721499", "display_phone": "(508) 872-1499", "distance": 2428.026729219178}, {"id": "rIT_W-rpMnO4lFNuIqbYLA", "alias": "sof\u00e1-caf\u00e9-framingham", "name": "Sof\u00e1 Caf\u00e9", "image_url": "https://s3-media2.fl.yelpcdn.com/bphoto/O-xTgUpKrbqGcNEX3iKcIg/o.jpg", "is_closed": false, "url": "https://www.yelp.com/biz/sof%C3%A1-caf%C3%A9-framingham?adjust_creative=HdhkN5EEH6lAqE3kwhsHEQ&utm_campaign=yelp_api_v3&utm_medium=api_v3_business_search&utm_source=HdhkN5EEH6lAqE3kwhsHEQ", "review_count": 168, "categories": [{"alias": "coffee", "title": "Coffee & Tea"}, {"alias": "breakfast_brunch", "title": "Breakfast & Brunch"}, {"alias": "coffeeroasteries", "title": "Coffee Roasteries"}], "rating": 4.0, "coordinates": {"latitude": 42.2798136, "longitude": -71.4160772}, "transactions": ["delivery"], "price": "$", "location": {"address1": "181 Concord St", "address2": "", "address3": "", "city": "Framingham", "zip_code": "01702", "country": "US", "state": "MA", "display_address": ["181 Concord St", "Framingham, MA 01702"]}, "phone": "+18572502381", "display_phone": "(857) 250-2381", "distance": 313.9758048957855}, {"id": "IHTLK56dTNZNLZqXYu-_IA", "alias": "zitis-italian-trattoria-natick", "name": "Ziti's Italian Trattoria", "image_url": "https://s3-media1.fl.yelpcdn.com/bphoto/6vXLwW3ZqxGQ_mjeEAQ8kw/o.jpg", "is_closed": false, "url": "https://www.yelp.com/biz/zitis-italian-trattoria-natick?adjust_creative=HdhkN5EEH6lAqE3kwhsHEQ&utm_campaign=yelp_api_v3&utm_medium=api_v3_business_search&utm_source=HdhkN5EEH6lAqE3kwhsHEQ", "review_count": 119, "categories": [{"alias": "italian", "title": "Italian"}, {"alias": "pizza", "title": "Pizza"}], "rating": 3.5, "coordinates": {"latitude": 42.2891426086426, "longitude": -71.3778533935547}, "transactions": ["delivery"], "price": "$$", "location": {"address1": "218 Speen St", "address2": "", "address3": "", "city": "Natick", "zip_code": "01760", "country": "US", "state": "MA", "display_address": ["218 Speen St", "Natick, MA 01760"]}, "phone": "+15086509484", "display_phone": "(508) 650-9484", "distance": 3768.139892241947}, {"id": "2o35OiRp2VPeFGas_0_L0Q", "alias": "br-takeout-framingham", "name": "Br Takeout", "image_url": "https://s3-media4.fl.yelpcdn.com/bphoto/12w8Emn5NjTt4F5jrsCXsQ/o.jpg", "is_closed": false, "url": "https://www.yelp.com/biz/br-takeout-framingham?adjust_creative=HdhkN5EEH6lAqE3kwhsHEQ&utm_campaign=yelp_api_v3&utm_medium=api_v3_business_search&utm_source=HdhkN5EEH6lAqE3kwhsHEQ", "review_count": 6, "categories": [{"alias": "brazilian", "title": "Brazilian"}, {"alias": "juicebars", "title": "Juice Bars & Smoothies"}, {"alias": "tradamerican", "title": "American (Traditional)"}], "rating": 4.0, "coordinates": {"latitude": 42.284040749073, "longitude": -71.4125778526068}, "transactions": ["delivery", "pickup"], "location": {"address1": "326 Concord St", "address2": "", "address3": null, "city": "Framingham", "zip_code": "01702", "country": "US", "state": "MA", "display_address": ["326 Concord St", "Framingham, MA 01702"]}, "phone": "+15088723312", "display_phone": "(508) 872-3312", "distance": 752.7594421954486}, {"id": "WmyKrBVNSni6NIfaKCf2ig", "alias": "tennessees-real-bbq-real-fast-framingham-2", "name": "Tennessee's Real BBQ Real Fast", "image_url": "https://s3-media1.fl.yelpcdn.com/bphoto/gg5g7dAMt9DIFy7RGV8iNQ/o.jpg", "is_closed": false, "url": "https://www.yelp.com/biz/tennessees-real-bbq-real-fast-framingham-2?adjust_creative=HdhkN5EEH6lAqE3kwhsHEQ&utm_campaign=yelp_api_v3&utm_medium=api_v3_business_search&utm_source=HdhkN5EEH6lAqE3kwhsHEQ", "review_count": 176, "categories": [{"alias": "bbq", "title": "Barbeque"}], "rating": 3.5, "coordinates": {"latitude": 42.3018836975098, "longitude": -71.4016189575195}, "transactions": ["delivery", "pickup"], "price": "$$", "location": {"address1": "341 Cochituate Rd", "address2": "", "address3": "", "city": "Framingham", "zip_code": "01701", "country": "US", "state": "MA", "display_address": ["341 Cochituate Rd", "Framingham, MA 01701"]}, "phone": "+15086267140", "display_phone": "(508) 626-7140", "distance": 2852.2803546757777}, {"id": "S_mGvMqLZai7E4tUR5V7Vg", "alias": "dosa-temple-ashland-2", "name": "Dosa Temple", "image_url": "https://s3-media3.fl.yelpcdn.com/bphoto/YdkCboVS2eWzhEOYxaa-kg/o.jpg", "is_closed": false, "url": "https://www.yelp.com/biz/dosa-temple-ashland-2?adjust_creative=HdhkN5EEH6lAqE3kwhsHEQ&utm_campaign=yelp_api_v3&utm_medium=api_v3_business_search&utm_source=HdhkN5EEH6lAqE3kwhsHEQ", "review_count": 171, "categories": [{"alias": "vegetarian", "title": "Vegetarian"}, {"alias": "indpak", "title": "Indian"}, {"alias": "salad", "title": "Salad"}], "rating": 3.5, "coordinates": {"latitude": 42.2564513, "longitude": -71.4268863}, "transactions": ["delivery", "pickup"], "price": "$$", "location": {"address1": "59 Pond St", "address2": "", "address3": "", "city": "Ashland", "zip_code": "01721", "country": "US", "state": "MA", "display_address": ["59 Pond St", "Ashland, MA 01721"]}, "phone": "+15088796800", "display_phone": "(508) 879-6800", "distance": 2763.7153243896237}, {"id": "7L8XNlKi-dWMZu6gNMeDOg", "alias": "los-cabos-ashland", "name": "Los Cabos", "image_url": "https://s3-media4.fl.yelpcdn.com/bphoto/4HEGuE3owI8aGV05a3Szww/o.jpg", "is_closed": false, "url": "https://www.yelp.com/biz/los-cabos-ashland?adjust_creative=HdhkN5EEH6lAqE3kwhsHEQ&utm_campaign=yelp_api_v3&utm_medium=api_v3_business_search&utm_source=HdhkN5EEH6lAqE3kwhsHEQ", "review_count": 55, "categories": [{"alias": "mexican", "title": "Mexican"}, {"alias": "seafood", "title": "Seafood"}, {"alias": "sportsbars", "title": "Sports Bars"}], "rating": 3.5, "coordinates": {"latitude": 42.2383302, "longitude": -71.4468465}, "transactions": ["delivery"], "price": "$$", "location": {"address1": "300 Eliot Cir", "address2": "", "address3": "", "city": "Ashland", "zip_code": "01721", "country": "US", "state": "MA", "display_address": ["300 Eliot Cir", "Ashland, MA 01721"]}, "phone": "+15083094595", "display_phone": "(508) 309-4595", "distance": 4291.360234611722}, {"id": "1I3rtRt24PLOF6plFZnG7A", "alias": "frescafe-framingham", "name": "Frescafe", "image_url": "https://s3-media1.fl.yelpcdn.com/bphoto/RxEd3ZY0O8hlvC_0LXSo0Q/o.jpg", "is_closed": false, "url": "https://www.yelp.com/biz/frescafe-framingham?adjust_creative=HdhkN5EEH6lAqE3kwhsHEQ&utm_campaign=yelp_api_v3&utm_medium=api_v3_business_search&utm_source=HdhkN5EEH6lAqE3kwhsHEQ", "review_count": 119, "categories": [{"alias": "tradamerican", "title": "American (Traditional)"}, {"alias": "breakfast_brunch", "title": "Breakfast & Brunch"}, {"alias": "sandwiches", "title": "Sandwiches"}], "rating": 4.0, "coordinates": {"latitude": 42.2782948279123, "longitude": -71.4169712656912}, "transactions": ["delivery"], "price": "$$", "location": {"address1": "82 Concord St", "address2": "", "address3": "", "city": "Framingham", "zip_code": "01702", "country": "US", "state": "MA", "display_address": ["82 Concord St", "Framingham, MA 01702"]}, "phone": "+15088792233", "display_phone": "(508) 879-2233", "distance": 303.9536133698382}, {"id": "Ny6PObsFMn0A9yOG0paB0Q", "alias": "99-restaurants-framingham", "name": "99 Restaurants", "image_url": "https://s3-media1.fl.yelpcdn.com/bphoto/NP2U2zCiy7BJy70Oxy1AHQ/o.jpg", "is_closed": false, "url": "https://www.yelp.com/biz/99-restaurants-framingham?adjust_creative=HdhkN5EEH6lAqE3kwhsHEQ&utm_campaign=yelp_api_v3&utm_medium=api_v3_business_search&utm_source=HdhkN5EEH6lAqE3kwhsHEQ", "review_count": 62, "categories": [{"alias": "tradamerican", "title": "American (Traditional)"}, {"alias": "pubs", "title": "Pubs"}], "rating": 2.5, "coordinates": {"latitude": 42.2990170257953, "longitude": -71.4245815064366}, "transactions": [], "price": "$$", "location": {"address1": "659 Worcester Rd", "address2": "", "address3": "", "city": "Framingham", "zip_code": "01701", "country": "US", "state": "MA", "display_address": ["659 Worcester Rd", "Framingham, MA 01701"]}, "phone": "+15086263639", "display_phone": "(508) 626-3639", "distance": 2152.500071897314}, {"id": "btutp2Rc4zkTVL7_qEi7Yw", "alias": "the-met-natick-natick", "name": "The Met Natick", "image_url": "https://s3-media3.fl.yelpcdn.com/bphoto/Z2VzRkqFewtS_nnAx789Aw/o.jpg", "is_closed": false, "url": "https://www.yelp.com/biz/the-met-natick-natick?adjust_creative=HdhkN5EEH6lAqE3kwhsHEQ&utm_campaign=yelp_api_v3&utm_medium=api_v3_business_search&utm_source=HdhkN5EEH6lAqE3kwhsHEQ", "review_count": 334, "categories": [{"alias": "steak", "title": "Steakhouses"}, {"alias": "burgers", "title": "Burgers"}], "rating": 3.0, "coordinates": {"latitude": 42.3019258, "longitude": -71.3843794}, "transactions": ["delivery", "pickup"], "price": "$$", "location": {"address1": "1245 Worcester St", "address2": "", "address3": "", "city": "Natick", "zip_code": "01760", "country": "US", "state": "MA", "display_address": ["1245 Worcester St", "Natick, MA 01760"]}, "phone": "+15086510003", "display_phone": "(508) 651-0003", "distance": 3806.4714303974724}, {"id": "VE4TRpzjxEI5sVYEm7VMkw", "alias": "brooklyn-new-york-natick-2", "name": "Brooklyn New York", "image_url": "https://s3-media2.fl.yelpcdn.com/bphoto/D0zOUlGCNV6Qbb-8rOkVIQ/o.jpg", "is_closed": false, "url": "https://www.yelp.com/biz/brooklyn-new-york-natick-2?adjust_creative=HdhkN5EEH6lAqE3kwhsHEQ&utm_campaign=yelp_api_v3&utm_medium=api_v3_business_search&utm_source=HdhkN5EEH6lAqE3kwhsHEQ", "review_count": 71, "categories": [{"alias": "pizza", "title": "Pizza"}], "rating": 3.0, "coordinates": {"latitude": 42.2819752, "longitude": -71.3918162}, "transactions": ["delivery", "pickup"], "price": "$", "location": {"address1": "251 W Central St", "address2": "Ste 12", "address3": "", "city": "Natick", "zip_code": "01760", "country": "US", "state": "MA", "display_address": ["251 W Central St", "Ste 12", "Natick, MA 01760"]}, "phone": "+15086555355", "display_phone": "(508) 655-5355", "distance": 2232.832579972032}, {"id": "wKpMCvEaFAPIBQRBl8JlBg", "alias": "framingham-sub-shop-and-pizza-framingham", "name": "Framingham Sub Shop & Pizza", "image_url": "https://s3-media2.fl.yelpcdn.com/bphoto/YxsJzWwYZXWtiX0ZGvAAJQ/o.jpg", "is_closed": false, "url": "https://www.yelp.com/biz/framingham-sub-shop-and-pizza-framingham?adjust_creative=HdhkN5EEH6lAqE3kwhsHEQ&utm_campaign=yelp_api_v3&utm_medium=api_v3_business_search&utm_source=HdhkN5EEH6lAqE3kwhsHEQ", "review_count": 19, "categories": [{"alias": "pizza", "title": "Pizza"}, {"alias": "sandwiches", "title": "Sandwiches"}], "rating": 3.5, "coordinates": {"latitude": 42.28028, "longitude": -71.41579}, "transactions": [], "price": "$", "location": {"address1": "193 Concord St", "address2": "", "address3": "", "city": "Framingham", "zip_code": "01702", "country": "US", "state": "MA", "display_address": ["193 Concord St", "Framingham, MA 01702"]}, "phone": "+15088721919", "display_phone": "(508) 872-1919", "distance": 341.3364168904622}, {"id": "5TD_oX1Bd7U6oHcPCP5owA", "alias": "tgi-fridays-framingham", "name": "TGI Fridays", "image_url": "https://s3-media2.fl.yelpcdn.com/bphoto/d1aulii8ZYk5rcEa1rcTsg/o.jpg", "is_closed": false, "url": "https://www.yelp.com/biz/tgi-fridays-framingham?adjust_creative=HdhkN5EEH6lAqE3kwhsHEQ&utm_campaign=yelp_api_v3&utm_medium=api_v3_business_search&utm_source=HdhkN5EEH6lAqE3kwhsHEQ", "review_count": 140, "categories": [{"alias": "tradamerican", "title": "American (Traditional)"}], "rating": 2.5, "coordinates": {"latitude": 42.299346, "longitude": -71.395222}, "transactions": ["delivery"], "price": "$$", "location": {"address1": "1 Worcester Rd", "address2": "", "address3": "", "city": "Framingham", "zip_code": "01701", "country": "US", "state": "MA", "display_address": ["1 Worcester Rd", "Framingham, MA 01701"]}, "phone": "+15088757735", "display_phone": "(508) 875-7735", "distance": 2959.204401232172}, {"id": "CKjPM_--2EgKMbbCY0lF7g", "alias": "wings-over-framingham-framingham", "name": "Wings Over Framingham", "image_url": "https://s3-media2.fl.yelpcdn.com/bphoto/vnDTZJKw9oU-w2DMk9y-DQ/o.jpg", "is_closed": false, "url": "https://www.yelp.com/biz/wings-over-framingham-framingham?adjust_creative=HdhkN5EEH6lAqE3kwhsHEQ&utm_campaign=yelp_api_v3&utm_medium=api_v3_business_search&utm_source=HdhkN5EEH6lAqE3kwhsHEQ", "review_count": 109, "categories": [{"alias": "chicken_wings", "title": "Chicken Wings"}, {"alias": "sandwiches", "title": "Sandwiches"}, {"alias": "hotdogs", "title": "Fast Food"}], "rating": 3.0, "coordinates": {"latitude": 42.273286, "longitude": -71.425059}, "transactions": ["delivery", "pickup"], "price": "$$", "location": {"address1": "624 Waverley St", "address2": "", "address3": "", "city": "Framingham", "zip_code": "01702", "country": "US", "state": "MA", "display_address": ["624 Waverley St", "Framingham, MA 01702"]}, "phone": "+15086289464", "display_phone": "(508) 628-9464", "distance": 855.8251327896504}, {"id": "oeyJISfPnd_ktYwq4sMksA", "alias": "punjabi-grill-framingham", "name": "Punjabi Grill", "image_url": "https://s3-media3.fl.yelpcdn.com/bphoto/d8oA6qurWsR4OxC82ZsXlw/o.jpg", "is_closed": false, "url": "https://www.yelp.com/biz/punjabi-grill-framingham?adjust_creative=HdhkN5EEH6lAqE3kwhsHEQ&utm_campaign=yelp_api_v3&utm_medium=api_v3_business_search&utm_source=HdhkN5EEH6lAqE3kwhsHEQ", "review_count": 107, "categories": [{"alias": "pakistani", "title": "Pakistani"}, {"alias": "indpak", "title": "Indian"}, {"alias": "halal", "title": "Halal"}], "rating": 3.5, "coordinates": {"latitude": 42.298565146011, "longitude": -71.447944500931}, "transactions": ["pickup"], "price": "$$", "location": {"address1": "1243 Worcester Rd", "address2": "", "address3": "", "city": "Framingham", "zip_code": "01701", "country": "US", "state": "MA", "display_address": ["1243 Worcester Rd", "Framingham, MA 01701"]}, "phone": "+15083700790", "display_phone": "(508) 370-0790", "distance": 3098.4239686020196}, {"id": "VTsggSvO_mcVlPuJvOGpPQ", "alias": "margaritas-mexican-restaurant-framingham", "name": "Margaritas Mexican Restaurant", "image_url": "https://s3-media3.fl.yelpcdn.com/bphoto/PVvPbkpmab3NvMOccVG_ow/o.jpg", "is_closed": false, "url": "https://www.yelp.com/biz/margaritas-mexican-restaurant-framingham?adjust_creative=HdhkN5EEH6lAqE3kwhsHEQ&utm_campaign=yelp_api_v3&utm_medium=api_v3_business_search&utm_source=HdhkN5EEH6lAqE3kwhsHEQ", "review_count": 276, "categories": [{"alias": "mexican", "title": "Mexican"}, {"alias": "bars", "title": "Bars"}], "rating": 3.0, "coordinates": {"latitude": 42.308288, "longitude": -71.382966}, "transactions": ["delivery", "pickup"], "price": "$$", "location": {"address1": "725 Cochituate Rd", "address2": "", "address3": "", "city": "Framingham", "zip_code": "01710", "country": "US", "state": "MA", "display_address": ["725 Cochituate Rd", "Framingham, MA 01710"]}, "phone": "+15083097348", "display_phone": "(508) 309-7348", "distance": 4374.378256691213}, {"id": "-eR5DC2BS4EhRuH4aU4hBA", "alias": "bertuccis-italian-restaurant-framingham-3", "name": "Bertucci's Italian Restaurant", "image_url": "https://s3-media4.fl.yelpcdn.com/bphoto/4W4-lBIUiggiIrsgKkV6qw/o.jpg", "is_closed": false, "url": "https://www.yelp.com/biz/bertuccis-italian-restaurant-framingham-3?adjust_creative=HdhkN5EEH6lAqE3kwhsHEQ&utm_campaign=yelp_api_v3&utm_medium=api_v3_business_search&utm_source=HdhkN5EEH6lAqE3kwhsHEQ", "review_count": 134, "categories": [{"alias": "pizza", "title": "Pizza"}, {"alias": "italian", "title": "Italian"}], "rating": 3.0, "coordinates": {"latitude": 42.2981273371249, "longitude": -71.4006882905961}, "transactions": ["delivery", "pickup"], "price": "$$", "location": {"address1": "150 Worcester Rd", "address2": "", "address3": "", "city": "Framingham", "zip_code": "01702", "country": "US", "state": "MA", "display_address": ["150 Worcester Rd", "Framingham, MA 01702"]}, "phone": "+15088799161", "display_phone": "(508) 879-9161", "distance": 2563.027620456872}, {"id": "QrU0q8WXMXAweOGR-g5WJg", "alias": "lloyds-diner-framingham", "name": "Lloyd's Diner", "image_url": "https://s3-media2.fl.yelpcdn.com/bphoto/e0cyYhK42-ZW309zHHJSRw/o.jpg", "is_closed": false, "url": "https://www.yelp.com/biz/lloyds-diner-framingham?adjust_creative=HdhkN5EEH6lAqE3kwhsHEQ&utm_campaign=yelp_api_v3&utm_medium=api_v3_business_search&utm_source=HdhkN5EEH6lAqE3kwhsHEQ", "review_count": 40, "categories": [{"alias": "diners", "title": "Diners"}, {"alias": "breakfast_brunch", "title": "Breakfast & Brunch"}], "rating": 4.0, "coordinates": {"latitude": 42.27522, "longitude": -71.43183}, "transactions": [], "price": "$", "location": {"address1": "184 Fountain St", "address2": "", "address3": "", "city": "Framingham", "zip_code": "01702", "country": "US", "state": "MA", "display_address": ["184 Fountain St", "Framingham, MA 01702"]}, "phone": "+15088798750", "display_phone": "(508) 879-8750", "distance": 1203.9978494092}, {"id": "qNn4fAye1Yu8FZQjJLyW1g", "alias": "joy-luck-club-framingham", "name": "Joy Luck Club", "image_url": "https://s3-media4.fl.yelpcdn.com/bphoto/EcjxN3u2LdYmeKS_QxSLfA/o.jpg", "is_closed": false, "url": "https://www.yelp.com/biz/joy-luck-club-framingham?adjust_creative=HdhkN5EEH6lAqE3kwhsHEQ&utm_campaign=yelp_api_v3&utm_medium=api_v3_business_search&utm_source=HdhkN5EEH6lAqE3kwhsHEQ", "review_count": 23, "categories": [{"alias": "chinese", "title": "Chinese"}], "rating": 3.0, "coordinates": {"latitude": 42.2755117, "longitude": -71.4172594}, "transactions": ["delivery"], "price": "$$", "location": {"address1": "57 Hollis St", "address2": "", "address3": "", "city": "Framingham", "zip_code": "01702", "country": "US", "state": "MA", "display_address": ["57 Hollis St", "Framingham, MA 01702"]}, "phone": "+15088723337", "display_phone": "(508) 872-3337", "distance": 529.9310241361281}, {"id": "83YrUylfa12_wGjDYwIK-Q", "alias": "falafel-house-natick", "name": "Falafel House", "image_url": "https://s3-media2.fl.yelpcdn.com/bphoto/OrIdsgzk9u1KiVdqrx1Zow/o.jpg", "is_closed": false, "url": "https://www.yelp.com/biz/falafel-house-natick?adjust_creative=HdhkN5EEH6lAqE3kwhsHEQ&utm_campaign=yelp_api_v3&utm_medium=api_v3_business_search&utm_source=HdhkN5EEH6lAqE3kwhsHEQ", "review_count": 21, "categories": [{"alias": "wraps", "title": "Wraps"}, {"alias": "falafel", "title": "Falafel"}], "rating": 3.5, "coordinates": {"latitude": 42.30004, "longitude": -71.38508}, "transactions": ["delivery", "pickup"], "price": "$", "location": {"address1": "1245 Worcester St", "address2": null, "address3": "", "city": "Natick", "zip_code": "01760", "country": "US", "state": "MA", "display_address": ["1245 Worcester St", "Natick, MA 01760"]}, "phone": "+15083191753", "display_phone": "(508) 319-1753", "distance": 3743.0977692961505}, {"id": "OkxLXv_9YVNnxbx65DnqOg", "alias": "smashburger-natick-2", "name": "Smashburger", "image_url": "https://s3-media4.fl.yelpcdn.com/bphoto/3Oeziil-hxS3iE--xAIFJQ/o.jpg", "is_closed": false, "url": "https://www.yelp.com/biz/smashburger-natick-2?adjust_creative=HdhkN5EEH6lAqE3kwhsHEQ&utm_campaign=yelp_api_v3&utm_medium=api_v3_business_search&utm_source=HdhkN5EEH6lAqE3kwhsHEQ", "review_count": 225, "categories": [{"alias": "burgers", "title": "Burgers"}], "rating": 3.0, "coordinates": {"latitude": 42.2980458, "longitude": -71.3853758}, "transactions": ["delivery", "pickup"], "price": "$$", "location": {"address1": "1298 Worcester St", "address2": "", "address3": "", "city": "Natick", "zip_code": "01760", "country": "US", "state": "MA", "display_address": ["1298 Worcester St", "Natick, MA 01760"]}, "phone": "+15087200744", "display_phone": "(508) 720-0744", "distance": 3478.1495176044623}, {"id": "GRcRHTAo6pOiPzyb24pU4Q", "alias": "spices-hut-framingham", "name": "Spices Hut", "image_url": "https://s3-media4.fl.yelpcdn.com/bphoto/ngB9Pryzn-DpXrKNeDD9Tw/o.jpg", "is_closed": false, "url": "https://www.yelp.com/biz/spices-hut-framingham?adjust_creative=HdhkN5EEH6lAqE3kwhsHEQ&utm_campaign=yelp_api_v3&utm_medium=api_v3_business_search&utm_source=HdhkN5EEH6lAqE3kwhsHEQ", "review_count": 3, "categories": [{"alias": "grocery", "title": "Grocery"}, {"alias": "indpak", "title": "Indian"}], "rating": 4.0, "coordinates": {"latitude": 42.298246, "longitude": -71.425975}, "transactions": [], "location": {"address1": "700 Worcester Rd", "address2": null, "address3": "", "city": "Framingham", "zip_code": "01702", "country": "US", "state": "MA", "display_address": ["700 Worcester Rd", "Framingham, MA 01702"]}, "phone": "+15087437744", "display_phone": "(508) 743-7744", "distance": 2092.44539707054}, {"id": "YHf6M85vhPdN8yd_zapE0Q", "alias": "p-f-changs-natick", "name": "P.F. Chang's", "image_url": "https://s3-media3.fl.yelpcdn.com/bphoto/z6RFaTrv7PSoskeiTAv3yA/o.jpg", "is_closed": false, "url": "https://www.yelp.com/biz/p-f-changs-natick?adjust_creative=HdhkN5EEH6lAqE3kwhsHEQ&utm_campaign=yelp_api_v3&utm_medium=api_v3_business_search&utm_source=HdhkN5EEH6lAqE3kwhsHEQ", "review_count": 268, "categories": [{"alias": "asianfusion", "title": "Asian Fusion"}, {"alias": "chinese", "title": "Chinese"}, {"alias": "gluten_free", "title": "Gluten-Free"}], "rating": 2.5, "coordinates": {"latitude": 42.301618, "longitude": -71.383222}, "transactions": ["delivery", "pickup"], "price": "$$", "location": {"address1": "1245 Worcester St", "address2": "Ste 4008", "address3": "", "city": "Natick", "zip_code": "01760", "country": "US", "state": "MA", "display_address": ["1245 Worcester St", "Ste 4008", "Natick, MA 01760"]}, "phone": "+15086517724", "display_phone": "(508) 651-7724", "distance": 3858.5655536841455}, {"id": "y4GiZiRxrt4Dhwp_oG_V_g", "alias": "the-bagel-table-ashland", "name": "The Bagel Table", "image_url": "https://s3-media4.fl.yelpcdn.com/bphoto/pAXaFbcLvxzZ85eXIiNmzw/o.jpg", "is_closed": false, "url": "https://www.yelp.com/biz/the-bagel-table-ashland?adjust_creative=HdhkN5EEH6lAqE3kwhsHEQ&utm_campaign=yelp_api_v3&utm_medium=api_v3_business_search&utm_source=HdhkN5EEH6lAqE3kwhsHEQ", "review_count": 27, "categories": [{"alias": "delis", "title": "Delis"}, {"alias": "bagels", "title": "Bagels"}, {"alias": "coffee", "title": "Coffee & Tea"}], "rating": 3.5, "coordinates": {"latitude": 42.26247, "longitude": -71.46745}, "transactions": [], "location": {"address1": "21 Main St", "address2": "", "address3": null, "city": "Ashland", "zip_code": "01721", "country": "US", "state": "MA", "display_address": ["21 Main St", "Ashland, MA 01721"]}, "phone": "", "display_phone": "", "distance": 4359.445897576468}, {"id": "mbA2W459bl8OeIiQx5D3Ow", "alias": "wing-squad-framingham", "name": "Wing Squad", "image_url": "https://s3-media4.fl.yelpcdn.com/bphoto/0MjFF3EAS0bAaesgtDFWLQ/o.jpg", "is_closed": false, "url": "https://www.yelp.com/biz/wing-squad-framingham?adjust_creative=HdhkN5EEH6lAqE3kwhsHEQ&utm_campaign=yelp_api_v3&utm_medium=api_v3_business_search&utm_source=HdhkN5EEH6lAqE3kwhsHEQ", "review_count": 1, "categories": [{"alias": "fooddeliveryservices", "title": "Food Delivery Services"}, {"alias": "chicken_wings", "title": "Chicken Wings"}], "rating": 1.0, "coordinates": {"latitude": 42.2789535522461, "longitude": -71.4165420532227}, "transactions": ["delivery"], "location": {"address1": "150 Worcester Rd", "address2": null, "address3": null, "city": "Framingham", "zip_code": "01702", "country": "US", "state": "MA", "display_address": ["150 Worcester Rd", "Framingham, MA 01702"]}, "phone": "+18887996601", "display_phone": "(888) 799-6601", "distance": 1330.4713712601235}, {"id": "1GrZEwVneJxJ9MEvozCffw", "alias": "heritage-of-sherborn-heritage-restaurant-sherborn", "name": "Heritage Of Sherborn - Heritage Restaurant", "image_url": "https://s3-media2.fl.yelpcdn.com/bphoto/FRWszku-Dm3D_OZ6Hclamw/o.jpg", "is_closed": false, "url": "https://www.yelp.com/biz/heritage-of-sherborn-heritage-restaurant-sherborn?adjust_creative=HdhkN5EEH6lAqE3kwhsHEQ&utm_campaign=yelp_api_v3&utm_medium=api_v3_business_search&utm_source=HdhkN5EEH6lAqE3kwhsHEQ", "review_count": 89, "categories": [{"alias": "breakfast_brunch", "title": "Breakfast & Brunch"}, {"alias": "gastropubs", "title": "Gastropubs"}, {"alias": "newamerican", "title": "American (New)"}], "rating": 3.0, "coordinates": {"latitude": 42.247421211407, "longitude": -71.3693882830941}, "transactions": [], "price": "$$$", "location": {"address1": "33 N Main St", "address2": "", "address3": "", "city": "Sherborn", "zip_code": "01770", "country": "US", "state": "MA", "display_address": ["33 N Main St", "Sherborn, MA 01770"]}, "phone": "+15086559521", "display_phone": "(508) 655-9521", "distance": 5510.9527540980325}, {"id": "WF2L2lz8w85uQJZxCwNfXQ", "alias": "olive-garden-to-go-and-delivery-available-framingham", "name": "Olive Garden - To Go & Delivery Available", "image_url": "https://s3-media4.fl.yelpcdn.com/bphoto/BGSvF3kONl7GuTQLpdFpGw/o.jpg", "is_closed": false, "url": "https://www.yelp.com/biz/olive-garden-to-go-and-delivery-available-framingham?adjust_creative=HdhkN5EEH6lAqE3kwhsHEQ&utm_campaign=yelp_api_v3&utm_medium=api_v3_business_search&utm_source=HdhkN5EEH6lAqE3kwhsHEQ", "review_count": 182, "categories": [{"alias": "italian", "title": "Italian"}, {"alias": "salad", "title": "Salad"}, {"alias": "soup", "title": "Soup"}], "rating": 2.5, "coordinates": {"latitude": 42.299325, "longitude": -71.394553}, "transactions": [], "price": "$$", "location": {"address1": "1 Worcester Rd", "address2": "", "address3": "", "city": "Framingham", "zip_code": "01701", "country": "US", "state": "MA", "display_address": ["1 Worcester Rd", "Framingham, MA 01701"]}, "phone": "+15088797285", "display_phone": "(508) 879-7285", "distance": 2995.5242419500355}, {"id": "ZBvn0OKmnXNKDXpS6rKt0Q", "alias": "marathon-deli-ashland", "name": "Marathon Deli", "image_url": "https://s3-media3.fl.yelpcdn.com/bphoto/Tda9HKpou1dESll1Y2219Q/o.jpg", "is_closed": false, "url": "https://www.yelp.com/biz/marathon-deli-ashland?adjust_creative=HdhkN5EEH6lAqE3kwhsHEQ&utm_campaign=yelp_api_v3&utm_medium=api_v3_business_search&utm_source=HdhkN5EEH6lAqE3kwhsHEQ", "review_count": 39, "categories": [{"alias": "delis", "title": "Delis"}, {"alias": "sandwiches", "title": "Sandwiches"}], "rating": 4.0, "coordinates": {"latitude": 42.2549104, "longitude": -71.4672398}, "transactions": ["delivery"], "price": "$", "location": {"address1": "12C W Union St", "address2": "", "address3": "", "city": "Ashland", "zip_code": "01721", "country": "US", "state": "MA", "display_address": ["12C W Union St", "Ashland, MA 01721"]}, "phone": "+15082311859", "display_phone": "(508) 231-1859", "distance": 4790.459056535998}, {"id": "V2zlYWRRNaPpKYWNgAf8gg", "alias": "baha-mexican-restaurant-natick", "name": "Baha Mexican Restaurant", "image_url": "https://s3-media4.fl.yelpcdn.com/bphoto/W1v-4SZ4qzgdm31iz5cjew/o.jpg", "is_closed": false, "url": "https://www.yelp.com/biz/baha-mexican-restaurant-natick?adjust_creative=HdhkN5EEH6lAqE3kwhsHEQ&utm_campaign=yelp_api_v3&utm_medium=api_v3_business_search&utm_source=HdhkN5EEH6lAqE3kwhsHEQ", "review_count": 77, "categories": [{"alias": "tacos", "title": "Tacos"}, {"alias": "salad", "title": "Salad"}, {"alias": "hotdogs", "title": "Fast Food"}], "rating": 4.0, "coordinates": {"latitude": 42.2780931, "longitude": -71.3765414}, "transactions": ["delivery"], "price": "$$", "location": {"address1": "2 Mill St", "address2": "", "address3": null, "city": "Natick", "zip_code": "01760", "country": "US", "state": "MA", "display_address": ["2 Mill St", "Natick, MA 01760"]}, "phone": "+15086552242", "display_phone": "(508) 655-2242", "distance": 3543.0340587568917}, {"id": "zInwVyjeWmQKSnCpIRzhcw", "alias": "uno-pizzeria-and-grill-framingham", "name": "Uno Pizzeria & Grill", "image_url": "https://s3-media2.fl.yelpcdn.com/bphoto/zVMJQe1-Wgt5iE1Fzy-s1w/o.jpg", "is_closed": false, "url": "https://www.yelp.com/biz/uno-pizzeria-and-grill-framingham?adjust_creative=HdhkN5EEH6lAqE3kwhsHEQ&utm_campaign=yelp_api_v3&utm_medium=api_v3_business_search&utm_source=HdhkN5EEH6lAqE3kwhsHEQ", "review_count": 102, "categories": [{"alias": "pizza", "title": "Pizza"}, {"alias": "gluten_free", "title": "Gluten-Free"}, {"alias": "tradamerican", "title": "American (Traditional)"}], "rating": 3.0, "coordinates": {"latitude": 42.298379, "longitude": -71.396043}, "transactions": ["delivery", "pickup"], "price": "$$", "location": {"address1": "70 Worcester Rd", "address2": "Rte 9", "address3": null, "city": "Framingham", "zip_code": "01702", "country": "US", "state": "MA", "display_address": ["70 Worcester Rd", "Rte 9", "Framingham, MA 01702"]}, "phone": "+15086201816", "display_phone": "(508) 620-1816", "distance": 2834.7454962097786}, {"id": "6MMQpTCQnq3WQoU-vroGOA", "alias": "indian-food-and-spices-framingham", "name": "Indian Food & Spices", "image_url": "https://s3-media1.fl.yelpcdn.com/bphoto/0kCaCLuSCvFIXWTD3z0CGA/o.jpg", "is_closed": false, "url": "https://www.yelp.com/biz/indian-food-and-spices-framingham?adjust_creative=HdhkN5EEH6lAqE3kwhsHEQ&utm_campaign=yelp_api_v3&utm_medium=api_v3_business_search&utm_source=HdhkN5EEH6lAqE3kwhsHEQ", "review_count": 39, "categories": [{"alias": "intlgrocery", "title": "International Grocery"}, {"alias": "indpak", "title": "Indian"}], "rating": 3.5, "coordinates": {"latitude": 42.300584, "longitude": -71.431909}, "transactions": [], "price": "$", "location": {"address1": "855 Worcester Rd", "address2": "", "address3": "", "city": "Framingham", "zip_code": "01701", "country": "US", "state": "MA", "display_address": ["855 Worcester Rd", "Framingham, MA 01701"]}, "phone": "+15086283100", "display_phone": "(508) 628-3100", "distance": 2496.0495086671876}, {"id": "0LzDQOfSe-2MRpdOQioG8A", "alias": "eagles-fraternal-order-no-894-framingham", "name": "Eagles Fraternal Order No 894", "image_url": "https://s3-media1.fl.yelpcdn.com/bphoto/9UVLAg5pDfM5G8yyitzaag/o.jpg", "is_closed": false, "url": "https://www.yelp.com/biz/eagles-fraternal-order-no-894-framingham?adjust_creative=HdhkN5EEH6lAqE3kwhsHEQ&utm_campaign=yelp_api_v3&utm_medium=api_v3_business_search&utm_source=HdhkN5EEH6lAqE3kwhsHEQ", "review_count": 1, "categories": [{"alias": "restaurants", "title": "Restaurants"}, {"alias": "catering", "title": "Caterers"}], "rating": 3.0, "coordinates": {"latitude": 42.2782048, "longitude": -71.419325}, "transactions": [], "location": {"address1": "55 Park St", "address2": "", "address3": "", "city": "Framingham", "zip_code": "01702", "country": "US", "state": "MA", "display_address": ["55 Park St", "Framingham, MA 01702"]}, "phone": "+15088758994", "display_phone": "(508) 875-8994", "distance": 184.37564343430904}, {"id": "Tt6ePQ4C9Jj5VWqG8T1grw", "alias": "lavender-too-framingham", "name": "Lavender Too", "image_url": "https://s3-media1.fl.yelpcdn.com/bphoto/4LSo9j_YHof5NkmyzsTqWw/o.jpg", "is_closed": false, "url": "https://www.yelp.com/biz/lavender-too-framingham?adjust_creative=HdhkN5EEH6lAqE3kwhsHEQ&utm_campaign=yelp_api_v3&utm_medium=api_v3_business_search&utm_source=HdhkN5EEH6lAqE3kwhsHEQ", "review_count": 21, "categories": [{"alias": "chinese", "title": "Chinese"}], "rating": 3.0, "coordinates": {"latitude": 42.30065, "longitude": -71.4321499}, "transactions": ["delivery", "pickup"], "location": {"address1": "855 Worcester Rd", "address2": "", "address3": null, "city": "Framingham", "zip_code": "01701", "country": "US", "state": "MA", "display_address": ["855 Worcester Rd", "Framingham, MA 01701"]}, "phone": "+15084058888", "display_phone": "(508) 405-8888", "distance": 2471.046146527852}, {"id": "71Zi7bQJb4qvVuYvQHEsNA", "alias": "kugels-deli-framingham", "name": "Kugel's Deli", "image_url": "https://s3-media3.fl.yelpcdn.com/bphoto/Iaeu-KQTqE3UAj6qNoYUXg/o.jpg", "is_closed": false, "url": "https://www.yelp.com/biz/kugels-deli-framingham?adjust_creative=HdhkN5EEH6lAqE3kwhsHEQ&utm_campaign=yelp_api_v3&utm_medium=api_v3_business_search&utm_source=HdhkN5EEH6lAqE3kwhsHEQ", "review_count": 124, "categories": [{"alias": "delis", "title": "Delis"}], "rating": 3.5, "coordinates": {"latitude": 42.3005396307482, "longitude": -71.432391119049}, "transactions": ["delivery", "pickup"], "price": "$", "location": {"address1": "855 Worcester Rd", "address2": "", "address3": "", "city": "Framingham", "zip_code": "01701", "country": "US", "state": "MA", "display_address": ["855 Worcester Rd", "Framingham, MA 01701"]}, "phone": "+15086201300", "display_phone": "(508) 620-1300", "distance": 2507.5237841019275}, {"id": "7weeu59xxuu_vdwu4JjFSQ", "alias": "b-sisters-cafe-framingham", "name": "B Sisters Cafe", "image_url": "https://s3-media2.fl.yelpcdn.com/bphoto/d195MAz6ozMMv_IDYgcILA/o.jpg", "is_closed": false, "url": "https://www.yelp.com/biz/b-sisters-cafe-framingham?adjust_creative=HdhkN5EEH6lAqE3kwhsHEQ&utm_campaign=yelp_api_v3&utm_medium=api_v3_business_search&utm_source=HdhkN5EEH6lAqE3kwhsHEQ", "review_count": 108, "categories": [{"alias": "coffee", "title": "Coffee & Tea"}, {"alias": "sandwiches", "title": "Sandwiches"}], "rating": 4.0, "coordinates": {"latitude": 42.298023223877, "longitude": -71.4244766235352}, "transactions": ["delivery"], "price": "$$", "location": {"address1": "680 Worcester Rd", "address2": "", "address3": "", "city": "Framingham", "zip_code": "01702", "country": "US", "state": "MA", "display_address": ["680 Worcester Rd", "Framingham, MA 01702"]}, "phone": "+15084240014", "display_phone": "(508) 424-0014", "distance": 2038.9864330930723}, {"id": "RAqV1BRcXlrwt1y_5JhZdg", "alias": "zaftigs-delicatessen-natick", "name": "Zaftigs Delicatessen", "image_url": "https://s3-media3.fl.yelpcdn.com/bphoto/Hm7FT4eimVB6w5U5ErhRgg/o.jpg", "is_closed": false, "url": "https://www.yelp.com/biz/zaftigs-delicatessen-natick?adjust_creative=HdhkN5EEH6lAqE3kwhsHEQ&utm_campaign=yelp_api_v3&utm_medium=api_v3_business_search&utm_source=HdhkN5EEH6lAqE3kwhsHEQ", "review_count": 357, "categories": [{"alias": "delis", "title": "Delis"}, {"alias": "breakfast_brunch", "title": "Breakfast & Brunch"}], "rating": 3.5, "coordinates": {"latitude": 42.2980458, "longitude": -71.3853758}, "transactions": ["delivery"], "price": "$$", "location": {"address1": "1298 Worcester St", "address2": "", "address3": "", "city": "Natick", "zip_code": "01760", "country": "US", "state": "MA", "display_address": ["1298 Worcester St", "Natick, MA 01760"]}, "phone": "+15086534442", "display_phone": "(508) 653-4442", "distance": 3478.1495176044623}, {"id": "Wi66Fw1fdr4W71J55PIoow", "alias": "chick-fil-a-framingham-7", "name": "Chick-fil-A", "image_url": "https://s3-media3.fl.yelpcdn.com/bphoto/4a1kEhsPxyHKvqIbAuI4kQ/o.jpg", "is_closed": false, "url": "https://www.yelp.com/biz/chick-fil-a-framingham-7?adjust_creative=HdhkN5EEH6lAqE3kwhsHEQ&utm_campaign=yelp_api_v3&utm_medium=api_v3_business_search&utm_source=HdhkN5EEH6lAqE3kwhsHEQ", "review_count": 125, "categories": [{"alias": "hotdogs", "title": "Fast Food"}, {"alias": "catering", "title": "Caterers"}, {"alias": "fooddeliveryservices", "title": "Food Delivery Services"}], "rating": 3.5, "coordinates": {"latitude": 42.3034956, "longitude": -71.398905}, "transactions": ["delivery"], "price": "$", "location": {"address1": "359 Cochituate Rd", "address2": "", "address3": "", "city": "Framingham", "zip_code": "01701", "country": "US", "state": "MA", "display_address": ["359 Cochituate Rd", "Framingham, MA 01701"]}, "phone": "+15088750405", "display_phone": "(508) 875-0405", "distance": 3133.685410807705}, {"id": "w6W37iFbIZW9u-93nckX8w", "alias": "hanto-restaurant-ashland", "name": "Hanto Restaurant", "image_url": "https://s3-media1.fl.yelpcdn.com/bphoto/ZXVtj4duAygeQge_iNm0cQ/o.jpg", "is_closed": false, "url": "https://www.yelp.com/biz/hanto-restaurant-ashland?adjust_creative=HdhkN5EEH6lAqE3kwhsHEQ&utm_campaign=yelp_api_v3&utm_medium=api_v3_business_search&utm_source=HdhkN5EEH6lAqE3kwhsHEQ", "review_count": 64, "categories": [{"alias": "chinese", "title": "Chinese"}, {"alias": "sushi", "title": "Sushi Bars"}, {"alias": "japanese", "title": "Japanese"}], "rating": 3.0, "coordinates": {"latitude": 42.2555031, "longitude": -71.4657933}, "transactions": ["pickup", "delivery"], "price": "$$", "location": {"address1": "380 Union St", "address2": "", "address3": "", "city": "Ashland", "zip_code": "01721", "country": "US", "state": "MA", "display_address": ["380 Union St", "Ashland, MA 01721"]}, "phone": "+15088816568", "display_phone": "(508) 881-6568", "distance": 4667.704758637874}, {"id": "_74tSOeecPKSNSnPeVT9vA", "alias": "california-pizza-kitchen-natick-2", "name": "California Pizza Kitchen", "image_url": "https://s3-media3.fl.yelpcdn.com/bphoto/D9p23CS8sC0VM1ZEg-fI8w/o.jpg", "is_closed": false, "url": "https://www.yelp.com/biz/california-pizza-kitchen-natick-2?adjust_creative=HdhkN5EEH6lAqE3kwhsHEQ&utm_campaign=yelp_api_v3&utm_medium=api_v3_business_search&utm_source=HdhkN5EEH6lAqE3kwhsHEQ", "review_count": 131, "categories": [{"alias": "pizza", "title": "Pizza"}, {"alias": "newamerican", "title": "American (New)"}, {"alias": "salad", "title": "Salad"}], "rating": 3.0, "coordinates": {"latitude": 42.3008066, "longitude": -71.3841354}, "transactions": ["pickup", "delivery"], "price": "$$", "location": {"address1": "1245 Worcester St", "address2": "Natick Mall", "address3": "", "city": "Natick", "zip_code": "01760", "country": "US", "state": "MA", "display_address": ["1245 Worcester St", "Natick Mall", "Natick, MA 01760"]}, "phone": "+15086511506", "display_phone": "(508) 651-1506", "distance": 3743.6532716280144}, {"id": "Twp9WtftHjzd_M8DsvJxXQ", "alias": "charleys-philly-steaks-natick", "name": "Charley's Philly Steaks", "image_url": "https://s3-media4.fl.yelpcdn.com/bphoto/e1PXFW0Vowc17PplniUopQ/o.jpg", "is_closed": false, "url": "https://www.yelp.com/biz/charleys-philly-steaks-natick?adjust_creative=HdhkN5EEH6lAqE3kwhsHEQ&utm_campaign=yelp_api_v3&utm_medium=api_v3_business_search&utm_source=HdhkN5EEH6lAqE3kwhsHEQ", "review_count": 7, "categories": [{"alias": "sandwiches", "title": "Sandwiches"}], "rating": 3.5, "coordinates": {"latitude": 42.301733, "longitude": -71.384317}, "transactions": [], "location": {"address1": "1245 Worcester Street", "address2": null, "address3": null, "city": "Natick", "zip_code": "01760", "country": "US", "state": "MA", "display_address": ["1245 Worcester Street", "Natick, MA 01760"]}, "phone": "+16173477245", "display_phone": "(617) 347-7245", "distance": 3796.7164859632967}, {"id": "5rcgoOUiyZSAVtVc_3jBGA", "alias": "pizza-bella-ashland-2", "name": "Pizza Bella", "image_url": "https://s3-media4.fl.yelpcdn.com/bphoto/jvKlYjwh5kN5Dults1tOvA/o.jpg", "is_closed": false, "url": "https://www.yelp.com/biz/pizza-bella-ashland-2?adjust_creative=HdhkN5EEH6lAqE3kwhsHEQ&utm_campaign=yelp_api_v3&utm_medium=api_v3_business_search&utm_source=HdhkN5EEH6lAqE3kwhsHEQ", "review_count": 33, "categories": [{"alias": "pizza", "title": "Pizza"}, {"alias": "seafood", "title": "Seafood"}, {"alias": "italian", "title": "Italian"}], "rating": 3.5, "coordinates": {"latitude": 42.25556, "longitude": -71.46764}, "transactions": ["pickup", "delivery"], "price": "$", "location": {"address1": "1 W Union St", "address2": "", "address3": "", "city": "Ashland", "zip_code": "01721", "country": "US", "state": "MA", "display_address": ["1 W Union St", "Ashland, MA 01721"]}, "phone": "+15088812100", "display_phone": "(508) 881-2100", "distance": 4784.833695431722}, {"id": "EmajGMqdqvT62UxpZrzxrg", "alias": "cherry-blossom-ashland", "name": "Cherry Blossom", "image_url": "https://s3-media3.fl.yelpcdn.com/bphoto/sp4w-tKAvbV6Xdp0hHqqlg/o.jpg", "is_closed": false, "url": "https://www.yelp.com/biz/cherry-blossom-ashland?adjust_creative=HdhkN5EEH6lAqE3kwhsHEQ&utm_campaign=yelp_api_v3&utm_medium=api_v3_business_search&utm_source=HdhkN5EEH6lAqE3kwhsHEQ", "review_count": 37, "categories": [{"alias": "chinese", "title": "Chinese"}], "rating": 2.5, "coordinates": {"latitude": 42.2583891, "longitude": -71.4551381}, "transactions": ["delivery"], "price": "$$", "location": {"address1": "80 Union St", "address2": "", "address3": "", "city": "Ashland", "zip_code": "01721", "country": "US", "state": "MA", "display_address": ["80 Union St", "Ashland, MA 01721"]}, "phone": "+15088818222", "display_phone": "(508) 881-8222", "distance": 3773.0636273454293}, {"id": "Tgm-H8o1csb-p4NHv5dDlA", "alias": "33-all-american-diner-ashland", "name": "33 All American Diner", "image_url": "https://s3-media4.fl.yelpcdn.com/bphoto/X6vnc2iRmYPh95AvQ_OQaw/o.jpg", "is_closed": false, "url": "https://www.yelp.com/biz/33-all-american-diner-ashland?adjust_creative=HdhkN5EEH6lAqE3kwhsHEQ&utm_campaign=yelp_api_v3&utm_medium=api_v3_business_search&utm_source=HdhkN5EEH6lAqE3kwhsHEQ", "review_count": 54, "categories": [{"alias": "diners", "title": "Diners"}, {"alias": "breakfast_brunch", "title": "Breakfast & Brunch"}, {"alias": "tradamerican", "title": "American (Traditional)"}], "rating": 4.0, "coordinates": {"latitude": 42.25798, "longitude": -71.42538}, "transactions": ["pickup", "delivery"], "price": "$", "location": {"address1": "33 Pond St", "address2": "", "address3": "Market Basket Plz", "city": "Ashland", "zip_code": "01721", "country": "US", "state": "MA", "display_address": ["33 Pond St", "Market Basket Plz", "Ashland, MA 01721"]}, "phone": "+15088617479", "display_phone": "(508) 861-7479", "distance": 2501.4092292766636}, {"id": "QiEW8iECtez8cz2UsyAzBA", "alias": "zippity-do-dog-framingham", "name": "Zippity Do Dog", "image_url": "https://s3-media1.fl.yelpcdn.com/bphoto/6NkTt_82-t5bAU60gzmSwg/o.jpg", "is_closed": false, "url": "https://www.yelp.com/biz/zippity-do-dog-framingham?adjust_creative=HdhkN5EEH6lAqE3kwhsHEQ&utm_campaign=yelp_api_v3&utm_medium=api_v3_business_search&utm_source=HdhkN5EEH6lAqE3kwhsHEQ", "review_count": 27, "categories": [{"alias": "foodtrucks", "title": "Food Trucks"}, {"alias": "hotdog", "title": "Hot Dogs"}], "rating": 4.0, "coordinates": {"latitude": 42.309488, "longitude": -71.383746}, "transactions": ["pickup", "delivery"], "price": "$", "location": {"address1": "160 Speen St", "address2": null, "address3": "", "city": "Framingham", "zip_code": "01701", "country": "US", "state": "MA", "display_address": ["160 Speen St", "Framingham, MA 01701"]}, "phone": "+15082160963", "display_phone": "(508) 216-0963", "distance": 4431.364230550351}, {"id": "CT_hDFmCt6YdGtOLIR4ABg", "alias": "cajun-cafe-natick", "name": "Cajun Cafe", "image_url": "https://s3-media1.fl.yelpcdn.com/bphoto/a3lV-zhmy7pgRndfvynmeQ/o.jpg", "is_closed": false, "url": "https://www.yelp.com/biz/cajun-cafe-natick?adjust_creative=HdhkN5EEH6lAqE3kwhsHEQ&utm_campaign=yelp_api_v3&utm_medium=api_v3_business_search&utm_source=HdhkN5EEH6lAqE3kwhsHEQ", "review_count": 12, "categories": [{"alias": "cajun", "title": "Cajun/Creole"}], "rating": 1.5, "coordinates": {"latitude": 42.300601, "longitude": -71.382464}, "transactions": [], "location": {"address1": "1245 Worcester St", "address2": "", "address3": "", "city": "Natick", "zip_code": "01760", "country": "US", "state": "MA", "display_address": ["1245 Worcester St", "Natick, MA 01760"]}, "phone": "+15086537570", "display_phone": "(508) 653-7570", "distance": 3838.892128517356}, {"id": "BrYLrD5JNe2pKvz7Pqldrw", "alias": "biryaniz-n-breadz-natick-2", "name": "Biryaniz N Breadz", "image_url": "https://s3-media3.fl.yelpcdn.com/bphoto/qfiXRt3nEGoYA-xyysiHJw/o.jpg", "is_closed": false, "url": "https://www.yelp.com/biz/biryaniz-n-breadz-natick-2?adjust_creative=HdhkN5EEH6lAqE3kwhsHEQ&utm_campaign=yelp_api_v3&utm_medium=api_v3_business_search&utm_source=HdhkN5EEH6lAqE3kwhsHEQ", "review_count": 89, "categories": [{"alias": "indpak", "title": "Indian"}, {"alias": "bakeries", "title": "Bakeries"}], "rating": 4.0, "coordinates": {"latitude": 42.2825227, "longitude": -71.3830179}, "transactions": ["delivery"], "price": "$$", "location": {"address1": "195 W Central St", "address2": null, "address3": "", "city": "Natick", "zip_code": "01760", "country": "US", "state": "MA", "display_address": ["195 W Central St", "Natick, MA 01760"]}, "phone": "+15086538898", "display_phone": "(508) 653-8898", "distance": 3037.984039813159}, {"id": "x1o0N9GGRpQPHisLxzNikQ", "alias": "c-and-l-frosty-sherborn", "name": "C & L Frosty", "image_url": "https://s3-media3.fl.yelpcdn.com/bphoto/MCE_n-Nm9q1DtU_-IyxM1A/o.jpg", "is_closed": false, "url": "https://www.yelp.com/biz/c-and-l-frosty-sherborn?adjust_creative=HdhkN5EEH6lAqE3kwhsHEQ&utm_campaign=yelp_api_v3&utm_medium=api_v3_business_search&utm_source=HdhkN5EEH6lAqE3kwhsHEQ", "review_count": 54, "categories": [{"alias": "icecream", "title": "Ice Cream & Frozen Yogurt"}, {"alias": "burgers", "title": "Burgers"}, {"alias": "foodstands", "title": "Food Stands"}], "rating": 3.0, "coordinates": {"latitude": 42.24662, "longitude": -71.369231}, "transactions": [], "price": "$$", "location": {"address1": "27 N Main St", "address2": "", "address3": "", "city": "Sherborn", "zip_code": "01770", "country": "US", "state": "MA", "display_address": ["27 N Main St", "Sherborn, MA 01770"]}, "phone": "+15086557570", "display_phone": "(508) 655-7570", "distance": 5579.555643756803}, {"id": "t8oD0hAwDcUt3_nUIqQTLA", "alias": "tango-pizza-framingham", "name": "Tango Pizza", "image_url": "https://s3-media2.fl.yelpcdn.com/bphoto/1qT0S9gpBh1fwfztQATbxA/o.jpg", "is_closed": false, "url": "https://www.yelp.com/biz/tango-pizza-framingham?adjust_creative=HdhkN5EEH6lAqE3kwhsHEQ&utm_campaign=yelp_api_v3&utm_medium=api_v3_business_search&utm_source=HdhkN5EEH6lAqE3kwhsHEQ", "review_count": 15, "categories": [{"alias": "pizza", "title": "Pizza"}], "rating": 2.5, "coordinates": {"latitude": 42.2756071, "longitude": -71.41719}, "transactions": ["pickup", "delivery"], "price": "$", "location": {"address1": "51 Hollis St", "address2": null, "address3": null, "city": "Framingham", "zip_code": "01702", "country": "US", "state": "MA", "display_address": ["51 Hollis St", "Framingham, MA 01702"]}, "phone": "+15088720091", "display_phone": "(508) 872-0091", "distance": 520.0180595838862}, {"id": "pTThPWQWggdjwQlFDeKx1A", "alias": "fresh-city-natick", "name": "Fresh City", "image_url": "https://s3-media3.fl.yelpcdn.com/bphoto/kABoFo0lT5OCdXEiKNK2Tw/o.jpg", "is_closed": false, "url": "https://www.yelp.com/biz/fresh-city-natick?adjust_creative=HdhkN5EEH6lAqE3kwhsHEQ&utm_campaign=yelp_api_v3&utm_medium=api_v3_business_search&utm_source=HdhkN5EEH6lAqE3kwhsHEQ", "review_count": 69, "categories": [{"alias": "sandwiches", "title": "Sandwiches"}, {"alias": "juicebars", "title": "Juice Bars & Smoothies"}, {"alias": "gluten_free", "title": "Gluten-Free"}], "rating": 3.0, "coordinates": {"latitude": 42.298044, "longitude": -71.392537}, "transactions": ["pickup", "delivery"], "price": "$$", "location": {"address1": "1400 Worcester St", "address2": "", "address3": "", "city": "Natick", "zip_code": "01760", "country": "US", "state": "MA", "display_address": ["1400 Worcester St", "Natick, MA 01760"]}, "phone": "+15088755750", "display_phone": "(508) 875-5750", "distance": 3016.4873816609206}, {"id": "ViXB57j0j3NGzg-SKUIY7A", "alias": "chipotle-mexican-grill-framingham", "name": "Chipotle Mexican Grill", "image_url": "https://s3-media1.fl.yelpcdn.com/bphoto/PfH1881U-_bxOyBltICuRQ/o.jpg", "is_closed": false, "url": "https://www.yelp.com/biz/chipotle-mexican-grill-framingham?adjust_creative=HdhkN5EEH6lAqE3kwhsHEQ&utm_campaign=yelp_api_v3&utm_medium=api_v3_business_search&utm_source=HdhkN5EEH6lAqE3kwhsHEQ", "review_count": 176, "categories": [{"alias": "mexican", "title": "Mexican"}, {"alias": "hotdogs", "title": "Fast Food"}], "rating": 2.5, "coordinates": {"latitude": 42.3001226, "longitude": -71.3937061}, "transactions": [], "price": "$", "location": {"address1": "1 Worcester Rd", "address2": "Ste 5", "address3": "Shoppers World", "city": "Framingham", "zip_code": "01701", "country": "US", "state": "MA", "display_address": ["1 Worcester Rd", "Ste 5", "Shoppers World", "Framingham, MA 01701"]}, "phone": "+15088790823", "display_phone": "(508) 879-0823", "distance": 3107.7097602450067}, {"id": "_s-wgPJsGEfUvCjndmE4hA", "alias": "town-house-pizza-and-roast-beef-ashland", "name": "Town House Pizza And Roast Beef", "image_url": "https://s3-media1.fl.yelpcdn.com/bphoto/JqiN6-3iAMAqE52e3bZaYA/o.jpg", "is_closed": false, "url": "https://www.yelp.com/biz/town-house-pizza-and-roast-beef-ashland?adjust_creative=HdhkN5EEH6lAqE3kwhsHEQ&utm_campaign=yelp_api_v3&utm_medium=api_v3_business_search&utm_source=HdhkN5EEH6lAqE3kwhsHEQ", "review_count": 52, "categories": [{"alias": "pizza", "title": "Pizza"}, {"alias": "greek", "title": "Greek"}, {"alias": "sandwiches", "title": "Sandwiches"}], "rating": 3.5, "coordinates": {"latitude": 42.2426564, "longitude": -71.4321942}, "transactions": [], "price": "$", "location": {"address1": "300 Elliot St", "address2": "", "address3": "", "city": "Ashland", "zip_code": "01721", "country": "US", "state": "MA", "display_address": ["300 Elliot St", "Ashland, MA 01721"]}, "phone": "+15088813010", "display_phone": "(508) 881-3010", "distance": 4271.227185289047}, {"id": "ypS78ukYDwGNT7D-2gYTbw", "alias": "ashland-pizza-palace-ashland", "name": "Ashland Pizza Palace", "image_url": "https://s3-media2.fl.yelpcdn.com/bphoto/ns5i0S6p9vCpraZ07l9ozQ/o.jpg", "is_closed": false, "url": "https://www.yelp.com/biz/ashland-pizza-palace-ashland?adjust_creative=HdhkN5EEH6lAqE3kwhsHEQ&utm_campaign=yelp_api_v3&utm_medium=api_v3_business_search&utm_source=HdhkN5EEH6lAqE3kwhsHEQ", "review_count": 39, "categories": [{"alias": "pizza", "title": "Pizza"}], "rating": 3.5, "coordinates": {"latitude": 42.25845, "longitude": -71.45478}, "transactions": [], "price": "$$", "location": {"address1": "72 Union St", "address2": "", "address3": "", "city": "Ashland", "zip_code": "01721", "country": "US", "state": "MA", "display_address": ["72 Union St", "Ashland, MA 01721"]}, "phone": "+15088816666", "display_phone": "(508) 881-6666", "distance": 3739.4052058062357}, {"id": "kA-DzpCukdNqJhd0HlUkqA", "alias": "troop-2-pancake-breakfast-ashland", "name": "Troop 2 Pancake Breakfast", "image_url": "", "is_closed": false, "url": "https://www.yelp.com/biz/troop-2-pancake-breakfast-ashland?adjust_creative=HdhkN5EEH6lAqE3kwhsHEQ&utm_campaign=yelp_api_v3&utm_medium=api_v3_business_search&utm_source=HdhkN5EEH6lAqE3kwhsHEQ", "review_count": 1, "categories": [{"alias": "diners", "title": "Diners"}, {"alias": "coffee", "title": "Coffee & Tea"}, {"alias": "drugstores", "title": "Drugstores"}], "rating": 5.0, "coordinates": {"latitude": 42.2584762573242, "longitude": -71.46435546875}, "transactions": [], "location": {"address1": "40 Summer St", "address2": "", "address3": "", "city": "Ashland", "zip_code": "01721", "country": "US", "state": "MA", "display_address": ["40 Summer St", "Ashland, MA 01721"]}, "phone": "", "display_phone": "", "distance": 4373.23109308028}, {"id": "WDPrl5H2jEN_pWYaM1dKyw", "alias": "pizza-peddler-natick", "name": "Pizza Peddler", "image_url": "https://s3-media3.fl.yelpcdn.com/bphoto/sYLxML6yv9NWUAQDZsIdGQ/o.jpg", "is_closed": false, "url": "https://www.yelp.com/biz/pizza-peddler-natick?adjust_creative=HdhkN5EEH6lAqE3kwhsHEQ&utm_campaign=yelp_api_v3&utm_medium=api_v3_business_search&utm_source=HdhkN5EEH6lAqE3kwhsHEQ", "review_count": 108, "categories": [{"alias": "pizza", "title": "Pizza"}, {"alias": "catering", "title": "Caterers"}, {"alias": "italian", "title": "Italian"}], "rating": 3.5, "coordinates": {"latitude": 42.283344, "longitude": -71.373658}, "transactions": ["delivery"], "price": "$$", "location": {"address1": "127 W Central St", "address2": "", "address3": "", "city": "Natick", "zip_code": "01760", "country": "US", "state": "MA", "display_address": ["127 W Central St", "Natick, MA 01760"]}, "phone": "+15086553608", "display_phone": "(508) 655-3608", "distance": 3852.0003622126605}, {"id": "kbJteEjbY3Ql24FK97KbNw", "alias": "burger-king-framingham", "name": "Burger King", "image_url": "https://s3-media1.fl.yelpcdn.com/bphoto/wKcWsx_eRsBo4PMhYtIlgg/o.jpg", "is_closed": false, "url": "https://www.yelp.com/biz/burger-king-framingham?adjust_creative=HdhkN5EEH6lAqE3kwhsHEQ&utm_campaign=yelp_api_v3&utm_medium=api_v3_business_search&utm_source=HdhkN5EEH6lAqE3kwhsHEQ", "review_count": 21, "categories": [{"alias": "burgers", "title": "Burgers"}, {"alias": "hotdogs", "title": "Fast Food"}], "rating": 1.5, "coordinates": {"latitude": 42.278533, "longitude": -71.407093}, "transactions": ["delivery"], "price": "$", "location": {"address1": "176 Waverly Street", "address2": "", "address3": "", "city": "Framingham", "zip_code": "01702", "country": "US", "state": "MA", "display_address": ["176 Waverly Street", "Framingham, MA 01702"]}, "phone": "", "display_phone": "", "distance": 1066.930910340633}, {"id": "ZBEHlZ_usuLlKubXpCZg-Q", "alias": "family-style-pizza-framingham", "name": "Family Style Pizza", "image_url": "https://s3-media1.fl.yelpcdn.com/bphoto/Cyz1BmDZnsgciFNyktP01w/o.jpg", "is_closed": false, "url": "https://www.yelp.com/biz/family-style-pizza-framingham?adjust_creative=HdhkN5EEH6lAqE3kwhsHEQ&utm_campaign=yelp_api_v3&utm_medium=api_v3_business_search&utm_source=HdhkN5EEH6lAqE3kwhsHEQ", "review_count": 43, "categories": [{"alias": "pizza", "title": "Pizza"}], "rating": 3.0, "coordinates": {"latitude": 42.280422, "longitude": -71.401063}, "transactions": ["pickup", "delivery"], "price": "$", "location": {"address1": "41 Waverly St", "address2": "", "address3": "", "city": "Framingham", "zip_code": "01702", "country": "US", "state": "MA", "display_address": ["41 Waverly St", "Framingham, MA 01702"]}, "phone": "+15083707275", "display_phone": "(508) 370-7275", "distance": 1549.4804341384463}, {"id": "tYXW83I613qp9BfsoGHImw", "alias": "moes-southwest-grill-natick", "name": "Moe's Southwest Grill", "image_url": "https://s3-media4.fl.yelpcdn.com/bphoto/K4lgqphzcl00Qblis5BNyw/o.jpg", "is_closed": false, "url": "https://www.yelp.com/biz/moes-southwest-grill-natick?adjust_creative=HdhkN5EEH6lAqE3kwhsHEQ&utm_campaign=yelp_api_v3&utm_medium=api_v3_business_search&utm_source=HdhkN5EEH6lAqE3kwhsHEQ", "review_count": 71, "categories": [{"alias": "mexican", "title": "Mexican"}, {"alias": "tex-mex", "title": "Tex-Mex"}], "rating": 3.0, "coordinates": {"latitude": 42.2988289340979, "longitude": -71.3815093931465}, "transactions": ["pickup", "delivery"], "price": "$", "location": {"address1": "1274 Worcester St", "address2": "", "address3": "", "city": "Natick", "zip_code": "01760", "country": "US", "state": "MA", "display_address": ["1274 Worcester St", "Natick, MA 01760"]}, "phone": "+15086534700", "display_phone": "(508) 653-4700", "distance": 3789.7052346712157}, {"id": "-bDqPibqhqM_o7Ua6AaRNQ", "alias": "centre-pizza-framingham", "name": "Centre Pizza", "image_url": "https://s3-media1.fl.yelpcdn.com/bphoto/A7Hty4N8Sy2EhCJOCJPsyg/o.jpg", "is_closed": false, "url": "https://www.yelp.com/biz/centre-pizza-framingham?adjust_creative=HdhkN5EEH6lAqE3kwhsHEQ&utm_campaign=yelp_api_v3&utm_medium=api_v3_business_search&utm_source=HdhkN5EEH6lAqE3kwhsHEQ", "review_count": 43, "categories": [{"alias": "pizza", "title": "Pizza"}], "rating": 3.0, "coordinates": {"latitude": 42.2985687255859, "longitude": -71.4495849609375}, "transactions": ["delivery"], "price": "$", "location": {"address1": "1255 Worcester Rd", "address2": "", "address3": "", "city": "Framingham", "zip_code": "01701", "country": "US", "state": "MA", "display_address": ["1255 Worcester Rd", "Framingham, MA 01701"]}, "phone": "+15088793100", "display_phone": "(508) 879-3100", "distance": 3192.8284419615047}, {"id": "7aZsyT-6xas62AUJJTspeA", "alias": "honey-baked-ham-company-framingham", "name": "Honey Baked Ham Company", "image_url": "https://s3-media2.fl.yelpcdn.com/bphoto/q-Nzy2w42VOb32s9wxwI4Q/o.jpg", "is_closed": false, "url": "https://www.yelp.com/biz/honey-baked-ham-company-framingham?adjust_creative=HdhkN5EEH6lAqE3kwhsHEQ&utm_campaign=yelp_api_v3&utm_medium=api_v3_business_search&utm_source=HdhkN5EEH6lAqE3kwhsHEQ", "review_count": 16, "categories": [{"alias": "sandwiches", "title": "Sandwiches"}, {"alias": "delis", "title": "Delis"}, {"alias": "meats", "title": "Meat Shops"}], "rating": 3.5, "coordinates": {"latitude": 42.29818, "longitude": -71.40394}, "transactions": ["pickup", "delivery"], "price": "$$$$", "location": {"address1": "240 Worcester Rd.", "address2": "", "address3": "", "city": "Framingham", "zip_code": "01701", "country": "US", "state": "MA", "display_address": ["240 Worcester Rd.", "Framingham, MA 01701"]}, "phone": "+15086262300", "display_phone": "(508) 626-2300", "distance": 2399.1922063897823}, {"id": "HLYnZCDhnwV8h-ITCfmNTw", "alias": "b-good-natick", "name": "B.GOOD", "image_url": "https://s3-media2.fl.yelpcdn.com/bphoto/zp3IlqqU040LeojhWrZwiQ/o.jpg", "is_closed": false, "url": "https://www.yelp.com/biz/b-good-natick?adjust_creative=HdhkN5EEH6lAqE3kwhsHEQ&utm_campaign=yelp_api_v3&utm_medium=api_v3_business_search&utm_source=HdhkN5EEH6lAqE3kwhsHEQ", "review_count": 94, "categories": [{"alias": "sandwiches", "title": "Sandwiches"}, {"alias": "salad", "title": "Salad"}, {"alias": "breakfast_brunch", "title": "Breakfast & Brunch"}], "rating": 3.0, "coordinates": {"latitude": 42.2999890752995, "longitude": -71.3886937698035}, "transactions": ["pickup", "delivery"], "price": "$$", "location": {"address1": "1265 Worcester St", "address2": "", "address3": null, "city": "Natick", "zip_code": "01760", "country": "US", "state": "MA", "display_address": ["1265 Worcester St", "Natick, MA 01760"]}, "phone": "+15083974079", "display_phone": "(508) 397-4079", "distance": 3396.6709715509314}, {"id": "43f2qbvty3oWBuJrEwEklQ", "alias": "wasabi-natick", "name": "Wasabi", "image_url": "https://s3-media2.fl.yelpcdn.com/bphoto/Btzf4Lw9STtUrk5My7Mr9Q/o.jpg", "is_closed": false, "url": "https://www.yelp.com/biz/wasabi-natick?adjust_creative=HdhkN5EEH6lAqE3kwhsHEQ&utm_campaign=yelp_api_v3&utm_medium=api_v3_business_search&utm_source=HdhkN5EEH6lAqE3kwhsHEQ", "review_count": 218, "categories": [{"alias": "sushi", "title": "Sushi Bars"}, {"alias": "conveyorsushi", "title": "Conveyor Belt Sushi"}], "rating": 3.0, "coordinates": {"latitude": 42.301523, "longitude": -71.383668}, "transactions": ["pickup", "delivery"], "price": "$$", "location": {"address1": "1245 Worcester St", "address2": "", "address3": null, "city": "Natick", "zip_code": "01760", "country": "US", "state": "MA", "display_address": ["1245 Worcester St", "Natick, MA 01760"]}, "phone": "+15087200326", "display_phone": "(508) 720-0326", "distance": 3823.331903051416}, {"id": "omYX4EEXlGStxQ2DglLT6g", "alias": "boston-market-framingham-3", "name": "Boston Market", "image_url": "https://s3-media3.fl.yelpcdn.com/bphoto/7gHweeSsr6wSBDb4i2idrA/o.jpg", "is_closed": false, "url": "https://www.yelp.com/biz/boston-market-framingham-3?adjust_creative=HdhkN5EEH6lAqE3kwhsHEQ&utm_campaign=yelp_api_v3&utm_medium=api_v3_business_search&utm_source=HdhkN5EEH6lAqE3kwhsHEQ", "review_count": 4, "categories": [{"alias": "comfortfood", "title": "Comfort Food"}, {"alias": "tradamerican", "title": "American (Traditional)"}, {"alias": "sandwiches", "title": "Sandwiches"}], "rating": 4.5, "coordinates": {"latitude": 42.31081, "longitude": -71.43054}, "transactions": ["pickup", "delivery"], "location": {"address1": "Mass Turnpike Westbound I-90 Milepost 11", "address2": "", "address3": "", "city": "Framingham", "zip_code": "01701", "country": "US", "state": "MA", "display_address": ["Mass Turnpike Westbound I-90 Milepost 11", "Framingham, MA 01701"]}, "phone": "+15088770700", "display_phone": "(508) 877-0700", "distance": 3652.662643721419}, {"id": "nyVO2V9v4KHaBu-asks9mA", "alias": "nicks-pizza-and-grill-ashland-2", "name": "Nick's Pizza & Grill", "image_url": "https://s3-media1.fl.yelpcdn.com/bphoto/x8ruMqosfF39-Wlo7KaEdg/o.jpg", "is_closed": false, "url": "https://www.yelp.com/biz/nicks-pizza-and-grill-ashland-2?adjust_creative=HdhkN5EEH6lAqE3kwhsHEQ&utm_campaign=yelp_api_v3&utm_medium=api_v3_business_search&utm_source=HdhkN5EEH6lAqE3kwhsHEQ", "review_count": 45, "categories": [{"alias": "pizza", "title": "Pizza"}], "rating": 3.5, "coordinates": {"latitude": 42.2616032, "longitude": -71.4661544}, "transactions": ["delivery"], "price": "$", "location": {"address1": "87 Main St", "address2": "", "address3": "", "city": "Ashland", "zip_code": "01721", "country": "US", "state": "MA", "display_address": ["87 Main St", "Ashland, MA 01721"]}, "phone": "+15088812431", "display_phone": "(508) 881-2431", "distance": 4320.279950563721}, {"id": "tIlOtg6qFWwbfyXLV--PjA", "alias": "banana-grill-framingham", "name": "Banana Grill", "image_url": "", "is_closed": false, "url": "https://www.yelp.com/biz/banana-grill-framingham?adjust_creative=HdhkN5EEH6lAqE3kwhsHEQ&utm_campaign=yelp_api_v3&utm_medium=api_v3_business_search&utm_source=HdhkN5EEH6lAqE3kwhsHEQ", "review_count": 1, "categories": [{"alias": "restaurants", "title": "Restaurants"}], "rating": 3.0, "coordinates": {"latitude": 42.2982564568469, "longitude": -71.4066571582086}, "transactions": [], "price": "$", "location": {"address1": "290 Worcester Rd", "address2": "", "address3": "", "city": "Framingham", "zip_code": "01702", "country": "US", "state": "MA", "display_address": ["290 Worcester Rd", "Framingham, MA 01702"]}, "phone": "+15088754949", "display_phone": "(508) 875-4949", "distance": 2300.7636403366537}, {"id": "DHZuJSTJpFRNbjnXTgGbPw", "alias": "dairy-queen-grill-and-chill-ashland-12", "name": "Dairy Queen Grill & Chill", "image_url": "https://s3-media3.fl.yelpcdn.com/bphoto/BSIUYquGJkqBtzA9WM8k4w/o.jpg", "is_closed": false, "url": "https://www.yelp.com/biz/dairy-queen-grill-and-chill-ashland-12?adjust_creative=HdhkN5EEH6lAqE3kwhsHEQ&utm_campaign=yelp_api_v3&utm_medium=api_v3_business_search&utm_source=HdhkN5EEH6lAqE3kwhsHEQ", "review_count": 18, "categories": [{"alias": "icecream", "title": "Ice Cream & Frozen Yogurt"}, {"alias": "burgers", "title": "Burgers"}, {"alias": "hotdogs", "title": "Fast Food"}], "rating": 3.0, "coordinates": {"latitude": 42.251882, "longitude": -71.429331}, "transactions": [], "price": "$", "location": {"address1": "130 Pond St", "address2": "", "address3": "", "city": "Ashland", "zip_code": "01721", "country": "US", "state": "MA", "display_address": ["130 Pond St", "Ashland, MA 01721"]}, "phone": "+15088812050", "display_phone": "(508) 881-2050", "distance": 3218.7920747232374}, {"id": "ZVXX5hJJo_-2kYiAVhi_7A", "alias": "nicks-pizza-house-natick", "name": "Nick's Pizza House", "image_url": "https://s3-media2.fl.yelpcdn.com/bphoto/ku9zfQCYwPOfUe5tnFFPwQ/o.jpg", "is_closed": false, "url": "https://www.yelp.com/biz/nicks-pizza-house-natick?adjust_creative=HdhkN5EEH6lAqE3kwhsHEQ&utm_campaign=yelp_api_v3&utm_medium=api_v3_business_search&utm_source=HdhkN5EEH6lAqE3kwhsHEQ", "review_count": 19, "categories": [{"alias": "pizza", "title": "Pizza"}], "rating": 3.5, "coordinates": {"latitude": 42.28294, "longitude": -71.38022}, "transactions": ["pickup", "delivery"], "price": "$", "location": {"address1": "179 W Central St", "address2": "", "address3": "", "city": "Natick", "zip_code": "01760", "country": "US", "state": "MA", "display_address": ["179 W Central St", "Natick, MA 01760"]}, "phone": "+15086556098", "display_phone": "(508) 655-6098", "distance": 3285.3890997675103}, {"id": "n14JF3VY9gqruLjOsRdWZg", "alias": "wendys-natick-2", "name": "Wendy's", "image_url": "https://s3-media3.fl.yelpcdn.com/bphoto/PnrU9Snqfwju8-T4OJMVNA/o.jpg", "is_closed": false, "url": "https://www.yelp.com/biz/wendys-natick-2?adjust_creative=HdhkN5EEH6lAqE3kwhsHEQ&utm_campaign=yelp_api_v3&utm_medium=api_v3_business_search&utm_source=HdhkN5EEH6lAqE3kwhsHEQ", "review_count": 16, "categories": [{"alias": "burgers", "title": "Burgers"}, {"alias": "hotdogs", "title": "Fast Food"}], "rating": 2.0, "coordinates": {"latitude": 42.281707, "longitude": -71.396102}, "transactions": ["delivery"], "price": "$", "location": {"address1": "303 W Central St", "address2": null, "address3": null, "city": "Natick", "zip_code": "01760", "country": "US", "state": "MA", "display_address": ["303 W Central St", "Natick, MA 01760"]}, "phone": "+15088720072", "display_phone": "(508) 872-0072", "distance": 1969.2275969544544}, {"id": "iJJabLeKBtmhNzdlpglxEA", "alias": "ihop-framingham", "name": "IHOP", "image_url": "https://s3-media3.fl.yelpcdn.com/bphoto/c4q2ZhA146NJ6nOCvpoQow/o.jpg", "is_closed": false, "url": "https://www.yelp.com/biz/ihop-framingham?adjust_creative=HdhkN5EEH6lAqE3kwhsHEQ&utm_campaign=yelp_api_v3&utm_medium=api_v3_business_search&utm_source=HdhkN5EEH6lAqE3kwhsHEQ", "review_count": 93, "categories": [{"alias": "breakfast_brunch", "title": "Breakfast & Brunch"}, {"alias": "tradamerican", "title": "American (Traditional)"}, {"alias": "burgers", "title": "Burgers"}], "rating": 2.0, "coordinates": {"latitude": 42.301058, "longitude": -71.433815}, "transactions": ["pickup", "delivery"], "price": "$$", "location": {"address1": "17 Edgell Rd", "address2": "", "address3": null, "city": "Framingham", "zip_code": "01701", "country": "US", "state": "MA", "display_address": ["17 Edgell Rd", "Framingham, MA 01701"]}, "phone": "+15082702694", "display_phone": "(508) 270-2694", "distance": 2609.45529571613}, {"id": "NzS3-9V8AlXf55XvOp3Z-g", "alias": "the-sub-way-and-pizza-framingham-3", "name": "The Sub-Way & Pizza", "image_url": "https://s3-media2.fl.yelpcdn.com/bphoto/3N9Qy58PC1lWOlMwTtLTSg/o.jpg", "is_closed": false, "url": "https://www.yelp.com/biz/the-sub-way-and-pizza-framingham-3?adjust_creative=HdhkN5EEH6lAqE3kwhsHEQ&utm_campaign=yelp_api_v3&utm_medium=api_v3_business_search&utm_source=HdhkN5EEH6lAqE3kwhsHEQ", "review_count": 45, "categories": [{"alias": "pizza", "title": "Pizza"}, {"alias": "sandwiches", "title": "Sandwiches"}, {"alias": "breakfast_brunch", "title": "Breakfast & Brunch"}], "rating": 3.5, "coordinates": {"latitude": 42.2929291, "longitude": -71.4277936}, "transactions": ["pickup", "delivery"], "price": "$", "location": {"address1": "510 Union Ave", "address2": "", "address3": "", "city": "Framingham", "zip_code": "01702", "country": "US", "state": "MA", "display_address": ["510 Union Ave", "Framingham, MA 01702"]}, "phone": "+15088798818", "display_phone": "(508) 879-8818", "distance": 1580.6372715033299}, {"id": "Pb_adoUj5yHBkwR3sxAdiA", "alias": "sarku-japan-restaurant-natick", "name": "Sarku Japan Restaurant", "image_url": "https://s3-media2.fl.yelpcdn.com/bphoto/fxfKXcyU4EqlzwwgLL8CmQ/o.jpg", "is_closed": false, "url": "https://www.yelp.com/biz/sarku-japan-restaurant-natick?adjust_creative=HdhkN5EEH6lAqE3kwhsHEQ&utm_campaign=yelp_api_v3&utm_medium=api_v3_business_search&utm_source=HdhkN5EEH6lAqE3kwhsHEQ", "review_count": 20, "categories": [{"alias": "japanese", "title": "Japanese"}], "rating": 2.5, "coordinates": {"latitude": 42.300921, "longitude": -71.38415}, "transactions": ["delivery"], "price": "$", "location": {"address1": "1245 Worcester St", "address2": "", "address3": "", "city": "Natick", "zip_code": "01760", "country": "US", "state": "MA", "display_address": ["1245 Worcester St", "Natick, MA 01760"]}, "phone": "+15086539383", "display_phone": "(508) 653-9383", "distance": 3750.594734434048}, {"id": "Zhgzf9kPCvQFfIg6RTwcJQ", "alias": "pizza-mine-ashland", "name": "Pizza Mine", "image_url": "https://s3-media4.fl.yelpcdn.com/bphoto/YqmHFGP4_QUAq5FYq0uclQ/o.jpg", "is_closed": false, "url": "https://www.yelp.com/biz/pizza-mine-ashland?adjust_creative=HdhkN5EEH6lAqE3kwhsHEQ&utm_campaign=yelp_api_v3&utm_medium=api_v3_business_search&utm_source=HdhkN5EEH6lAqE3kwhsHEQ", "review_count": 28, "categories": [{"alias": "pizza", "title": "Pizza"}, {"alias": "delis", "title": "Delis"}], "rating": 3.5, "coordinates": {"latitude": 42.2595536, "longitude": -71.4636197}, "transactions": [], "price": "$", "location": {"address1": "9 Homer Ave", "address2": "", "address3": "", "city": "Ashland", "zip_code": "01721", "country": "US", "state": "MA", "display_address": ["9 Homer Ave", "Ashland, MA 01721"]}, "phone": "+15088817233", "display_phone": "(508) 881-7233", "distance": 4254.857279715353}, {"id": "wwc4eTB9i3JAbHEVjXTXtw", "alias": "university-pizza-framingham", "name": "University Pizza", "image_url": "https://s3-media2.fl.yelpcdn.com/bphoto/yfz1zbnwt-Ha6RCOLYnLew/o.jpg", "is_closed": false, "url": "https://www.yelp.com/biz/university-pizza-framingham?adjust_creative=HdhkN5EEH6lAqE3kwhsHEQ&utm_campaign=yelp_api_v3&utm_medium=api_v3_business_search&utm_source=HdhkN5EEH6lAqE3kwhsHEQ", "review_count": 48, "categories": [{"alias": "pizza", "title": "Pizza"}, {"alias": "salad", "title": "Salad"}, {"alias": "sandwiches", "title": "Sandwiches"}], "rating": 2.5, "coordinates": {"latitude": 42.301012363701, "longitude": -71.4363831281662}, "transactions": ["pickup", "delivery"], "price": "$", "location": {"address1": "961 Worcester Rd", "address2": "", "address3": "", "city": "Framingham", "zip_code": "01701", "country": "US", "state": "MA", "display_address": ["961 Worcester Rd", "Framingham, MA 01701"]}, "phone": "+15088791234", "display_phone": "(508) 879-1234", "distance": 2704.462310021794}, {"id": "2op8vtgD4e9neeYjcPSkkA", "alias": "five-guys-framingham", "name": "Five Guys", "image_url": "https://s3-media3.fl.yelpcdn.com/bphoto/4xPA-ihU5MOmGwIjqKoRhQ/o.jpg", "is_closed": false, "url": "https://www.yelp.com/biz/five-guys-framingham?adjust_creative=HdhkN5EEH6lAqE3kwhsHEQ&utm_campaign=yelp_api_v3&utm_medium=api_v3_business_search&utm_source=HdhkN5EEH6lAqE3kwhsHEQ", "review_count": 66, "categories": [{"alias": "burgers", "title": "Burgers"}, {"alias": "sandwiches", "title": "Sandwiches"}], "rating": 3.5, "coordinates": {"latitude": 42.302692, "longitude": -71.4020449}, "transactions": ["delivery"], "price": "$", "location": {"address1": "301 Cochituate Rd", "address2": "", "address3": "", "city": "Framingham", "zip_code": "01701", "country": "US", "state": "MA", "display_address": ["301 Cochituate Rd", "Framingham, MA 01701"]}, "phone": "+15088797500", "display_phone": "(508) 879-7500", "distance": 2859.4281739616945}, {"id": "Snt_ykl6F2IcYu6FFjf2oQ", "alias": "burger-king-framingham-2", "name": "Burger King", "image_url": "https://s3-media2.fl.yelpcdn.com/bphoto/2xew2iAAmm8Pn6tZGSqSCw/o.jpg", "is_closed": false, "url": "https://www.yelp.com/biz/burger-king-framingham-2?adjust_creative=HdhkN5EEH6lAqE3kwhsHEQ&utm_campaign=yelp_api_v3&utm_medium=api_v3_business_search&utm_source=HdhkN5EEH6lAqE3kwhsHEQ", "review_count": 20, "categories": [{"alias": "hotdogs", "title": "Fast Food"}, {"alias": "burgers", "title": "Burgers"}], "rating": 3.0, "coordinates": {"latitude": 42.3022671671812, "longitude": -71.4027614346282}, "transactions": ["delivery"], "price": "$", "location": {"address1": "259 Cochituate Rd", "address2": "", "address3": "", "city": "Framingham", "zip_code": "01701", "country": "US", "state": "MA", "display_address": ["259 Cochituate Rd", "Framingham, MA 01701"]}, "phone": "+15088759832", "display_phone": "(508) 875-9832", "distance": 2851.2833004020167}, {"id": "wJgJY0u-eoAk8dREnd-4ZA", "alias": "boston-market-framingham-2", "name": "Boston Market", "image_url": "https://s3-media1.fl.yelpcdn.com/bphoto/PQOihhE4lP73PqyJHS-kPQ/o.jpg", "is_closed": false, "url": "https://www.yelp.com/biz/boston-market-framingham-2?adjust_creative=HdhkN5EEH6lAqE3kwhsHEQ&utm_campaign=yelp_api_v3&utm_medium=api_v3_business_search&utm_source=HdhkN5EEH6lAqE3kwhsHEQ", "review_count": 25, "categories": [{"alias": "tradamerican", "title": "American (Traditional)"}, {"alias": "comfortfood", "title": "Comfort Food"}, {"alias": "sandwiches", "title": "Sandwiches"}], "rating": 2.5, "coordinates": {"latitude": 42.3019482939291, "longitude": -71.4013675638353}, "transactions": ["pickup", "delivery"], "price": "$", "location": {"address1": "341 Cochituate Rd", "address2": "", "address3": "", "city": "Framingham", "zip_code": "01701", "country": "US", "state": "MA", "display_address": ["341 Cochituate Rd", "Framingham, MA 01701"]}, "phone": "+15088795585", "display_phone": "(508) 879-5585", "distance": 2879.489222365487}, {"id": "0aHvN3WifwQpcU9YscOxoA", "alias": "wegmans-pizza-natick", "name": "Wegmans Pizza", "image_url": "https://s3-media1.fl.yelpcdn.com/bphoto/p-GcFn8Oqy7DTKCLV2avkg/o.jpg", "is_closed": false, "url": "https://www.yelp.com/biz/wegmans-pizza-natick?adjust_creative=HdhkN5EEH6lAqE3kwhsHEQ&utm_campaign=yelp_api_v3&utm_medium=api_v3_business_search&utm_source=HdhkN5EEH6lAqE3kwhsHEQ", "review_count": 3, "categories": [{"alias": "pizza", "title": "Pizza"}], "rating": 2.5, "coordinates": {"latitude": 42.30004, "longitude": -71.38508}, "transactions": [], "location": {"address1": "1245 Worcester St", "address2": null, "address3": null, "city": "Natick", "zip_code": "01760", "country": "US", "state": "MA", "display_address": ["1245 Worcester St", "Natick, MA 01760"]}, "phone": "+15089600150", "display_phone": "(508) 960-0150", "distance": 3743.6532716280144}, {"id": "6DgA45xclGhOy2WU1y-5Qw", "alias": "ruby-thai-kitchen-natick", "name": "Ruby Thai Kitchen", "image_url": "https://s3-media2.fl.yelpcdn.com/bphoto/GiI3Wx0-BUM9FmoO7CUdYQ/o.jpg", "is_closed": false, "url": "https://www.yelp.com/biz/ruby-thai-kitchen-natick?adjust_creative=HdhkN5EEH6lAqE3kwhsHEQ&utm_campaign=yelp_api_v3&utm_medium=api_v3_business_search&utm_source=HdhkN5EEH6lAqE3kwhsHEQ", "review_count": 11, "categories": [{"alias": "thai", "title": "Thai"}], "rating": 2.5, "coordinates": {"latitude": 42.3000412, "longitude": -71.3850784}, "transactions": [], "price": "$", "location": {"address1": "1245 Worcester St", "address2": "", "address3": "", "city": "Natick", "zip_code": "01760", "country": "US", "state": "MA", "display_address": ["1245 Worcester St", "Natick, MA 01760"]}, "phone": "+15086530353", "display_phone": "(508) 653-0353", "distance": 3795.049507386055}, {"id": "e_poYAYLwoMgb5YxTGByYg", "alias": "taco-bell-framingham", "name": "Taco Bell", "image_url": "https://s3-media3.fl.yelpcdn.com/bphoto/8r9dJa9xKZLcaXaKzlQMTQ/o.jpg", "is_closed": false, "url": "https://www.yelp.com/biz/taco-bell-framingham?adjust_creative=HdhkN5EEH6lAqE3kwhsHEQ&utm_campaign=yelp_api_v3&utm_medium=api_v3_business_search&utm_source=HdhkN5EEH6lAqE3kwhsHEQ", "review_count": 23, "categories": [{"alias": "hotdogs", "title": "Fast Food"}, {"alias": "tacos", "title": "Tacos"}], "rating": 2.0, "coordinates": {"latitude": 42.30046, "longitude": -71.40849}, "transactions": [], "price": "$", "location": {"address1": "149 Cochituate Rd", "address2": null, "address3": null, "city": "Framingham", "zip_code": "01701", "country": "US", "state": "MA", "display_address": ["149 Cochituate Rd", "Framingham, MA 01701"]}, "phone": "+15088751011", "display_phone": "(508) 875-1011", "distance": 2463.410939644366}, {"id": "izeET_-ITW7em2I-MeQULw", "alias": "friendly-pizza-framingham", "name": "Friendly Pizza", "image_url": "https://s3-media3.fl.yelpcdn.com/bphoto/a1J86LxACzCHRiCseSI8Xw/o.jpg", "is_closed": false, "url": "https://www.yelp.com/biz/friendly-pizza-framingham?adjust_creative=HdhkN5EEH6lAqE3kwhsHEQ&utm_campaign=yelp_api_v3&utm_medium=api_v3_business_search&utm_source=HdhkN5EEH6lAqE3kwhsHEQ", "review_count": 11, "categories": [{"alias": "pizza", "title": "Pizza"}, {"alias": "salad", "title": "Salad"}, {"alias": "sandwiches", "title": "Sandwiches"}], "rating": 2.5, "coordinates": {"latitude": 42.27973, "longitude": -71.40375}, "transactions": ["pickup", "delivery"], "price": "$", "location": {"address1": "125 Waverly St", "address2": "", "address3": "", "city": "Framingham", "zip_code": "01702", "country": "US", "state": "MA", "display_address": ["125 Waverly St", "Framingham, MA 01702"]}, "phone": "+15088729400", "display_phone": "(508) 872-9400", "distance": 1353.4047945643822}, {"id": "DRH6MZyij27Osux1QpZE6Q", "alias": "original-pizza-of-boston-framingham", "name": "Original Pizza of Boston", "image_url": "https://s3-media3.fl.yelpcdn.com/bphoto/6auRKE9qS1VP9FURIadBgA/o.jpg", "is_closed": false, "url": "https://www.yelp.com/biz/original-pizza-of-boston-framingham?adjust_creative=HdhkN5EEH6lAqE3kwhsHEQ&utm_campaign=yelp_api_v3&utm_medium=api_v3_business_search&utm_source=HdhkN5EEH6lAqE3kwhsHEQ", "review_count": 6, "categories": [{"alias": "hotdogs", "title": "Fast Food"}], "rating": 3.5, "coordinates": {"latitude": 42.3108099, "longitude": -71.4305399}, "transactions": [], "price": "$", "location": {"address1": "Massachusetts Turnpike Rest Stop", "address2": "", "address3": "Framingham, after Exit 13 MM 114.2", "city": "Framingham", "zip_code": "01701", "country": "US", "state": "MA", "display_address": ["Massachusetts Turnpike Rest Stop", "Framingham, after Exit 13 MM 114.2", "Framingham, MA 01701"]}, "phone": "+16179737000", "display_phone": "(617) 973-7000", "distance": 3665.159208984874}, {"id": "gHgKJJkQ216_qALOGLSlqg", "alias": "sunnyside-cafe-and-catering-co-ashland", "name": "Sunnyside Cafe & Catering Co", "image_url": "https://s3-media3.fl.yelpcdn.com/bphoto/mFCHX_NEEtXq_Sj0ompe5Q/o.jpg", "is_closed": false, "url": "https://www.yelp.com/biz/sunnyside-cafe-and-catering-co-ashland?adjust_creative=HdhkN5EEH6lAqE3kwhsHEQ&utm_campaign=yelp_api_v3&utm_medium=api_v3_business_search&utm_source=HdhkN5EEH6lAqE3kwhsHEQ", "review_count": 74, "categories": [{"alias": "breakfast_brunch", "title": "Breakfast & Brunch"}, {"alias": "cafes", "title": "Cafes"}], "rating": 3.0, "coordinates": {"latitude": 42.26074, "longitude": -71.4642}, "transactions": [], "price": "$", "location": {"address1": "24 Front St", "address2": "", "address3": "", "city": "Ashland", "zip_code": "01721", "country": "US", "state": "MA", "display_address": ["24 Front St", "Ashland, MA 01721"]}, "phone": "+15088819895", "display_phone": "(508) 881-9895", "distance": 4227.703628484311}, {"id": "isMcs5NCfcrKNyjPHqLylQ", "alias": "kfc-framingham-3", "name": "KFC", "image_url": "https://s3-media3.fl.yelpcdn.com/bphoto/Sl04ibeqH20LclB4afo5JQ/o.jpg", "is_closed": false, "url": "https://www.yelp.com/biz/kfc-framingham-3?adjust_creative=HdhkN5EEH6lAqE3kwhsHEQ&utm_campaign=yelp_api_v3&utm_medium=api_v3_business_search&utm_source=HdhkN5EEH6lAqE3kwhsHEQ", "review_count": 18, "categories": [{"alias": "hotdogs", "title": "Fast Food"}, {"alias": "chicken_wings", "title": "Chicken Wings"}, {"alias": "chickenshop", "title": "Chicken Shop"}], "rating": 1.5, "coordinates": {"latitude": 42.3003425226688, "longitude": -71.408446915358}, "transactions": ["pickup", "delivery"], "price": "$", "location": {"address1": "149 Cochituate Rd", "address2": "", "address3": "", "city": "Framingham", "zip_code": "01701", "country": "US", "state": "MA", "display_address": ["149 Cochituate Rd", "Framingham, MA 01701"]}, "phone": "+15088751011", "display_phone": "(508) 875-1011", "distance": 2452.694013049495}, {"id": "296PQjZoUisWZnJq-7ny8w", "alias": "station-5-grille-natick", "name": "Station 5 Grille", "image_url": "https://s3-media4.fl.yelpcdn.com/bphoto/VnEVCntodiQ4d0XKqq2Qrg/o.jpg", "is_closed": false, "url": "https://www.yelp.com/biz/station-5-grille-natick?adjust_creative=HdhkN5EEH6lAqE3kwhsHEQ&utm_campaign=yelp_api_v3&utm_medium=api_v3_business_search&utm_source=HdhkN5EEH6lAqE3kwhsHEQ", "review_count": 76, "categories": [{"alias": "breakfast_brunch", "title": "Breakfast & Brunch"}, {"alias": "tradamerican", "title": "American (Traditional)"}, {"alias": "hotdog", "title": "Hot Dogs"}], "rating": 3.5, "coordinates": {"latitude": 42.2822165, "longitude": -71.3778407}, "transactions": ["delivery"], "price": "$$", "location": {"address1": "17 Watson St", "address2": "", "address3": "Roche Bros Plaza", "city": "Natick", "zip_code": "01760", "country": "US", "state": "MA", "display_address": ["17 Watson St", "Roche Bros Plaza", "Natick, MA 01760"]}, "phone": "+15086535758", "display_phone": "(508) 653-5758", "distance": 3441.3783284115034}, {"id": "P9JN3ja1Lwes2LBD8RvcvA", "alias": "dave-and-busters-temporarily-closed-natick", "name": "Dave & Buster's - Temporarily Closed", "image_url": "https://s3-media1.fl.yelpcdn.com/bphoto/TjUZDdpeO8X_ZuknU4G-Zg/o.jpg", "is_closed": false, "url": "https://www.yelp.com/biz/dave-and-busters-temporarily-closed-natick?adjust_creative=HdhkN5EEH6lAqE3kwhsHEQ&utm_campaign=yelp_api_v3&utm_medium=api_v3_business_search&utm_source=HdhkN5EEH6lAqE3kwhsHEQ", "review_count": 32, "categories": [{"alias": "sportsbars", "title": "Sports Bars"}, {"alias": "tradamerican", "title": "American (Traditional)"}, {"alias": "arcades", "title": "Arcades"}], "rating": 3.0, "coordinates": {"latitude": 42.301017, "longitude": -71.381224}, "transactions": ["delivery"], "location": {"address1": "1235 Worcester St", "address2": "Ste 3201", "address3": null, "city": "Natick", "zip_code": "01760", "country": "US", "state": "MA", "display_address": ["1235 Worcester St", "Ste 3201", "Natick, MA 01760"]}, "phone": "+15088103650", "display_phone": "(508) 810-3650", "distance": 3948.382841255173}, {"id": "hQxTB9uYO9sna5B2y3ySzg", "alias": "melt-gelato-and-crepe-cafe-natick-6", "name": "Melt Gelato & Crepe Cafe", "image_url": "https://s3-media1.fl.yelpcdn.com/bphoto/6DtweUqRAJm_TuoYCWapzw/o.jpg", "is_closed": false, "url": "https://www.yelp.com/biz/melt-gelato-and-crepe-cafe-natick-6?adjust_creative=HdhkN5EEH6lAqE3kwhsHEQ&utm_campaign=yelp_api_v3&utm_medium=api_v3_business_search&utm_source=HdhkN5EEH6lAqE3kwhsHEQ", "review_count": 64, "categories": [{"alias": "creperies", "title": "Creperies"}, {"alias": "gelato", "title": "Gelato"}], "rating": 2.5, "coordinates": {"latitude": 42.30004, "longitude": -71.38508}, "transactions": ["pickup", "delivery"], "price": "$", "location": {"address1": "1245 Worcester St", "address2": "Ste 4075", "address3": "", "city": "Natick", "zip_code": "01760", "country": "US", "state": "MA", "display_address": ["1245 Worcester St", "Ste 4075", "Natick, MA 01760"]}, "phone": "+15086500071", "display_phone": "(508) 650-0071", "distance": 3743.6532716280144}, {"id": "S4tIPE9W0riEXeF7WXBtLA", "alias": "panera-bread-framingham", "name": "Panera Bread", "image_url": "https://s3-media1.fl.yelpcdn.com/bphoto/U5MvIajRjFtWzF6INPIWjA/o.jpg", "is_closed": false, "url": "https://www.yelp.com/biz/panera-bread-framingham?adjust_creative=HdhkN5EEH6lAqE3kwhsHEQ&utm_campaign=yelp_api_v3&utm_medium=api_v3_business_search&utm_source=HdhkN5EEH6lAqE3kwhsHEQ", "review_count": 100, "categories": [{"alias": "sandwiches", "title": "Sandwiches"}, {"alias": "salad", "title": "Salad"}, {"alias": "soup", "title": "Soup"}], "rating": 2.0, "coordinates": {"latitude": 42.3058394, "longitude": -71.3974357}, "transactions": ["delivery"], "price": "$$", "location": {"address1": "400 Cochituate Rd", "address2": "", "address3": "", "city": "Framingham", "zip_code": "01701", "country": "US", "state": "MA", "display_address": ["400 Cochituate Rd", "Framingham, MA 01701"]}, "phone": "+15086263636", "display_phone": "(508) 626-3636", "distance": 3418.024473902875}, {"id": "kFh6iqCugNZ3Qpy4xVKQvA", "alias": "libertys-pizza-of-natick-natick", "name": "Liberty's Pizza of Natick", "image_url": "https://s3-media2.fl.yelpcdn.com/bphoto/x7FdXrpdkmnejaA-0lhNVw/o.jpg", "is_closed": false, "url": "https://www.yelp.com/biz/libertys-pizza-of-natick-natick?adjust_creative=HdhkN5EEH6lAqE3kwhsHEQ&utm_campaign=yelp_api_v3&utm_medium=api_v3_business_search&utm_source=HdhkN5EEH6lAqE3kwhsHEQ", "review_count": 28, "categories": [{"alias": "sandwiches", "title": "Sandwiches"}, {"alias": "pizza", "title": "Pizza"}], "rating": 3.0, "coordinates": {"latitude": 42.2780931, "longitude": -71.3765414}, "transactions": ["delivery"], "price": "$", "location": {"address1": "2 D Mill St", "address2": "", "address3": "", "city": "Natick", "zip_code": "01760", "country": "US", "state": "MA", "display_address": ["2 D Mill St", "Natick, MA 01760"]}, "phone": "+15086539250", "display_phone": "(508) 653-9250", "distance": 3543.0340587568917}, {"id": "NKYvyFILOG0re8--wGU3VA", "alias": "taco-bell-natick-3", "name": "Taco Bell", "image_url": "https://s3-media2.fl.yelpcdn.com/bphoto/W2jRwqDpnI130pMwAIZCbg/o.jpg", "is_closed": false, "url": "https://www.yelp.com/biz/taco-bell-natick-3?adjust_creative=HdhkN5EEH6lAqE3kwhsHEQ&utm_campaign=yelp_api_v3&utm_medium=api_v3_business_search&utm_source=HdhkN5EEH6lAqE3kwhsHEQ", "review_count": 9, "categories": [{"alias": "tex-mex", "title": "Tex-Mex"}, {"alias": "hotdogs", "title": "Fast Food"}, {"alias": "mexican", "title": "Mexican"}], "rating": 1.5, "coordinates": {"latitude": 42.299296, "longitude": -71.38633}, "transactions": ["delivery"], "price": "$", "location": {"address1": "Natick Mall", "address2": "1245 Worchester Street", "address3": null, "city": "Natick", "zip_code": "01760", "country": "US", "state": "MA", "display_address": ["Natick Mall", "1245 Worchester Street", "Natick, MA 01760"]}, "phone": "+15087200304", "display_phone": "(508) 720-0304", "distance": 3497.9916545459864}, {"id": "ipVNZvKK64X1z_J5-sACuA", "alias": "honey-dew-donuts-ashland-2", "name": "Honey Dew Donuts", "image_url": "https://s3-media4.fl.yelpcdn.com/bphoto/S_yXJpMvDE88edqZviu0KQ/o.jpg", "is_closed": false, "url": "https://www.yelp.com/biz/honey-dew-donuts-ashland-2?adjust_creative=HdhkN5EEH6lAqE3kwhsHEQ&utm_campaign=yelp_api_v3&utm_medium=api_v3_business_search&utm_source=HdhkN5EEH6lAqE3kwhsHEQ", "review_count": 3, "categories": [{"alias": "coffee", "title": "Coffee & Tea"}, {"alias": "donuts", "title": "Donuts"}, {"alias": "sandwiches", "title": "Sandwiches"}], "rating": 3.5, "coordinates": {"latitude": 42.2447166442871, "longitude": -71.4301605224609}, "transactions": ["delivery"], "location": {"address1": "236 Pond St", "address2": null, "address3": null, "city": "Ashland", "zip_code": "01721", "country": "US", "state": "MA", "display_address": ["236 Pond St", "Ashland, MA 01721"]}, "phone": "+15088819227", "display_phone": "(508) 881-9227", "distance": 4026.1544017709302}, {"id": "eNF5P-dXUG9W1wULkMJTlg", "alias": "lifecafe-framingham", "name": "LifeCafe", "image_url": "", "is_closed": false, "url": "https://www.yelp.com/biz/lifecafe-framingham?adjust_creative=HdhkN5EEH6lAqE3kwhsHEQ&utm_campaign=yelp_api_v3&utm_medium=api_v3_business_search&utm_source=HdhkN5EEH6lAqE3kwhsHEQ", "review_count": 2, "categories": [{"alias": "cafes", "title": "Cafes"}], "rating": 3.0, "coordinates": {"latitude": 42.3133105568726, "longitude": -71.3943525776267}, "transactions": [], "location": {"address1": "Life Time Fitness", "address2": null, "address3": "490 Old Connecticut Path", "city": "Framingham", "zip_code": "01701", "country": "US", "state": "MA", "display_address": ["Life Time Fitness", "490 Old Connecticut Path", "Framingham, MA 01701"]}, "phone": "+18554305433", "display_phone": "(855) 430-5433", "distance": 4260.55059229778}, {"id": "a08_dFawBR5pqsQQbgs_iQ", "alias": "mcdonalds-framingham-3", "name": "McDonald's", "image_url": "https://s3-media3.fl.yelpcdn.com/bphoto/zTp0-Wri25irL989fILhJQ/o.jpg", "is_closed": false, "url": "https://www.yelp.com/biz/mcdonalds-framingham-3?adjust_creative=HdhkN5EEH6lAqE3kwhsHEQ&utm_campaign=yelp_api_v3&utm_medium=api_v3_business_search&utm_source=HdhkN5EEH6lAqE3kwhsHEQ", "review_count": 22, "categories": [{"alias": "hotdogs", "title": "Fast Food"}, {"alias": "coffee", "title": "Coffee & Tea"}, {"alias": "burgers", "title": "Burgers"}], "rating": 2.0, "coordinates": {"latitude": 42.298775, "longitude": -71.448158}, "transactions": ["delivery"], "price": "$", "location": {"address1": "1223 Worcester Rd", "address2": null, "address3": null, "city": "Framingham", "zip_code": "01701", "country": "US", "state": "MA", "display_address": ["1223 Worcester Rd", "Framingham, MA 01701"]}, "phone": "+15088759771", "display_phone": "(508) 875-9771", "distance": 3127.0767134999405}, {"id": "gSMv-dA1MTW69nkw9TkygQ", "alias": "mcdonalds-framingham-6", "name": "McDonald's", "image_url": "https://s3-media4.fl.yelpcdn.com/bphoto/wjGosFrzf86miMqrsjaP7w/o.jpg", "is_closed": false, "url": "https://www.yelp.com/biz/mcdonalds-framingham-6?adjust_creative=HdhkN5EEH6lAqE3kwhsHEQ&utm_campaign=yelp_api_v3&utm_medium=api_v3_business_search&utm_source=HdhkN5EEH6lAqE3kwhsHEQ", "review_count": 29, "categories": [{"alias": "burgers", "title": "Burgers"}, {"alias": "hotdogs", "title": "Fast Food"}, {"alias": "coffee", "title": "Coffee & Tea"}], "rating": 2.0, "coordinates": {"latitude": 42.3123212, "longitude": -71.4290647}, "transactions": [], "price": "$", "location": {"address1": "Mass Pike I-90 Service Area Milepost 115", "address2": "", "address3": "", "city": "Framingham", "zip_code": "01701", "country": "US", "state": "MA", "display_address": ["Mass Pike I-90 Service Area Milepost 115", "Framingham, MA 01701"]}, "phone": "+15088772023", "display_phone": "(508) 877-2023", "distance": 3675.285327782282}, {"id": "ig26rcioxxccQsdfN-7aCw", "alias": "subway-natick-5", "name": "Subway", "image_url": "https://s3-media2.fl.yelpcdn.com/bphoto/UY_DtBG4Z_slJWlJdRywCw/o.jpg", "is_closed": false, "url": "https://www.yelp.com/biz/subway-natick-5?adjust_creative=HdhkN5EEH6lAqE3kwhsHEQ&utm_campaign=yelp_api_v3&utm_medium=api_v3_business_search&utm_source=HdhkN5EEH6lAqE3kwhsHEQ", "review_count": 2, "categories": [{"alias": "sandwiches", "title": "Sandwiches"}], "rating": 2.5, "coordinates": {"latitude": 42.2825893690683, "longitude": -71.3927571023519}, "transactions": ["pickup", "delivery"], "price": "$", "location": {"address1": "251 W Central St", "address2": "", "address3": "", "city": "Natick", "zip_code": "01760", "country": "US", "state": "MA", "display_address": ["251 W Central St", "Natick, MA 01760"]}, "phone": "+15086500605", "display_phone": "(508) 650-0605", "distance": 2250.835103443633}, {"id": "X2cygLa9ycRw6eXkJLPa8Q", "alias": "mcdonalds-framingham-5", "name": "McDonald's", "image_url": "https://s3-media1.fl.yelpcdn.com/bphoto/haMwfoaeyBgKv3hm4rf8Gw/o.jpg", "is_closed": false, "url": "https://www.yelp.com/biz/mcdonalds-framingham-5?adjust_creative=HdhkN5EEH6lAqE3kwhsHEQ&utm_campaign=yelp_api_v3&utm_medium=api_v3_business_search&utm_source=HdhkN5EEH6lAqE3kwhsHEQ", "review_count": 46, "categories": [{"alias": "hotdogs", "title": "Fast Food"}, {"alias": "coffee", "title": "Coffee & Tea"}, {"alias": "burgers", "title": "Burgers"}], "rating": 1.5, "coordinates": {"latitude": 42.3028685932178, "longitude": -71.4008979406368}, "transactions": ["delivery"], "price": "$", "location": {"address1": "343 Cochituate Rd", "address2": "", "address3": "", "city": "Framingham", "zip_code": "01701", "country": "US", "state": "MA", "display_address": ["343 Cochituate Rd", "Framingham, MA 01701"]}, "phone": "+15088613869", "display_phone": "(508) 861-3869", "distance": 2986.8348930137777}, {"id": "-0k21zYv5z26RBcERdVa0Q", "alias": "tys-pies-framingham", "name": "Ty's Pies", "image_url": "", "is_closed": false, "url": "https://www.yelp.com/biz/tys-pies-framingham?adjust_creative=HdhkN5EEH6lAqE3kwhsHEQ&utm_campaign=yelp_api_v3&utm_medium=api_v3_business_search&utm_source=HdhkN5EEH6lAqE3kwhsHEQ", "review_count": 2, "categories": [{"alias": "pizza", "title": "Pizza"}], "rating": 2.0, "coordinates": {"latitude": 42.300634, "longitude": -71.408497}, "transactions": [], "location": {"address1": "149 Cochituate Rd", "address2": "", "address3": "", "city": "Framingham", "zip_code": "01701", "country": "US", "state": "MA", "display_address": ["149 Cochituate Rd", "Framingham, MA 01701"]}, "phone": "+15088757375", "display_phone": "(508) 875-7375", "distance": 2481.095841463815}, {"id": "Kw8RENF8iMPQg1OoiDx2wg", "alias": "master-wok-natick", "name": "Master Wok", "image_url": "https://s3-media2.fl.yelpcdn.com/bphoto/JzBUL59EhU6Y0DY1z3TIDw/o.jpg", "is_closed": false, "url": "https://www.yelp.com/biz/master-wok-natick?adjust_creative=HdhkN5EEH6lAqE3kwhsHEQ&utm_campaign=yelp_api_v3&utm_medium=api_v3_business_search&utm_source=HdhkN5EEH6lAqE3kwhsHEQ", "review_count": 15, "categories": [{"alias": "chinese", "title": "Chinese"}], "rating": 1.5, "coordinates": {"latitude": 42.300607, "longitude": -71.382378}, "transactions": ["delivery"], "price": "$", "location": {"address1": "1245 Worcester St", "address2": null, "address3": null, "city": "Natick", "zip_code": "01760", "country": "US", "state": "MA", "display_address": ["1245 Worcester St", "Natick, MA 01760"]}, "phone": "+15086550615", "display_phone": "(508) 655-0615", "distance": 3844.964862491189}, {"id": "gw5ExBEUXPgh9OVmCxbFIA", "alias": "the-burger-bar-by-wegmans-take-out-only-natick", "name": "The Burger Bar by Wegmans- Take Out Only", "image_url": "https://s3-media3.fl.yelpcdn.com/bphoto/U0qvQV-iqZdAxNp3tbOQ8Q/o.jpg", "is_closed": false, "url": "https://www.yelp.com/biz/the-burger-bar-by-wegmans-take-out-only-natick?adjust_creative=HdhkN5EEH6lAqE3kwhsHEQ&utm_campaign=yelp_api_v3&utm_medium=api_v3_business_search&utm_source=HdhkN5EEH6lAqE3kwhsHEQ", "review_count": 28, "categories": [{"alias": "burgers", "title": "Burgers"}, {"alias": "salad", "title": "Salad"}, {"alias": "sandwiches", "title": "Sandwiches"}], "rating": 3.0, "coordinates": {"latitude": 42.3019645868821, "longitude": -71.3861906155944}, "transactions": [], "location": {"address1": "1245 Worcester St", "address2": "", "address3": null, "city": "Natick", "zip_code": "01760", "country": "US", "state": "MA", "display_address": ["1245 Worcester St", "Natick, MA 01760"]}, "phone": "+15089600180", "display_phone": "(508) 960-0180", "distance": 3696.2445180400673}, {"id": "pprc63Opx1oA41H98Xi9EA", "alias": "sbarro-natick", "name": "Sbarro", "image_url": "https://s3-media2.fl.yelpcdn.com/bphoto/pbdfBEl0N0RoH7hQttOBaQ/o.jpg", "is_closed": false, "url": "https://www.yelp.com/biz/sbarro-natick?adjust_creative=HdhkN5EEH6lAqE3kwhsHEQ&utm_campaign=yelp_api_v3&utm_medium=api_v3_business_search&utm_source=HdhkN5EEH6lAqE3kwhsHEQ", "review_count": 18, "categories": [{"alias": "italian", "title": "Italian"}, {"alias": "pizza", "title": "Pizza"}], "rating": 2.0, "coordinates": {"latitude": 42.300623, "longitude": -71.382215}, "transactions": ["pickup", "delivery"], "price": "$", "location": {"address1": "1245 Worcester St", "address2": "Ste 2000", "address3": "", "city": "Natick", "zip_code": "01760", "country": "US", "state": "MA", "display_address": ["1245 Worcester St", "Ste 2000", "Natick, MA 01760"]}, "phone": "+15086505714", "display_phone": "(508) 650-5714", "distance": 3856.790747124326}, {"id": "CQ33Yz_aBOuivfEixfvgzg", "alias": "mcdonalds-ashland-16", "name": "McDonald's", "image_url": "https://s3-media1.fl.yelpcdn.com/bphoto/A_ZfXmWBDSOSX3bMzgehZw/o.jpg", "is_closed": false, "url": "https://www.yelp.com/biz/mcdonalds-ashland-16?adjust_creative=HdhkN5EEH6lAqE3kwhsHEQ&utm_campaign=yelp_api_v3&utm_medium=api_v3_business_search&utm_source=HdhkN5EEH6lAqE3kwhsHEQ", "review_count": 14, "categories": [{"alias": "hotdogs", "title": "Fast Food"}, {"alias": "burgers", "title": "Burgers"}, {"alias": "coffee", "title": "Coffee & Tea"}], "rating": 1.5, "coordinates": {"latitude": 42.24544, "longitude": -71.4311}, "transactions": ["delivery"], "price": "$", "location": {"address1": "225 Pond St", "address2": "", "address3": "", "city": "Ashland", "zip_code": "01721", "country": "US", "state": "MA", "display_address": ["225 Pond St", "Ashland, MA 01721"]}, "phone": "+15088817973", "display_phone": "(508) 881-7973", "distance": 3947.6848125293263}, {"id": "sXnt7QW2z4RbQ3cg2Q9WcQ", "alias": "mcdonalds-natick-4", "name": "McDonald's", "image_url": "https://s3-media4.fl.yelpcdn.com/bphoto/KiJsNb15x4c_8W2Ww-Kw2A/o.jpg", "is_closed": false, "url": "https://www.yelp.com/biz/mcdonalds-natick-4?adjust_creative=HdhkN5EEH6lAqE3kwhsHEQ&utm_campaign=yelp_api_v3&utm_medium=api_v3_business_search&utm_source=HdhkN5EEH6lAqE3kwhsHEQ", "review_count": 8, "categories": [{"alias": "burgers", "title": "Burgers"}, {"alias": "hotdogs", "title": "Fast Food"}, {"alias": "coffee", "title": "Coffee & Tea"}], "rating": 2.0, "coordinates": {"latitude": 42.3005937, "longitude": -71.3825277}, "transactions": ["delivery"], "price": "$", "location": {"address1": "1245 Worcester St", "address2": "", "address3": "", "city": "Natick", "zip_code": "01760", "country": "US", "state": "MA", "display_address": ["1245 Worcester St", "Natick, MA 01760"]}, "phone": "+15085450762", "display_phone": "(508) 545-0762", "distance": 3834.206503234662}]