[{"id": "I9Oq7S6h07zXoRGMzEnD2w", "alias": "110-grill-berlin", "name": "110 Grill", "image_url": "https://s3-media2.fl.yelpcdn.com/bphoto/pNgHbDTAqnuEyd6mP3pWAA/o.jpg", "is_closed": false, "url": "https://www.yelp.com/biz/110-grill-berlin?adjust_creative=ywY5UnLZrNrRl2b93Ruy_g&utm_campaign=yelp_api_v3&utm_medium=api_v3_business_search&utm_source=ywY5UnLZrNrRl2b93Ruy_g", "review_count": 304, "categories": [{"alias": "newamerican", "title": "American (New)"}, {"alias": "cocktailbars", "title": "Cocktail Bars"}], "rating": 4.0, "coordinates": {"latitude": 42.394819, "longitude": -71.600716}, "transactions": ["delivery"], "price": "$$", "location": {"address1": "60 Highland Commons E", "address2": null, "address3": "", "city": "Berlin", "zip_code": "01503", "country": "US", "state": "MA", "display_address": ["60 Highland Commons E", "Berlin, MA 01503"]}, "phone": "+19785624610", "display_phone": "(978) 562-4610", "distance": 2631.322355887441}, {"id": "N6P3JYfc4qu1V6y-IYhquw", "alias": "hillside-grill-northborough", "name": "Hillside Grill", "image_url": "https://s3-media4.fl.yelpcdn.com/bphoto/CuIhobPLeie0q9ZUFp9-Mg/o.jpg", "is_closed": false, "url": "https://www.yelp.com/biz/hillside-grill-northborough?adjust_creative=ywY5UnLZrNrRl2b93Ruy_g&utm_campaign=yelp_api_v3&utm_medium=api_v3_business_search&utm_source=ywY5UnLZrNrRl2b93Ruy_g", "review_count": 257, "categories": [{"alias": "greek", "title": "Greek"}, {"alias": "tradamerican", "title": "American (Traditional)"}], "rating": 5.0, "coordinates": {"latitude": 42.319304, "longitude": -71.647383}, "transactions": ["delivery"], "price": "$", "location": {"address1": "73 W Main St", "address2": "", "address3": "", "city": "Northborough", "zip_code": "01532", "country": "US", "state": "MA", "display_address": ["73 W Main St", "Northborough, MA 01532"]}, "phone": "+15083516060", "display_phone": "(508) 351-6060", "distance": 7386.674614104293}, {"id": "RJaQy9ffpdjtWC1Bu5Tm0w", "alias": "rail-trail-flatbread-hudson", "name": "Rail Trail Flatbread", "image_url": "https://s3-media1.fl.yelpcdn.com/bphoto/bu7Syz0What7fsKoEBckKg/o.jpg", "is_closed": false, "url": "https://www.yelp.com/biz/rail-trail-flatbread-hudson?adjust_creative=ywY5UnLZrNrRl2b93Ruy_g&utm_campaign=yelp_api_v3&utm_medium=api_v3_business_search&utm_source=ywY5UnLZrNrRl2b93Ruy_g", "review_count": 701, "categories": [{"alias": "bars", "title": "Bars"}, {"alias": "pizza", "title": "Pizza"}, {"alias": "newamerican", "title": "American (New)"}], "rating": 4.0, "coordinates": {"latitude": 42.391135, "longitude": -71.569192}, "transactions": ["delivery"], "price": "$$", "location": {"address1": "33 Main St", "address2": "", "address3": "", "city": "Hudson", "zip_code": "01749", "country": "US", "state": "MA", "display_address": ["33 Main St", "Hudson, MA 01749"]}, "phone": "+19782933552", "display_phone": "(978) 293-3552", "distance": 5008.098918839866}, {"id": "qoPzeBjIoLcfn573en7YBQ", "alias": "clintons-bar-and-grille-clinton", "name": "Clintons Bar & Grille", "image_url": "https://s3-media3.fl.yelpcdn.com/bphoto/V_aVgskGjBmwYUCeztOmAw/o.jpg", "is_closed": false, "url": "https://www.yelp.com/biz/clintons-bar-and-grille-clinton?adjust_creative=ywY5UnLZrNrRl2b93Ruy_g&utm_campaign=yelp_api_v3&utm_medium=api_v3_business_search&utm_source=ywY5UnLZrNrRl2b93Ruy_g", "review_count": 248, "categories": [{"alias": "newamerican", "title": "American (New)"}, {"alias": "bars", "title": "Bars"}], "rating": 4.0, "coordinates": {"latitude": 42.416574337148, "longitude": -71.6845641865082}, "transactions": ["delivery"], "price": "$$", "location": {"address1": "27 High St", "address2": "", "address3": "", "city": "Clinton", "zip_code": "01510", "country": "US", "state": "MA", "display_address": ["27 High St", "Clinton, MA 01510"]}, "phone": "+19785987002", "display_phone": "(978) 598-7002", "distance": 5766.253340627737}, {"id": "56wq36VWvw-qIBEmlISVlQ", "alias": "the-fix-burger-bar-marlborough-2", "name": "The Fix Burger Bar", "image_url": "https://s3-media2.fl.yelpcdn.com/bphoto/uy0ux9iJeRaaPm6LeOvRmA/o.jpg", "is_closed": false, "url": "https://www.yelp.com/biz/the-fix-burger-bar-marlborough-2?adjust_creative=ywY5UnLZrNrRl2b93Ruy_g&utm_campaign=yelp_api_v3&utm_medium=api_v3_business_search&utm_source=ywY5UnLZrNrRl2b93Ruy_g", "review_count": 43, "categories": [{"alias": "burgers", "title": "Burgers"}, {"alias": "beerbar", "title": "Beer Bar"}, {"alias": "cocktailbars", "title": "Cocktail Bars"}], "rating": 3.5, "coordinates": {"latitude": 42.342694, "longitude": -71.566599}, "transactions": ["delivery", "pickup"], "price": "$$", "location": {"address1": "139 Lakeside Ave", "address2": "", "address3": null, "city": "Marlborough", "zip_code": "01752", "country": "US", "state": "MA", "display_address": ["139 Lakeside Ave", "Marlborough, MA 01752"]}, "phone": "+15085731819", "display_phone": "(508) 573-1819", "distance": 6943.0826462478235}, {"id": "KtLclJ24auqjdb97fd9Atw", "alias": "flat-penny-bar-and-grill-berlin", "name": "Flat Penny Bar & Grill", "image_url": "https://s3-media3.fl.yelpcdn.com/bphoto/y2gXFAqJPe94YWXT1QJXtw/o.jpg", "is_closed": false, "url": "https://www.yelp.com/biz/flat-penny-bar-and-grill-berlin?adjust_creative=ywY5UnLZrNrRl2b93Ruy_g&utm_campaign=yelp_api_v3&utm_medium=api_v3_business_search&utm_source=ywY5UnLZrNrRl2b93Ruy_g", "review_count": 65, "categories": [{"alias": "bars", "title": "Bars"}, {"alias": "tradamerican", "title": "American (Traditional)"}], "rating": 3.0, "coordinates": {"latitude": 42.39181, "longitude": -71.66104}, "transactions": ["delivery"], "price": "$$", "location": {"address1": "263 W St", "address2": "", "address3": "", "city": "Berlin", "zip_code": "01503", "country": "US", "state": "MA", "display_address": ["263 W St", "Berlin, MA 01503"]}, "phone": "+19784150150", "display_phone": "(978) 415-0150", "distance": 2718.62859882241}, {"id": "rxaBP2HcLbF8JENqCS2idg", "alias": "kith-and-kin-hudson", "name": "Kith And Kin", "image_url": "https://s3-media1.fl.yelpcdn.com/bphoto/0eb241LqFNgLcb5Mx6Qz6A/o.jpg", "is_closed": false, "url": "https://www.yelp.com/biz/kith-and-kin-hudson?adjust_creative=ywY5UnLZrNrRl2b93Ruy_g&utm_campaign=yelp_api_v3&utm_medium=api_v3_business_search&utm_source=ywY5UnLZrNrRl2b93Ruy_g", "review_count": 100, "categories": [{"alias": "beer_and_wine", "title": "Beer, Wine & Spirits"}, {"alias": "breakfast_brunch", "title": "Breakfast & Brunch"}, {"alias": "seafood", "title": "Seafood"}], "rating": 4.5, "coordinates": {"latitude": 42.389864, "longitude": -71.570387}, "transactions": ["delivery"], "price": "$$", "location": {"address1": "40 Washington St", "address2": "", "address3": null, "city": "Hudson", "zip_code": "01749", "country": "US", "state": "MA", "display_address": ["40 Washington St", "Hudson, MA 01749"]}, "phone": "+19785623800", "display_phone": "(978) 562-3800", "distance": 4891.584570122312}, {"id": "wb6fUD_E-WOzxByyrmszLQ", "alias": "js-restaurant-at-nashoba-valley-winery-bolton", "name": "J's Restaurant at Nashoba Valley Winery", "image_url": "https://s3-media2.fl.yelpcdn.com/bphoto/bM8lKp14G8BEpPUfXTJwdw/o.jpg", "is_closed": false, "url": "https://www.yelp.com/biz/js-restaurant-at-nashoba-valley-winery-bolton?adjust_creative=ywY5UnLZrNrRl2b93Ruy_g&utm_campaign=yelp_api_v3&utm_medium=api_v3_business_search&utm_source=ywY5UnLZrNrRl2b93Ruy_g", "review_count": 96, "categories": [{"alias": "newamerican", "title": "American (New)"}, {"alias": "brewpubs", "title": "Brewpubs"}], "rating": 4.0, "coordinates": {"latitude": 42.4305992126465, "longitude": -71.616943359375}, "transactions": [], "price": "$$", "location": {"address1": "100 Wattaquadoc Hill Rd", "address2": "", "address3": "", "city": "Bolton", "zip_code": "01740", "country": "US", "state": "MA", "display_address": ["100 Wattaquadoc Hill Rd", "Bolton, MA 01740"]}, "phone": "+19787799816", "display_phone": "(978) 779-9816", "distance": 5238.87014415937}, {"id": "EWbj_GA8cnmSgijP8RP4XQ", "alias": "evviva-trattoria-marlborough", "name": "Evviva Trattoria", "image_url": "https://s3-media4.fl.yelpcdn.com/bphoto/wCuhNLgauSpWSHCLQb3uiw/o.jpg", "is_closed": false, "url": "https://www.yelp.com/biz/evviva-trattoria-marlborough?adjust_creative=ywY5UnLZrNrRl2b93Ruy_g&utm_campaign=yelp_api_v3&utm_medium=api_v3_business_search&utm_source=ywY5UnLZrNrRl2b93Ruy_g", "review_count": 127, "categories": [{"alias": "italian", "title": "Italian"}, {"alias": "pizza", "title": "Pizza"}, {"alias": "sandwiches", "title": "Sandwiches"}], "rating": 4.0, "coordinates": {"latitude": 42.33824, "longitude": -71.590562}, "transactions": ["delivery"], "price": "$$", "location": {"address1": "142 Apex Dr", "address2": null, "address3": "", "city": "Marlborough", "zip_code": "01752", "country": "US", "state": "MA", "display_address": ["142 Apex Dr", "Marlborough, MA 01752"]}, "phone": "+17748432599", "display_phone": "(774) 843-2599", "distance": 6047.95301568233}, {"id": "PxdW-SgIRK8kBzvZhtlliw", "alias": "zaytoon-clinton", "name": "Zaytoon", "image_url": "https://s3-media3.fl.yelpcdn.com/bphoto/nTh60be1jP2J6GNPtmS4QA/o.jpg", "is_closed": false, "url": "https://www.yelp.com/biz/zaytoon-clinton?adjust_creative=ywY5UnLZrNrRl2b93Ruy_g&utm_campaign=yelp_api_v3&utm_medium=api_v3_business_search&utm_source=ywY5UnLZrNrRl2b93Ruy_g", "review_count": 162, "categories": [{"alias": "mediterranean", "title": "Mediterranean"}, {"alias": "buffets", "title": "Buffets"}], "rating": 4.5, "coordinates": {"latitude": 42.4173321237602, "longitude": -71.6849050981938}, "transactions": ["delivery"], "price": "$$", "location": {"address1": "72B High St", "address2": "", "address3": "", "city": "Clinton", "zip_code": "01510", "country": "US", "state": "MA", "display_address": ["72B High St", "Clinton, MA 01510"]}, "phone": "+19787334258", "display_phone": "(978) 733-4258", "distance": 5840.663321001098}, {"id": "XdtVjkDIqS67f504WDjGOg", "alias": "110-grill-marlborough-3", "name": "110 Grill", "image_url": "https://s3-media2.fl.yelpcdn.com/bphoto/VQaXDUaLHN2Wpy6s0bvoCg/o.jpg", "is_closed": false, "url": "https://www.yelp.com/biz/110-grill-marlborough-3?adjust_creative=ywY5UnLZrNrRl2b93Ruy_g&utm_campaign=yelp_api_v3&utm_medium=api_v3_business_search&utm_source=ywY5UnLZrNrRl2b93Ruy_g", "review_count": 207, "categories": [{"alias": "newamerican", "title": "American (New)"}, {"alias": "tradamerican", "title": "American (Traditional)"}], "rating": 4.0, "coordinates": {"latitude": 42.3380408150094, "longitude": -71.589800754303}, "transactions": [], "price": "$$", "location": {"address1": "115 Apex Dr", "address2": "Ste A", "address3": "", "city": "Marlborough", "zip_code": "01752", "country": "US", "state": "MA", "display_address": ["115 Apex Dr", "Ste A", "Marlborough, MA 01752"]}, "phone": "+15082512027", "display_phone": "(508) 251-2027", "distance": 6099.968542819102}, {"id": "gCtPmZeEoTNJzikJumZbJw", "alias": "firehouse-seafood-hudson", "name": "Firehouse Seafood", "image_url": "https://s3-media2.fl.yelpcdn.com/bphoto/OJP6FzRmZi1Z3Hb-9zArFA/o.jpg", "is_closed": false, "url": "https://www.yelp.com/biz/firehouse-seafood-hudson?adjust_creative=ywY5UnLZrNrRl2b93Ruy_g&utm_campaign=yelp_api_v3&utm_medium=api_v3_business_search&utm_source=ywY5UnLZrNrRl2b93Ruy_g", "review_count": 10, "categories": [{"alias": "seafood", "title": "Seafood"}, {"alias": "portuguese", "title": "Portuguese"}], "rating": 4.5, "coordinates": {"latitude": 42.3920288085938, "longitude": -71.5626068115234}, "transactions": ["delivery"], "location": {"address1": "5 High St", "address2": "", "address3": "", "city": "Hudson", "zip_code": "01749", "country": "US", "state": "MA", "display_address": ["5 High St", "Hudson, MA 01749"]}, "phone": "+19785681867", "display_phone": "(978) 568-1867", "distance": 5555.234314990141}, {"id": "PwFR5tONXgNN6T5MBvVjqQ", "alias": "fireflys-bbq-marlborough", "name": "Firefly's  BBQ", "image_url": "https://s3-media3.fl.yelpcdn.com/bphoto/EYgxpmZfhmJqvVubmJMWhA/o.jpg", "is_closed": false, "url": "https://www.yelp.com/biz/fireflys-bbq-marlborough?adjust_creative=ywY5UnLZrNrRl2b93Ruy_g&utm_campaign=yelp_api_v3&utm_medium=api_v3_business_search&utm_source=ywY5UnLZrNrRl2b93Ruy_g", "review_count": 556, "categories": [{"alias": "bbq", "title": "Barbeque"}, {"alias": "sportsbars", "title": "Sports Bars"}, {"alias": "musicvenues", "title": "Music Venues"}], "rating": 4.0, "coordinates": {"latitude": 42.3528739, "longitude": -71.5307619}, "transactions": ["delivery"], "price": "$$", "location": {"address1": "350 E Main St", "address2": "", "address3": "", "city": "Marlborough", "zip_code": "01752", "country": "US", "state": "MA", "display_address": ["350 E Main St", "Marlborough, MA 01752"]}, "phone": "+15083578883", "display_phone": "(508) 357-8883", "distance": 8835.87232515592}, {"id": "imUHsZkJ_aFi3N4nfZQIeg", "alias": "pruller-restaurant-marlborough", "name": "Pruller Restaurant", "image_url": "https://s3-media2.fl.yelpcdn.com/bphoto/uKtmFo6CiRAPvc7MS9Ue2w/o.jpg", "is_closed": false, "url": "https://www.yelp.com/biz/pruller-restaurant-marlborough?adjust_creative=ywY5UnLZrNrRl2b93Ruy_g&utm_campaign=yelp_api_v3&utm_medium=api_v3_business_search&utm_source=ywY5UnLZrNrRl2b93Ruy_g", "review_count": 239, "categories": [{"alias": "brazilian", "title": "Brazilian"}, {"alias": "buffets", "title": "Buffets"}, {"alias": "steak", "title": "Steakhouses"}], "rating": 4.5, "coordinates": {"latitude": 42.3444159543254, "longitude": -71.5622836536462}, "transactions": [], "price": "$$", "location": {"address1": "514 Lincoln St", "address2": "", "address3": "", "city": "Marlborough", "zip_code": "01752", "country": "US", "state": "MA", "display_address": ["514 Lincoln St", "Marlborough, MA 01752"]}, "phone": "+15084808825", "display_phone": "(508) 480-8825", "distance": 7089.120352718782}, {"id": "lmMop3BDemYMMAGaGk_hDg", "alias": "horseshoe-pub-and-restaurant-hudson", "name": "Horseshoe Pub & Restaurant", "image_url": "https://s3-media4.fl.yelpcdn.com/bphoto/QlS7m9L8b6FmohFeO5dGgQ/o.jpg", "is_closed": false, "url": "https://www.yelp.com/biz/horseshoe-pub-and-restaurant-hudson?adjust_creative=ywY5UnLZrNrRl2b93Ruy_g&utm_campaign=yelp_api_v3&utm_medium=api_v3_business_search&utm_source=ywY5UnLZrNrRl2b93Ruy_g", "review_count": 333, "categories": [{"alias": "pubs", "title": "Pubs"}, {"alias": "tradamerican", "title": "American (Traditional)"}], "rating": 3.5, "coordinates": {"latitude": 42.390293, "longitude": -71.567642}, "transactions": ["delivery"], "price": "$$", "location": {"address1": "29 South St", "address2": "", "address3": "", "city": "Hudson", "zip_code": "01749", "country": "US", "state": "MA", "display_address": ["29 South St", "Hudson, MA 01749"]}, "phone": "+19785681265", "display_phone": "(978) 568-1265", "distance": 5132.301612912657}, {"id": "YQ-UAwXKU5ktO0ZCA1Hr1A", "alias": "mooyah-burgers-fries-and-shakes-hudson-2", "name": "MOOYAH Burgers, Fries & Shakes", "image_url": "https://s3-media4.fl.yelpcdn.com/bphoto/128G1trh07RHZSbF9fQZSg/o.jpg", "is_closed": false, "url": "https://www.yelp.com/biz/mooyah-burgers-fries-and-shakes-hudson-2?adjust_creative=ywY5UnLZrNrRl2b93Ruy_g&utm_campaign=yelp_api_v3&utm_medium=api_v3_business_search&utm_source=ywY5UnLZrNrRl2b93Ruy_g", "review_count": 93, "categories": [{"alias": "burgers", "title": "Burgers"}, {"alias": "icecream", "title": "Ice Cream & Frozen Yogurt"}, {"alias": "hotdog", "title": "Hot Dogs"}], "rating": 3.5, "coordinates": {"latitude": 42.392368, "longitude": -71.598199}, "transactions": [], "price": "$$", "location": {"address1": "48 Highland Commons E", "address2": "Ste 100", "address3": "", "city": "Hudson", "zip_code": "01749", "country": "US", "state": "MA", "display_address": ["48 Highland Commons E", "Ste 100", "Hudson, MA 01749"]}, "phone": "+19782613042", "display_phone": "(978) 261-3042", "distance": 2717.84788541353}, {"id": "Eyk36pmY66JF_oVNHsXXSw", "alias": "on-the-trax-berlin-berlin", "name": "On the Trax - Berlin", "image_url": "https://s3-media4.fl.yelpcdn.com/bphoto/ZTiz5t2uA8Rew8445sX5qw/o.jpg", "is_closed": false, "url": "https://www.yelp.com/biz/on-the-trax-berlin-berlin?adjust_creative=ywY5UnLZrNrRl2b93Ruy_g&utm_campaign=yelp_api_v3&utm_medium=api_v3_business_search&utm_source=ywY5UnLZrNrRl2b93Ruy_g", "review_count": 5, "categories": [{"alias": "salad", "title": "Salad"}, {"alias": "pizza", "title": "Pizza"}, {"alias": "sandwiches", "title": "Sandwiches"}], "rating": 3.5, "coordinates": {"latitude": 42.3918037181592, "longitude": -71.6610359027982}, "transactions": [], "location": {"address1": "263 West St", "address2": "", "address3": null, "city": "Berlin", "zip_code": "01503", "country": "US", "state": "MA", "display_address": ["263 West St", "Berlin, MA 01503"]}, "phone": "+19784150244", "display_phone": "(978) 415-0244", "distance": 2718.6249643565056}, {"id": "O1F_aiyOhgqLOqvi-43EQQ", "alias": "kindles-wood-fired-pizzeria-marlborough-9", "name": "Kindles Wood Fired Pizzeria", "image_url": "https://s3-media3.fl.yelpcdn.com/bphoto/jy7x9EVORP8a5Gh1BzYK1w/o.jpg", "is_closed": false, "url": "https://www.yelp.com/biz/kindles-wood-fired-pizzeria-marlborough-9?adjust_creative=ywY5UnLZrNrRl2b93Ruy_g&utm_campaign=yelp_api_v3&utm_medium=api_v3_business_search&utm_source=ywY5UnLZrNrRl2b93Ruy_g", "review_count": 228, "categories": [{"alias": "pizza", "title": "Pizza"}, {"alias": "italian", "title": "Italian"}, {"alias": "gluten_free", "title": "Gluten-Free"}], "rating": 4.5, "coordinates": {"latitude": 42.351787, "longitude": -71.5296323}, "transactions": ["delivery"], "price": "$$", "location": {"address1": "10 Boston Post Rd E", "address2": "", "address3": "", "city": "Marlborough", "zip_code": "01752", "country": "US", "state": "MA", "display_address": ["10 Boston Post Rd E", "Marlborough, MA 01752"]}, "phone": "+15082510077", "display_phone": "(508) 251-0077", "distance": 8948.999362144055}, {"id": "z_Lka1xjWHNhnB_KQylSIg", "alias": "feng-japanese-fusion-cuisine-hudson", "name": "Feng Japanese Fusion Cuisine", "image_url": "https://s3-media3.fl.yelpcdn.com/bphoto/zG2_L_D5V3FfvOXeGPt7-A/o.jpg", "is_closed": false, "url": "https://www.yelp.com/biz/feng-japanese-fusion-cuisine-hudson?adjust_creative=ywY5UnLZrNrRl2b93Ruy_g&utm_campaign=yelp_api_v3&utm_medium=api_v3_business_search&utm_source=ywY5UnLZrNrRl2b93Ruy_g", "review_count": 152, "categories": [{"alias": "japanese", "title": "Japanese"}, {"alias": "sushi", "title": "Sushi Bars"}], "rating": 4.0, "coordinates": {"latitude": 42.3815613, "longitude": -71.5686035}, "transactions": ["delivery", "pickup"], "price": "$$", "location": {"address1": "191 Washington St", "address2": "", "address3": "", "city": "Hudson", "zip_code": "01749", "country": "US", "state": "MA", "display_address": ["191 Washington St", "Hudson, MA 01749"]}, "phone": "+19785688885", "display_phone": "(978) 568-8885", "distance": 5008.180112209315}, {"id": "RsyoosPMnIEH8b8Cw6nGhQ", "alias": "double-ts-tavern-marlborough", "name": "Double Ts Tavern", "image_url": "https://s3-media3.fl.yelpcdn.com/bphoto/hBt8Jcf8p9hzaAfW1d9y7w/o.jpg", "is_closed": false, "url": "https://www.yelp.com/biz/double-ts-tavern-marlborough?adjust_creative=ywY5UnLZrNrRl2b93Ruy_g&utm_campaign=yelp_api_v3&utm_medium=api_v3_business_search&utm_source=ywY5UnLZrNrRl2b93Ruy_g", "review_count": 14, "categories": [{"alias": "pubs", "title": "Pubs"}, {"alias": "tradamerican", "title": "American (Traditional)"}], "rating": 4.5, "coordinates": {"latitude": 42.34378, "longitude": -71.54676}, "transactions": [], "location": {"address1": "", "address2": null, "address3": "", "city": "Marlborough", "zip_code": "01752", "country": "US", "state": "MA", "display_address": ["Marlborough, MA 01752"]}, "phone": "+15084850007", "display_phone": "(508) 485-0007", "distance": 8657.882072943123}, {"id": "CP2KKomAn9FqQNc7sLTg0A", "alias": "casta-diva-restaurant-northborough", "name": "Casta Diva Restaurant", "image_url": "https://s3-media4.fl.yelpcdn.com/bphoto/ZN4ulDhxli_5d5qtG1T8EQ/o.jpg", "is_closed": false, "url": "https://www.yelp.com/biz/casta-diva-restaurant-northborough?adjust_creative=ywY5UnLZrNrRl2b93Ruy_g&utm_campaign=yelp_api_v3&utm_medium=api_v3_business_search&utm_source=ywY5UnLZrNrRl2b93Ruy_g", "review_count": 63, "categories": [{"alias": "italian", "title": "Italian"}], "rating": 3.5, "coordinates": {"latitude": 42.3412648878263, "longitude": -71.6242152007327}, "transactions": ["delivery"], "location": {"address1": "35 Solomon Pond Rd", "address2": "", "address3": null, "city": "Northborough", "zip_code": "01532", "country": "US", "state": "MA", "display_address": ["35 Solomon Pond Rd", "Northborough, MA 01532"]}, "phone": "+15084662080", "display_phone": "(508) 466-2080", "distance": 4816.359779915668}, {"id": "q2gxkZ7FbSTN5aWslQn_Gg", "alias": "thairiffic-marlborough-2", "name": "Thairiffic", "image_url": "https://s3-media4.fl.yelpcdn.com/bphoto/7AbIMYeJ86B83z_iSC_37Q/o.jpg", "is_closed": false, "url": "https://www.yelp.com/biz/thairiffic-marlborough-2?adjust_creative=ywY5UnLZrNrRl2b93Ruy_g&utm_campaign=yelp_api_v3&utm_medium=api_v3_business_search&utm_source=ywY5UnLZrNrRl2b93Ruy_g", "review_count": 104, "categories": [{"alias": "thai", "title": "Thai"}, {"alias": "asianfusion", "title": "Asian Fusion"}, {"alias": "bars", "title": "Bars"}], "rating": 4.0, "coordinates": {"latitude": 42.3467838, "longitude": -71.5472243}, "transactions": ["delivery", "pickup"], "price": "$$", "location": {"address1": "128 Main St", "address2": null, "address3": "", "city": "Marlborough", "zip_code": "01752", "country": "US", "state": "MA", "display_address": ["128 Main St", "Marlborough, MA 01752"]}, "phone": "+15084856900", "display_phone": "(508) 485-6900", "distance": 7948.278331741937}, {"id": "Rg9n9d7XTfK0L3qC_1N3sg", "alias": "tavern-in-the-square-northborough", "name": "Tavern In The Square", "image_url": "https://s3-media2.fl.yelpcdn.com/bphoto/3m1xOPqifPNpUlU6omMqnQ/o.jpg", "is_closed": false, "url": "https://www.yelp.com/biz/tavern-in-the-square-northborough?adjust_creative=ywY5UnLZrNrRl2b93Ruy_g&utm_campaign=yelp_api_v3&utm_medium=api_v3_business_search&utm_source=ywY5UnLZrNrRl2b93Ruy_g", "review_count": 216, "categories": [{"alias": "newamerican", "title": "American (New)"}, {"alias": "sportsbars", "title": "Sports Bars"}], "rating": 3.5, "coordinates": {"latitude": 42.32819, "longitude": -71.61737}, "transactions": ["delivery"], "price": "$$", "location": {"address1": "318 Main St", "address2": null, "address3": "", "city": "Northborough", "zip_code": "01532", "country": "US", "state": "MA", "display_address": ["318 Main St", "Northborough, MA 01532"]}, "phone": "+15083933111", "display_phone": "(508) 393-3111", "distance": 6331.154068188177}, {"id": "SzVKdGQbD957NCN8d5PqGA", "alias": "linguines-italian-eatery-marlborough", "name": "Linguine's Italian Eatery", "image_url": "https://s3-media3.fl.yelpcdn.com/bphoto/BE-fPiiJOAZmurDCZfHNxg/o.jpg", "is_closed": false, "url": "https://www.yelp.com/biz/linguines-italian-eatery-marlborough?adjust_creative=ywY5UnLZrNrRl2b93Ruy_g&utm_campaign=yelp_api_v3&utm_medium=api_v3_business_search&utm_source=ywY5UnLZrNrRl2b93Ruy_g", "review_count": 239, "categories": [{"alias": "italian", "title": "Italian"}, {"alias": "seafood", "title": "Seafood"}, {"alias": "sandwiches", "title": "Sandwiches"}], "rating": 3.5, "coordinates": {"latitude": 42.3361036, "longitude": -71.5959676}, "transactions": ["delivery"], "price": "$$", "location": {"address1": "350 Boston Post Rd W", "address2": "", "address3": "", "city": "Marlborough", "zip_code": "01752", "country": "US", "state": "MA", "display_address": ["350 Boston Post Rd W", "Marlborough, MA 01752"]}, "phone": "+15084819747", "display_phone": "(508) 481-9747", "distance": 6037.500720151755}, {"id": "5ZyMXLYwM6vONKbsaam9cw", "alias": "mirchi-nation-marlborough-3", "name": "Mirchi Nation", "image_url": "https://s3-media4.fl.yelpcdn.com/bphoto/2YJLvim3u4lEciCAC2Syeg/o.jpg", "is_closed": false, "url": "https://www.yelp.com/biz/mirchi-nation-marlborough-3?adjust_creative=ywY5UnLZrNrRl2b93Ruy_g&utm_campaign=yelp_api_v3&utm_medium=api_v3_business_search&utm_source=ywY5UnLZrNrRl2b93Ruy_g", "review_count": 120, "categories": [{"alias": "indpak", "title": "Indian"}, {"alias": "buffets", "title": "Buffets"}], "rating": 4.0, "coordinates": {"latitude": 42.3389753, "longitude": -71.5902808}, "transactions": ["delivery", "pickup"], "price": "$$", "location": {"address1": "197H Boston Post Rd W", "address2": "", "address3": "", "city": "Marlborough", "zip_code": "01752", "country": "US", "state": "MA", "display_address": ["197H Boston Post Rd W", "Marlborough, MA 01752"]}, "phone": "+15083576551", "display_phone": "(508) 357-6551", "distance": 5824.168535252007}, {"id": "PqD46BFop0XAYvprth44bg", "alias": "riverview-lounge-the-hudson-portuguese-club-hudson", "name": "Riverview Lounge @ the Hudson Portuguese Club", "image_url": "https://s3-media2.fl.yelpcdn.com/bphoto/zpvkjceStk0uhYeP-DP41w/o.jpg", "is_closed": false, "url": "https://www.yelp.com/biz/riverview-lounge-the-hudson-portuguese-club-hudson?adjust_creative=ywY5UnLZrNrRl2b93Ruy_g&utm_campaign=yelp_api_v3&utm_medium=api_v3_business_search&utm_source=ywY5UnLZrNrRl2b93Ruy_g", "review_count": 2, "categories": [{"alias": "portuguese", "title": "Portuguese"}, {"alias": "lounges", "title": "Lounges"}], "rating": 5.0, "coordinates": {"latitude": 42.38528, "longitude": -71.57913}, "transactions": ["delivery"], "price": "$$", "location": {"address1": "13 Port St", "address2": "", "address3": "", "city": "Hudson", "zip_code": "01749", "country": "US", "state": "MA", "display_address": ["13 Port St", "Hudson, MA 01749"]}, "phone": "+19785671929", "display_phone": "(978) 567-1929", "distance": 4165.280332978522}, {"id": "LXtHEXrV-HqLtBGIQ6g2gQ", "alias": "old-school-house-pub-and-restaurant-hudson", "name": "Old School House Pub & Restaurant", "image_url": "https://s3-media2.fl.yelpcdn.com/bphoto/lcebaDLvn-rUkDC9bK680A/o.jpg", "is_closed": false, "url": "https://www.yelp.com/biz/old-school-house-pub-and-restaurant-hudson?adjust_creative=ywY5UnLZrNrRl2b93Ruy_g&utm_campaign=yelp_api_v3&utm_medium=api_v3_business_search&utm_source=ywY5UnLZrNrRl2b93Ruy_g", "review_count": 69, "categories": [{"alias": "portuguese", "title": "Portuguese"}, {"alias": "pubs", "title": "Pubs"}], "rating": 3.5, "coordinates": {"latitude": 42.3894449, "longitude": -71.5697297}, "transactions": ["delivery"], "price": "$$", "location": {"address1": "17 School St", "address2": "", "address3": "", "city": "Hudson", "zip_code": "01749", "country": "US", "state": "MA", "display_address": ["17 School St", "Hudson, MA 01749"]}, "phone": "+19785681300", "display_phone": "(978) 568-1300", "distance": 4939.666731094587}, {"id": "cXg5NE3RNA6Fj8zg4LYWlw", "alias": "taqueria-el-amigo-iii-clinton", "name": "Taqueria El Amigo III", "image_url": "https://s3-media2.fl.yelpcdn.com/bphoto/B_lU1_s13sYo_UHaZrT67A/o.jpg", "is_closed": false, "url": "https://www.yelp.com/biz/taqueria-el-amigo-iii-clinton?adjust_creative=ywY5UnLZrNrRl2b93Ruy_g&utm_campaign=yelp_api_v3&utm_medium=api_v3_business_search&utm_source=ywY5UnLZrNrRl2b93Ruy_g", "review_count": 27, "categories": [{"alias": "mexican", "title": "Mexican"}], "rating": 4.0, "coordinates": {"latitude": 42.416107, "longitude": -71.68471}, "transactions": ["delivery"], "location": {"address1": "1 High St", "address2": "", "address3": null, "city": "Clinton", "zip_code": "01510", "country": "US", "state": "MA", "display_address": ["1 High St", "Clinton, MA 01510"]}, "phone": "+19783688000", "display_phone": "(978) 368-8000", "distance": 5743.621971282162}, {"id": "AeCi3KKDstaMU2tCJZ7lFQ", "alias": "berlin-general-store-berlin-2", "name": "Berlin General Store", "image_url": "https://s3-media2.fl.yelpcdn.com/bphoto/PxGeXh54LuhkbS615KCN1Q/o.jpg", "is_closed": false, "url": "https://www.yelp.com/biz/berlin-general-store-berlin-2?adjust_creative=ywY5UnLZrNrRl2b93Ruy_g&utm_campaign=yelp_api_v3&utm_medium=api_v3_business_search&utm_source=ywY5UnLZrNrRl2b93Ruy_g", "review_count": 8, "categories": [{"alias": "sandwiches", "title": "Sandwiches"}], "rating": 4.0, "coordinates": {"latitude": 42.3813453, "longitude": -71.6362201}, "transactions": [], "price": "$", "location": {"address1": "19 Central St", "address2": "", "address3": "", "city": "Berlin", "zip_code": "01503", "country": "US", "state": "MA", "display_address": ["19 Central St", "Berlin, MA 01503"]}, "phone": "+19788382459", "display_phone": "(978) 838-2459", "distance": 644.1711577259243}, {"id": "P8ZFRa30Jb01SUNuk5zVZQ", "alias": "zarape-marlborough", "name": "Zarape", "image_url": "https://s3-media1.fl.yelpcdn.com/bphoto/BuI6pFxeSsMrv1ioBncePg/o.jpg", "is_closed": false, "url": "https://www.yelp.com/biz/zarape-marlborough?adjust_creative=ywY5UnLZrNrRl2b93Ruy_g&utm_campaign=yelp_api_v3&utm_medium=api_v3_business_search&utm_source=ywY5UnLZrNrRl2b93Ruy_g", "review_count": 194, "categories": [{"alias": "mexican", "title": "Mexican"}], "rating": 4.0, "coordinates": {"latitude": 42.346318, "longitude": -71.543595}, "transactions": ["delivery"], "price": "$$", "location": {"address1": "33 Maple St", "address2": "", "address3": "", "city": "Marlborough", "zip_code": "01752", "country": "US", "state": "MA", "display_address": ["33 Maple St", "Marlborough, MA 01752"]}, "phone": "+15084855502", "display_phone": "(508) 485-5502", "distance": 8229.87141570716}, {"id": "0GBldD0POkqNMR5KxPIJ0w", "alias": "thai-time-clinton", "name": "Thai Time", "image_url": "https://s3-media3.fl.yelpcdn.com/bphoto/jRlTnS3nM7FBHYyjuCXUUw/o.jpg", "is_closed": false, "url": "https://www.yelp.com/biz/thai-time-clinton?adjust_creative=ywY5UnLZrNrRl2b93Ruy_g&utm_campaign=yelp_api_v3&utm_medium=api_v3_business_search&utm_source=ywY5UnLZrNrRl2b93Ruy_g", "review_count": 101, "categories": [{"alias": "thai", "title": "Thai"}], "rating": 4.0, "coordinates": {"latitude": 42.4174778, "longitude": -71.6844005}, "transactions": ["delivery"], "price": "$$", "location": {"address1": "180 Church St", "address2": null, "address3": "", "city": "Clinton", "zip_code": "01510", "country": "US", "state": "MA", "display_address": ["180 Church St", "Clinton, MA 01510"]}, "phone": "+19783656368", "display_phone": "(978) 365-6368", "distance": 5874.915234257693}, {"id": "z_0JiPgYl3hx9SRr3lyjvA", "alias": "amaia-martini-bar-hudson", "name": "Amaia Martini Bar", "image_url": "https://s3-media1.fl.yelpcdn.com/bphoto/UWWlJxLGxKrnyQNdCX3Vvw/o.jpg", "is_closed": false, "url": "https://www.yelp.com/biz/amaia-martini-bar-hudson?adjust_creative=ywY5UnLZrNrRl2b93Ruy_g&utm_campaign=yelp_api_v3&utm_medium=api_v3_business_search&utm_source=ywY5UnLZrNrRl2b93Ruy_g", "review_count": 77, "categories": [{"alias": "cocktailbars", "title": "Cocktail Bars"}, {"alias": "newamerican", "title": "American (New)"}], "rating": 4.0, "coordinates": {"latitude": 42.3915219, "longitude": -71.5645243}, "transactions": ["delivery"], "price": "$$", "location": {"address1": "176 Main St", "address2": "", "address3": "", "city": "Hudson", "zip_code": "01749", "country": "US", "state": "MA", "display_address": ["176 Main St", "Hudson, MA 01749"]}, "phone": "+19785679779", "display_phone": "(978) 567-9779", "distance": 5395.710318297323}, {"id": "K_UziefR8jLjTBB2MG8MAw", "alias": "the-vintage-cafe-hudson", "name": "The Vintage Cafe", "image_url": "https://s3-media3.fl.yelpcdn.com/bphoto/ZGjKZgdCgK4B7f03x6dAtA/o.jpg", "is_closed": false, "url": "https://www.yelp.com/biz/the-vintage-cafe-hudson?adjust_creative=ywY5UnLZrNrRl2b93Ruy_g&utm_campaign=yelp_api_v3&utm_medium=api_v3_business_search&utm_source=ywY5UnLZrNrRl2b93Ruy_g", "review_count": 7, "categories": [{"alias": "cafes", "title": "Cafes"}], "rating": 4.5, "coordinates": {"latitude": 42.39192, "longitude": -71.5619}, "transactions": ["delivery"], "location": {"address1": "246 Main St", "address2": null, "address3": "", "city": "Hudson", "zip_code": "01749", "country": "US", "state": "MA", "display_address": ["246 Main St", "Hudson, MA 01749"]}, "phone": "+19785688900", "display_phone": "(978) 568-8900", "distance": 5599.8321918694655}, {"id": "3H6DENqAjfR7JErVXTXsjA", "alias": "fotinis-restaurant-and-bar-bolton", "name": "Fotini's Restaurant & Bar", "image_url": "https://s3-media2.fl.yelpcdn.com/bphoto/mjRrwSdTYU_9-vTEgGy8qQ/o.jpg", "is_closed": false, "url": "https://www.yelp.com/biz/fotinis-restaurant-and-bar-bolton?adjust_creative=ywY5UnLZrNrRl2b93Ruy_g&utm_campaign=yelp_api_v3&utm_medium=api_v3_business_search&utm_source=ywY5UnLZrNrRl2b93Ruy_g", "review_count": 47, "categories": [{"alias": "bars", "title": "Bars"}, {"alias": "pizza", "title": "Pizza"}, {"alias": "tradamerican", "title": "American (Traditional)"}], "rating": 3.5, "coordinates": {"latitude": 42.417453761746, "longitude": -71.6530995815992}, "transactions": ["delivery"], "price": "$$", "location": {"address1": "544 Wattaquadock Hill Rd", "address2": "", "address3": "", "city": "Bolton", "zip_code": "01740", "country": "US", "state": "MA", "display_address": ["544 Wattaquadock Hill Rd", "Bolton, MA 01740"]}, "phone": "+19783655757", "display_phone": "(978) 365-5757", "distance": 4155.088204980327}, {"id": "qjMRuqABa-NIs81VQ83_VA", "alias": "sofia-ristorante-hudson", "name": "Sofia Ristorante", "image_url": "https://s3-media3.fl.yelpcdn.com/bphoto/mMfTmBmcq2QYJeTgxFUGSQ/o.jpg", "is_closed": false, "url": "https://www.yelp.com/biz/sofia-ristorante-hudson?adjust_creative=ywY5UnLZrNrRl2b93Ruy_g&utm_campaign=yelp_api_v3&utm_medium=api_v3_business_search&utm_source=ywY5UnLZrNrRl2b93Ruy_g", "review_count": 86, "categories": [{"alias": "italian", "title": "Italian"}], "rating": 3.5, "coordinates": {"latitude": 42.391419, "longitude": -71.5651929}, "transactions": ["delivery"], "price": "$$", "location": {"address1": "158 Main St", "address2": "", "address3": "", "city": "Hudson", "zip_code": "01749", "country": "US", "state": "MA", "display_address": ["158 Main St", "Hudson, MA 01749"]}, "phone": "+19785621221", "display_phone": "(978) 562-1221", "distance": 5337.009692098443}, {"id": "1IwPjiTEABZV8j8sFywliw", "alias": "the-village-cafe-and-pizza-berlin", "name": "The Village Cafe and Pizza", "image_url": "https://s3-media1.fl.yelpcdn.com/bphoto/PTuYMCLEFif4i7qWjlu81g/o.jpg", "is_closed": false, "url": "https://www.yelp.com/biz/the-village-cafe-and-pizza-berlin?adjust_creative=ywY5UnLZrNrRl2b93Ruy_g&utm_campaign=yelp_api_v3&utm_medium=api_v3_business_search&utm_source=ywY5UnLZrNrRl2b93Ruy_g", "review_count": 7, "categories": [{"alias": "pizza", "title": "Pizza"}, {"alias": "cafes", "title": "Cafes"}], "rating": 3.5, "coordinates": {"latitude": 42.36693, "longitude": -71.62872}, "transactions": ["delivery", "pickup"], "location": {"address1": "3 Bassett Rd", "address2": "", "address3": null, "city": "Berlin", "zip_code": "01503", "country": "US", "state": "MA", "display_address": ["3 Bassett Rd", "Berlin, MA 01503"]}, "phone": "+19784150291", "display_phone": "(978) 415-0291", "distance": 3295.8352049581276}, {"id": "x5MlYCGVlUYcXdmn0ZRPRw", "alias": "the-old-timer-restaurant-clinton", "name": "The Old Timer Restaurant", "image_url": "https://s3-media2.fl.yelpcdn.com/bphoto/B5pShh8DBHPXf3rHqBh9gw/o.jpg", "is_closed": false, "url": "https://www.yelp.com/biz/the-old-timer-restaurant-clinton?adjust_creative=ywY5UnLZrNrRl2b93Ruy_g&utm_campaign=yelp_api_v3&utm_medium=api_v3_business_search&utm_source=ywY5UnLZrNrRl2b93Ruy_g", "review_count": 27, "categories": [{"alias": "irish", "title": "Irish"}], "rating": 3.5, "coordinates": {"latitude": 42.4174700542928, "longitude": -71.6850590245157}, "transactions": [], "location": {"address1": "155 Church St", "address2": "", "address3": null, "city": "Clinton", "zip_code": "01510", "country": "US", "state": "MA", "display_address": ["155 Church St", "Clinton, MA 01510"]}, "phone": "+19787334373", "display_phone": "(978) 733-4373", "distance": 5860.122695763253}, {"id": "4rq3qD6K5oDPrQjxSTrV0g", "alias": "bertuccis-italian-restaurant-marlborough-3", "name": "Bertucci's Italian Restaurant", "image_url": "https://s3-media2.fl.yelpcdn.com/bphoto/hGmZBrO4kbwnBO8QhkAFXw/o.jpg", "is_closed": false, "url": "https://www.yelp.com/biz/bertuccis-italian-restaurant-marlborough-3?adjust_creative=ywY5UnLZrNrRl2b93Ruy_g&utm_campaign=yelp_api_v3&utm_medium=api_v3_business_search&utm_source=ywY5UnLZrNrRl2b93Ruy_g", "review_count": 58, "categories": [{"alias": "pizza", "title": "Pizza"}, {"alias": "italian", "title": "Italian"}, {"alias": "chicken_wings", "title": "Chicken Wings"}], "rating": 2.5, "coordinates": {"latitude": 42.35519, "longitude": -71.61291}, "transactions": ["delivery", "pickup"], "price": "$$", "location": {"address1": "601 Donald Lynch", "address2": null, "address3": "", "city": "Marlborough", "zip_code": "01752", "country": "US", "state": "MA", "display_address": ["601 Donald Lynch", "Marlborough, MA 01752"]}, "phone": "+15084853636", "display_phone": "(508) 485-3636", "distance": 3436.5383110125263}, {"id": "Ng-RnKVv-nntF42XOY_-kg", "alias": "tgi-fridays-marlborough-2", "name": "TGI Fridays", "image_url": "https://s3-media2.fl.yelpcdn.com/bphoto/9HfneEXOKWtNIqskwoQGJQ/o.jpg", "is_closed": false, "url": "https://www.yelp.com/biz/tgi-fridays-marlborough-2?adjust_creative=ywY5UnLZrNrRl2b93Ruy_g&utm_campaign=yelp_api_v3&utm_medium=api_v3_business_search&utm_source=ywY5UnLZrNrRl2b93Ruy_g", "review_count": 70, "categories": [{"alias": "tradamerican", "title": "American (Traditional)"}], "rating": 2.5, "coordinates": {"latitude": 42.356914, "longitude": -71.611919}, "transactions": ["delivery"], "price": "$$", "location": {"address1": "601 Donald Lynch Blvd", "address2": "Ste  4258", "address3": "", "city": "Marlborough", "zip_code": "01752", "country": "US", "state": "MA", "display_address": ["601 Donald Lynch Blvd", "Ste  4258", "Marlborough, MA 01752"]}, "phone": "+15083030996", "display_phone": "(508) 303-0996", "distance": 3380.2970173297504}, {"id": "Seuh_j5q0Swg2giXjQ2o0Q", "alias": "fish-restaurant-and-wine-bar-marlborough", "name": "Fish Restaurant & Wine Bar", "image_url": "https://s3-media1.fl.yelpcdn.com/bphoto/nmKDvAMORW1CqJyg6cYpQg/o.jpg", "is_closed": false, "url": "https://www.yelp.com/biz/fish-restaurant-and-wine-bar-marlborough?adjust_creative=ywY5UnLZrNrRl2b93Ruy_g&utm_campaign=yelp_api_v3&utm_medium=api_v3_business_search&utm_source=ywY5UnLZrNrRl2b93Ruy_g", "review_count": 315, "categories": [{"alias": "wine_bars", "title": "Wine Bars"}, {"alias": "seafood", "title": "Seafood"}], "rating": 3.5, "coordinates": {"latitude": 42.345969, "longitude": -71.546231}, "transactions": ["delivery"], "price": "$$$", "location": {"address1": "29 S Bolton St", "address2": "", "address3": "", "city": "Marlborough", "zip_code": "01752", "country": "US", "state": "MA", "display_address": ["29 S Bolton St", "Marlborough, MA 01752"]}, "phone": "+15084603474", "display_phone": "(508) 460-3474", "distance": 8065.46183686654}, {"id": "M0rQBr2o8IysueTX6x-Sfw", "alias": "farmer-and-the-fork-boylston", "name": "Farmer and the Fork", "image_url": "https://s3-media4.fl.yelpcdn.com/bphoto/RJiMDpIX64ZxzVESGulAXA/o.jpg", "is_closed": false, "url": "https://www.yelp.com/biz/farmer-and-the-fork-boylston?adjust_creative=ywY5UnLZrNrRl2b93Ruy_g&utm_campaign=yelp_api_v3&utm_medium=api_v3_business_search&utm_source=ywY5UnLZrNrRl2b93Ruy_g", "review_count": 4, "categories": [{"alias": "newamerican", "title": "American (New)"}, {"alias": "salad", "title": "Salad"}, {"alias": "sandwiches", "title": "Sandwiches"}], "rating": 4.0, "coordinates": {"latitude": 42.3574853, "longitude": -71.7314635}, "transactions": ["delivery"], "location": {"address1": "11 French Dr", "address2": "", "address3": "Tower Hill Botanical Garden", "city": "Boylston", "zip_code": "01505", "country": "US", "state": "MA", "display_address": ["11 French Dr", "Tower Hill Botanical Garden", "Boylston, MA 01505"]}, "phone": "+15088696111", "display_phone": "(508) 869-6111", "distance": 8537.676931558406}, {"id": "v_iL71KvylnIK6KmVnFTPQ", "alias": "fresh-wing-hudson", "name": "Fresh Wing", "image_url": "https://s3-media1.fl.yelpcdn.com/bphoto/3ZftNKGNc6sDbSkir1Z6XQ/o.jpg", "is_closed": false, "url": "https://www.yelp.com/biz/fresh-wing-hudson?adjust_creative=ywY5UnLZrNrRl2b93Ruy_g&utm_campaign=yelp_api_v3&utm_medium=api_v3_business_search&utm_source=ywY5UnLZrNrRl2b93Ruy_g", "review_count": 48, "categories": [{"alias": "chicken_wings", "title": "Chicken Wings"}, {"alias": "sandwiches", "title": "Sandwiches"}, {"alias": "asianfusion", "title": "Asian Fusion"}], "rating": 4.5, "coordinates": {"latitude": 42.3919219970703, "longitude": -71.561897277832}, "transactions": ["delivery"], "price": "$$", "location": {"address1": "246 Main St", "address2": "", "address3": null, "city": "Hudson", "zip_code": "01749", "country": "US", "state": "MA", "display_address": ["246 Main St", "Hudson, MA 01749"]}, "phone": "+19785689464", "display_phone": "(978) 568-9464", "distance": 5613.519138092711}, {"id": "KzMruyou-sxRVz0u91kiGA", "alias": "lalo-s-mexican-resturant-marlborough", "name": "Lalo\u2019s Mexican Resturant", "image_url": "https://s3-media4.fl.yelpcdn.com/bphoto/yUnqCf_GHAMoWr05Q9ft_g/o.jpg", "is_closed": false, "url": "https://www.yelp.com/biz/lalo-s-mexican-resturant-marlborough?adjust_creative=ywY5UnLZrNrRl2b93Ruy_g&utm_campaign=yelp_api_v3&utm_medium=api_v3_business_search&utm_source=ywY5UnLZrNrRl2b93Ruy_g", "review_count": 4, "categories": [{"alias": "mexican", "title": "Mexican"}], "rating": 4.0, "coordinates": {"latitude": 42.3456379412985, "longitude": -71.5597888688994}, "transactions": [], "location": {"address1": "460 Lincoln St", "address2": "", "address3": null, "city": "Marlborough", "zip_code": "01752", "country": "US", "state": "MA", "display_address": ["460 Lincoln St", "Marlborough, MA 01752"]}, "phone": "+17745562941", "display_phone": "(774) 556-2941", "distance": 7167.320744772254}, {"id": "R-ZWnfvcxCkwRCXKDmhhsQ", "alias": "finnegans-pub-hudson", "name": "Finnegan's Pub", "image_url": "https://s3-media2.fl.yelpcdn.com/bphoto/GyGFbjFOzcwdoYOM5LPXXg/o.jpg", "is_closed": false, "url": "https://www.yelp.com/biz/finnegans-pub-hudson?adjust_creative=ywY5UnLZrNrRl2b93Ruy_g&utm_campaign=yelp_api_v3&utm_medium=api_v3_business_search&utm_source=ywY5UnLZrNrRl2b93Ruy_g", "review_count": 40, "categories": [{"alias": "pubs", "title": "Pubs"}, {"alias": "tradamerican", "title": "American (Traditional)"}], "rating": 3.5, "coordinates": {"latitude": 42.39023, "longitude": -71.56879}, "transactions": ["delivery"], "price": "$", "location": {"address1": "25 South St", "address2": "Ste 5", "address3": "", "city": "Hudson", "zip_code": "01749", "country": "US", "state": "MA", "display_address": ["25 South St", "Ste 5", "Hudson, MA 01749"]}, "phone": "+19785677961", "display_phone": "(978) 567-7961", "distance": 5023.592207783512}, {"id": "XZExW_mXZ7q96vlbBsPdnA", "alias": "aunty-gs-ice-cream-and-indian-fusion-marlborough", "name": "Aunty G's Ice Cream & Indian Fusion", "image_url": "https://s3-media3.fl.yelpcdn.com/bphoto/2qyX5r4H4VD4yFKsxHLHCw/o.jpg", "is_closed": false, "url": "https://www.yelp.com/biz/aunty-gs-ice-cream-and-indian-fusion-marlborough?adjust_creative=ywY5UnLZrNrRl2b93Ruy_g&utm_campaign=yelp_api_v3&utm_medium=api_v3_business_search&utm_source=ywY5UnLZrNrRl2b93Ruy_g", "review_count": 74, "categories": [{"alias": "indpak", "title": "Indian"}, {"alias": "icecream", "title": "Ice Cream & Frozen Yogurt"}], "rating": 5.0, "coordinates": {"latitude": 42.35368, "longitude": -71.53307}, "transactions": ["delivery", "pickup"], "price": "$", "location": {"address1": "72 Hosmer St", "address2": "", "address3": "", "city": "Marlborough", "zip_code": "01752", "country": "US", "state": "MA", "display_address": ["72 Hosmer St", "Marlborough, MA 01752"]}, "phone": "+15084855000", "display_phone": "(508) 485-5000", "distance": 8564.71023304691}, {"id": "aFqEKhuNW8Jy1PQ1YeRfAA", "alias": "strand-theatre-clinton", "name": "Strand Theatre", "image_url": "https://s3-media4.fl.yelpcdn.com/bphoto/Ufy_Uxd9tSG4MQaB7gpUjw/o.jpg", "is_closed": false, "url": "https://www.yelp.com/biz/strand-theatre-clinton?adjust_creative=ywY5UnLZrNrRl2b93Ruy_g&utm_campaign=yelp_api_v3&utm_medium=api_v3_business_search&utm_source=ywY5UnLZrNrRl2b93Ruy_g", "review_count": 49, "categories": [{"alias": "movietheaters", "title": "Cinema"}, {"alias": "dinnertheater", "title": "Dinner Theater"}], "rating": 4.5, "coordinates": {"latitude": 42.4170796, "longitude": -71.6849379}, "transactions": [], "price": "$$", "location": {"address1": "58 High St", "address2": "", "address3": "", "city": "Clinton", "zip_code": "01510", "country": "US", "state": "MA", "display_address": ["58 High St", "Clinton, MA 01510"]}, "phone": "+19783655500", "display_phone": "(978) 365-5500", "distance": 5841.400147678745}, {"id": "4qDaTcKIII1OGUJncBOtYQ", "alias": "slaters-bolton", "name": "Slater's", "image_url": "https://s3-media4.fl.yelpcdn.com/bphoto/NjBX-Rt2T7LvsFd3bTMf8Q/o.jpg", "is_closed": false, "url": "https://www.yelp.com/biz/slaters-bolton?adjust_creative=ywY5UnLZrNrRl2b93Ruy_g&utm_campaign=yelp_api_v3&utm_medium=api_v3_business_search&utm_source=ywY5UnLZrNrRl2b93Ruy_g", "review_count": 162, "categories": [{"alias": "bbq", "title": "Barbeque"}, {"alias": "italian", "title": "Italian"}, {"alias": "pizza", "title": "Pizza"}], "rating": 3.5, "coordinates": {"latitude": 42.432528690525, "longitude": -71.576899551012}, "transactions": [], "price": "$$", "location": {"address1": "356 Main St", "address2": "", "address3": "", "city": "Bolton", "zip_code": "01740", "country": "US", "state": "MA", "display_address": ["356 Main St", "Bolton, MA 01740"]}, "phone": "+19787796680", "display_phone": "(978) 779-6680", "distance": 6875.724382880476}, {"id": "PNmiiQ2ChmYls7b9t9eXHw", "alias": "chets-diner-northborough", "name": "Chet's Diner", "image_url": "https://s3-media1.fl.yelpcdn.com/bphoto/KWTyl0V7cfXa6ZovcBZrsw/o.jpg", "is_closed": false, "url": "https://www.yelp.com/biz/chets-diner-northborough?adjust_creative=ywY5UnLZrNrRl2b93Ruy_g&utm_campaign=yelp_api_v3&utm_medium=api_v3_business_search&utm_source=ywY5UnLZrNrRl2b93Ruy_g", "review_count": 55, "categories": [{"alias": "diners", "title": "Diners"}], "rating": 4.0, "coordinates": {"latitude": 42.325115, "longitude": -71.628024}, "transactions": ["delivery"], "price": "$", "location": {"address1": "191 Main St", "address2": "", "address3": "", "city": "Northborough", "zip_code": "01532", "country": "US", "state": "MA", "display_address": ["191 Main St", "Northborough, MA 01532"]}, "phone": "+15083939403", "display_phone": "(508) 393-9403", "distance": 6593.7292303886625}, {"id": "4a_uBpvxlEo4w-ohzFL6AQ", "alias": "the-texas-bbq-northborough", "name": "The Texas BBQ", "image_url": "https://s3-media1.fl.yelpcdn.com/bphoto/ZVMrg5qcZ5S3V05cegKTPA/o.jpg", "is_closed": false, "url": "https://www.yelp.com/biz/the-texas-bbq-northborough?adjust_creative=ywY5UnLZrNrRl2b93Ruy_g&utm_campaign=yelp_api_v3&utm_medium=api_v3_business_search&utm_source=ywY5UnLZrNrRl2b93Ruy_g", "review_count": 184, "categories": [{"alias": "bbq", "title": "Barbeque"}], "rating": 3.5, "coordinates": {"latitude": 42.328625662766, "longitude": -71.6191777683427}, "transactions": ["delivery"], "price": "$$", "location": {"address1": "309 Main St", "address2": "", "address3": "", "city": "Northborough", "zip_code": "01532", "country": "US", "state": "MA", "display_address": ["309 Main St", "Northborough, MA 01532"]}, "phone": "+15083934742", "display_phone": "(508) 393-4742", "distance": 6259.838031653406}, {"id": "SMZ5cFthm6eQRflIda0z2g", "alias": "99-restaurants-west-marlboro", "name": "99 Restaurants", "image_url": "https://s3-media1.fl.yelpcdn.com/bphoto/mNaAm8EI7vM7LDh1DEdaLg/o.jpg", "is_closed": false, "url": "https://www.yelp.com/biz/99-restaurants-west-marlboro?adjust_creative=ywY5UnLZrNrRl2b93Ruy_g&utm_campaign=yelp_api_v3&utm_medium=api_v3_business_search&utm_source=ywY5UnLZrNrRl2b93Ruy_g", "review_count": 74, "categories": [{"alias": "pubs", "title": "Pubs"}, {"alias": "tradamerican", "title": "American (Traditional)"}], "rating": 3.0, "coordinates": {"latitude": 42.3404026, "longitude": -71.5824971}, "transactions": [], "price": "$$", "location": {"address1": "32 Boston Post Rd W", "address2": "", "address3": "", "city": "West Marlboro", "zip_code": "01752", "country": "US", "state": "MA", "display_address": ["32 Boston Post Rd W", "West Marlboro, MA 01752"]}, "phone": "+15084808899", "display_phone": "(508) 480-8899", "distance": 6282.553255848202}, {"id": "yT8S9axe1KlIdaNOE_xumw", "alias": "silk-road-bistro-marlborough", "name": "Silk Road Bistro", "image_url": "https://s3-media4.fl.yelpcdn.com/bphoto/TFEKfOZhUCbTYgwyhvxoHA/o.jpg", "is_closed": false, "url": "https://www.yelp.com/biz/silk-road-bistro-marlborough?adjust_creative=ywY5UnLZrNrRl2b93Ruy_g&utm_campaign=yelp_api_v3&utm_medium=api_v3_business_search&utm_source=ywY5UnLZrNrRl2b93Ruy_g", "review_count": 138, "categories": [{"alias": "chinese", "title": "Chinese"}], "rating": 4.0, "coordinates": {"latitude": 42.34654, "longitude": -71.5484}, "transactions": ["pickup", "delivery"], "price": "$$", "location": {"address1": "150 Main St", "address2": null, "address3": "", "city": "Marlborough", "zip_code": "01752", "country": "US", "state": "MA", "display_address": ["150 Main St", "Marlborough, MA 01752"]}, "phone": "+15086308946", "display_phone": "(508) 630-8946", "distance": 7891.262680828662}, {"id": "bQlVwuCYuPDKxRMPl_CW2A", "alias": "difs-marlborough", "name": "Difs", "image_url": "https://s3-media4.fl.yelpcdn.com/bphoto/2llAPj5CHwoSE6TW6sxxXQ/o.jpg", "is_closed": false, "url": "https://www.yelp.com/biz/difs-marlborough?adjust_creative=ywY5UnLZrNrRl2b93Ruy_g&utm_campaign=yelp_api_v3&utm_medium=api_v3_business_search&utm_source=ywY5UnLZrNrRl2b93Ruy_g", "review_count": 10, "categories": [{"alias": "pizza", "title": "Pizza"}, {"alias": "caribbean", "title": "Caribbean"}], "rating": 5.0, "coordinates": {"latitude": 42.3361976065959, "longitude": -71.6035792976618}, "transactions": ["pickup", "delivery"], "location": {"address1": "505 Boston Post Rd W", "address2": "", "address3": null, "city": "Marlborough", "zip_code": "01752", "country": "US", "state": "MA", "display_address": ["505 Boston Post Rd W", "Marlborough, MA 01752"]}, "phone": "+15084483200", "display_phone": "(508) 448-3200", "distance": 5767.484673928082}, {"id": "wRQGanWsfJdNzQWsQMkqtQ", "alias": "china-taste-marlborough", "name": "China Taste", "image_url": "https://s3-media2.fl.yelpcdn.com/bphoto/2ieD0_GLms9ODo_r-wYHlw/o.jpg", "is_closed": false, "url": "https://www.yelp.com/biz/china-taste-marlborough?adjust_creative=ywY5UnLZrNrRl2b93Ruy_g&utm_campaign=yelp_api_v3&utm_medium=api_v3_business_search&utm_source=ywY5UnLZrNrRl2b93Ruy_g", "review_count": 88, "categories": [{"alias": "chinese", "title": "Chinese"}], "rating": 3.0, "coordinates": {"latitude": 42.3389753, "longitude": -71.5902808}, "transactions": [], "price": "$$", "location": {"address1": "197 A Boston Post Rd W", "address2": "", "address3": "", "city": "Marlborough", "zip_code": "01752", "country": "US", "state": "MA", "display_address": ["197 A Boston Post Rd W", "Marlborough, MA 01752"]}, "phone": "+15082292882", "display_phone": "(508) 229-2882", "distance": 5831.553408572497}, {"id": "YC76TzBkLLD7A57lK3vVUA", "alias": "clinton-gourmet-clinton", "name": "Clinton Gourmet", "image_url": "https://s3-media1.fl.yelpcdn.com/bphoto/tgaG1-2gfMyYlFZXahbBJg/o.jpg", "is_closed": false, "url": "https://www.yelp.com/biz/clinton-gourmet-clinton?adjust_creative=ywY5UnLZrNrRl2b93Ruy_g&utm_campaign=yelp_api_v3&utm_medium=api_v3_business_search&utm_source=ywY5UnLZrNrRl2b93Ruy_g", "review_count": 49, "categories": [{"alias": "chinese", "title": "Chinese"}], "rating": 3.0, "coordinates": {"latitude": 42.43286, "longitude": -71.68429}, "transactions": ["delivery"], "price": "$$", "location": {"address1": "1075 Main St", "address2": "", "address3": "", "city": "Clinton", "zip_code": "01510", "country": "US", "state": "MA", "display_address": ["1075 Main St", "Clinton, MA 01510"]}, "phone": "+19783658020", "display_phone": "(978) 365-8020", "distance": 7066.4787364825825}, {"id": "G2lQC1UiBMuKupTctrtuxA", "alias": "giorgios-italian-pizzeria-hudson", "name": "Giorgio's Italian Pizzeria", "image_url": "https://s3-media4.fl.yelpcdn.com/bphoto/qGxWdvOrJZBSZfOQc45onw/o.jpg", "is_closed": false, "url": "https://www.yelp.com/biz/giorgios-italian-pizzeria-hudson?adjust_creative=ywY5UnLZrNrRl2b93Ruy_g&utm_campaign=yelp_api_v3&utm_medium=api_v3_business_search&utm_source=ywY5UnLZrNrRl2b93Ruy_g", "review_count": 37, "categories": [{"alias": "pizza", "title": "Pizza"}, {"alias": "italian", "title": "Italian"}, {"alias": "sandwiches", "title": "Sandwiches"}], "rating": 4.5, "coordinates": {"latitude": 42.38806, "longitude": -71.54879}, "transactions": ["delivery"], "price": "$", "location": {"address1": "118 Forest Ave", "address2": null, "address3": "", "city": "Hudson", "zip_code": "01749", "country": "US", "state": "MA", "display_address": ["118 Forest Ave", "Hudson, MA 01749"]}, "phone": "+19787639070", "display_phone": "(978) 763-9070", "distance": 6638.966583356738}, {"id": "OC4WlTk-1Ot85h_zTumMgw", "alias": "jade-chinese-restaurant-hudson", "name": "Jade Chinese Restaurant", "image_url": "https://s3-media1.fl.yelpcdn.com/bphoto/cTYGrYJimD2GWLc3Ah1cJA/o.jpg", "is_closed": false, "url": "https://www.yelp.com/biz/jade-chinese-restaurant-hudson?adjust_creative=ywY5UnLZrNrRl2b93Ruy_g&utm_campaign=yelp_api_v3&utm_medium=api_v3_business_search&utm_source=ywY5UnLZrNrRl2b93Ruy_g", "review_count": 25, "categories": [{"alias": "chinese", "title": "Chinese"}], "rating": 3.5, "coordinates": {"latitude": 42.390707, "longitude": -71.563918}, "transactions": ["delivery"], "price": "$$", "location": {"address1": "12 Broad St", "address2": "", "address3": "", "city": "Hudson", "zip_code": "01749", "country": "US", "state": "MA", "display_address": ["12 Broad St", "Hudson, MA 01749"]}, "phone": "+19785677997", "display_phone": "(978) 567-7997", "distance": 5429.5591411892465}, {"id": "U8yvS2SWphsNtIzYCFIFyA", "alias": "street-kitchen-marlborough-5", "name": "Street Kitchen", "image_url": "https://s3-media3.fl.yelpcdn.com/bphoto/Wqc3BGDRUopOuzOVra9qEA/o.jpg", "is_closed": false, "url": "https://www.yelp.com/biz/street-kitchen-marlborough-5?adjust_creative=ywY5UnLZrNrRl2b93Ruy_g&utm_campaign=yelp_api_v3&utm_medium=api_v3_business_search&utm_source=ywY5UnLZrNrRl2b93Ruy_g", "review_count": 17, "categories": [{"alias": "indpak", "title": "Indian"}, {"alias": "pizza", "title": "Pizza"}, {"alias": "italian", "title": "Italian"}], "rating": 4.0, "coordinates": {"latitude": 42.34669, "longitude": -71.54736}, "transactions": ["pickup", "delivery"], "location": {"address1": "132 Main St", "address2": null, "address3": "", "city": "Marlborough", "zip_code": "01752", "country": "US", "state": "MA", "display_address": ["132 Main St", "Marlborough, MA 01752"]}, "phone": "+15082511914", "display_phone": "(508) 251-1914", "distance": 7944.626079033541}, {"id": "wHIuQWsIVNQtWuXsUzN5Kg", "alias": "travelin-bones-bbq-marlborough", "name": "Travelin Bones Bbq", "image_url": "https://s3-media2.fl.yelpcdn.com/bphoto/MhdJnwFIHWILSlfgKN7D7Q/o.jpg", "is_closed": false, "url": "https://www.yelp.com/biz/travelin-bones-bbq-marlborough?adjust_creative=ywY5UnLZrNrRl2b93Ruy_g&utm_campaign=yelp_api_v3&utm_medium=api_v3_business_search&utm_source=ywY5UnLZrNrRl2b93Ruy_g", "review_count": 15, "categories": [{"alias": "foodtrucks", "title": "Food Trucks"}, {"alias": "bbq", "title": "Barbeque"}], "rating": 3.0, "coordinates": {"latitude": 42.362768, "longitude": -71.604012}, "transactions": ["pickup", "delivery"], "location": {"address1": "325 Donald Lynch Blvd", "address2": null, "address3": "", "city": "Marlborough", "zip_code": "01752", "country": "US", "state": "MA", "display_address": ["325 Donald Lynch Blvd", "Marlborough, MA 01752"]}, "phone": "+15085567670", "display_phone": "(508) 556-7670", "distance": 3188.5742045037705}, {"id": "Erfno6ptFGUGeEvnlQciyw", "alias": "panera-bread-hudson-2", "name": "Panera Bread", "image_url": "https://s3-media2.fl.yelpcdn.com/bphoto/u4tl0Nmycr-3TtROLij1WA/o.jpg", "is_closed": false, "url": "https://www.yelp.com/biz/panera-bread-hudson-2?adjust_creative=ywY5UnLZrNrRl2b93Ruy_g&utm_campaign=yelp_api_v3&utm_medium=api_v3_business_search&utm_source=ywY5UnLZrNrRl2b93Ruy_g", "review_count": 22, "categories": [{"alias": "sandwiches", "title": "Sandwiches"}, {"alias": "salad", "title": "Salad"}, {"alias": "soup", "title": "Soup"}], "rating": 2.0, "coordinates": {"latitude": 42.395639, "longitude": -71.594483}, "transactions": [], "location": {"address1": "2 Highland Common E", "address2": "Ste 100", "address3": null, "city": "Hudson", "zip_code": "01749", "country": "US", "state": "MA", "display_address": ["2 Highland Common E", "Ste 100", "Hudson, MA 01749"]}, "phone": "+19787638160", "display_phone": "(978) 763-8160", "distance": 3134.365722563407}, {"id": "XUbM1FeToadQxA_glrwRlA", "alias": "olive-garden-to-go-and-delivery-available-marlborough", "name": "Olive Garden - To Go & Delivery Available", "image_url": "https://s3-media2.fl.yelpcdn.com/bphoto/lyPtO8UkikGpnP394WXRnw/o.jpg", "is_closed": false, "url": "https://www.yelp.com/biz/olive-garden-to-go-and-delivery-available-marlborough?adjust_creative=ywY5UnLZrNrRl2b93Ruy_g&utm_campaign=yelp_api_v3&utm_medium=api_v3_business_search&utm_source=ywY5UnLZrNrRl2b93Ruy_g", "review_count": 109, "categories": [{"alias": "italian", "title": "Italian"}, {"alias": "salad", "title": "Salad"}, {"alias": "soup", "title": "Soup"}], "rating": 3.0, "coordinates": {"latitude": 42.3525329102251, "longitude": -71.6159126766424}, "transactions": [], "price": "$$", "location": {"address1": "728 Donald Lynch Blvd", "address2": "", "address3": "", "city": "Marlborough", "zip_code": "01752", "country": "US", "state": "MA", "display_address": ["728 Donald Lynch Blvd", "Marlborough, MA 01752"]}, "phone": "+15083036558", "display_phone": "(508) 303-6558", "distance": 3715.2018638676914}, {"id": "Q9qo5xe3iaBqnk7DEpHYBA", "alias": "checkerboards-pizza-restaurant-and-bar-hudson", "name": "Checkerboards Pizza Restaurant & Bar", "image_url": "https://s3-media3.fl.yelpcdn.com/bphoto/RMt6ELWyJjpWwNLKkIAoNg/o.jpg", "is_closed": false, "url": "https://www.yelp.com/biz/checkerboards-pizza-restaurant-and-bar-hudson?adjust_creative=ywY5UnLZrNrRl2b93Ruy_g&utm_campaign=yelp_api_v3&utm_medium=api_v3_business_search&utm_source=ywY5UnLZrNrRl2b93Ruy_g", "review_count": 66, "categories": [{"alias": "pizza", "title": "Pizza"}, {"alias": "italian", "title": "Italian"}, {"alias": "wine_bars", "title": "Wine Bars"}], "rating": 3.5, "coordinates": {"latitude": 42.37626, "longitude": -71.56414}, "transactions": [], "price": "$$", "location": {"address1": "10 Technology Dr", "address2": "", "address3": "", "city": "Hudson", "zip_code": "01749", "country": "US", "state": "MA", "display_address": ["10 Technology Dr", "Hudson, MA 01749"]}, "phone": "+19785624400", "display_phone": "(978) 562-4400", "distance": 5443.262320874107}, {"id": "YUxowY8Ame8SPyj9qkUnng", "alias": "regina-pizzeria-marlborough-2", "name": "Regina Pizzeria", "image_url": "https://s3-media3.fl.yelpcdn.com/bphoto/A_wuBGa5HMu_r5jw5CCCyw/o.jpg", "is_closed": false, "url": "https://www.yelp.com/biz/regina-pizzeria-marlborough-2?adjust_creative=ywY5UnLZrNrRl2b93Ruy_g&utm_campaign=yelp_api_v3&utm_medium=api_v3_business_search&utm_source=ywY5UnLZrNrRl2b93Ruy_g", "review_count": 20, "categories": [{"alias": "pizza", "title": "Pizza"}, {"alias": "italian", "title": "Italian"}], "rating": 3.5, "coordinates": {"latitude": 42.355494, "longitude": -71.612622}, "transactions": [], "price": "$", "location": {"address1": "601 Donald Lynch Blvd", "address2": "", "address3": "", "city": "Marlborough", "zip_code": "01752", "country": "US", "state": "MA", "display_address": ["601 Donald Lynch Blvd", "Marlborough, MA 01752"]}, "phone": "+15083036999", "display_phone": "(508) 303-6999", "distance": 3500.47564139752}, {"id": "t1IXWQW7JUVYleWSc2RyiA", "alias": "proteinhouse-marlborough", "name": "ProteinHouse", "image_url": "https://s3-media3.fl.yelpcdn.com/bphoto/n9ELzKc3KNsbTqr7wv2D_w/o.jpg", "is_closed": false, "url": "https://www.yelp.com/biz/proteinhouse-marlborough?adjust_creative=ywY5UnLZrNrRl2b93Ruy_g&utm_campaign=yelp_api_v3&utm_medium=api_v3_business_search&utm_source=ywY5UnLZrNrRl2b93Ruy_g", "review_count": 69, "categories": [{"alias": "juicebars", "title": "Juice Bars & Smoothies"}, {"alias": "newamerican", "title": "American (New)"}, {"alias": "healthmarkets", "title": "Health Markets"}], "rating": 3.0, "coordinates": {"latitude": 42.338913, "longitude": -71.588295}, "transactions": ["pickup", "delivery"], "price": "$$", "location": {"address1": "90D Apex Dr", "address2": "", "address3": null, "city": "Marlborough", "zip_code": "01752", "country": "US", "state": "MA", "display_address": ["90D Apex Dr", "Marlborough, MA 01752"]}, "phone": "+15083052552", "display_phone": "(508) 305-2552", "distance": 6086.133054325735}, {"id": "o2aGdH5u5_NWY3QfsQTp1A", "alias": "hudson-super-buffet-hudson", "name": "Hudson Super Buffet", "image_url": "https://s3-media2.fl.yelpcdn.com/bphoto/0ghy1IsMy15f60ZAkxFceA/o.jpg", "is_closed": false, "url": "https://www.yelp.com/biz/hudson-super-buffet-hudson?adjust_creative=ywY5UnLZrNrRl2b93Ruy_g&utm_campaign=yelp_api_v3&utm_medium=api_v3_business_search&utm_source=ywY5UnLZrNrRl2b93Ruy_g", "review_count": 61, "categories": [{"alias": "buffets", "title": "Buffets"}, {"alias": "chinese", "title": "Chinese"}], "rating": 3.0, "coordinates": {"latitude": 42.381474503202, "longitude": -71.564837543455}, "transactions": ["pickup", "delivery"], "price": "$$", "location": {"address1": "167 Broad St", "address2": "", "address3": "", "city": "Hudson", "zip_code": "01749", "country": "US", "state": "MA", "display_address": ["167 Broad St", "Hudson, MA 01749"]}, "phone": "+19785689889", "display_phone": "(978) 568-9889", "distance": 5319.872255186183}, {"id": "OIMEV6XtYNMWzPqodV322w", "alias": "longhorn-steakhouse-curbside-to-go-available-marlborough", "name": "LongHorn Steakhouse - Curbside To Go Available", "image_url": "https://s3-media3.fl.yelpcdn.com/bphoto/kQEc4GmEzoWw3vIxmkji8A/o.jpg", "is_closed": false, "url": "https://www.yelp.com/biz/longhorn-steakhouse-curbside-to-go-available-marlborough?adjust_creative=ywY5UnLZrNrRl2b93Ruy_g&utm_campaign=yelp_api_v3&utm_medium=api_v3_business_search&utm_source=ywY5UnLZrNrRl2b93Ruy_g", "review_count": 108, "categories": [{"alias": "steak", "title": "Steakhouses"}, {"alias": "tradamerican", "title": "American (Traditional)"}, {"alias": "bbq", "title": "Barbeque"}], "rating": 3.5, "coordinates": {"latitude": 42.34005, "longitude": -71.5903699}, "transactions": [], "price": "$$", "location": {"address1": "191 Boston Post Rd W", "address2": "", "address3": "", "city": "Marlborough", "zip_code": "01752", "country": "US", "state": "MA", "display_address": ["191 Boston Post Rd W", "Marlborough, MA 01752"]}, "phone": "+15084814100", "display_phone": "(508) 481-4100", "distance": 5878.727767390724}, {"id": "--CprxtcUfzKoz29hAzm5w", "alias": "wellys-restaurant-marlborough", "name": "Welly's Restaurant", "image_url": "https://s3-media1.fl.yelpcdn.com/bphoto/MWQufs9-_R5Vzgc4cO62vg/o.jpg", "is_closed": false, "url": "https://www.yelp.com/biz/wellys-restaurant-marlborough?adjust_creative=ywY5UnLZrNrRl2b93Ruy_g&utm_campaign=yelp_api_v3&utm_medium=api_v3_business_search&utm_source=ywY5UnLZrNrRl2b93Ruy_g", "review_count": 169, "categories": [{"alias": "tradamerican", "title": "American (Traditional)"}, {"alias": "pizza", "title": "Pizza"}, {"alias": "gluten_free", "title": "Gluten-Free"}], "rating": 4.0, "coordinates": {"latitude": 42.3469, "longitude": -71.54837}, "transactions": ["delivery"], "price": "$$", "location": {"address1": "153 Main St", "address2": "", "address3": "", "city": "Marlborough", "zip_code": "01752", "country": "US", "state": "MA", "display_address": ["153 Main St", "Marlborough, MA 01752"]}, "phone": "+15082812091", "display_phone": "(508) 281-2091", "distance": 7861.75734124497}, {"id": "9JngfiEwVX3BzwFnKYWt2w", "alias": "cest-la-vie-bistro-northborough", "name": "C'est La Vie Bistro", "image_url": "https://s3-media4.fl.yelpcdn.com/bphoto/hDb8FYXUZknu3VS0n7dOqg/o.jpg", "is_closed": false, "url": "https://www.yelp.com/biz/cest-la-vie-bistro-northborough?adjust_creative=ywY5UnLZrNrRl2b93Ruy_g&utm_campaign=yelp_api_v3&utm_medium=api_v3_business_search&utm_source=ywY5UnLZrNrRl2b93Ruy_g", "review_count": 199, "categories": [{"alias": "french", "title": "French"}, {"alias": "breakfast_brunch", "title": "Breakfast & Brunch"}], "rating": 4.5, "coordinates": {"latitude": 42.319121, "longitude": -71.640647}, "transactions": ["delivery"], "price": "$$", "location": {"address1": "30 Main St", "address2": "", "address3": "", "city": "Northborough", "zip_code": "01532", "country": "US", "state": "MA", "display_address": ["30 Main St", "Northborough, MA 01532"]}, "phone": "+15083938941", "display_phone": "(508) 393-8941", "distance": 7304.463034915101}, {"id": "6MZ1GMIeI3KAvSyRNZygvA", "alias": "brads-gourmet-delicatessen-hudson-2", "name": "Brad's Gourmet Delicatessen", "image_url": "https://s3-media4.fl.yelpcdn.com/bphoto/TFtSEu-T8EDle6DjCJIFtA/o.jpg", "is_closed": false, "url": "https://www.yelp.com/biz/brads-gourmet-delicatessen-hudson-2?adjust_creative=ywY5UnLZrNrRl2b93Ruy_g&utm_campaign=yelp_api_v3&utm_medium=api_v3_business_search&utm_source=ywY5UnLZrNrRl2b93Ruy_g", "review_count": 39, "categories": [{"alias": "sandwiches", "title": "Sandwiches"}, {"alias": "delis", "title": "Delis"}], "rating": 4.5, "coordinates": {"latitude": 42.380313873291, "longitude": -71.5658187866211}, "transactions": [], "price": "$", "location": {"address1": "234 Washington St", "address2": "", "address3": "", "city": "Hudson", "zip_code": "01749", "country": "US", "state": "MA", "display_address": ["234 Washington St", "Hudson, MA 01749"]}, "phone": "+19785625293", "display_phone": "(978) 562-5293", "distance": 5291.840488903836}, {"id": "QTbxMqqcutAuXNsUmYARDA", "alias": "kennedys-pub-inc-marlborough", "name": "Kennedy's Pub Inc", "image_url": "https://s3-media2.fl.yelpcdn.com/bphoto/LEGJL0q03SuEiHBCZ2qhfg/o.jpg", "is_closed": false, "url": "https://www.yelp.com/biz/kennedys-pub-inc-marlborough?adjust_creative=ywY5UnLZrNrRl2b93Ruy_g&utm_campaign=yelp_api_v3&utm_medium=api_v3_business_search&utm_source=ywY5UnLZrNrRl2b93Ruy_g", "review_count": 121, "categories": [{"alias": "seafood", "title": "Seafood"}, {"alias": "irish", "title": "Irish"}], "rating": 3.5, "coordinates": {"latitude": 42.3388, "longitude": -71.5428699}, "transactions": [], "price": "$$", "location": {"address1": "247 Maple St", "address2": "", "address3": "", "city": "Marlborough", "zip_code": "01752", "country": "US", "state": "MA", "display_address": ["247 Maple St", "Marlborough, MA 01752"]}, "phone": "+15084855800", "display_phone": "(508) 485-5800", "distance": 8785.02918926622}, {"id": "Sy8YT5YwR19EkvHX-1p6Cw", "alias": "qdoba-mexican-eats-hudson", "name": "QDOBA Mexican Eats", "image_url": "https://s3-media1.fl.yelpcdn.com/bphoto/Ymzud6NpYDuycYNG94Z2Mg/o.jpg", "is_closed": false, "url": "https://www.yelp.com/biz/qdoba-mexican-eats-hudson?adjust_creative=ywY5UnLZrNrRl2b93Ruy_g&utm_campaign=yelp_api_v3&utm_medium=api_v3_business_search&utm_source=ywY5UnLZrNrRl2b93Ruy_g", "review_count": 23, "categories": [{"alias": "hotdogs", "title": "Fast Food"}, {"alias": "mexican", "title": "Mexican"}], "rating": 2.5, "coordinates": {"latitude": 42.3954159497321, "longitude": -71.5940485499634}, "transactions": [], "price": "$", "location": {"address1": "42 Highland Cmn E", "address2": null, "address3": null, "city": "Hudson", "zip_code": "01749", "country": "US", "state": "MA", "display_address": ["42 Highland Cmn E", "Hudson, MA 01749"]}, "phone": "+19785670630", "display_phone": "(978) 567-0630", "distance": 2933.8891143388996}, {"id": "YUpRg3X8ydhVzyw2UAHAeQ", "alias": "spruce-street-tavern-clinton", "name": "Spruce Street Tavern", "image_url": "https://s3-media2.fl.yelpcdn.com/bphoto/Dl5qsmzuK3a6OQHGn5zHVw/o.jpg", "is_closed": false, "url": "https://www.yelp.com/biz/spruce-street-tavern-clinton?adjust_creative=ywY5UnLZrNrRl2b93Ruy_g&utm_campaign=yelp_api_v3&utm_medium=api_v3_business_search&utm_source=ywY5UnLZrNrRl2b93Ruy_g", "review_count": 18, "categories": [{"alias": "pizza", "title": "Pizza"}, {"alias": "sportsbars", "title": "Sports Bars"}], "rating": 3.5, "coordinates": {"latitude": 42.4167016407114, "longitude": -71.6711352071381}, "transactions": ["delivery"], "price": "$$", "location": {"address1": "68 Spruce St", "address2": null, "address3": null, "city": "Clinton", "zip_code": "01510", "country": "US", "state": "MA", "display_address": ["68 Spruce St", "Clinton, MA 01510"]}, "phone": "+19783659071", "display_phone": "(978) 365-9071", "distance": 4959.151089922679}, {"id": "MYnxnyFm5KuC7geJdtmlAQ", "alias": "the-westender-marlborough", "name": "The Westender", "image_url": "https://s3-media1.fl.yelpcdn.com/bphoto/icMlYqhu6noD-UAh54fEOA/o.jpg", "is_closed": false, "url": "https://www.yelp.com/biz/the-westender-marlborough?adjust_creative=ywY5UnLZrNrRl2b93Ruy_g&utm_campaign=yelp_api_v3&utm_medium=api_v3_business_search&utm_source=ywY5UnLZrNrRl2b93Ruy_g", "review_count": 61, "categories": [{"alias": "sportsbars", "title": "Sports Bars"}, {"alias": "tradamerican", "title": "American (Traditional)"}, {"alias": "sandwiches", "title": "Sandwiches"}], "rating": 3.0, "coordinates": {"latitude": 42.3357763, "longitude": -71.6027098}, "transactions": ["delivery"], "price": "$$", "location": {"address1": "493 Boston Post Rd W", "address2": "", "address3": "", "city": "Marlborough", "zip_code": "01752", "country": "US", "state": "MA", "display_address": ["493 Boston Post Rd W", "Marlborough, MA 01752"]}, "phone": "+15084851185", "display_phone": "(508) 485-1185", "distance": 5837.600841214743}, {"id": "heRmqtj1WYbYNrkHFW3Czg", "alias": "peking-garden-hudson", "name": "Peking Garden", "image_url": "https://s3-media1.fl.yelpcdn.com/bphoto/L8h0vi7yK_ge6qh9xnK9Iw/o.jpg", "is_closed": false, "url": "https://www.yelp.com/biz/peking-garden-hudson?adjust_creative=ywY5UnLZrNrRl2b93Ruy_g&utm_campaign=yelp_api_v3&utm_medium=api_v3_business_search&utm_source=ywY5UnLZrNrRl2b93Ruy_g", "review_count": 30, "categories": [{"alias": "chinese", "title": "Chinese"}], "rating": 3.5, "coordinates": {"latitude": 42.3911521, "longitude": -71.5651437}, "transactions": [], "price": "$", "location": {"address1": "159 Main St", "address2": "", "address3": "", "city": "Hudson", "zip_code": "01749", "country": "US", "state": "MA", "display_address": ["159 Main St", "Hudson, MA 01749"]}, "phone": "+19785688545", "display_phone": "(978) 568-8545", "distance": 5334.637963075223}, {"id": "tkxOcZSk-EMi_NVL-3pMqw", "alias": "an-nam-vietnamese-grill-marlborough-2", "name": "An Nam Vietnamese Grill", "image_url": "https://s3-media2.fl.yelpcdn.com/bphoto/nO24qeBAVkyGWuBsmVdYWw/o.jpg", "is_closed": false, "url": "https://www.yelp.com/biz/an-nam-vietnamese-grill-marlborough-2?adjust_creative=ywY5UnLZrNrRl2b93Ruy_g&utm_campaign=yelp_api_v3&utm_medium=api_v3_business_search&utm_source=ywY5UnLZrNrRl2b93Ruy_g", "review_count": 139, "categories": [{"alias": "vietnamese", "title": "Vietnamese"}, {"alias": "coffee", "title": "Coffee & Tea"}, {"alias": "sandwiches", "title": "Sandwiches"}], "rating": 4.0, "coordinates": {"latitude": 42.3524373275723, "longitude": -71.5353861451149}, "transactions": ["pickup", "delivery"], "price": "$", "location": {"address1": "222 E Main St", "address2": null, "address3": null, "city": "Marlborough", "zip_code": "01752", "country": "US", "state": "MA", "display_address": ["222 E Main St", "Marlborough, MA 01752"]}, "phone": "+15084868199", "display_phone": "(508) 486-8199", "distance": 8508.688971700376}, {"id": "pjuh02hEmzHs0jeUFchSXQ", "alias": "bolton-street-tavern-marlborough-2", "name": "Bolton Street Tavern", "image_url": "https://s3-media2.fl.yelpcdn.com/bphoto/WPxtb5af1dQP7C3sgUobtA/o.jpg", "is_closed": false, "url": "https://www.yelp.com/biz/bolton-street-tavern-marlborough-2?adjust_creative=ywY5UnLZrNrRl2b93Ruy_g&utm_campaign=yelp_api_v3&utm_medium=api_v3_business_search&utm_source=ywY5UnLZrNrRl2b93Ruy_g", "review_count": 130, "categories": [{"alias": "tradamerican", "title": "American (Traditional)"}, {"alias": "beerbar", "title": "Beer Bar"}, {"alias": "newamerican", "title": "American (New)"}], "rating": 3.0, "coordinates": {"latitude": 42.3653907775879, "longitude": -71.5564041137695}, "transactions": ["delivery"], "price": "$$", "location": {"address1": "587 Bolton St", "address2": "", "address3": "", "city": "Marlborough", "zip_code": "01752", "country": "US", "state": "MA", "display_address": ["587 Bolton St", "Marlborough, MA 01752"]}, "phone": "+15084854416", "display_phone": "(508) 485-4416", "distance": 6373.258362586449}, {"id": "FsLoUIgBGoIwjynjVV0W3Q", "alias": "town-center-pizza-northborough", "name": "Town Center Pizza", "image_url": "https://s3-media1.fl.yelpcdn.com/bphoto/iVDx9kg82hIzm2Tra0pxtw/o.jpg", "is_closed": false, "url": "https://www.yelp.com/biz/town-center-pizza-northborough?adjust_creative=ywY5UnLZrNrRl2b93Ruy_g&utm_campaign=yelp_api_v3&utm_medium=api_v3_business_search&utm_source=ywY5UnLZrNrRl2b93Ruy_g", "review_count": 2, "categories": [{"alias": "pizza", "title": "Pizza"}], "rating": 5.0, "coordinates": {"latitude": 42.308871, "longitude": -71.654932}, "transactions": ["pickup", "delivery"], "location": {"address1": "245a  W Main St", "address2": "", "address3": null, "city": "Northborough", "zip_code": "01532", "country": "US", "state": "MA", "display_address": ["245a  W Main St", "Northborough, MA 01532"]}, "phone": "+15083516626", "display_phone": "(508) 351-6626", "distance": 8655.185724010902}, {"id": "WyMIjFwh6LPZlQVqvlsxwg", "alias": "prospector-east-saloon-marlborough", "name": "Prospector East Saloon", "image_url": "https://s3-media4.fl.yelpcdn.com/bphoto/D_57ZGUp_DVdBQKHqjd5RA/o.jpg", "is_closed": false, "url": "https://www.yelp.com/biz/prospector-east-saloon-marlborough?adjust_creative=ywY5UnLZrNrRl2b93Ruy_g&utm_campaign=yelp_api_v3&utm_medium=api_v3_business_search&utm_source=ywY5UnLZrNrRl2b93Ruy_g", "review_count": 22, "categories": [{"alias": "tradamerican", "title": "American (Traditional)"}, {"alias": "divebars", "title": "Dive Bars"}], "rating": 3.5, "coordinates": {"latitude": 42.3442752890891, "longitude": -71.5625023319477}, "transactions": [], "price": "$", "location": {"address1": "520 Lincoln St", "address2": "", "address3": "", "city": "Marlborough", "zip_code": "01752", "country": "US", "state": "MA", "display_address": ["520 Lincoln St", "Marlborough, MA 01752"]}, "phone": "+15084859072", "display_phone": "(508) 485-9072", "distance": 7084.981605978144}, {"id": "0A4VQx_avf84ZkWQUnrNUw", "alias": "the-pressedo-clinton", "name": "The Pressed'O", "image_url": "https://s3-media1.fl.yelpcdn.com/bphoto/cfkU0QmXCHP6S86IlWu5jw/o.jpg", "is_closed": false, "url": "https://www.yelp.com/biz/the-pressedo-clinton?adjust_creative=ywY5UnLZrNrRl2b93Ruy_g&utm_campaign=yelp_api_v3&utm_medium=api_v3_business_search&utm_source=ywY5UnLZrNrRl2b93Ruy_g", "review_count": 11, "categories": [{"alias": "juicebars", "title": "Juice Bars & Smoothies"}, {"alias": "cafes", "title": "Cafes"}], "rating": 4.5, "coordinates": {"latitude": 42.4181576, "longitude": -71.6847691}, "transactions": [], "price": "$$", "location": {"address1": "138 High St", "address2": null, "address3": "", "city": "Clinton", "zip_code": "01510", "country": "US", "state": "MA", "display_address": ["138 High St", "Clinton, MA 01510"]}, "phone": "+15088344036", "display_phone": "(508) 834-4036", "distance": 5925.871444464749}, {"id": "JPMD2SP18wA0P9lOqJxm-w", "alias": "sports-bar-and-cafe-bolton", "name": "Sports Bar and Cafe", "image_url": "https://s3-media3.fl.yelpcdn.com/bphoto/kVVHQSv6AkQwlAJ2Y7PBSQ/o.jpg", "is_closed": false, "url": "https://www.yelp.com/biz/sports-bar-and-cafe-bolton?adjust_creative=ywY5UnLZrNrRl2b93Ruy_g&utm_campaign=yelp_api_v3&utm_medium=api_v3_business_search&utm_source=ywY5UnLZrNrRl2b93Ruy_g", "review_count": 2, "categories": [{"alias": "sportsbars", "title": "Sports Bars"}, {"alias": "cafes", "title": "Cafes"}], "rating": 3.5, "coordinates": {"latitude": 42.4396095, "longitude": -71.6438293}, "transactions": [], "location": {"address1": "295 Wilder Rd", "address2": "", "address3": "", "city": "Bolton", "zip_code": "01740", "country": "US", "state": "MA", "display_address": ["295 Wilder Rd", "Bolton, MA 01740"]}, "phone": "+19787795020", "display_phone": "(978) 779-5020", "distance": 5749.146432769941}, {"id": "13NrQAiR9eAE_R5OvltiHQ", "alias": "the-simple-man-saloon-clinton", "name": "The Simple Man Saloon", "image_url": "https://s3-media2.fl.yelpcdn.com/bphoto/8YuAw5nqjSMEUOdyN4S16Q/o.jpg", "is_closed": false, "url": "https://www.yelp.com/biz/the-simple-man-saloon-clinton?adjust_creative=ywY5UnLZrNrRl2b93Ruy_g&utm_campaign=yelp_api_v3&utm_medium=api_v3_business_search&utm_source=ywY5UnLZrNrRl2b93Ruy_g", "review_count": 32, "categories": [{"alias": "bars", "title": "Bars"}, {"alias": "chicken_wings", "title": "Chicken Wings"}, {"alias": "sandwiches", "title": "Sandwiches"}], "rating": 3.5, "coordinates": {"latitude": 42.4178823083639, "longitude": -71.6845813393593}, "transactions": [], "price": "$$", "location": {"address1": "119 High St", "address2": "", "address3": "", "city": "Clinton", "zip_code": "01510", "country": "US", "state": "MA", "display_address": ["119 High St", "Clinton, MA 01510"]}, "phone": "+19783651949", "display_phone": "(978) 365-1949", "distance": 5835.210753897056}, {"id": "td9_HZedt7cDBJMqCP8vEQ", "alias": "mcp-cafeteria-marlborough", "name": "MCP Cafeteria", "image_url": "https://s3-media3.fl.yelpcdn.com/bphoto/g8El0zGlSHN9Mq9i_eEcqg/o.jpg", "is_closed": false, "url": "https://www.yelp.com/biz/mcp-cafeteria-marlborough?adjust_creative=ywY5UnLZrNrRl2b93Ruy_g&utm_campaign=yelp_api_v3&utm_medium=api_v3_business_search&utm_source=ywY5UnLZrNrRl2b93Ruy_g", "review_count": 1, "categories": [{"alias": "cafeteria", "title": "Cafeteria"}], "rating": 4.0, "coordinates": {"latitude": 42.33369, "longitude": -71.58935}, "transactions": [], "location": {"address1": "200 Nickerson Rd", "address2": "", "address3": null, "city": "Marlborough", "zip_code": "01752", "country": "US", "state": "MA", "display_address": ["200 Nickerson Rd", "Marlborough, MA 01752"]}, "phone": "+15084607822", "display_phone": "(508) 460-7822", "distance": 6564.584946783431}, {"id": "zuOyu-0c1Txtwt3_eBG-gg", "alias": "chick-fil-a-marlborough-2", "name": "Chick-fil-A", "image_url": "https://s3-media3.fl.yelpcdn.com/bphoto/ysLKPc_dEk-Z5KAjS_2DLw/o.jpg", "is_closed": false, "url": "https://www.yelp.com/biz/chick-fil-a-marlborough-2?adjust_creative=ywY5UnLZrNrRl2b93Ruy_g&utm_campaign=yelp_api_v3&utm_medium=api_v3_business_search&utm_source=ywY5UnLZrNrRl2b93Ruy_g", "review_count": 39, "categories": [{"alias": "hotdogs", "title": "Fast Food"}], "rating": 3.0, "coordinates": {"latitude": 42.3394009, "longitude": -71.585942}, "transactions": ["delivery"], "price": "$", "location": {"address1": "36 Apex Dr", "address2": "", "address3": null, "city": "Marlborough", "zip_code": "01752", "country": "US", "state": "MA", "display_address": ["36 Apex Dr", "Marlborough, MA 01752"]}, "phone": "+15082510402", "display_phone": "(508) 251-0402", "distance": 6151.501490158189}, {"id": "CBygd8nq4qooUNML3P6-sQ", "alias": "blvd-kitchen-and-bar-marlborough", "name": "BLVD Kitchen & Bar", "image_url": "https://s3-media3.fl.yelpcdn.com/bphoto/JSLdlnlZvZgsZthpfXkVCA/o.jpg", "is_closed": false, "url": "https://www.yelp.com/biz/blvd-kitchen-and-bar-marlborough?adjust_creative=ywY5UnLZrNrRl2b93Ruy_g&utm_campaign=yelp_api_v3&utm_medium=api_v3_business_search&utm_source=ywY5UnLZrNrRl2b93Ruy_g", "review_count": 14, "categories": [{"alias": "tradamerican", "title": "American (Traditional)"}, {"alias": "sandwiches", "title": "Sandwiches"}, {"alias": "cocktailbars", "title": "Cocktail Bars"}], "rating": 3.5, "coordinates": {"latitude": 42.3322823958177, "longitude": -71.5805226556284}, "transactions": [], "price": "$$", "location": {"address1": "170 Forest St", "address2": "", "address3": "", "city": "Marlborough", "zip_code": "01752", "country": "US", "state": "MA", "display_address": ["170 Forest St", "Marlborough, MA 01752"]}, "phone": "+15082516706", "display_phone": "(508) 251-6706", "distance": 7287.295542022597}, {"id": "WrYjq2BG5Dq9pXEQUqq3vQ", "alias": "okami-marlborough", "name": "Okami", "image_url": "https://s3-media3.fl.yelpcdn.com/bphoto/XSZnWjzs4ZHKqxDAlA4ghA/o.jpg", "is_closed": false, "url": "https://www.yelp.com/biz/okami-marlborough?adjust_creative=ywY5UnLZrNrRl2b93Ruy_g&utm_campaign=yelp_api_v3&utm_medium=api_v3_business_search&utm_source=ywY5UnLZrNrRl2b93Ruy_g", "review_count": 55, "categories": [{"alias": "sushi", "title": "Sushi Bars"}, {"alias": "japanese", "title": "Japanese"}, {"alias": "seafood", "title": "Seafood"}], "rating": 3.0, "coordinates": {"latitude": 42.339204, "longitude": -71.58705}, "transactions": ["pickup", "delivery"], "location": {"address1": "58 Apex Dr", "address2": "", "address3": null, "city": "Marlborough", "zip_code": "01752", "country": "US", "state": "MA", "display_address": ["58 Apex Dr", "Marlborough, MA 01752"]}, "phone": "+15086308586", "display_phone": "(508) 630-8586", "distance": 6116.9849641067185}, {"id": "qjWBHFSIMws1oCJD4olJ4Q", "alias": "starlight-grille-marlborough", "name": "Starlight Grille", "image_url": "https://s3-media1.fl.yelpcdn.com/bphoto/E24AlgEugkefMmQWyFWCGg/o.jpg", "is_closed": false, "url": "https://www.yelp.com/biz/starlight-grille-marlborough?adjust_creative=ywY5UnLZrNrRl2b93Ruy_g&utm_campaign=yelp_api_v3&utm_medium=api_v3_business_search&utm_source=ywY5UnLZrNrRl2b93Ruy_g", "review_count": 5, "categories": [{"alias": "tradamerican", "title": "American (Traditional)"}, {"alias": "hotdogs", "title": "Fast Food"}], "rating": 3.0, "coordinates": {"latitude": 42.365141, "longitude": -71.596324}, "transactions": [], "location": {"address1": "121 Donald Lynch Blvd", "address2": "", "address3": "", "city": "Marlborough", "zip_code": "01752", "country": "US", "state": "MA", "display_address": ["121 Donald Lynch Blvd", "Marlborough, MA 01752"]}, "phone": "+15082292700", "display_phone": "(508) 229-2700", "distance": 3465.3637038702186}, {"id": "mUTiQTmT_57Jk89m6UctIw", "alias": "lous-diner-clinton", "name": "Lou's Diner", "image_url": "https://s3-media2.fl.yelpcdn.com/bphoto/1KIZViqFdA9kYoJe9XX8Cg/o.jpg", "is_closed": false, "url": "https://www.yelp.com/biz/lous-diner-clinton?adjust_creative=ywY5UnLZrNrRl2b93Ruy_g&utm_campaign=yelp_api_v3&utm_medium=api_v3_business_search&utm_source=ywY5UnLZrNrRl2b93Ruy_g", "review_count": 15, "categories": [{"alias": "diners", "title": "Diners"}, {"alias": "catering", "title": "Caterers"}], "rating": 4.0, "coordinates": {"latitude": 42.413331, "longitude": -71.682325}, "transactions": ["delivery"], "price": "$", "location": {"address1": "100 Chestnut St", "address2": "", "address3": "", "city": "Clinton", "zip_code": "01510", "country": "US", "state": "MA", "display_address": ["100 Chestnut St", "Clinton, MA 01510"]}, "phone": "+19783659808", "display_phone": "(978) 365-9808", "distance": 5403.359009710927}, {"id": "CbGIKwCjGkpEuojbcRRldQ", "alias": "sammys-pizza-and-seafood-northborough", "name": "Sammy's Pizza and Seafood", "image_url": "https://s3-media1.fl.yelpcdn.com/bphoto/tfQxc4KBg0ULj3HWtUPKfw/o.jpg", "is_closed": false, "url": "https://www.yelp.com/biz/sammys-pizza-and-seafood-northborough?adjust_creative=ywY5UnLZrNrRl2b93Ruy_g&utm_campaign=yelp_api_v3&utm_medium=api_v3_business_search&utm_source=ywY5UnLZrNrRl2b93Ruy_g", "review_count": 10, "categories": [{"alias": "pizza", "title": "Pizza"}, {"alias": "italian", "title": "Italian"}, {"alias": "seafood", "title": "Seafood"}], "rating": 4.0, "coordinates": {"latitude": 42.32385, "longitude": -71.63011}, "transactions": ["pickup", "delivery"], "location": {"address1": "14 E Main St", "address2": null, "address3": "", "city": "Northborough", "zip_code": "01532", "country": "US", "state": "MA", "display_address": ["14 E Main St", "Northborough, MA 01532"]}, "phone": "+15084662007", "display_phone": "(508) 466-2007", "distance": 6729.9147458701755}, {"id": "wvegTS6N3Bo2_UIa22Vh2g", "alias": "bushel-n-peck-clinton", "name": "Bushel 'N Peck", "image_url": "https://s3-media2.fl.yelpcdn.com/bphoto/Q6ndePJXZH7FCLf6WWqpuA/o.jpg", "is_closed": false, "url": "https://www.yelp.com/biz/bushel-n-peck-clinton?adjust_creative=ywY5UnLZrNrRl2b93Ruy_g&utm_campaign=yelp_api_v3&utm_medium=api_v3_business_search&utm_source=ywY5UnLZrNrRl2b93Ruy_g", "review_count": 17, "categories": [{"alias": "delis", "title": "Delis"}], "rating": 3.0, "coordinates": {"latitude": 42.4161768056218, "longitude": -71.6851211339235}, "transactions": ["pickup", "delivery"], "price": "$", "location": {"address1": "120 Union St", "address2": "", "address3": "", "city": "Clinton", "zip_code": "01510", "country": "US", "state": "MA", "display_address": ["120 Union St", "Clinton, MA 01510"]}, "phone": "+19783689012", "display_phone": "(978) 368-9012", "distance": 5775.05494497436}, {"id": "sUrMzIFtP_NnpjKnbBEIqA", "alias": "wrong-way-cafe-clinton", "name": "Wrong Way Cafe", "image_url": "https://s3-media1.fl.yelpcdn.com/bphoto/7WrJyv-swy1Cu2hQeh-JxA/o.jpg", "is_closed": false, "url": "https://www.yelp.com/biz/wrong-way-cafe-clinton?adjust_creative=ywY5UnLZrNrRl2b93Ruy_g&utm_campaign=yelp_api_v3&utm_medium=api_v3_business_search&utm_source=ywY5UnLZrNrRl2b93Ruy_g", "review_count": 50, "categories": [{"alias": "cafes", "title": "Cafes"}, {"alias": "breakfast_brunch", "title": "Breakfast & Brunch"}, {"alias": "burgers", "title": "Burgers"}], "rating": 3.5, "coordinates": {"latitude": 42.4200782775879, "longitude": -71.6875686645508}, "transactions": [], "price": "$$", "location": {"address1": "610 Main St", "address2": "", "address3": "", "city": "Clinton", "zip_code": "01510", "country": "US", "state": "MA", "display_address": ["610 Main St", "Clinton, MA 01510"]}, "phone": "+19783654444", "display_phone": "(978) 365-4444", "distance": 6200.572353556954}, {"id": "iMEK6CbOyr5lEgXUvNdeJQ", "alias": "similan-thai-bistro-clinton", "name": "Similan Thai Bistro", "image_url": "https://s3-media2.fl.yelpcdn.com/bphoto/Kcvsfiq_y4lsvmH_wyknnw/o.jpg", "is_closed": false, "url": "https://www.yelp.com/biz/similan-thai-bistro-clinton?adjust_creative=ywY5UnLZrNrRl2b93Ruy_g&utm_campaign=yelp_api_v3&utm_medium=api_v3_business_search&utm_source=ywY5UnLZrNrRl2b93Ruy_g", "review_count": 84, "categories": [{"alias": "thai", "title": "Thai"}, {"alias": "vietnamese", "title": "Vietnamese"}, {"alias": "sushi", "title": "Sushi Bars"}], "rating": 4.0, "coordinates": {"latitude": 42.429174, "longitude": -71.6722346}, "transactions": ["delivery"], "price": "$$", "location": {"address1": "1175 Main St", "address2": "", "address3": "", "city": "Clinton", "zip_code": "01510", "country": "US", "state": "MA", "display_address": ["1175 Main St", "Clinton, MA 01510"]}, "phone": "+19783653003", "display_phone": "(978) 365-3003", "distance": 6091.062855649719}, {"id": "R5jj6OZubdN-18gkWslGMA", "alias": "star-ocean-hudson", "name": "Star Ocean", "image_url": "https://s3-media2.fl.yelpcdn.com/bphoto/PIX6GHTiK2NNx7xmOl3eKQ/o.jpg", "is_closed": false, "url": "https://www.yelp.com/biz/star-ocean-hudson?adjust_creative=ywY5UnLZrNrRl2b93Ruy_g&utm_campaign=yelp_api_v3&utm_medium=api_v3_business_search&utm_source=ywY5UnLZrNrRl2b93Ruy_g", "review_count": 33, "categories": [{"alias": "chinese", "title": "Chinese"}], "rating": 3.5, "coordinates": {"latitude": 42.3806190490723, "longitude": -71.5672073364258}, "transactions": ["pickup", "delivery"], "price": "$$", "location": {"address1": "200 Washington St", "address2": "", "address3": "", "city": "Hudson", "zip_code": "01749", "country": "US", "state": "MA", "display_address": ["200 Washington St", "Hudson, MA 01749"]}, "phone": "+19785688532", "display_phone": "(978) 568-8532", "distance": 5152.064719612524}, {"id": "CL5OitxeF-G0HUp8SxwVvw", "alias": "northboro-house-of-pizza-northborough", "name": "Northboro House of Pizza", "image_url": "https://s3-media4.fl.yelpcdn.com/bphoto/l9xL9YecH28dVqYotHuCHQ/o.jpg", "is_closed": false, "url": "https://www.yelp.com/biz/northboro-house-of-pizza-northborough?adjust_creative=ywY5UnLZrNrRl2b93Ruy_g&utm_campaign=yelp_api_v3&utm_medium=api_v3_business_search&utm_source=ywY5UnLZrNrRl2b93Ruy_g", "review_count": 61, "categories": [{"alias": "pizza", "title": "Pizza"}, {"alias": "italian", "title": "Italian"}, {"alias": "tradamerican", "title": "American (Traditional)"}], "rating": 4.0, "coordinates": {"latitude": 42.3195588, "longitude": -71.641643}, "transactions": ["delivery"], "price": "$", "location": {"address1": "12 Main St", "address2": "", "address3": "", "city": "Northborough", "zip_code": "01532", "country": "US", "state": "MA", "display_address": ["12 Main St", "Northborough, MA 01532"]}, "phone": "+15083933566", "display_phone": "(508) 393-3566", "distance": 7279.330921723423}, {"id": "bj3C45GIBxs51aldsXcdzA", "alias": "kennedys-market-marlborough", "name": "Kennedy's Market", "image_url": "https://s3-media4.fl.yelpcdn.com/bphoto/ajSiLDGpp1RSpKx3ZQoALA/o.jpg", "is_closed": false, "url": "https://www.yelp.com/biz/kennedys-market-marlborough?adjust_creative=ywY5UnLZrNrRl2b93Ruy_g&utm_campaign=yelp_api_v3&utm_medium=api_v3_business_search&utm_source=ywY5UnLZrNrRl2b93Ruy_g", "review_count": 28, "categories": [{"alias": "seafoodmarkets", "title": "Seafood Markets"}, {"alias": "delis", "title": "Delis"}, {"alias": "bakeries", "title": "Bakeries"}], "rating": 4.0, "coordinates": {"latitude": 42.3388, "longitude": -71.5428699}, "transactions": ["delivery"], "price": "$$", "location": {"address1": "247 Maple St", "address2": "", "address3": "", "city": "Marlborough", "zip_code": "01752", "country": "US", "state": "MA", "display_address": ["247 Maple St", "Marlborough, MA 01752"]}, "phone": "+15084855800", "display_phone": "(508) 485-5800", "distance": 8785.02918926622}, {"id": "frgbTYZzbvUPGO7rVnbYsQ", "alias": "china-garden-hudson", "name": "China Garden", "image_url": "https://s3-media4.fl.yelpcdn.com/bphoto/teLvN8EfW3XJGAMP7CSvCQ/o.jpg", "is_closed": false, "url": "https://www.yelp.com/biz/china-garden-hudson?adjust_creative=ywY5UnLZrNrRl2b93Ruy_g&utm_campaign=yelp_api_v3&utm_medium=api_v3_business_search&utm_source=ywY5UnLZrNrRl2b93Ruy_g", "review_count": 20, "categories": [{"alias": "chinese", "title": "Chinese"}], "rating": 3.5, "coordinates": {"latitude": 42.394047, "longitude": -71.544612}, "transactions": ["delivery"], "price": "$", "location": {"address1": "439 Main St", "address2": "", "address3": "", "city": "Hudson", "zip_code": "01749", "country": "US", "state": "MA", "display_address": ["439 Main St", "Hudson, MA 01749"]}, "phone": "+19785627464", "display_phone": "(978) 562-7464", "distance": 7052.399290126617}, {"id": "T7nl6xnnB4G6vJ9F_Fzx4w", "alias": "lago-grille-marlborough-2", "name": "Lago Grille", "image_url": "https://s3-media2.fl.yelpcdn.com/bphoto/UuC3F6nw4_8XIyWXxdEo3Q/o.jpg", "is_closed": false, "url": "https://www.yelp.com/biz/lago-grille-marlborough-2?adjust_creative=ywY5UnLZrNrRl2b93Ruy_g&utm_campaign=yelp_api_v3&utm_medium=api_v3_business_search&utm_source=ywY5UnLZrNrRl2b93Ruy_g", "review_count": 4, "categories": [{"alias": "sportsbars", "title": "Sports Bars"}, {"alias": "newamerican", "title": "American (New)"}], "rating": 2.5, "coordinates": {"latitude": 42.34234, "longitude": -71.57216}, "transactions": [], "location": {"address1": "265 Lakeside Ave", "address2": "", "address3": "Holiday Inn", "city": "Marlborough", "zip_code": "01752", "country": "US", "state": "MA", "display_address": ["265 Lakeside Ave", "Holiday Inn", "Marlborough, MA 01752"]}, "phone": "+15084813000", "display_phone": "(508) 481-3000", "distance": 6643.154240491671}, {"id": "OaMrZfDJzEr7AKyND3anuQ", "alias": "centro-america-cafe-hudson", "name": "Centro America Cafe", "image_url": "https://s3-media2.fl.yelpcdn.com/bphoto/YcgvJpFSIe1K-_oooUZwQw/o.jpg", "is_closed": false, "url": "https://www.yelp.com/biz/centro-america-cafe-hudson?adjust_creative=ywY5UnLZrNrRl2b93Ruy_g&utm_campaign=yelp_api_v3&utm_medium=api_v3_business_search&utm_source=ywY5UnLZrNrRl2b93Ruy_g", "review_count": 68, "categories": [{"alias": "breakfast_brunch", "title": "Breakfast & Brunch"}], "rating": 4.5, "coordinates": {"latitude": 42.3915099, "longitude": -71.5645963}, "transactions": ["delivery"], "price": "$", "location": {"address1": "172 Main St", "address2": "", "address3": "", "city": "Hudson", "zip_code": "01749", "country": "US", "state": "MA", "display_address": ["172 Main St", "Hudson, MA 01749"]}, "phone": "+19783107180", "display_phone": "(978) 310-7180", "distance": 5385.700440395488}, {"id": "4VZ518temqdS8cRLVQQJcw", "alias": "vinas-pizza-northborough", "name": "Vina's Pizza", "image_url": "https://s3-media3.fl.yelpcdn.com/bphoto/hxRBjAeSfH-NQHvXgnsOuQ/o.jpg", "is_closed": false, "url": "https://www.yelp.com/biz/vinas-pizza-northborough?adjust_creative=ywY5UnLZrNrRl2b93Ruy_g&utm_campaign=yelp_api_v3&utm_medium=api_v3_business_search&utm_source=ywY5UnLZrNrRl2b93Ruy_g", "review_count": 41, "categories": [{"alias": "pizza", "title": "Pizza"}], "rating": 4.0, "coordinates": {"latitude": 42.3280604493097, "longitude": -71.6189965907915}, "transactions": ["delivery"], "price": "$$", "location": {"address1": "308 Main St", "address2": "", "address3": "", "city": "Northborough", "zip_code": "01532", "country": "US", "state": "MA", "display_address": ["308 Main St", "Northborough, MA 01532"]}, "phone": "+15083935158", "display_phone": "(508) 393-5158", "distance": 6324.126841253352}, {"id": "PIKteplShuXxiDZbN420qA", "alias": "the-vin-bin-marlborough", "name": "The Vin Bin", "image_url": "https://s3-media3.fl.yelpcdn.com/bphoto/-_wmiUsVADJCFw6x0QFJHA/o.jpg", "is_closed": false, "url": "https://www.yelp.com/biz/the-vin-bin-marlborough?adjust_creative=ywY5UnLZrNrRl2b93Ruy_g&utm_campaign=yelp_api_v3&utm_medium=api_v3_business_search&utm_source=ywY5UnLZrNrRl2b93Ruy_g", "review_count": 137, "categories": [{"alias": "beer_and_wine", "title": "Beer, Wine & Spirits"}, {"alias": "sandwiches", "title": "Sandwiches"}, {"alias": "cafes", "title": "Cafes"}], "rating": 4.5, "coordinates": {"latitude": 42.34747, "longitude": -71.5460499}, "transactions": ["delivery"], "price": "$$", "location": {"address1": "91 Main St", "address2": "", "address3": "", "city": "Marlborough", "zip_code": "01752", "country": "US", "state": "MA", "display_address": ["91 Main St", "Marlborough, MA 01752"]}, "phone": "+15084809463", "display_phone": "(508) 480-9463", "distance": 7998.662934956756}, {"id": "UE1QsF82-PoOK0XfLFQ-jw", "alias": "coffeelands-clinton", "name": "Coffeelands", "image_url": "https://s3-media4.fl.yelpcdn.com/bphoto/f4kYWP4ZuXTgnNIV8H62vg/o.jpg", "is_closed": false, "url": "https://www.yelp.com/biz/coffeelands-clinton?adjust_creative=ywY5UnLZrNrRl2b93Ruy_g&utm_campaign=yelp_api_v3&utm_medium=api_v3_business_search&utm_source=ywY5UnLZrNrRl2b93Ruy_g", "review_count": 44, "categories": [{"alias": "coffee", "title": "Coffee & Tea"}, {"alias": "breakfast_brunch", "title": "Breakfast & Brunch"}], "rating": 4.5, "coordinates": {"latitude": 42.416834, "longitude": -71.684993}, "transactions": [], "price": "$$", "location": {"address1": "50 High St", "address2": "", "address3": "", "city": "Clinton", "zip_code": "01510", "country": "US", "state": "MA", "display_address": ["50 High St", "Clinton, MA 01510"]}, "phone": "+19787334277", "display_phone": "(978) 733-4277", "distance": 5811.774052702054}, {"id": "oeHSR1eibOi2lTKIXvwQHQ", "alias": "all-star-bar-and-grill-marlborough", "name": "All-Star Bar & Grill", "image_url": "https://s3-media2.fl.yelpcdn.com/bphoto/VFxAizYotJArdnCVxzXaBQ/o.jpg", "is_closed": false, "url": "https://www.yelp.com/biz/all-star-bar-and-grill-marlborough?adjust_creative=ywY5UnLZrNrRl2b93Ruy_g&utm_campaign=yelp_api_v3&utm_medium=api_v3_business_search&utm_source=ywY5UnLZrNrRl2b93Ruy_g", "review_count": 20, "categories": [{"alias": "bars", "title": "Bars"}, {"alias": "steak", "title": "Steakhouses"}, {"alias": "burgers", "title": "Burgers"}], "rating": 2.5, "coordinates": {"latitude": 42.34231, "longitude": -71.59046}, "transactions": ["delivery"], "price": "$$", "location": {"address1": "181 Boston Post Rd W", "address2": "", "address3": "", "city": "Marlborough", "zip_code": "01752", "country": "US", "state": "MA", "display_address": ["181 Boston Post Rd W", "Marlborough, MA 01752"]}, "phone": "+15083031783", "display_phone": "(508) 303-1783", "distance": 5673.567135991696}, {"id": "7W0y_LCSG3rM8eWXGV0W-A", "alias": "two-doors-away-cafe-northborough", "name": "Two Doors Away Cafe", "image_url": "https://s3-media4.fl.yelpcdn.com/bphoto/PlbdG4uU5RJp4kxfDbUfbQ/o.jpg", "is_closed": false, "url": "https://www.yelp.com/biz/two-doors-away-cafe-northborough?adjust_creative=ywY5UnLZrNrRl2b93Ruy_g&utm_campaign=yelp_api_v3&utm_medium=api_v3_business_search&utm_source=ywY5UnLZrNrRl2b93Ruy_g", "review_count": 22, "categories": [{"alias": "diners", "title": "Diners"}, {"alias": "fishnchips", "title": "Fish & Chips"}, {"alias": "breakfast_brunch", "title": "Breakfast & Brunch"}], "rating": 4.5, "coordinates": {"latitude": 42.3087485, "longitude": -71.6563162}, "transactions": ["delivery"], "price": "$$", "location": {"address1": "249 West Main St", "address2": null, "address3": "", "city": "Northborough", "zip_code": "01532", "country": "US", "state": "MA", "display_address": ["249 West Main St", "Northborough, MA 01532"]}, "phone": "+15083931362", "display_phone": "(508) 393-1362", "distance": 8687.81689383974}, {"id": "a_5RkjKd7jnxC2mpWFqLzA", "alias": "victors-50s-diner-hudson", "name": "Victor's 50's Diner", "image_url": "https://s3-media4.fl.yelpcdn.com/bphoto/mEevro3nFQ-Gp68ZgqMLmA/o.jpg", "is_closed": false, "url": "https://www.yelp.com/biz/victors-50s-diner-hudson?adjust_creative=ywY5UnLZrNrRl2b93Ruy_g&utm_campaign=yelp_api_v3&utm_medium=api_v3_business_search&utm_source=ywY5UnLZrNrRl2b93Ruy_g", "review_count": 119, "categories": [{"alias": "diners", "title": "Diners"}, {"alias": "breakfast_brunch", "title": "Breakfast & Brunch"}, {"alias": "tradamerican", "title": "American (Traditional)"}], "rating": 3.5, "coordinates": {"latitude": 42.3909214138985, "longitude": -71.5701053291559}, "transactions": [], "price": "$", "location": {"address1": "19 Washington St", "address2": "Ste 21", "address3": "", "city": "Hudson", "zip_code": "01749", "country": "US", "state": "MA", "display_address": ["19 Washington St", "Ste 21", "Hudson, MA 01749"]}, "phone": "+19785688222", "display_phone": "(978) 568-8222", "distance": 4930.653766910313}, {"id": "IMCjnRdJyP_VTrtErUsEKQ", "alias": "fresh-pond-panini-and-smoothie-bar-marlborough", "name": "Fresh Pond Panini & Smoothie Bar", "image_url": "https://s3-media2.fl.yelpcdn.com/bphoto/1n6wB4E354dAcqEG9GSwaA/o.jpg", "is_closed": false, "url": "https://www.yelp.com/biz/fresh-pond-panini-and-smoothie-bar-marlborough?adjust_creative=ywY5UnLZrNrRl2b93Ruy_g&utm_campaign=yelp_api_v3&utm_medium=api_v3_business_search&utm_source=ywY5UnLZrNrRl2b93Ruy_g", "review_count": 3, "categories": [{"alias": "sandwiches", "title": "Sandwiches"}, {"alias": "icecream", "title": "Ice Cream & Frozen Yogurt"}, {"alias": "juicebars", "title": "Juice Bars & Smoothies"}], "rating": 2.5, "coordinates": {"latitude": 42.35519, "longitude": -71.61291}, "transactions": ["delivery", "pickup"], "location": {"address1": "601 Donald Lynch Blvd", "address2": null, "address3": "Food Court", "city": "Marlborough", "zip_code": "01752", "country": "US", "state": "MA", "display_address": ["601 Donald Lynch Blvd", "Food Court", "Marlborough, MA 01752"]}, "phone": "+15087871008", "display_phone": "(508) 787-1008", "distance": 3436.5383110125263}, {"id": "O4VXTUdkBcoWC5oTxyIu_Q", "alias": "pickle-haus-deli-northborough", "name": "Pickle Haus Deli", "image_url": "https://s3-media1.fl.yelpcdn.com/bphoto/ZRUNDroTIFwfOS0fwBvu0Q/o.jpg", "is_closed": false, "url": "https://www.yelp.com/biz/pickle-haus-deli-northborough?adjust_creative=ywY5UnLZrNrRl2b93Ruy_g&utm_campaign=yelp_api_v3&utm_medium=api_v3_business_search&utm_source=ywY5UnLZrNrRl2b93Ruy_g", "review_count": 55, "categories": [{"alias": "delis", "title": "Delis"}], "rating": 4.0, "coordinates": {"latitude": 42.3089631, "longitude": -71.6571266}, "transactions": ["delivery", "pickup"], "price": "$", "location": {"address1": "276 W Main St", "address2": "", "address3": "", "city": "Northborough", "zip_code": "01532", "country": "US", "state": "MA", "display_address": ["276 W Main St", "Northborough, MA 01532"]}, "phone": "+15083936760", "display_phone": "(508) 393-6760", "distance": 8690.758329313578}, {"id": "dGHoyOtPpVXRuZ2_bINAQA", "alias": "sunshine-cafe-clinton-2", "name": "Sunshine Cafe", "image_url": "https://s3-media2.fl.yelpcdn.com/bphoto/HVozkZfVIYKqJuru8RJp-g/o.jpg", "is_closed": false, "url": "https://www.yelp.com/biz/sunshine-cafe-clinton-2?adjust_creative=ywY5UnLZrNrRl2b93Ruy_g&utm_campaign=yelp_api_v3&utm_medium=api_v3_business_search&utm_source=ywY5UnLZrNrRl2b93Ruy_g", "review_count": 27, "categories": [{"alias": "breakfast_brunch", "title": "Breakfast & Brunch"}, {"alias": "tradamerican", "title": "American (Traditional)"}, {"alias": "bakeries", "title": "Bakeries"}], "rating": 4.0, "coordinates": {"latitude": 42.4206156, "longitude": -71.6843925}, "transactions": ["pickup"], "price": "$", "location": {"address1": "310 High St", "address2": null, "address3": "", "city": "Clinton", "zip_code": "01510", "country": "US", "state": "MA", "display_address": ["310 High St", "Clinton, MA 01510"]}, "phone": "+19783681828", "display_phone": "(978) 368-1828", "distance": 6058.311501729448}, {"id": "IbU5tBs5Qkm9v3oDrtmxMQ", "alias": "cafe-641-hudson-2", "name": "Cafe 641", "image_url": "https://s3-media1.fl.yelpcdn.com/bphoto/LUqApj1YpCfOPM9_jrB3Ag/o.jpg", "is_closed": false, "url": "https://www.yelp.com/biz/cafe-641-hudson-2?adjust_creative=ywY5UnLZrNrRl2b93Ruy_g&utm_campaign=yelp_api_v3&utm_medium=api_v3_business_search&utm_source=ywY5UnLZrNrRl2b93Ruy_g", "review_count": 109, "categories": [{"alias": "coffee", "title": "Coffee & Tea"}, {"alias": "breakfast_brunch", "title": "Breakfast & Brunch"}, {"alias": "creperies", "title": "Creperies"}], "rating": 3.5, "coordinates": {"latitude": 42.3910387, "longitude": -71.5689016}, "transactions": ["delivery"], "price": "$$", "location": {"address1": "45 Main St", "address2": "", "address3": "", "city": "Hudson", "zip_code": "01749", "country": "US", "state": "MA", "display_address": ["45 Main St", "Hudson, MA 01749"]}, "phone": "+19785620641", "display_phone": "(978) 562-0641", "distance": 5030.104555796072}, {"id": "cfRUfb1Kd0jUtQ0YCcRWyw", "alias": "michaels-bridge-diner-lancaster", "name": "Michael's Bridge Diner", "image_url": "https://s3-media2.fl.yelpcdn.com/bphoto/EyHNDNGFcK4xgMepkIBYXA/o.jpg", "is_closed": false, "url": "https://www.yelp.com/biz/michaels-bridge-diner-lancaster?adjust_creative=ywY5UnLZrNrRl2b93Ruy_g&utm_campaign=yelp_api_v3&utm_medium=api_v3_business_search&utm_source=ywY5UnLZrNrRl2b93Ruy_g", "review_count": 107, "categories": [{"alias": "diners", "title": "Diners"}], "rating": 3.5, "coordinates": {"latitude": 42.4375419616699, "longitude": -71.6871566772461}, "transactions": [], "price": "$", "location": {"address1": "56 Main St", "address2": "", "address3": "", "city": "Lancaster", "zip_code": "01523", "country": "US", "state": "MA", "display_address": ["56 Main St", "Lancaster, MA 01523"]}, "phone": "+19783680630", "display_phone": "(978) 368-0630", "distance": 7565.672548848511}, {"id": "TDBdg9AUdfeo4cM3iG1BcA", "alias": "cjs-gourmet-pizzeria-hudson", "name": "Cj's Gourmet Pizzeria", "image_url": "https://s3-media4.fl.yelpcdn.com/bphoto/s5l0djincBdoJ0t5yB6c4A/o.jpg", "is_closed": false, "url": "https://www.yelp.com/biz/cjs-gourmet-pizzeria-hudson?adjust_creative=ywY5UnLZrNrRl2b93Ruy_g&utm_campaign=yelp_api_v3&utm_medium=api_v3_business_search&utm_source=ywY5UnLZrNrRl2b93Ruy_g", "review_count": 36, "categories": [{"alias": "pizza", "title": "Pizza"}], "rating": 3.5, "coordinates": {"latitude": 42.3805, "longitude": -71.56905}, "transactions": ["delivery"], "price": "$", "location": {"address1": "205 Washington Str", "address2": "", "address3": "", "city": "Hudson", "zip_code": "01749", "country": "US", "state": "MA", "display_address": ["205 Washington Str", "Hudson, MA 01749"]}, "phone": "+19785689955", "display_phone": "(978) 568-9955", "distance": 5059.090046571796}, {"id": "9PFl0tmJC1_E_9xHv2R6Uw", "alias": "archies-on-a-roll-marlborough-2", "name": "Archie's On a Roll", "image_url": "https://s3-media2.fl.yelpcdn.com/bphoto/ye59xHKVdq16gs6vsgobxQ/o.jpg", "is_closed": false, "url": "https://www.yelp.com/biz/archies-on-a-roll-marlborough-2?adjust_creative=ywY5UnLZrNrRl2b93Ruy_g&utm_campaign=yelp_api_v3&utm_medium=api_v3_business_search&utm_source=ywY5UnLZrNrRl2b93Ruy_g", "review_count": 22, "categories": [{"alias": "hotdog", "title": "Hot Dogs"}, {"alias": "foodtrucks", "title": "Food Trucks"}], "rating": 5.0, "coordinates": {"latitude": 42.3380065, "longitude": -71.5416095}, "transactions": [], "price": "$", "location": {"address1": "274 Maple St", "address2": "", "address3": "", "city": "Marlborough", "zip_code": "01752", "country": "US", "state": "MA", "display_address": ["274 Maple St", "Marlborough, MA 01752"]}, "phone": "+17742580444", "display_phone": "(774) 258-0444", "distance": 8872.46370264613}, {"id": "-lFGJ9U7YUSaqYm6ulJ81Q", "alias": "crown-fried-chicken-marlborough", "name": "Crown Fried Chicken", "image_url": "https://s3-media3.fl.yelpcdn.com/bphoto/swwUBX7GwhglaDrGmDVdMA/o.jpg", "is_closed": false, "url": "https://www.yelp.com/biz/crown-fried-chicken-marlborough?adjust_creative=ywY5UnLZrNrRl2b93Ruy_g&utm_campaign=yelp_api_v3&utm_medium=api_v3_business_search&utm_source=ywY5UnLZrNrRl2b93Ruy_g", "review_count": 19, "categories": [{"alias": "chickenshop", "title": "Chicken Shop"}, {"alias": "sandwiches", "title": "Sandwiches"}], "rating": 3.0, "coordinates": {"latitude": 42.3461435516869, "longitude": -71.5466016864038}, "transactions": ["delivery", "pickup"], "price": "$", "location": {"address1": "10 Weed St", "address2": "", "address3": null, "city": "Marlborough", "zip_code": "01752", "country": "US", "state": "MA", "display_address": ["10 Weed St", "Marlborough, MA 01752"]}, "phone": "+15084850690", "display_phone": "(508) 485-0690", "distance": 8029.341349173147}, {"id": "EsmZUMxS1TNaNB6xGl4wSA", "alias": "shangri-la-northborough", "name": "shangri-la", "image_url": "https://s3-media3.fl.yelpcdn.com/bphoto/uZWSFGdvHb6ZiLluQL6kxA/o.jpg", "is_closed": false, "url": "https://www.yelp.com/biz/shangri-la-northborough?adjust_creative=ywY5UnLZrNrRl2b93Ruy_g&utm_campaign=yelp_api_v3&utm_medium=api_v3_business_search&utm_source=ywY5UnLZrNrRl2b93Ruy_g", "review_count": 39, "categories": [{"alias": "cantonese", "title": "Cantonese"}], "rating": 3.5, "coordinates": {"latitude": 42.3092579, "longitude": -71.6560989}, "transactions": ["delivery"], "price": "$$", "location": {"address1": "259 West Main St", "address2": "", "address3": "", "city": "Northborough", "zip_code": "01532", "country": "US", "state": "MA", "display_address": ["259 West Main St", "Northborough, MA 01532"]}, "phone": "+15083933323", "display_phone": "(508) 393-3323", "distance": 8637.3490063283}, {"id": "YHMtc3aIPfqsXq3QFdxMDg", "alias": "chez-siam-marlborough", "name": "Chez Siam", "image_url": "https://s3-media2.fl.yelpcdn.com/bphoto/QP7ubS8LZzOBR-J4epS0XQ/o.jpg", "is_closed": false, "url": "https://www.yelp.com/biz/chez-siam-marlborough?adjust_creative=ywY5UnLZrNrRl2b93Ruy_g&utm_campaign=yelp_api_v3&utm_medium=api_v3_business_search&utm_source=ywY5UnLZrNrRl2b93Ruy_g", "review_count": 88, "categories": [{"alias": "thai", "title": "Thai"}], "rating": 3.5, "coordinates": {"latitude": 42.351482725276, "longitude": -71.534433838387}, "transactions": ["delivery"], "price": "$$", "location": {"address1": "280 E Main St", "address2": "", "address3": "", "city": "Marlborough", "zip_code": "01752", "country": "US", "state": "MA", "display_address": ["280 E Main St", "Marlborough, MA 01752"]}, "phone": "+15084853880", "display_phone": "(508) 485-3880", "distance": 8624.403239384807}, {"id": "4S1t_H0ihPUQ9wamuwuT8w", "alias": "tropical-cafe-marlborough-2", "name": "Tropical Cafe", "image_url": "https://s3-media4.fl.yelpcdn.com/bphoto/6U1HzQau266tqxCFwlayOw/o.jpg", "is_closed": false, "url": "https://www.yelp.com/biz/tropical-cafe-marlborough-2?adjust_creative=ywY5UnLZrNrRl2b93Ruy_g&utm_campaign=yelp_api_v3&utm_medium=api_v3_business_search&utm_source=ywY5UnLZrNrRl2b93Ruy_g", "review_count": 21, "categories": [{"alias": "brazilian", "title": "Brazilian"}], "rating": 3.0, "coordinates": {"latitude": 42.347351, "longitude": -71.553057}, "transactions": ["delivery", "pickup"], "price": "$$", "location": {"address1": "22 Rawlins Ave", "address2": "", "address3": "", "city": "Marlborough", "zip_code": "01752", "country": "US", "state": "MA", "display_address": ["22 Rawlins Ave", "Marlborough, MA 01752"]}, "phone": "+15084855399", "display_phone": "(508) 485-5399", "distance": 7510.223889021835}, {"id": "O1bLnelazRY6K2S7xy3U5A", "alias": "p-and-s-pizza-house-clinton", "name": "P & S Pizza House", "image_url": "https://s3-media2.fl.yelpcdn.com/bphoto/hm0-OF85q-1yWyjgRcnWtA/o.jpg", "is_closed": false, "url": "https://www.yelp.com/biz/p-and-s-pizza-house-clinton?adjust_creative=ywY5UnLZrNrRl2b93Ruy_g&utm_campaign=yelp_api_v3&utm_medium=api_v3_business_search&utm_source=ywY5UnLZrNrRl2b93Ruy_g", "review_count": 42, "categories": [{"alias": "pizza", "title": "Pizza"}], "rating": 3.5, "coordinates": {"latitude": 42.4207713, "longitude": -71.6840026}, "transactions": ["delivery"], "price": "$", "location": {"address1": "319 High St", "address2": "", "address3": "", "city": "Clinton", "zip_code": "01510", "country": "US", "state": "MA", "display_address": ["319 High St", "Clinton, MA 01510"]}, "phone": "+19783652221", "display_phone": "(978) 365-2221", "distance": 6016.443116060125}, {"id": "BHRiNL_aMX0SAZsWJXUmwQ", "alias": "funky-murphys-marlborough", "name": "Funky Murphy's", "image_url": "https://s3-media2.fl.yelpcdn.com/bphoto/OjUTCS4Ng8gd4WhX5KXr2g/o.jpg", "is_closed": false, "url": "https://www.yelp.com/biz/funky-murphys-marlborough?adjust_creative=ywY5UnLZrNrRl2b93Ruy_g&utm_campaign=yelp_api_v3&utm_medium=api_v3_business_search&utm_source=ywY5UnLZrNrRl2b93Ruy_g", "review_count": 64, "categories": [{"alias": "sportsbars", "title": "Sports Bars"}, {"alias": "irish", "title": "Irish"}], "rating": 2.5, "coordinates": {"latitude": 42.3474566, "longitude": -71.544041}, "transactions": ["delivery"], "price": "$$", "location": {"address1": "31 Main St", "address2": "", "address3": "", "city": "Marlborough", "zip_code": "01752", "country": "US", "state": "MA", "display_address": ["31 Main St", "Marlborough, MA 01752"]}, "phone": "+15082512771", "display_phone": "(508) 251-2771", "distance": 8134.266708569299}, {"id": "8_Hu0pVI-Ds3OMRZnt-dZg", "alias": "99-restaurants-hudson", "name": "99 Restaurants", "image_url": "https://s3-media1.fl.yelpcdn.com/bphoto/nWgVGs30qML3Phpw-J9fPg/o.jpg", "is_closed": false, "url": "https://www.yelp.com/biz/99-restaurants-hudson?adjust_creative=ywY5UnLZrNrRl2b93Ruy_g&utm_campaign=yelp_api_v3&utm_medium=api_v3_business_search&utm_source=ywY5UnLZrNrRl2b93Ruy_g", "review_count": 46, "categories": [{"alias": "tradamerican", "title": "American (Traditional)"}, {"alias": "pubs", "title": "Pubs"}, {"alias": "salad", "title": "Salad"}], "rating": 3.0, "coordinates": {"latitude": 42.37548, "longitude": -71.56504}, "transactions": [], "price": "$$", "location": {"address1": "255 Washington St", "address2": "", "address3": "", "city": "Hudson", "zip_code": "01749", "country": "US", "state": "MA", "display_address": ["255 Washington St", "Hudson, MA 01749"]}, "phone": "+19785629918", "display_phone": "(978) 562-9918", "distance": 5384.670229528436}, {"id": "NF8DRbqAITpCH1beYq8AOQ", "alias": "jakes-restaurant-and-coffee-shop-marlborough", "name": "Jake's Restaurant & Coffee Shop", "image_url": "https://s3-media2.fl.yelpcdn.com/bphoto/75cB-HxmiLxCgS9A7hembg/o.jpg", "is_closed": false, "url": "https://www.yelp.com/biz/jakes-restaurant-and-coffee-shop-marlborough?adjust_creative=ywY5UnLZrNrRl2b93Ruy_g&utm_campaign=yelp_api_v3&utm_medium=api_v3_business_search&utm_source=ywY5UnLZrNrRl2b93Ruy_g", "review_count": 157, "categories": [{"alias": "tradamerican", "title": "American (Traditional)"}, {"alias": "breakfast_brunch", "title": "Breakfast & Brunch"}], "rating": 4.0, "coordinates": {"latitude": 42.3471800860456, "longitude": -71.5438243746758}, "transactions": ["delivery"], "price": "$", "location": {"address1": "30 Main St", "address2": "", "address3": "", "city": "Marlborough", "zip_code": "01752", "country": "US", "state": "MA", "display_address": ["30 Main St", "Marlborough, MA 01752"]}, "phone": "+15084800414", "display_phone": "(508) 480-0414", "distance": 8164.665434520238}, {"id": "MHaomA7z9GWjj8xYbqS5eQ", "alias": "meadowbrook-orchards-sterling", "name": "Meadowbrook Orchards", "image_url": "https://s3-media2.fl.yelpcdn.com/bphoto/xU9PXUqvplv5qXsWPSu0YQ/o.jpg", "is_closed": false, "url": "https://www.yelp.com/biz/meadowbrook-orchards-sterling?adjust_creative=ywY5UnLZrNrRl2b93Ruy_g&utm_campaign=yelp_api_v3&utm_medium=api_v3_business_search&utm_source=ywY5UnLZrNrRl2b93Ruy_g", "review_count": 103, "categories": [{"alias": "sandwiches", "title": "Sandwiches"}, {"alias": "breakfast_brunch", "title": "Breakfast & Brunch"}], "rating": 4.0, "coordinates": {"latitude": 42.4239403046721, "longitude": -71.7209667983594}, "transactions": [], "price": "$", "location": {"address1": "209 Chace Hill Rd", "address2": "", "address3": "", "city": "Sterling", "zip_code": "01564", "country": "US", "state": "MA", "display_address": ["209 Chace Hill Rd", "Sterling, MA 01564"]}, "phone": "+19783657617", "display_phone": "(978) 365-7617", "distance": 8703.156349438434}, {"id": "RdkDtLJIPlCcEF2vwygT7Q", "alias": "tc-landos-hudson", "name": "TC Lando's", "image_url": "https://s3-media3.fl.yelpcdn.com/bphoto/V-gz_zLWqf4R0x6WBjH4jg/o.jpg", "is_closed": false, "url": "https://www.yelp.com/biz/tc-landos-hudson?adjust_creative=ywY5UnLZrNrRl2b93Ruy_g&utm_campaign=yelp_api_v3&utm_medium=api_v3_business_search&utm_source=ywY5UnLZrNrRl2b93Ruy_g", "review_count": 113, "categories": [{"alias": "pizza", "title": "Pizza"}, {"alias": "italian", "title": "Italian"}, {"alias": "sandwiches", "title": "Sandwiches"}], "rating": 3.0, "coordinates": {"latitude": 42.391052, "longitude": -71.565848}, "transactions": ["delivery"], "price": "$", "location": {"address1": "127 Main St", "address2": "", "address3": "", "city": "Hudson", "zip_code": "01749", "country": "US", "state": "MA", "display_address": ["127 Main St", "Hudson, MA 01749"]}, "phone": "+19785689432", "display_phone": "(978) 568-9432", "distance": 5276.146634646121}, {"id": "fGK0ImEngoNgYxJirHcPqQ", "alias": "chipotle-mexican-grill-marlborough-4", "name": "Chipotle Mexican Grill", "image_url": "https://s3-media3.fl.yelpcdn.com/bphoto/qJWkJoGBUPOx1gmCnG7LVA/o.jpg", "is_closed": false, "url": "https://www.yelp.com/biz/chipotle-mexican-grill-marlborough-4?adjust_creative=ywY5UnLZrNrRl2b93Ruy_g&utm_campaign=yelp_api_v3&utm_medium=api_v3_business_search&utm_source=ywY5UnLZrNrRl2b93Ruy_g", "review_count": 80, "categories": [{"alias": "mexican", "title": "Mexican"}, {"alias": "hotdogs", "title": "Fast Food"}], "rating": 3.0, "coordinates": {"latitude": 42.3387512123398, "longitude": -71.5914185643296}, "transactions": [], "price": "$", "location": {"address1": "237 Boston Post Rd W", "address2": "", "address3": "", "city": "Marlborough", "zip_code": "01752", "country": "US", "state": "MA", "display_address": ["237 Boston Post Rd W", "Marlborough, MA 01752"]}, "phone": "+15084808412", "display_phone": "(508) 480-8412", "distance": 5962.558311022503}, {"id": "Jx7qaHGmn1sKws49NEEdHA", "alias": "yoong-tong-thai-restaurant-northborough", "name": "Yoong Tong Thai Restaurant", "image_url": "https://s3-media1.fl.yelpcdn.com/bphoto/AIpMCsU1OeKA01Z61f_TbA/o.jpg", "is_closed": false, "url": "https://www.yelp.com/biz/yoong-tong-thai-restaurant-northborough?adjust_creative=ywY5UnLZrNrRl2b93Ruy_g&utm_campaign=yelp_api_v3&utm_medium=api_v3_business_search&utm_source=ywY5UnLZrNrRl2b93Ruy_g", "review_count": 74, "categories": [{"alias": "thai", "title": "Thai"}, {"alias": "sushi", "title": "Sushi Bars"}, {"alias": "seafood", "title": "Seafood"}], "rating": 3.0, "coordinates": {"latitude": 42.327344, "longitude": -71.621014}, "transactions": ["delivery", "pickup"], "price": "$$", "location": {"address1": "278 Main St", "address2": "", "address3": "", "city": "Northborough", "zip_code": "01532", "country": "US", "state": "MA", "display_address": ["278 Main St", "Northborough, MA 01532"]}, "phone": "+15083937714", "display_phone": "(508) 393-7714", "distance": 6383.328535747941}, {"id": "mC8OlNPwNOStBS1q_lsd5w", "alias": "classic-pizza-restaurant-iii-bolton", "name": "Classic Pizza Restaurant III", "image_url": "https://s3-media3.fl.yelpcdn.com/bphoto/yGH313pdLyHwlrkpPPe9VA/o.jpg", "is_closed": false, "url": "https://www.yelp.com/biz/classic-pizza-restaurant-iii-bolton?adjust_creative=ywY5UnLZrNrRl2b93Ruy_g&utm_campaign=yelp_api_v3&utm_medium=api_v3_business_search&utm_source=ywY5UnLZrNrRl2b93Ruy_g", "review_count": 30, "categories": [{"alias": "pizza", "title": "Pizza"}], "rating": 3.0, "coordinates": {"latitude": 42.44892, "longitude": -71.63441}, "transactions": ["delivery"], "price": "$$", "location": {"address1": "1076 Main St", "address2": "", "address3": "", "city": "Bolton", "zip_code": "01740", "country": "US", "state": "MA", "display_address": ["1076 Main St", "Bolton, MA 01740"]}, "phone": "+19787790200", "display_phone": "(978) 779-0200", "distance": 7209.529039962067}, {"id": "bPtFN1chVU6n8R92KY3BIA", "alias": "the-sandwich-co-marlborough", "name": "The Sandwich Co", "image_url": "https://s3-media4.fl.yelpcdn.com/bphoto/vDudwv_EgZjvIRS-lF1Chw/o.jpg", "is_closed": false, "url": "https://www.yelp.com/biz/the-sandwich-co-marlborough?adjust_creative=ywY5UnLZrNrRl2b93Ruy_g&utm_campaign=yelp_api_v3&utm_medium=api_v3_business_search&utm_source=ywY5UnLZrNrRl2b93Ruy_g", "review_count": 63, "categories": [{"alias": "sandwiches", "title": "Sandwiches"}, {"alias": "soup", "title": "Soup"}, {"alias": "breakfast_brunch", "title": "Breakfast & Brunch"}], "rating": 4.5, "coordinates": {"latitude": 42.3454122, "longitude": -71.5401478}, "transactions": ["delivery"], "price": "$", "location": {"address1": "162 Church St", "address2": "", "address3": "", "city": "Marlborough", "zip_code": "01752", "country": "US", "state": "MA", "display_address": ["162 Church St", "Marlborough, MA 01752"]}, "phone": "+15083033043", "display_phone": "(508) 303-3043", "distance": 8520.61649979551}, {"id": "AypkMW21YtRq0VBANgi0YA", "alias": "applebees-grill-bar-hudson-4", "name": "Applebee's Grill + Bar", "image_url": "https://s3-media1.fl.yelpcdn.com/bphoto/r0LkqD8JFARhmuI0KWFjIQ/o.jpg", "is_closed": false, "url": "https://www.yelp.com/biz/applebees-grill-bar-hudson-4?adjust_creative=ywY5UnLZrNrRl2b93Ruy_g&utm_campaign=yelp_api_v3&utm_medium=api_v3_business_search&utm_source=ywY5UnLZrNrRl2b93Ruy_g", "review_count": 43, "categories": [{"alias": "tradamerican", "title": "American (Traditional)"}, {"alias": "sportsbars", "title": "Sports Bars"}, {"alias": "burgers", "title": "Burgers"}], "rating": 2.5, "coordinates": {"latitude": 42.380262, "longitude": -71.566593}, "transactions": ["delivery"], "price": "$$", "location": {"address1": "222 Washington St", "address2": "", "address3": "", "city": "Hudson", "zip_code": "01749", "country": "US", "state": "MA", "display_address": ["222 Washington St", "Hudson, MA 01749"]}, "phone": "+19785671997", "display_phone": "(978) 567-1997", "distance": 5186.247134828804}, {"id": "OLiyVd6ESQgKl7krtu9AUQ", "alias": "brothers-pizza-hudson-2", "name": "Brothers Pizza", "image_url": "https://s3-media4.fl.yelpcdn.com/bphoto/K04PYQ9oyPAUDCcrd-X5RA/o.jpg", "is_closed": false, "url": "https://www.yelp.com/biz/brothers-pizza-hudson-2?adjust_creative=ywY5UnLZrNrRl2b93Ruy_g&utm_campaign=yelp_api_v3&utm_medium=api_v3_business_search&utm_source=ywY5UnLZrNrRl2b93Ruy_g", "review_count": 41, "categories": [{"alias": "salad", "title": "Salad"}, {"alias": "pizza", "title": "Pizza"}, {"alias": "sandwiches", "title": "Sandwiches"}], "rating": 3.5, "coordinates": {"latitude": 42.40323, "longitude": -71.55126}, "transactions": [], "price": "$", "location": {"address1": "275 Cox St", "address2": "", "address3": "", "city": "Hudson", "zip_code": "01749", "country": "US", "state": "MA", "display_address": ["275 Cox St", "Hudson, MA 01749"]}, "phone": "+19785629547", "display_phone": "(978) 562-9547", "distance": 6759.023281077227}, {"id": "43BTL_ywGJK3yPoVmDBO6Q", "alias": "jersey-mikes-subs-marlborough", "name": "Jersey Mike's Subs", "image_url": "https://s3-media1.fl.yelpcdn.com/bphoto/sUi-OGmch5bmKMbEaDtujw/o.jpg", "is_closed": false, "url": "https://www.yelp.com/biz/jersey-mikes-subs-marlborough?adjust_creative=ywY5UnLZrNrRl2b93Ruy_g&utm_campaign=yelp_api_v3&utm_medium=api_v3_business_search&utm_source=ywY5UnLZrNrRl2b93Ruy_g", "review_count": 49, "categories": [{"alias": "delis", "title": "Delis"}, {"alias": "sandwiches", "title": "Sandwiches"}, {"alias": "hotdogs", "title": "Fast Food"}], "rating": 3.5, "coordinates": {"latitude": 42.340132, "longitude": -71.582588}, "transactions": ["delivery", "pickup"], "price": "$$", "location": {"address1": "42 Boston Post Rd W", "address2": "", "address3": "", "city": "Marlborough", "zip_code": "01752", "country": "US", "state": "MA", "display_address": ["42 Boston Post Rd W", "Marlborough, MA 01752"]}, "phone": "+15084855940", "display_phone": "(508) 485-5940", "distance": 6251.523739101666}, {"id": "JhKrLBopP7xJMZjNl7VIZA", "alias": "main-street-bagel-factory-hudson", "name": "Main Street Bagel Factory", "image_url": "https://s3-media1.fl.yelpcdn.com/bphoto/zBu34GCJCjFyK-X7OO5sXA/o.jpg", "is_closed": false, "url": "https://www.yelp.com/biz/main-street-bagel-factory-hudson?adjust_creative=ywY5UnLZrNrRl2b93Ruy_g&utm_campaign=yelp_api_v3&utm_medium=api_v3_business_search&utm_source=ywY5UnLZrNrRl2b93Ruy_g", "review_count": 51, "categories": [{"alias": "breakfast_brunch", "title": "Breakfast & Brunch"}, {"alias": "bakeries", "title": "Bakeries"}, {"alias": "coffee", "title": "Coffee & Tea"}], "rating": 4.0, "coordinates": {"latitude": 42.3910951, "longitude": -71.5688191}, "transactions": ["delivery"], "price": "$", "location": {"address1": "51 Main St", "address2": "", "address3": null, "city": "Hudson", "zip_code": "01749", "country": "US", "state": "MA", "display_address": ["51 Main St", "Hudson, MA 01749"]}, "phone": "+19785621100", "display_phone": "(978) 562-1100", "distance": 5057.945912601209}, {"id": "CcxR_V2MHebD3FEYu6OUSw", "alias": "brothers-pizza-clinton", "name": "Brothers Pizza", "image_url": "https://s3-media2.fl.yelpcdn.com/bphoto/xIWkq9-h9m6nG1EeDDTzAA/o.jpg", "is_closed": false, "url": "https://www.yelp.com/biz/brothers-pizza-clinton?adjust_creative=ywY5UnLZrNrRl2b93Ruy_g&utm_campaign=yelp_api_v3&utm_medium=api_v3_business_search&utm_source=ywY5UnLZrNrRl2b93Ruy_g", "review_count": 25, "categories": [{"alias": "pizza", "title": "Pizza"}], "rating": 3.5, "coordinates": {"latitude": 42.418583, "longitude": -71.684242}, "transactions": ["delivery"], "price": "$", "location": {"address1": "165 High St", "address2": null, "address3": null, "city": "Clinton", "zip_code": "01510", "country": "US", "state": "MA", "display_address": ["165 High St", "Clinton, MA 01510"]}, "phone": "+19783657700", "display_phone": "(978) 365-7700", "distance": 5887.127223859976}, {"id": "4m7vcJcBJoJLXKSfwp-aDQ", "alias": "mr-zs-pizza-clinton", "name": "Mr Z's Pizza", "image_url": "https://s3-media2.fl.yelpcdn.com/bphoto/v0YciY1fTfeMsxNH_qwWfg/o.jpg", "is_closed": false, "url": "https://www.yelp.com/biz/mr-zs-pizza-clinton?adjust_creative=ywY5UnLZrNrRl2b93Ruy_g&utm_campaign=yelp_api_v3&utm_medium=api_v3_business_search&utm_source=ywY5UnLZrNrRl2b93Ruy_g", "review_count": 44, "categories": [{"alias": "pizza", "title": "Pizza"}, {"alias": "italian", "title": "Italian"}], "rating": 3.0, "coordinates": {"latitude": 42.41975, "longitude": -71.68401}, "transactions": ["delivery"], "price": "$", "location": {"address1": "267 High St", "address2": "", "address3": "", "city": "Clinton", "zip_code": "01510", "country": "US", "state": "MA", "display_address": ["267 High St", "Clinton, MA 01510"]}, "phone": "+19783688210", "display_phone": "(978) 368-8210", "distance": 5958.684224132435}, {"id": "r9XKMBAvpz1b7iVMq_LjkA", "alias": "evolutions-cafe-marlborough", "name": "Evolutions Cafe", "image_url": "https://s3-media1.fl.yelpcdn.com/bphoto/dwwqtDDX0SujtvRIkYJP8w/o.jpg", "is_closed": false, "url": "https://www.yelp.com/biz/evolutions-cafe-marlborough?adjust_creative=ywY5UnLZrNrRl2b93Ruy_g&utm_campaign=yelp_api_v3&utm_medium=api_v3_business_search&utm_source=ywY5UnLZrNrRl2b93Ruy_g", "review_count": 2, "categories": [{"alias": "cafeteria", "title": "Cafeteria"}], "rating": 2.0, "coordinates": {"latitude": 42.33332, "longitude": -71.57044}, "transactions": [], "location": {"address1": "26 Forest St", "address2": "", "address3": "Lake Williams Office Park", "city": "Marlborough", "zip_code": "01752", "country": "US", "state": "MA", "display_address": ["26 Forest St", "Lake Williams Office Park", "Marlborough, MA 01752"]}, "phone": "+15084608915", "display_phone": "(508) 460-8915", "distance": 7543.135885804533}, {"id": "56cyF3yM4-Z2yxbWjLu4rQ", "alias": "the-trolley-stop-pizzaria-plus-south-lancaster", "name": "The Trolley Stop Pizzaria Plus", "image_url": "https://s3-media1.fl.yelpcdn.com/bphoto/GzTYFbz6PBabXLjFgXcpbg/o.jpg", "is_closed": false, "url": "https://www.yelp.com/biz/the-trolley-stop-pizzaria-plus-south-lancaster?adjust_creative=ywY5UnLZrNrRl2b93Ruy_g&utm_campaign=yelp_api_v3&utm_medium=api_v3_business_search&utm_source=ywY5UnLZrNrRl2b93Ruy_g", "review_count": 23, "categories": [{"alias": "pizza", "title": "Pizza"}], "rating": 3.5, "coordinates": {"latitude": 42.443111, "longitude": -71.686279}, "transactions": ["delivery"], "price": "$", "location": {"address1": "18 Prescott St", "address2": "", "address3": "", "city": "South Lancaster", "zip_code": "01561", "country": "US", "state": "MA", "display_address": ["18 Prescott St", "South Lancaster, MA 01561"]}, "phone": "+19783688331", "display_phone": "(978) 368-8331", "distance": 8024.709268888621}, {"id": "XwlihIXGkhmHyMFh1G3-cw", "alias": "mandarin-pan-chinese-food-restaurant-northborough", "name": "Mandarin Pan Chinese Food Restaurant", "image_url": "https://s3-media4.fl.yelpcdn.com/bphoto/kKVv7Xhqu_A0EHemc7zmpw/o.jpg", "is_closed": false, "url": "https://www.yelp.com/biz/mandarin-pan-chinese-food-restaurant-northborough?adjust_creative=ywY5UnLZrNrRl2b93Ruy_g&utm_campaign=yelp_api_v3&utm_medium=api_v3_business_search&utm_source=ywY5UnLZrNrRl2b93Ruy_g", "review_count": 21, "categories": [{"alias": "chinese", "title": "Chinese"}], "rating": 3.5, "coordinates": {"latitude": 42.327457, "longitude": -71.620203}, "transactions": ["delivery"], "price": "$", "location": {"address1": "292 Main St", "address2": "", "address3": "", "city": "Northborough", "zip_code": "01532", "country": "US", "state": "MA", "display_address": ["292 Main St", "Northborough, MA 01532"]}, "phone": "+15083930576", "display_phone": "(508) 393-0576", "distance": 6372.597714947575}, {"id": "BwujwNVx_D_VbETXsT21Jg", "alias": "epicurean-feast-bsc-marlborough-marlborough", "name": "Epicurean Feast - BSC Marlborough", "image_url": "https://s3-media4.fl.yelpcdn.com/bphoto/_yhdRG8G9enLaX8cd1PIxw/o.jpg", "is_closed": false, "url": "https://www.yelp.com/biz/epicurean-feast-bsc-marlborough-marlborough?adjust_creative=ywY5UnLZrNrRl2b93Ruy_g&utm_campaign=yelp_api_v3&utm_medium=api_v3_business_search&utm_source=ywY5UnLZrNrRl2b93Ruy_g", "review_count": 3, "categories": [{"alias": "cafes", "title": "Cafes"}, {"alias": "breakfast_brunch", "title": "Breakfast & Brunch"}], "rating": 4.0, "coordinates": {"latitude": 42.360837, "longitude": -71.556753}, "transactions": [], "location": {"address1": "100 Boston Scientific Way", "address2": "Bldg 100 - Fl 2", "address3": "", "city": "Marlborough", "zip_code": "01752", "country": "US", "state": "MA", "display_address": ["100 Boston Scientific Way", "Bldg 100 - Fl 2", "Marlborough, MA 01752"]}, "phone": "+15086834075", "display_phone": "(508) 683-4075", "distance": 6524.303922637402}, {"id": "mGcEgS2MsAnDOJqkS0262w", "alias": "sarku-japan-marlborough", "name": "Sarku Japan", "image_url": "https://s3-media4.fl.yelpcdn.com/bphoto/QhdQPGSACFtIZ5gCJ03OkA/o.jpg", "is_closed": false, "url": "https://www.yelp.com/biz/sarku-japan-marlborough?adjust_creative=ywY5UnLZrNrRl2b93Ruy_g&utm_campaign=yelp_api_v3&utm_medium=api_v3_business_search&utm_source=ywY5UnLZrNrRl2b93Ruy_g", "review_count": 24, "categories": [{"alias": "japanese", "title": "Japanese"}], "rating": 3.5, "coordinates": {"latitude": 42.355641, "longitude": -71.612216}, "transactions": ["delivery"], "price": "$", "location": {"address1": "601 Donald Lynch Blvd", "address2": "", "address3": "", "city": "Marlborough", "zip_code": "01752", "country": "US", "state": "MA", "display_address": ["601 Donald Lynch Blvd", "Marlborough, MA 01752"]}, "phone": "+15087860604", "display_phone": "(508) 786-0604", "distance": 3498.8613503621377}, {"id": "RjxXVpMBqhrGB7PzJV8N4Q", "alias": "yummykitchen-marlboro", "name": "Yummykitchen", "image_url": "https://s3-media4.fl.yelpcdn.com/bphoto/pKQJRBrvIXKSyosNj6CULA/o.jpg", "is_closed": false, "url": "https://www.yelp.com/biz/yummykitchen-marlboro?adjust_creative=ywY5UnLZrNrRl2b93Ruy_g&utm_campaign=yelp_api_v3&utm_medium=api_v3_business_search&utm_source=ywY5UnLZrNrRl2b93Ruy_g", "review_count": 40, "categories": [{"alias": "chinese", "title": "Chinese"}], "rating": 3.0, "coordinates": {"latitude": 42.3515759602416, "longitude": -71.5289249361763}, "transactions": ["delivery"], "price": "$$", "location": {"address1": "42 Boston Post Rd E", "address2": null, "address3": "", "city": "Marlboro", "zip_code": "01752", "country": "US", "state": "MA", "display_address": ["42 Boston Post Rd E", "Marlboro, MA 01752"]}, "phone": "+15084603878", "display_phone": "(508) 460-3878", "distance": 9032.032846106586}, {"id": "6Rb1cZiuhBPILcHxfbInig", "alias": "primo-pizza-clinton", "name": "Primo Pizza", "image_url": "https://s3-media3.fl.yelpcdn.com/bphoto/kj98GjsK_Khsx-nE2FtE4A/o.jpg", "is_closed": false, "url": "https://www.yelp.com/biz/primo-pizza-clinton?adjust_creative=ywY5UnLZrNrRl2b93Ruy_g&utm_campaign=yelp_api_v3&utm_medium=api_v3_business_search&utm_source=ywY5UnLZrNrRl2b93Ruy_g", "review_count": 16, "categories": [{"alias": "pizza", "title": "Pizza"}], "rating": 2.5, "coordinates": {"latitude": 42.434662, "longitude": -71.684218}, "transactions": ["delivery"], "price": "$", "location": {"address1": "1175 Main St", "address2": "Ste 18", "address3": "", "city": "Clinton", "zip_code": "01510", "country": "US", "state": "MA", "display_address": ["1175 Main St", "Ste 18", "Clinton, MA 01510"]}, "phone": "+19783655585", "display_phone": "(978) 365-5585", "distance": 7170.90487079447}, {"id": "NZY-04J2vw9kc_M7ljwlTA", "alias": "the-coffee-loft-marlborough", "name": "The Coffee Loft", "image_url": "https://s3-media3.fl.yelpcdn.com/bphoto/NT0ZKC0ntjbLehTBkA1-7g/o.jpg", "is_closed": false, "url": "https://www.yelp.com/biz/the-coffee-loft-marlborough?adjust_creative=ywY5UnLZrNrRl2b93Ruy_g&utm_campaign=yelp_api_v3&utm_medium=api_v3_business_search&utm_source=ywY5UnLZrNrRl2b93Ruy_g", "review_count": 167, "categories": [{"alias": "coffee", "title": "Coffee & Tea"}, {"alias": "breakfast_brunch", "title": "Breakfast & Brunch"}, {"alias": "sandwiches", "title": "Sandwiches"}], "rating": 4.5, "coordinates": {"latitude": 42.3462883815098, "longitude": -71.5582647808215}, "transactions": ["delivery"], "price": "$", "location": {"address1": "406 Lincoln St", "address2": "", "address3": "", "city": "Marlborough", "zip_code": "01752", "country": "US", "state": "MA", "display_address": ["406 Lincoln St", "Marlborough, MA 01752"]}, "phone": "+15082512754", "display_phone": "(508) 251-2754", "distance": 7225.063022687272}, {"id": "AqTMMN83eWyqcIFBr8yitA", "alias": "frederiques-shrewsbury", "name": "Frederiques", "image_url": "", "is_closed": false, "url": "https://www.yelp.com/biz/frederiques-shrewsbury?adjust_creative=ywY5UnLZrNrRl2b93Ruy_g&utm_campaign=yelp_api_v3&utm_medium=api_v3_business_search&utm_source=ywY5UnLZrNrRl2b93Ruy_g", "review_count": 2, "categories": [{"alias": "mediterranean", "title": "Mediterranean"}], "rating": 2.0, "coordinates": {"latitude": 52.707634, "longitude": -2.7532721}, "transactions": [], "location": {"address1": "16 High Street", "address2": "Albrighton", "address3": "", "city": "Shrewsbury", "zip_code": "WV7 3JT", "country": "GB", "state": "SHR", "display_address": ["16 High Street", "Albrighton", "Shrewsbury WV7 3JT", "United Kingdom"]}, "phone": "+441902375774", "display_phone": "+44 1902 375774", "distance": 9832.349826688305}, {"id": "MXS3iHfsGCe-cLmBa1Mfuw", "alias": "clockwork-pizza-marlborough", "name": "Clockwork Pizza", "image_url": "https://s3-media4.fl.yelpcdn.com/bphoto/a28tbSow9L9RdrVQMwilaA/o.jpg", "is_closed": false, "url": "https://www.yelp.com/biz/clockwork-pizza-marlborough?adjust_creative=ywY5UnLZrNrRl2b93Ruy_g&utm_campaign=yelp_api_v3&utm_medium=api_v3_business_search&utm_source=ywY5UnLZrNrRl2b93Ruy_g", "review_count": 73, "categories": [{"alias": "pizza", "title": "Pizza"}, {"alias": "italian", "title": "Italian"}, {"alias": "salad", "title": "Salad"}], "rating": 3.0, "coordinates": {"latitude": 42.346508, "longitude": -71.543357}, "transactions": ["delivery", "pickup"], "price": "$", "location": {"address1": "19 Maple St", "address2": "Unit C", "address3": "", "city": "Marlborough", "zip_code": "01752", "country": "US", "state": "MA", "display_address": ["19 Maple St", "Unit C", "Marlborough, MA 01752"]}, "phone": "+15086246555", "display_phone": "(508) 624-6555", "distance": 8235.804739616686}, {"id": "i1HmNfSIn_t5C0S4Bze8Jw", "alias": "wendys-marlborough", "name": "Wendy's", "image_url": "https://s3-media3.fl.yelpcdn.com/bphoto/4NBmAj37SE7arzhti1O3xQ/o.jpg", "is_closed": false, "url": "https://www.yelp.com/biz/wendys-marlborough?adjust_creative=ywY5UnLZrNrRl2b93Ruy_g&utm_campaign=yelp_api_v3&utm_medium=api_v3_business_search&utm_source=ywY5UnLZrNrRl2b93Ruy_g", "review_count": 33, "categories": [{"alias": "burgers", "title": "Burgers"}, {"alias": "hotdogs", "title": "Fast Food"}], "rating": 2.5, "coordinates": {"latitude": 42.33865, "longitude": -71.58912}, "transactions": ["delivery"], "price": "$", "location": {"address1": "176 Boston Post Rd West", "address2": "", "address3": "", "city": "Marlborough", "zip_code": "01752", "country": "US", "state": "MA", "display_address": ["176 Boston Post Rd West", "Marlborough, MA 01752"]}, "phone": "+15084815366", "display_phone": "(508) 481-5366", "distance": 6081.509910174264}, {"id": "Q2qwA_j7nZjNwVTdJ1Islw", "alias": "post-road-tavern-marlborough", "name": "Post Road Tavern", "image_url": "", "is_closed": false, "url": "https://www.yelp.com/biz/post-road-tavern-marlborough?adjust_creative=ywY5UnLZrNrRl2b93Ruy_g&utm_campaign=yelp_api_v3&utm_medium=api_v3_business_search&utm_source=ywY5UnLZrNrRl2b93Ruy_g", "review_count": 2, "categories": [{"alias": "restaurants", "title": "Restaurants"}], "rating": 3.0, "coordinates": {"latitude": 42.34295, "longitude": -71.57774}, "transactions": [], "location": {"address1": "75 Felton St", "address2": "", "address3": "", "city": "Marlborough", "zip_code": "01752", "country": "US", "state": "MA", "display_address": ["75 Felton St", "Marlborough, MA 01752"]}, "phone": "+15084800015", "display_phone": "(508) 480-0015", "distance": 6252.261662183859}, {"id": "4xcoUW4RtScYNPQqqPmxqQ", "alias": "pizza-19-southborough-2", "name": "Pizza 19", "image_url": "https://s3-media4.fl.yelpcdn.com/bphoto/d9ddGekEsCQplQEXOjHVrA/o.jpg", "is_closed": false, "url": "https://www.yelp.com/biz/pizza-19-southborough-2?adjust_creative=ywY5UnLZrNrRl2b93Ruy_g&utm_campaign=yelp_api_v3&utm_medium=api_v3_business_search&utm_source=ywY5UnLZrNrRl2b93Ruy_g", "review_count": 23, "categories": [{"alias": "pizza", "title": "Pizza"}], "rating": 4.0, "coordinates": {"latitude": 42.3203011, "longitude": -71.5287844}, "transactions": ["delivery"], "price": "$$", "location": {"address1": "150 Framingham Rd", "address2": "", "address3": "", "city": "Southborough", "zip_code": "01772", "country": "US", "state": "MA", "display_address": ["150 Framingham Rd", "Southborough, MA 01772"]}, "phone": "+15082810319", "display_phone": "(508) 281-0319", "distance": 10921.765674690982}, {"id": "Tv26Jz8wjeTrRCeC1s1qeQ", "alias": "mamas-pizzeria-and-more-northborough", "name": "Mama's Pizzeria and More", "image_url": "https://s3-media2.fl.yelpcdn.com/bphoto/Z61FTt7njIEBgwvNQf9m7Q/o.jpg", "is_closed": false, "url": "https://www.yelp.com/biz/mamas-pizzeria-and-more-northborough?adjust_creative=ywY5UnLZrNrRl2b93Ruy_g&utm_campaign=yelp_api_v3&utm_medium=api_v3_business_search&utm_source=ywY5UnLZrNrRl2b93Ruy_g", "review_count": 42, "categories": [{"alias": "pizza", "title": "Pizza"}], "rating": 3.5, "coordinates": {"latitude": 42.31989, "longitude": -71.64186}, "transactions": ["delivery"], "price": "$", "location": {"address1": "10 Blake St", "address2": "", "address3": "", "city": "Northborough", "zip_code": "01532", "country": "US", "state": "MA", "display_address": ["10 Blake St", "Northborough, MA 01532"]}, "phone": "+15083939988", "display_phone": "(508) 393-9988", "distance": 7134.197406280189}, {"id": "KZLS69IIq7TT_aq85qS2ew", "alias": "chins-garden-restaurant-marlborough", "name": "Chin's Garden Restaurant", "image_url": "https://s3-media2.fl.yelpcdn.com/bphoto/mYXEqWuXRqXV-vU9XDm_ig/o.jpg", "is_closed": false, "url": "https://www.yelp.com/biz/chins-garden-restaurant-marlborough?adjust_creative=ywY5UnLZrNrRl2b93Ruy_g&utm_campaign=yelp_api_v3&utm_medium=api_v3_business_search&utm_source=ywY5UnLZrNrRl2b93Ruy_g", "review_count": 52, "categories": [{"alias": "chinese", "title": "Chinese"}, {"alias": "bars", "title": "Bars"}], "rating": 2.5, "coordinates": {"latitude": 42.34685, "longitude": -71.5466}, "transactions": ["delivery"], "price": "$$", "location": {"address1": "106 Main St", "address2": "", "address3": "", "city": "Marlborough", "zip_code": "01752", "country": "US", "state": "MA", "display_address": ["106 Main St", "Marlborough, MA 01752"]}, "phone": "+15084812822", "display_phone": "(508) 481-2822", "distance": 7982.041069705301}, {"id": "B-iD3SYSDP-1olw8dobScg", "alias": "ruby-thai-kitchen-marlborough", "name": "Ruby Thai Kitchen", "image_url": "https://s3-media2.fl.yelpcdn.com/bphoto/AWF84ND20-eV0NZiCrEd9g/o.jpg", "is_closed": false, "url": "https://www.yelp.com/biz/ruby-thai-kitchen-marlborough?adjust_creative=ywY5UnLZrNrRl2b93Ruy_g&utm_campaign=yelp_api_v3&utm_medium=api_v3_business_search&utm_source=ywY5UnLZrNrRl2b93Ruy_g", "review_count": 12, "categories": [{"alias": "thai", "title": "Thai"}, {"alias": "halal", "title": "Halal"}], "rating": 2.5, "coordinates": {"latitude": 42.355432, "longitude": -71.612767}, "transactions": [], "price": "$", "location": {"address1": "601 Donald Lynch Blvd", "address2": "Ste 5203", "address3": null, "city": "Marlborough", "zip_code": "01752", "country": "US", "state": "MA", "display_address": ["601 Donald Lynch Blvd", "Ste 5203", "Marlborough, MA 01752"]}, "phone": "+15087865858", "display_phone": "(508) 786-5858", "distance": 3502.1192133424033}, {"id": "0zYJBcCOw9upw1nXuaB6XA", "alias": "athens-pizza-northborough", "name": "Athens Pizza", "image_url": "https://s3-media4.fl.yelpcdn.com/bphoto/Pac5OryYNAEGhS7m6E-JHQ/o.jpg", "is_closed": false, "url": "https://www.yelp.com/biz/athens-pizza-northborough?adjust_creative=ywY5UnLZrNrRl2b93Ruy_g&utm_campaign=yelp_api_v3&utm_medium=api_v3_business_search&utm_source=ywY5UnLZrNrRl2b93Ruy_g", "review_count": 25, "categories": [{"alias": "pizza", "title": "Pizza"}, {"alias": "salad", "title": "Salad"}, {"alias": "sandwiches", "title": "Sandwiches"}], "rating": 3.0, "coordinates": {"latitude": 42.3274574279785, "longitude": -71.6202011108398}, "transactions": ["delivery", "pickup"], "price": "$", "location": {"address1": "292 Main St", "address2": "Ste 1", "address3": "", "city": "Northborough", "zip_code": "01532", "country": "US", "state": "MA", "display_address": ["292 Main St", "Ste 1", "Northborough, MA 01532"]}, "phone": "+15083934111", "display_phone": "(508) 393-4111", "distance": 6372.597714947575}, {"id": "A3tVZJg61sRshEGFRWrXFg", "alias": "qdoba-mexican-eats-marlborough-2", "name": "QDOBA Mexican Eats", "image_url": "https://s3-media3.fl.yelpcdn.com/bphoto/f7xH89yTY8mqFsTXIaK6Ew/o.jpg", "is_closed": false, "url": "https://www.yelp.com/biz/qdoba-mexican-eats-marlborough-2?adjust_creative=ywY5UnLZrNrRl2b93Ruy_g&utm_campaign=yelp_api_v3&utm_medium=api_v3_business_search&utm_source=ywY5UnLZrNrRl2b93Ruy_g", "review_count": 11, "categories": [{"alias": "mexican", "title": "Mexican"}, {"alias": "hotdogs", "title": "Fast Food"}], "rating": 2.5, "coordinates": {"latitude": 42.338024, "longitude": -71.588952}, "transactions": [], "location": {"address1": "180 Boston Post Rd", "address2": "Ste 5G", "address3": null, "city": "Marlborough", "zip_code": "01752", "country": "US", "state": "MA", "display_address": ["180 Boston Post Rd", "Ste 5G", "Marlborough, MA 01752"]}, "phone": "+15082512349", "display_phone": "(508) 251-2349", "distance": 6139.099145657508}, {"id": "egwkiOPy-JojbFdXL4Z-CA", "alias": "bolton-orchards-bolton", "name": "Bolton Orchards", "image_url": "https://s3-media4.fl.yelpcdn.com/bphoto/bVitnhAdBjcwNRZBgJU6Uw/o.jpg", "is_closed": false, "url": "https://www.yelp.com/biz/bolton-orchards-bolton?adjust_creative=ywY5UnLZrNrRl2b93Ruy_g&utm_campaign=yelp_api_v3&utm_medium=api_v3_business_search&utm_source=ywY5UnLZrNrRl2b93Ruy_g", "review_count": 52, "categories": [{"alias": "delis", "title": "Delis"}, {"alias": "bakeries", "title": "Bakeries"}, {"alias": "grocery", "title": "Grocery"}], "rating": 3.5, "coordinates": {"latitude": 42.4543058646799, "longitude": -71.6431814849075}, "transactions": [], "price": "$$", "location": {"address1": "125 Still River Rd", "address2": "", "address3": "", "city": "Bolton", "zip_code": "01740", "country": "US", "state": "MA", "display_address": ["125 Still River Rd", "Bolton, MA 01740"]}, "phone": "+19787792733", "display_phone": "(978) 779-2733", "distance": 7853.598360383589}, {"id": "yYcoeNFnV3NVNLx2_qLLDA", "alias": "panera-bread-marlborough", "name": "Panera Bread", "image_url": "https://s3-media4.fl.yelpcdn.com/bphoto/cex4-VBW6C9S9Yaq41B69A/o.jpg", "is_closed": false, "url": "https://www.yelp.com/biz/panera-bread-marlborough?adjust_creative=ywY5UnLZrNrRl2b93Ruy_g&utm_campaign=yelp_api_v3&utm_medium=api_v3_business_search&utm_source=ywY5UnLZrNrRl2b93Ruy_g", "review_count": 81, "categories": [{"alias": "sandwiches", "title": "Sandwiches"}, {"alias": "salad", "title": "Salad"}, {"alias": "soup", "title": "Soup"}], "rating": 2.0, "coordinates": {"latitude": 42.3403280224013, "longitude": -71.5913133323738}, "transactions": ["delivery"], "price": "$$", "location": {"address1": "197 Boston Post Rd W", "address2": "", "address3": "", "city": "Marlborough", "zip_code": "01752", "country": "US", "state": "MA", "display_address": ["197 Boston Post Rd W", "Marlborough, MA 01752"]}, "phone": "+15082816161", "display_phone": "(508) 281-6161", "distance": 5818.6467156052895}, {"id": "NMgFlQlsv5eB1HQU4D-baQ", "alias": "dragon-88-restaurant-boylston", "name": "Dragon 88 Restaurant", "image_url": "https://s3-media3.fl.yelpcdn.com/bphoto/e-RoR_chhvII3oT_9vyvtw/o.jpg", "is_closed": false, "url": "https://www.yelp.com/biz/dragon-88-restaurant-boylston?adjust_creative=ywY5UnLZrNrRl2b93Ruy_g&utm_campaign=yelp_api_v3&utm_medium=api_v3_business_search&utm_source=ywY5UnLZrNrRl2b93Ruy_g", "review_count": 57, "categories": [{"alias": "chinese", "title": "Chinese"}, {"alias": "cocktailbars", "title": "Cocktail Bars"}, {"alias": "chicken_wings", "title": "Chicken Wings"}], "rating": 3.0, "coordinates": {"latitude": 42.32919, "longitude": -71.72568}, "transactions": ["delivery", "pickup"], "price": "$$", "location": {"address1": "260 Shrewsbury St", "address2": null, "address3": null, "city": "Boylston", "zip_code": "01505", "country": "US", "state": "MA", "display_address": ["260 Shrewsbury St", "Boylston, MA 01505"]}, "phone": "+15088696558", "display_phone": "(508) 869-6558", "distance": 9886.097530951607}, {"id": "QF_OPKmrzhn0Mc5zqP8I4w", "alias": "pleasant-pizza-and-deli-marlborough", "name": "Pleasant Pizza & Deli", "image_url": "https://s3-media4.fl.yelpcdn.com/bphoto/PwnJSl0WnONTU8cBM4c2NA/o.jpg", "is_closed": false, "url": "https://www.yelp.com/biz/pleasant-pizza-and-deli-marlborough?adjust_creative=ywY5UnLZrNrRl2b93Ruy_g&utm_campaign=yelp_api_v3&utm_medium=api_v3_business_search&utm_source=ywY5UnLZrNrRl2b93Ruy_g", "review_count": 51, "categories": [{"alias": "pizza", "title": "Pizza"}], "rating": 4.0, "coordinates": {"latitude": 42.3486414, "longitude": -71.5620111}, "transactions": [], "price": "$", "location": {"address1": "166 Pleasant St", "address2": "", "address3": "", "city": "Marlborough", "zip_code": "01752", "country": "US", "state": "MA", "display_address": ["166 Pleasant St", "Marlborough, MA 01752"]}, "phone": "+15084809090", "display_phone": "(508) 480-9090", "distance": 6810.316591459605}, {"id": "CHxt3VFg-9NloQ5zLv5yVA", "alias": "subway-bolton-12", "name": "Subway", "image_url": "https://s3-media1.fl.yelpcdn.com/bphoto/2wfPwCXAyukEqi9EoRkNMQ/o.jpg", "is_closed": false, "url": "https://www.yelp.com/biz/subway-bolton-12?adjust_creative=ywY5UnLZrNrRl2b93Ruy_g&utm_campaign=yelp_api_v3&utm_medium=api_v3_business_search&utm_source=ywY5UnLZrNrRl2b93Ruy_g", "review_count": 3, "categories": [{"alias": "sandwiches", "title": "Sandwiches"}], "rating": 3.0, "coordinates": {"latitude": 42.430049, "longitude": -71.589063}, "transactions": [], "price": "$", "location": {"address1": "476 Main St Hwy", "address2": "", "address3": null, "city": "Bolton", "zip_code": "01740", "country": "US", "state": "MA", "display_address": ["476 Main St Hwy", "Bolton, MA 01740"]}, "phone": "+19787799911", "display_phone": "(978) 779-9911", "distance": 6063.847034770832}, {"id": "Svlk3Jn5rFbccs9nSXKRlA", "alias": "wing-squad-marlborough", "name": "Wing Squad", "image_url": "https://s3-media3.fl.yelpcdn.com/bphoto/YjAZ9J9hfonvCI8mxLTC3A/o.jpg", "is_closed": false, "url": "https://www.yelp.com/biz/wing-squad-marlborough?adjust_creative=ywY5UnLZrNrRl2b93Ruy_g&utm_campaign=yelp_api_v3&utm_medium=api_v3_business_search&utm_source=ywY5UnLZrNrRl2b93Ruy_g", "review_count": 1, "categories": [{"alias": "fooddeliveryservices", "title": "Food Delivery Services"}, {"alias": "chicken_wings", "title": "Chicken Wings"}], "rating": 3.0, "coordinates": {"latitude": 42.34734, "longitude": -71.5457}, "transactions": ["delivery"], "location": {"address1": "601 Donald Lynch Blvd", "address2": null, "address3": null, "city": "Marlborough", "zip_code": "01752", "country": "US", "state": "MA", "display_address": ["601 Donald Lynch Blvd", "Marlborough, MA 01752"]}, "phone": "+18887996601", "display_phone": "(888) 799-6601", "distance": 8657.882072943123}, {"id": "8nIEJnlgrYCEpseRdK3rLA", "alias": "dominos-pizza-hudson-9", "name": "Domino's Pizza", "image_url": "https://s3-media3.fl.yelpcdn.com/bphoto/ADJlvU7FcXQ_L78_fqazyA/o.jpg", "is_closed": false, "url": "https://www.yelp.com/biz/dominos-pizza-hudson-9?adjust_creative=ywY5UnLZrNrRl2b93Ruy_g&utm_campaign=yelp_api_v3&utm_medium=api_v3_business_search&utm_source=ywY5UnLZrNrRl2b93Ruy_g", "review_count": 9, "categories": [{"alias": "pizza", "title": "Pizza"}], "rating": 2.5, "coordinates": {"latitude": 42.3914375, "longitude": -71.565945}, "transactions": [], "price": "$", "location": {"address1": "136 Main St", "address2": "", "address3": null, "city": "Hudson", "zip_code": "01749", "country": "US", "state": "MA", "display_address": ["136 Main St", "Hudson, MA 01749"]}, "phone": "+19785627755", "display_phone": "(978) 562-7755", "distance": 5276.793576946398}, {"id": "iCl2PKQKuTe7Z0cgTtVudg", "alias": "five-guys-marlborough", "name": "Five Guys", "image_url": "https://s3-media3.fl.yelpcdn.com/bphoto/g9IVV_zp5GfeI2Iqmbmj-g/o.jpg", "is_closed": false, "url": "https://www.yelp.com/biz/five-guys-marlborough?adjust_creative=ywY5UnLZrNrRl2b93Ruy_g&utm_campaign=yelp_api_v3&utm_medium=api_v3_business_search&utm_source=ywY5UnLZrNrRl2b93Ruy_g", "review_count": 78, "categories": [{"alias": "hotdogs", "title": "Fast Food"}, {"alias": "burgers", "title": "Burgers"}], "rating": 3.5, "coordinates": {"latitude": 42.3405515, "longitude": -71.590334}, "transactions": ["delivery"], "price": "$", "location": {"address1": "197 Boston Post Rd W", "address2": "", "address3": "", "city": "Marlborough", "zip_code": "01752", "country": "US", "state": "MA", "display_address": ["197 Boston Post Rd W", "Marlborough, MA 01752"]}, "phone": "+15082814855", "display_phone": "(508) 281-4855", "distance": 5841.64782922025}, {"id": "MD9Qy7TWqc91C-y1tog7Zg", "alias": "arbys-marlborough", "name": "Arby's", "image_url": "https://s3-media2.fl.yelpcdn.com/bphoto/WVJiE-QJxo7BjOHKNsOJfQ/o.jpg", "is_closed": false, "url": "https://www.yelp.com/biz/arbys-marlborough?adjust_creative=ywY5UnLZrNrRl2b93Ruy_g&utm_campaign=yelp_api_v3&utm_medium=api_v3_business_search&utm_source=ywY5UnLZrNrRl2b93Ruy_g", "review_count": 15, "categories": [{"alias": "hotdogs", "title": "Fast Food"}, {"alias": "sandwiches", "title": "Sandwiches"}], "rating": 3.5, "coordinates": {"latitude": 42.355756, "longitude": -71.61244}, "transactions": [], "price": "$", "location": {"address1": "601 Donald Lynch Blvd", "address2": "", "address3": "Solomon Pond Mall", "city": "Marlborough", "zip_code": "01752", "country": "US", "state": "MA", "display_address": ["601 Donald Lynch Blvd", "Solomon Pond Mall", "Marlborough, MA 01752"]}, "phone": "+15083036265", "display_phone": "(508) 303-6265", "distance": 3479.7294772576934}, {"id": "HV3akc1IaHARvIcOy4AD2g", "alias": "subway-clinton-60", "name": "Subway", "image_url": "https://s3-media3.fl.yelpcdn.com/bphoto/n5GQOdbju3siwAgCNcxOdg/o.jpg", "is_closed": false, "url": "https://www.yelp.com/biz/subway-clinton-60?adjust_creative=ywY5UnLZrNrRl2b93Ruy_g&utm_campaign=yelp_api_v3&utm_medium=api_v3_business_search&utm_source=ywY5UnLZrNrRl2b93Ruy_g", "review_count": 4, "categories": [{"alias": "sandwiches", "title": "Sandwiches"}], "rating": 2.5, "coordinates": {"latitude": 42.409043, "longitude": -71.697736}, "transactions": [], "price": "$", "location": {"address1": "1175 Main St", "address2": "", "address3": "Woodruff Plaza", "city": "Clinton", "zip_code": "01510", "country": "US", "state": "MA", "display_address": ["1175 Main St", "Woodruff Plaza", "Clinton, MA 01510"]}, "phone": "+19787334343", "display_phone": "(978) 733-4343", "distance": 6238.270086059788}, {"id": "Fn1gm6cKj-WzIW-6NBNUYA", "alias": "arthurs-pizzeria-express-northborough-2", "name": "Arthur's Pizzeria Express", "image_url": "https://s3-media1.fl.yelpcdn.com/bphoto/InA2rFRTC-DDUdJWvVl1Tw/o.jpg", "is_closed": false, "url": "https://www.yelp.com/biz/arthurs-pizzeria-express-northborough-2?adjust_creative=ywY5UnLZrNrRl2b93Ruy_g&utm_campaign=yelp_api_v3&utm_medium=api_v3_business_search&utm_source=ywY5UnLZrNrRl2b93Ruy_g", "review_count": 1, "categories": [{"alias": "pizza", "title": "Pizza"}], "rating": 1.0, "coordinates": {"latitude": 42.3208694458008, "longitude": -71.6417694091797}, "transactions": [], "location": {"address1": "10 Blake St", "address2": null, "address3": "", "city": "Northborough", "zip_code": "01532", "country": "US", "state": "MA", "display_address": ["10 Blake St", "Northborough, MA 01532"]}, "phone": "+15083939988", "display_phone": "(508) 393-9988", "distance": 7134.197406280189}, {"id": "dlcMmdG8coUl4QOxXmRfGw", "alias": "hudson-house-of-pizza-hudson-2", "name": "Hudson House of Pizza", "image_url": "https://s3-media3.fl.yelpcdn.com/bphoto/Vy4LtAXyQb57sajhwmY7Gw/o.jpg", "is_closed": false, "url": "https://www.yelp.com/biz/hudson-house-of-pizza-hudson-2?adjust_creative=ywY5UnLZrNrRl2b93Ruy_g&utm_campaign=yelp_api_v3&utm_medium=api_v3_business_search&utm_source=ywY5UnLZrNrRl2b93Ruy_g", "review_count": 30, "categories": [{"alias": "pizza", "title": "Pizza"}, {"alias": "sandwiches", "title": "Sandwiches"}], "rating": 2.5, "coordinates": {"latitude": 42.3908653259277, "longitude": -71.5666656494141}, "transactions": ["delivery", "pickup"], "price": "$", "location": {"address1": "121 Main St", "address2": "", "address3": "", "city": "Hudson", "zip_code": "01749", "country": "US", "state": "MA", "display_address": ["121 Main St", "Hudson, MA 01749"]}, "phone": "+19785629595", "display_phone": "(978) 562-9595", "distance": 5207.353893109912}, {"id": "tfpih7KJzhH-f_SxtujbyQ", "alias": "mcdonalds-hudson-14", "name": "McDonald's", "image_url": "https://s3-media3.fl.yelpcdn.com/bphoto/LaQWMbm8jb8BI5dz51JtVw/o.jpg", "is_closed": false, "url": "https://www.yelp.com/biz/mcdonalds-hudson-14?adjust_creative=ywY5UnLZrNrRl2b93Ruy_g&utm_campaign=yelp_api_v3&utm_medium=api_v3_business_search&utm_source=ywY5UnLZrNrRl2b93Ruy_g", "review_count": 12, "categories": [{"alias": "hotdogs", "title": "Fast Food"}, {"alias": "burgers", "title": "Burgers"}, {"alias": "coffee", "title": "Coffee & Tea"}], "rating": 2.5, "coordinates": {"latitude": 42.382229, "longitude": -71.56915}, "transactions": ["delivery"], "price": "$", "location": {"address1": "173 Washington St", "address2": "", "address3": null, "city": "Hudson", "zip_code": "01749", "country": "US", "state": "MA", "display_address": ["173 Washington St", "Hudson, MA 01749"]}, "phone": "+19783107721", "display_phone": "(978) 310-7721", "distance": 4973.516570157664}, {"id": "RGe5kxCInNhbpgiFFagAXA", "alias": "lucky-house-clinton", "name": "Lucky House", "image_url": "https://s3-media1.fl.yelpcdn.com/bphoto/klaFm8vwUQWOSwOEhizZdg/o.jpg", "is_closed": false, "url": "https://www.yelp.com/biz/lucky-house-clinton?adjust_creative=ywY5UnLZrNrRl2b93Ruy_g&utm_campaign=yelp_api_v3&utm_medium=api_v3_business_search&utm_source=ywY5UnLZrNrRl2b93Ruy_g", "review_count": 22, "categories": [{"alias": "chinese", "title": "Chinese"}], "rating": 2.5, "coordinates": {"latitude": 42.418588, "longitude": -71.6842918}, "transactions": ["delivery", "pickup"], "price": "$$", "location": {"address1": "165 High St", "address2": "", "address3": "", "city": "Clinton", "zip_code": "01510", "country": "US", "state": "MA", "display_address": ["165 High St", "Clinton, MA 01510"]}, "phone": "+19783688882", "display_phone": "(978) 368-8882", "distance": 5890.609288844515}, {"id": "NTa0se-svZLyxUXxSWONOg", "alias": "main-street-pizza-hudson", "name": "Main Street Pizza", "image_url": "https://s3-media4.fl.yelpcdn.com/bphoto/mMKzpEUGznNAw1zDOEOnQw/o.jpg", "is_closed": false, "url": "https://www.yelp.com/biz/main-street-pizza-hudson?adjust_creative=ywY5UnLZrNrRl2b93Ruy_g&utm_campaign=yelp_api_v3&utm_medium=api_v3_business_search&utm_source=ywY5UnLZrNrRl2b93Ruy_g", "review_count": 8, "categories": [{"alias": "pizza", "title": "Pizza"}], "rating": 3.0, "coordinates": {"latitude": 42.3936500549316, "longitude": -71.5445556640625}, "transactions": [], "price": "$", "location": {"address1": "439 Main St", "address2": "", "address3": "", "city": "Hudson", "zip_code": "01749", "country": "US", "state": "MA", "display_address": ["439 Main St", "Hudson, MA 01749"]}, "phone": "+19785620777", "display_phone": "(978) 562-0777", "distance": 7046.983710801221}, {"id": "DM0VEu56t1whcQ0ECc8v0g", "alias": "burger-king-marlborough", "name": "Burger King", "image_url": "https://s3-media3.fl.yelpcdn.com/bphoto/4QKBegFt_h9Xa8Nx8TOT1A/o.jpg", "is_closed": false, "url": "https://www.yelp.com/biz/burger-king-marlborough?adjust_creative=ywY5UnLZrNrRl2b93Ruy_g&utm_campaign=yelp_api_v3&utm_medium=api_v3_business_search&utm_source=ywY5UnLZrNrRl2b93Ruy_g", "review_count": 1, "categories": [{"alias": "burgers", "title": "Burgers"}, {"alias": "hotdogs", "title": "Fast Food"}], "rating": 4.0, "coordinates": {"latitude": 42.3460006713867, "longitude": -71.5559844970703}, "transactions": [], "price": "$", "location": {"address1": "Solomon Pond Mall", "address2": "", "address3": "", "city": "Marlborough", "zip_code": "01752", "country": "US", "state": "MA", "display_address": ["Solomon Pond Mall", "Marlborough, MA 01752"]}, "phone": "", "display_phone": "", "distance": 3456.525066673707}, {"id": "lwN11ANz2k1ihdFbAm5-1Q", "alias": "johns-sandwich-shop-clinton", "name": "John's Sandwich Shop", "image_url": "", "is_closed": false, "url": "https://www.yelp.com/biz/johns-sandwich-shop-clinton?adjust_creative=ywY5UnLZrNrRl2b93Ruy_g&utm_campaign=yelp_api_v3&utm_medium=api_v3_business_search&utm_source=ywY5UnLZrNrRl2b93Ruy_g", "review_count": 3, "categories": [{"alias": "sandwiches", "title": "Sandwiches"}], "rating": 2.5, "coordinates": {"latitude": 42.42366, "longitude": -71.68716}, "transactions": ["delivery"], "price": "$", "location": {"address1": "727 Main St", "address2": "", "address3": "", "city": "Clinton", "zip_code": "01510", "country": "US", "state": "MA", "display_address": ["727 Main St", "Clinton, MA 01510"]}, "phone": "+19783680388", "display_phone": "(978) 368-0388", "distance": 6450.729070313182}, {"id": "FwNk3lB16xMaKNbjl-pAxw", "alias": "lake-william-pizza-marlborough", "name": "Lake William Pizza", "image_url": "https://s3-media1.fl.yelpcdn.com/bphoto/4jsLFK6gw_NMP-KL0cp0TA/o.jpg", "is_closed": false, "url": "https://www.yelp.com/biz/lake-william-pizza-marlborough?adjust_creative=ywY5UnLZrNrRl2b93Ruy_g&utm_campaign=yelp_api_v3&utm_medium=api_v3_business_search&utm_source=ywY5UnLZrNrRl2b93Ruy_g", "review_count": 16, "categories": [{"alias": "pizza", "title": "Pizza"}, {"alias": "brazilian", "title": "Brazilian"}, {"alias": "sandwiches", "title": "Sandwiches"}], "rating": 3.5, "coordinates": {"latitude": 42.339637, "longitude": -71.56111}, "transactions": [], "price": "$", "location": {"address1": "270 W Main St", "address2": "", "address3": "", "city": "Marlborough", "zip_code": "01752", "country": "US", "state": "MA", "display_address": ["270 W Main St", "Marlborough, MA 01752"]}, "phone": "+15084852666", "display_phone": "(508) 485-2666", "distance": 7506.008162254059}, {"id": "i8XYtY5mRBH0leUFTsI2hw", "alias": "the-sunnyside-cafe-marlborough", "name": "The Sunnyside Cafe", "image_url": "https://s3-media1.fl.yelpcdn.com/bphoto/REJWlewtle5I-7wGW8p4tg/o.jpg", "is_closed": false, "url": "https://www.yelp.com/biz/the-sunnyside-cafe-marlborough?adjust_creative=ywY5UnLZrNrRl2b93Ruy_g&utm_campaign=yelp_api_v3&utm_medium=api_v3_business_search&utm_source=ywY5UnLZrNrRl2b93Ruy_g", "review_count": 46, "categories": [{"alias": "breakfast_brunch", "title": "Breakfast & Brunch"}], "rating": 3.5, "coordinates": {"latitude": 42.35154, "longitude": -71.52895}, "transactions": ["delivery"], "price": "$", "location": {"address1": "42 Boston Post Rd E", "address2": "", "address3": "", "city": "Marlborough", "zip_code": "01752", "country": "US", "state": "MA", "display_address": ["42 Boston Post Rd E", "Marlborough, MA 01752"]}, "phone": "+15084811974", "display_phone": "(508) 481-1974", "distance": 9039.650818149661}, {"id": "7K5xFc-xwHktS50xX3hAeQ", "alias": "hot-table-marlborough", "name": "Hot Table", "image_url": "https://s3-media2.fl.yelpcdn.com/bphoto/HR3IzbwM7BIlB9EKL4pDsg/o.jpg", "is_closed": false, "url": "https://www.yelp.com/biz/hot-table-marlborough?adjust_creative=ywY5UnLZrNrRl2b93Ruy_g&utm_campaign=yelp_api_v3&utm_medium=api_v3_business_search&utm_source=ywY5UnLZrNrRl2b93Ruy_g", "review_count": 47, "categories": [{"alias": "salad", "title": "Salad"}, {"alias": "wraps", "title": "Wraps"}, {"alias": "sandwiches", "title": "Sandwiches"}], "rating": 4.0, "coordinates": {"latitude": 42.338304, "longitude": -71.5909500426612}, "transactions": ["delivery"], "price": "$$", "location": {"address1": "160 Apex Dr", "address2": "", "address3": null, "city": "Marlborough", "zip_code": "01752", "country": "US", "state": "MA", "display_address": ["160 Apex Dr", "Marlborough, MA 01752"]}, "phone": "+15086308617", "display_phone": "(508) 630-8617", "distance": 6025.097715640918}, {"id": "7mlHZ-BYlWMq34cRXor5dw", "alias": "burger-king-hudson-2", "name": "Burger King", "image_url": "https://s3-media1.fl.yelpcdn.com/bphoto/4JRYKs-RyXThqCoK4YM5SA/o.jpg", "is_closed": false, "url": "https://www.yelp.com/biz/burger-king-hudson-2?adjust_creative=ywY5UnLZrNrRl2b93Ruy_g&utm_campaign=yelp_api_v3&utm_medium=api_v3_business_search&utm_source=ywY5UnLZrNrRl2b93Ruy_g", "review_count": 8, "categories": [{"alias": "burgers", "title": "Burgers"}, {"alias": "hotdogs", "title": "Fast Food"}], "rating": 2.0, "coordinates": {"latitude": 42.379445731991, "longitude": -71.56664752532}, "transactions": [], "price": "$", "location": {"address1": "227 Washington Street", "address2": "", "address3": "", "city": "Hudson", "zip_code": "01749", "country": "US", "state": "MA", "display_address": ["227 Washington Street", "Hudson, MA 01749"]}, "phone": "", "display_phone": "", "distance": 5190.674577021398}, {"id": "B99zhY-6M5ONpdvfb4Bj5g", "alias": "d-angelo-marlborough", "name": "D'Angelo", "image_url": "https://s3-media1.fl.yelpcdn.com/bphoto/v0kcEJu7M3B5x-HSgsGs0Q/o.jpg", "is_closed": false, "url": "https://www.yelp.com/biz/d-angelo-marlborough?adjust_creative=ywY5UnLZrNrRl2b93Ruy_g&utm_campaign=yelp_api_v3&utm_medium=api_v3_business_search&utm_source=ywY5UnLZrNrRl2b93Ruy_g", "review_count": 21, "categories": [{"alias": "sandwiches", "title": "Sandwiches"}], "rating": 4.0, "coordinates": {"latitude": 42.33908, "longitude": -71.56135}, "transactions": ["delivery"], "price": "$", "location": {"address1": "286 W Main St", "address2": "", "address3": "", "city": "Marlborough", "zip_code": "01752", "country": "US", "state": "MA", "display_address": ["286 W Main St", "Marlborough, MA 01752"]}, "phone": "+15084858579", "display_phone": "(508) 485-8579", "distance": 7518.337642893275}, {"id": "NA9M8yogYqt1Dq5F8DNpHw", "alias": "miranda-bread-marlborough", "name": "Miranda Bread", "image_url": "https://s3-media2.fl.yelpcdn.com/bphoto/maUmHDQf3pG6D__LePI45A/o.jpg", "is_closed": false, "url": "https://www.yelp.com/biz/miranda-bread-marlborough?adjust_creative=ywY5UnLZrNrRl2b93Ruy_g&utm_campaign=yelp_api_v3&utm_medium=api_v3_business_search&utm_source=ywY5UnLZrNrRl2b93Ruy_g", "review_count": 9, "categories": [{"alias": "bakeries", "title": "Bakeries"}, {"alias": "brazilian", "title": "Brazilian"}, {"alias": "coffee", "title": "Coffee & Tea"}], "rating": 3.5, "coordinates": {"latitude": 42.3518002, "longitude": -71.5298744}, "transactions": ["delivery", "pickup"], "price": "$", "location": {"address1": "28 Boston Post Rd E", "address2": "", "address3": "", "city": "Marlborough", "zip_code": "01752", "country": "US", "state": "MA", "display_address": ["28 Boston Post Rd E", "Marlborough, MA 01752"]}, "phone": "+15082512217", "display_phone": "(508) 251-2217", "distance": 8950.598251851072}, {"id": "MH6G0yTNzkl8NfWYsSlQbw", "alias": "the-bistro-marlborough", "name": "The Bistro", "image_url": "", "is_closed": false, "url": "https://www.yelp.com/biz/the-bistro-marlborough?adjust_creative=ywY5UnLZrNrRl2b93Ruy_g&utm_campaign=yelp_api_v3&utm_medium=api_v3_business_search&utm_source=ywY5UnLZrNrRl2b93Ruy_g", "review_count": 3, "categories": [{"alias": "newamerican", "title": "American (New)"}, {"alias": "lounges", "title": "Lounges"}], "rating": 2.0, "coordinates": {"latitude": 42.3434007, "longitude": -71.5781409}, "transactions": [], "location": {"address1": "75 Felton St", "address2": "", "address3": "Inside Courtyard Marriott", "city": "Marlborough", "zip_code": "01752", "country": "US", "state": "MA", "display_address": ["75 Felton St", "Inside Courtyard Marriott", "Marlborough, MA 01752"]}, "phone": "+15084800015", "display_phone": "(508) 480-0015", "distance": 6211.562358937131}, {"id": "w-H_GJM8C_gv1FH617V9rg", "alias": "family-house-of-pizza-marlborough", "name": "Family House of Pizza", "image_url": "https://s3-media2.fl.yelpcdn.com/bphoto/Ccm1tNil6vZvctOmj1bx3A/o.jpg", "is_closed": false, "url": "https://www.yelp.com/biz/family-house-of-pizza-marlborough?adjust_creative=ywY5UnLZrNrRl2b93Ruy_g&utm_campaign=yelp_api_v3&utm_medium=api_v3_business_search&utm_source=ywY5UnLZrNrRl2b93Ruy_g", "review_count": 16, "categories": [{"alias": "pizza", "title": "Pizza"}], "rating": 4.0, "coordinates": {"latitude": 42.33569, "longitude": -71.54219}, "transactions": [], "price": "$", "location": {"address1": "329 Maple St", "address2": "", "address3": "", "city": "Marlborough", "zip_code": "01752", "country": "US", "state": "MA", "display_address": ["329 Maple St", "Marlborough, MA 01752"]}, "phone": "+15084811322", "display_phone": "(508) 481-1322", "distance": 8963.437069757347}, {"id": "018M94JCu5T3trXeLdfzOw", "alias": "classic-pizza-1-marlborough", "name": "Classic Pizza 1", "image_url": "https://s3-media4.fl.yelpcdn.com/bphoto/syi8uim6uioWuaT-xApfkg/o.jpg", "is_closed": false, "url": "https://www.yelp.com/biz/classic-pizza-1-marlborough?adjust_creative=ywY5UnLZrNrRl2b93Ruy_g&utm_campaign=yelp_api_v3&utm_medium=api_v3_business_search&utm_source=ywY5UnLZrNrRl2b93Ruy_g", "review_count": 28, "categories": [{"alias": "pizza", "title": "Pizza"}, {"alias": "italian", "title": "Italian"}], "rating": 3.0, "coordinates": {"latitude": 42.3540687561035, "longitude": -71.5334243774414}, "transactions": ["delivery"], "price": "$", "location": {"address1": "72 Hosmer St", "address2": "", "address3": "", "city": "Marlborough", "zip_code": "01752", "country": "US", "state": "MA", "display_address": ["72 Hosmer St", "Marlborough, MA 01752"]}, "phone": "+15084856999", "display_phone": "(508) 485-6999", "distance": 8564.71023304691}, {"id": "evzgGPOBUf-zY0hrWyz73g", "alias": "subway-hudson-35", "name": "Subway", "image_url": "https://s3-media3.fl.yelpcdn.com/bphoto/o82t6QtLZZuWWW-oDJr8lg/o.jpg", "is_closed": false, "url": "https://www.yelp.com/biz/subway-hudson-35?adjust_creative=ywY5UnLZrNrRl2b93Ruy_g&utm_campaign=yelp_api_v3&utm_medium=api_v3_business_search&utm_source=ywY5UnLZrNrRl2b93Ruy_g", "review_count": 5, "categories": [{"alias": "sandwiches", "title": "Sandwiches"}], "rating": 3.0, "coordinates": {"latitude": 42.39145, "longitude": -71.56326}, "transactions": [], "price": "$", "location": {"address1": "213 Main St", "address2": "Ste 4", "address3": null, "city": "Hudson", "zip_code": "01749", "country": "US", "state": "MA", "display_address": ["213 Main St", "Ste 4", "Hudson, MA 01749"]}, "phone": "+19785679077", "display_phone": "(978) 567-9077", "distance": 5492.733079266018}, {"id": "rxIUgtD5PnH1ARq20Vh9zQ", "alias": "friendlys-marlborough-marlborough", "name": "Friendly's Marlborough", "image_url": "https://s3-media3.fl.yelpcdn.com/bphoto/AlkYKst0XFCWGxM8C9xCPw/o.jpg", "is_closed": false, "url": "https://www.yelp.com/biz/friendlys-marlborough-marlborough?adjust_creative=ywY5UnLZrNrRl2b93Ruy_g&utm_campaign=yelp_api_v3&utm_medium=api_v3_business_search&utm_source=ywY5UnLZrNrRl2b93Ruy_g", "review_count": 48, "categories": [{"alias": "icecream", "title": "Ice Cream & Frozen Yogurt"}, {"alias": "breakfast_brunch", "title": "Breakfast & Brunch"}, {"alias": "burgers", "title": "Burgers"}], "rating": 2.0, "coordinates": {"latitude": 42.337283, "longitude": -71.590525}, "transactions": ["delivery"], "price": "$$", "location": {"address1": "157 Apex Dr", "address2": null, "address3": "", "city": "Marlborough", "zip_code": "01752", "country": "US", "state": "MA", "display_address": ["157 Apex Dr", "Marlborough, MA 01752"]}, "phone": "+15082511006", "display_phone": "(508) 251-1006", "distance": 6140.126456261192}, {"id": "nL2VU-8Dejl7byVjM9YLHQ", "alias": "marlboro-house-of-pizza-marlborough", "name": "Marlboro House of Pizza", "image_url": "https://s3-media1.fl.yelpcdn.com/bphoto/boWFdkknayoBrTms-9aUMw/o.jpg", "is_closed": false, "url": "https://www.yelp.com/biz/marlboro-house-of-pizza-marlborough?adjust_creative=ywY5UnLZrNrRl2b93Ruy_g&utm_campaign=yelp_api_v3&utm_medium=api_v3_business_search&utm_source=ywY5UnLZrNrRl2b93Ruy_g", "review_count": 28, "categories": [{"alias": "pizza", "title": "Pizza"}], "rating": 2.5, "coordinates": {"latitude": 42.34644, "longitude": -71.55272}, "transactions": ["delivery", "pickup"], "price": "$", "location": {"address1": "280 Main St", "address2": "", "address3": "", "city": "Marlborough", "zip_code": "01752", "country": "US", "state": "MA", "display_address": ["280 Main St", "Marlborough, MA 01752"]}, "phone": "+15084853033", "display_phone": "(508) 485-3033", "distance": 7571.89357294798}, {"id": "uvWmAD9vUTMTeInixmXjAg", "alias": "cafe-fresh-bagel-sterling", "name": "Cafe Fresh Bagel", "image_url": "https://s3-media2.fl.yelpcdn.com/bphoto/VQ9EcCkoi86bmSCuGbbA5w/o.jpg", "is_closed": false, "url": "https://www.yelp.com/biz/cafe-fresh-bagel-sterling?adjust_creative=ywY5UnLZrNrRl2b93Ruy_g&utm_campaign=yelp_api_v3&utm_medium=api_v3_business_search&utm_source=ywY5UnLZrNrRl2b93Ruy_g", "review_count": 52, "categories": [{"alias": "breakfast_brunch", "title": "Breakfast & Brunch"}, {"alias": "bagels", "title": "Bagels"}], "rating": 4.0, "coordinates": {"latitude": 42.4449632316828, "longitude": -71.7221798747778}, "transactions": [], "price": "$", "location": {"address1": "167 Clinton Rd", "address2": "", "address3": "", "city": "Sterling", "zip_code": "01564", "country": "US", "state": "MA", "display_address": ["167 Clinton Rd", "Sterling, MA 01564"]}, "phone": "", "display_phone": "", "distance": 10078.732388927334}, {"id": "qY715K0OuZ1Lb-MG4NbSmA", "alias": "mcdonalds-marlborough-2", "name": "McDonald's", "image_url": "https://s3-media1.fl.yelpcdn.com/bphoto/3JVq80C9hThZPQ-pyGk96w/o.jpg", "is_closed": false, "url": "https://www.yelp.com/biz/mcdonalds-marlborough-2?adjust_creative=ywY5UnLZrNrRl2b93Ruy_g&utm_campaign=yelp_api_v3&utm_medium=api_v3_business_search&utm_source=ywY5UnLZrNrRl2b93Ruy_g", "review_count": 26, "categories": [{"alias": "hotdogs", "title": "Fast Food"}, {"alias": "burgers", "title": "Burgers"}, {"alias": "coffee", "title": "Coffee & Tea"}], "rating": 2.5, "coordinates": {"latitude": 42.33966, "longitude": -71.58843}, "transactions": ["delivery"], "price": "$", "location": {"address1": "155 Boston Post Rd W", "address2": "", "address3": "", "city": "Marlborough", "zip_code": "01752", "country": "US", "state": "MA", "display_address": ["155 Boston Post Rd W", "Marlborough, MA 01752"]}, "phone": "+15084857250", "display_phone": "(508) 485-7250", "distance": 6011.959990906677}, {"id": "gtgQJ2BDsvu7lUNBpmzmLA", "alias": "panda-house-marlborough", "name": "Panda House", "image_url": "https://s3-media2.fl.yelpcdn.com/bphoto/gbaJmMbtpHe5uTkq6pdj-w/o.jpg", "is_closed": false, "url": "https://www.yelp.com/biz/panda-house-marlborough?adjust_creative=ywY5UnLZrNrRl2b93Ruy_g&utm_campaign=yelp_api_v3&utm_medium=api_v3_business_search&utm_source=ywY5UnLZrNrRl2b93Ruy_g", "review_count": 32, "categories": [{"alias": "chinese", "title": "Chinese"}, {"alias": "seafood", "title": "Seafood"}], "rating": 3.0, "coordinates": {"latitude": 42.34707, "longitude": -71.5444}, "transactions": [], "price": "$$", "location": {"address1": "46 Main St", "address2": "", "address3": "", "city": "Marlborough", "zip_code": "01752", "country": "US", "state": "MA", "display_address": ["46 Main St", "Marlborough, MA 01752"]}, "phone": "+15084819170", "display_phone": "(508) 481-9170", "distance": 8128.045183879155}, {"id": "49shyB2A36wp7uvkGP5ehw", "alias": "apex-entertainment-marlborough", "name": "Apex Entertainment", "image_url": "https://s3-media3.fl.yelpcdn.com/bphoto/ud8hyTC-XwfO56NsCCuBtg/o.jpg", "is_closed": false, "url": "https://www.yelp.com/biz/apex-entertainment-marlborough?adjust_creative=ywY5UnLZrNrRl2b93Ruy_g&utm_campaign=yelp_api_v3&utm_medium=api_v3_business_search&utm_source=ywY5UnLZrNrRl2b93Ruy_g", "review_count": 176, "categories": [{"alias": "arcades", "title": "Arcades"}, {"alias": "bowling", "title": "Bowling"}, {"alias": "tradamerican", "title": "American (Traditional)"}], "rating": 3.5, "coordinates": {"latitude": 42.338375, "longitude": -71.584954}, "transactions": [], "price": "$$", "location": {"address1": "21 Apex Dr", "address2": "", "address3": null, "city": "Marlborough", "zip_code": "01752", "country": "US", "state": "MA", "display_address": ["21 Apex Dr", "Marlborough, MA 01752"]}, "phone": "+15082518666", "display_phone": "(508) 251-8666", "distance": 6291.527931990427}, {"id": "1c-Ew-6M0v6tLPgWszXeiw", "alias": "tc-landos-sub-and-pizzeria-clinton", "name": "TC Lando's Sub & Pizzeria", "image_url": "https://s3-media4.fl.yelpcdn.com/bphoto/VtABjt81aWmd8UPuYnURkQ/o.jpg", "is_closed": false, "url": "https://www.yelp.com/biz/tc-landos-sub-and-pizzeria-clinton?adjust_creative=ywY5UnLZrNrRl2b93Ruy_g&utm_campaign=yelp_api_v3&utm_medium=api_v3_business_search&utm_source=ywY5UnLZrNrRl2b93Ruy_g", "review_count": 59, "categories": [{"alias": "pizza", "title": "Pizza"}, {"alias": "sandwiches", "title": "Sandwiches"}], "rating": 3.0, "coordinates": {"latitude": 42.421571, "longitude": -71.692508}, "transactions": ["delivery"], "price": "$$", "location": {"address1": "104 Sterling St", "address2": "", "address3": "", "city": "Clinton", "zip_code": "01510", "country": "US", "state": "MA", "display_address": ["104 Sterling St", "Clinton, MA 01510"]}, "phone": "+19783657492", "display_phone": "(978) 365-7492", "distance": 6618.455398202657}, {"id": "KPa9Kz1Q7pEAzx5-eLxqWQ", "alias": "sandees-restaurant-lancaster", "name": "Sandee's Restaurant", "image_url": "https://s3-media4.fl.yelpcdn.com/bphoto/V6NrzbLT9iN0EGRHRsiW2A/o.jpg", "is_closed": false, "url": "https://www.yelp.com/biz/sandees-restaurant-lancaster?adjust_creative=ywY5UnLZrNrRl2b93Ruy_g&utm_campaign=yelp_api_v3&utm_medium=api_v3_business_search&utm_source=ywY5UnLZrNrRl2b93Ruy_g", "review_count": 34, "categories": [{"alias": "breakfast_brunch", "title": "Breakfast & Brunch"}, {"alias": "diners", "title": "Diners"}, {"alias": "burgers", "title": "Burgers"}], "rating": 3.5, "coordinates": {"latitude": 42.4408645629883, "longitude": -71.687141418457}, "transactions": [], "price": "$", "location": {"address1": "162 Main St", "address2": "", "address3": "", "city": "Lancaster", "zip_code": "01523", "country": "US", "state": "MA", "display_address": ["162 Main St", "Lancaster, MA 01523"]}, "phone": "+19783651950", "display_phone": "(978) 365-1950", "distance": 7856.241268497109}, {"id": "zU9QHY90IKHi7vyZXNJulg", "alias": "master-wok-marlborough-2", "name": "Master Wok", "image_url": "https://s3-media3.fl.yelpcdn.com/bphoto/Kb6YFVrwowDK5Js2hwgkkg/o.jpg", "is_closed": false, "url": "https://www.yelp.com/biz/master-wok-marlborough-2?adjust_creative=ywY5UnLZrNrRl2b93Ruy_g&utm_campaign=yelp_api_v3&utm_medium=api_v3_business_search&utm_source=ywY5UnLZrNrRl2b93Ruy_g", "review_count": 1, "categories": [{"alias": "chinese", "title": "Chinese"}], "rating": 1.0, "coordinates": {"latitude": 42.3551903, "longitude": -71.6129074}, "transactions": ["delivery"], "location": {"address1": "601 Donald Lynch Blvd", "address2": "Ste 5205", "address3": "", "city": "Marlborough", "zip_code": "01752", "country": "US", "state": "MA", "display_address": ["601 Donald Lynch Blvd", "Ste 5205", "Marlborough, MA 01752"]}, "phone": "+15083036210", "display_phone": "(508) 303-6210", "distance": 3531.3953720208256}, {"id": "HxcD6jBQNA_ou0eQ5zeD1A", "alias": "dairy-queen-marlborough", "name": "Dairy Queen", "image_url": "https://s3-media1.fl.yelpcdn.com/bphoto/9eOPTUduaHtQHaBRhTbHjA/o.jpg", "is_closed": false, "url": "https://www.yelp.com/biz/dairy-queen-marlborough?adjust_creative=ywY5UnLZrNrRl2b93Ruy_g&utm_campaign=yelp_api_v3&utm_medium=api_v3_business_search&utm_source=ywY5UnLZrNrRl2b93Ruy_g", "review_count": 14, "categories": [{"alias": "icecream", "title": "Ice Cream & Frozen Yogurt"}, {"alias": "hotdogs", "title": "Fast Food"}], "rating": 3.0, "coordinates": {"latitude": 42.3490414927073, "longitude": -71.5416410565376}, "transactions": [], "price": "$", "location": {"address1": "49 E Main St", "address2": "", "address3": "", "city": "Marlborough", "zip_code": "01752", "country": "US", "state": "MA", "display_address": ["49 E Main St", "Marlborough, MA 01752"]}, "phone": "+15084850850", "display_phone": "(508) 485-0850", "distance": 8218.674033682491}, {"id": "Mp68LGnhRbzCI57gkW1qGQ", "alias": "master-wok-marlborough", "name": "Master Wok", "image_url": "https://s3-media2.fl.yelpcdn.com/bphoto/W09TOJafQ22H7Y6wNnU2_g/o.jpg", "is_closed": false, "url": "https://www.yelp.com/biz/master-wok-marlborough?adjust_creative=ywY5UnLZrNrRl2b93Ruy_g&utm_campaign=yelp_api_v3&utm_medium=api_v3_business_search&utm_source=ywY5UnLZrNrRl2b93Ruy_g", "review_count": 1, "categories": [{"alias": "restaurants", "title": "Restaurants"}], "rating": 2.0, "coordinates": {"latitude": 42.3460006713867, "longitude": -71.5559844970703}, "transactions": [], "location": {"address1": "Solomon Pond Mall", "address2": "", "address3": "", "city": "Marlborough", "zip_code": "01752", "country": "US", "state": "MA", "display_address": ["Solomon Pond Mall", "Marlborough, MA 01752"]}, "phone": "+15083036210", "display_phone": "(508) 303-6210", "distance": 3456.525066673707}, {"id": "S27u4y7EmDgTQ9GTunHqqA", "alias": "dominos-pizza-marlborough", "name": "Domino's Pizza", "image_url": "https://s3-media1.fl.yelpcdn.com/bphoto/nFjy2qDUFaKNtiTrDI5kaQ/o.jpg", "is_closed": false, "url": "https://www.yelp.com/biz/dominos-pizza-marlborough?adjust_creative=ywY5UnLZrNrRl2b93Ruy_g&utm_campaign=yelp_api_v3&utm_medium=api_v3_business_search&utm_source=ywY5UnLZrNrRl2b93Ruy_g", "review_count": 19, "categories": [{"alias": "pizza", "title": "Pizza"}, {"alias": "chicken_wings", "title": "Chicken Wings"}, {"alias": "sandwiches", "title": "Sandwiches"}], "rating": 2.0, "coordinates": {"latitude": 42.347118150689, "longitude": -71.5450383543032}, "transactions": [], "price": "$", "location": {"address1": "10 Weed St", "address2": "", "address3": "", "city": "Marlborough", "zip_code": "01752", "country": "US", "state": "MA", "display_address": ["10 Weed St", "Marlborough, MA 01752"]}, "phone": "+15084815335", "display_phone": "(508) 481-5335", "distance": 8082.386509513419}, {"id": "w6SiaYG0LT3MxtnHHmpp4A", "alias": "subway-hudson-27", "name": "Subway", "image_url": "https://s3-media1.fl.yelpcdn.com/bphoto/caaGSXfuVvk04m1yvdXVPg/o.jpg", "is_closed": false, "url": "https://www.yelp.com/biz/subway-hudson-27?adjust_creative=ywY5UnLZrNrRl2b93Ruy_g&utm_campaign=yelp_api_v3&utm_medium=api_v3_business_search&utm_source=ywY5UnLZrNrRl2b93Ruy_g", "review_count": 3, "categories": [{"alias": "sandwiches", "title": "Sandwiches"}], "rating": 3.0, "coordinates": {"latitude": 42.372972, "longitude": -71.559313}, "transactions": [], "price": "$", "location": {"address1": "280 Washington St", "address2": null, "address3": null, "city": "Hudson", "zip_code": "01749", "country": "US", "state": "MA", "display_address": ["280 Washington St", "Hudson, MA 01749"]}, "phone": "+19785622771", "display_phone": "(978) 562-2771", "distance": 5902.544262585546}, {"id": "P0RXAa3cMlZSE1-A26MmJQ", "alias": "bolton-bean-bolton-2", "name": "Bolton Bean", "image_url": "https://s3-media4.fl.yelpcdn.com/bphoto/rbblzfbULvLDhvkOk_XdFg/o.jpg", "is_closed": false, "url": "https://www.yelp.com/biz/bolton-bean-bolton-2?adjust_creative=ywY5UnLZrNrRl2b93Ruy_g&utm_campaign=yelp_api_v3&utm_medium=api_v3_business_search&utm_source=ywY5UnLZrNrRl2b93Ruy_g", "review_count": 96, "categories": [{"alias": "cafes", "title": "Cafes"}, {"alias": "coffee", "title": "Coffee & Tea"}, {"alias": "sandwiches", "title": "Sandwiches"}], "rating": 4.5, "coordinates": {"latitude": 42.4314856948864, "longitude": -71.6026036441326}, "transactions": [], "price": "$", "location": {"address1": "626 Main St", "address2": "", "address3": null, "city": "Bolton", "zip_code": "01740", "country": "US", "state": "MA", "display_address": ["626 Main St", "Bolton, MA 01740"]}, "phone": "+19786341188", "display_phone": "(978) 634-1188", "distance": 5681.458637083302}, {"id": "RbpHzjArkTPEp2XO0QRKxw", "alias": "kfc-hudson-7", "name": "KFC", "image_url": "https://s3-media1.fl.yelpcdn.com/bphoto/9FHDiI4qs3r-ADWBiYQkaw/o.jpg", "is_closed": false, "url": "https://www.yelp.com/biz/kfc-hudson-7?adjust_creative=ywY5UnLZrNrRl2b93Ruy_g&utm_campaign=yelp_api_v3&utm_medium=api_v3_business_search&utm_source=ywY5UnLZrNrRl2b93Ruy_g", "review_count": 24, "categories": [{"alias": "hotdogs", "title": "Fast Food"}, {"alias": "chicken_wings", "title": "Chicken Wings"}, {"alias": "chickenshop", "title": "Chicken Shop"}], "rating": 1.5, "coordinates": {"latitude": 42.3719416718818, "longitude": -71.5615692}, "transactions": ["delivery", "pickup"], "price": "$", "location": {"address1": "282 Washington St", "address2": "", "address3": "", "city": "Hudson", "zip_code": "01749", "country": "US", "state": "MA", "display_address": ["282 Washington St", "Hudson, MA 01749"]}, "phone": "+19785670646", "display_phone": "(978) 567-0646", "distance": 5748.2904849964225}, {"id": "CqQJf8JnQezdPk5jH3RF9g", "alias": "subway-marlborough-8", "name": "Subway", "image_url": "https://s3-media2.fl.yelpcdn.com/bphoto/VMmT843Gm_TYEOgJnlpdZw/o.jpg", "is_closed": false, "url": "https://www.yelp.com/biz/subway-marlborough-8?adjust_creative=ywY5UnLZrNrRl2b93Ruy_g&utm_campaign=yelp_api_v3&utm_medium=api_v3_business_search&utm_source=ywY5UnLZrNrRl2b93Ruy_g", "review_count": 11, "categories": [{"alias": "sandwiches", "title": "Sandwiches"}], "rating": 2.5, "coordinates": {"latitude": 42.33892251754, "longitude": -71.5915068147788}, "transactions": [], "price": "$", "location": {"address1": "237 Boston Post Rd W", "address2": "", "address3": "", "city": "Marlborough", "zip_code": "01752", "country": "US", "state": "MA", "display_address": ["237 Boston Post Rd W", "Marlborough, MA 01752"]}, "phone": "+15084813464", "display_phone": "(508) 481-3464", "distance": 5942.536611488386}, {"id": "vkudX74xiGZBLI2XHo41og", "alias": "boston-market-marlborough", "name": "Boston Market", "image_url": "https://s3-media2.fl.yelpcdn.com/bphoto/nvrBKGjuwRN63-qgR8VOcg/o.jpg", "is_closed": false, "url": "https://www.yelp.com/biz/boston-market-marlborough?adjust_creative=ywY5UnLZrNrRl2b93Ruy_g&utm_campaign=yelp_api_v3&utm_medium=api_v3_business_search&utm_source=ywY5UnLZrNrRl2b93Ruy_g", "review_count": 29, "categories": [{"alias": "comfortfood", "title": "Comfort Food"}, {"alias": "tradamerican", "title": "American (Traditional)"}, {"alias": "sandwiches", "title": "Sandwiches"}], "rating": 2.5, "coordinates": {"latitude": 42.3393397675136, "longitude": -71.5893567502826}, "transactions": ["delivery", "pickup"], "price": "$", "location": {"address1": "189 Boston Post Rd W", "address2": "", "address3": "", "city": "Marlborough", "zip_code": "01752", "country": "US", "state": "MA", "display_address": ["189 Boston Post Rd W", "Marlborough, MA 01752"]}, "phone": "+15082292525", "display_phone": "(508) 229-2525", "distance": 5998.353383222114}, {"id": "CT2E9jjipFoNigq3bReI0w", "alias": "mcdonalds-marlborough", "name": "McDonald's", "image_url": "https://s3-media4.fl.yelpcdn.com/bphoto/ascyRKtXNRiO7RMwg0dLtg/o.jpg", "is_closed": false, "url": "https://www.yelp.com/biz/mcdonalds-marlborough?adjust_creative=ywY5UnLZrNrRl2b93Ruy_g&utm_campaign=yelp_api_v3&utm_medium=api_v3_business_search&utm_source=ywY5UnLZrNrRl2b93Ruy_g", "review_count": 20, "categories": [{"alias": "hotdogs", "title": "Fast Food"}, {"alias": "burgers", "title": "Burgers"}, {"alias": "coffee", "title": "Coffee & Tea"}], "rating": 2.5, "coordinates": {"latitude": 42.3390003445789, "longitude": -71.5416625142097}, "transactions": ["delivery"], "price": "$", "location": {"address1": "250 Maple St", "address2": "", "address3": "", "city": "Marlborough", "zip_code": "01752", "country": "US", "state": "MA", "display_address": ["250 Maple St", "Marlborough, MA 01752"]}, "phone": "+15084858547", "display_phone": "(508) 485-8547", "distance": 8806.63047920337}, {"id": "pdeLQhvQWPfSNRHb7HHI-w", "alias": "white-hen-pantry-northborough", "name": "White Hen Pantry", "image_url": "", "is_closed": false, "url": "https://www.yelp.com/biz/white-hen-pantry-northborough?adjust_creative=ywY5UnLZrNrRl2b93Ruy_g&utm_campaign=yelp_api_v3&utm_medium=api_v3_business_search&utm_source=ywY5UnLZrNrRl2b93Ruy_g", "review_count": 8, "categories": [{"alias": "delis", "title": "Delis"}, {"alias": "bakeries", "title": "Bakeries"}, {"alias": "convenience", "title": "Convenience Stores"}], "rating": 2.5, "coordinates": {"latitude": 42.32819, "longitude": -71.6173699}, "transactions": [], "price": "$", "location": {"address1": "318 Main St", "address2": "", "address3": "Post Road Marketplace", "city": "Northborough", "zip_code": "01532", "country": "US", "state": "MA", "display_address": ["318 Main St", "Post Road Marketplace", "Northborough, MA 01532"]}, "phone": "+15089190055", "display_phone": "(508) 919-0055", "distance": 6331.154068188177}, {"id": "SCrh36Z0YFAv87qbVHsK2Q", "alias": "main-street-cafe-marlborough-2", "name": "Main Street Cafe", "image_url": "https://s3-media1.fl.yelpcdn.com/bphoto/_b9Z1xem_Nfr6ORe-NWbqg/o.jpg", "is_closed": false, "url": "https://www.yelp.com/biz/main-street-cafe-marlborough-2?adjust_creative=ywY5UnLZrNrRl2b93Ruy_g&utm_campaign=yelp_api_v3&utm_medium=api_v3_business_search&utm_source=ywY5UnLZrNrRl2b93Ruy_g", "review_count": 60, "categories": [{"alias": "cafes", "title": "Cafes"}, {"alias": "breakfast_brunch", "title": "Breakfast & Brunch"}], "rating": 3.5, "coordinates": {"latitude": 42.3465410101415, "longitude": -71.5492953348248}, "transactions": ["delivery"], "price": "$", "location": {"address1": "182 Main St", "address2": "", "address3": "", "city": "Marlborough", "zip_code": "01752", "country": "US", "state": "MA", "display_address": ["182 Main St", "Marlborough, MA 01752"]}, "phone": "+15084857664", "display_phone": "(508) 485-7664", "distance": 7818.627951466823}, {"id": "qRCm_RqQfQjqNFVQ5XJO4A", "alias": "dominos-pizza-marlborough-2", "name": "Domino's Pizza", "image_url": "", "is_closed": false, "url": "https://www.yelp.com/biz/dominos-pizza-marlborough-2?adjust_creative=ywY5UnLZrNrRl2b93Ruy_g&utm_campaign=yelp_api_v3&utm_medium=api_v3_business_search&utm_source=ywY5UnLZrNrRl2b93Ruy_g", "review_count": 1, "categories": [{"alias": "pizza", "title": "Pizza"}], "rating": 1.0, "coordinates": {"latitude": 42.3470299, "longitude": -71.5451099}, "transactions": [], "price": "$", "location": {"address1": "54 Main St", "address2": "", "address3": null, "city": "Marlborough", "zip_code": "01752", "country": "US", "state": "MA", "display_address": ["54 Main St", "Marlborough, MA 01752"]}, "phone": "+15084815335", "display_phone": "(508) 481-5335", "distance": 8082.134602274253}, {"id": "e9vNyrr550Vkjg-0MX5Tnw", "alias": "reasons-to-be-cheerful-hudson-2", "name": "Reasons to be Cheerful", "image_url": "https://s3-media4.fl.yelpcdn.com/bphoto/9f8v3i7FTGGQZW4YwJ_79A/o.jpg", "is_closed": false, "url": "https://www.yelp.com/biz/reasons-to-be-cheerful-hudson-2?adjust_creative=ywY5UnLZrNrRl2b93Ruy_g&utm_campaign=yelp_api_v3&utm_medium=api_v3_business_search&utm_source=ywY5UnLZrNrRl2b93Ruy_g", "review_count": 49, "categories": [{"alias": "icecream", "title": "Ice Cream & Frozen Yogurt"}, {"alias": "seafood", "title": "Seafood"}, {"alias": "burgers", "title": "Burgers"}], "rating": 3.5, "coordinates": {"latitude": 42.3944891, "longitude": -71.5496521}, "transactions": ["delivery", "pickup"], "price": "$$", "location": {"address1": "418 Main St", "address2": "", "address3": "", "city": "Hudson", "zip_code": "01749", "country": "US", "state": "MA", "display_address": ["418 Main St", "Hudson, MA 01749"]}, "phone": "+19785681775", "display_phone": "(978) 568-1775", "distance": 6651.672074692698}, {"id": "FEtw_cfDwKTFnX58-UBcxw", "alias": "taco-bell-hudson-7", "name": "Taco Bell", "image_url": "https://s3-media4.fl.yelpcdn.com/bphoto/SPuzEdKFb11I3iYSWh9Rew/o.jpg", "is_closed": false, "url": "https://www.yelp.com/biz/taco-bell-hudson-7?adjust_creative=ywY5UnLZrNrRl2b93Ruy_g&utm_campaign=yelp_api_v3&utm_medium=api_v3_business_search&utm_source=ywY5UnLZrNrRl2b93Ruy_g", "review_count": 28, "categories": [{"alias": "hotdogs", "title": "Fast Food"}, {"alias": "tacos", "title": "Tacos"}], "rating": 2.0, "coordinates": {"latitude": 42.37199, "longitude": -71.56188}, "transactions": [], "price": "$", "location": {"address1": "282 Washington Street", "address2": "", "address3": "", "city": "Hudson", "zip_code": "01749", "country": "US", "state": "MA", "display_address": ["282 Washington Street", "Hudson, MA 01749"]}, "phone": "+19785670646", "display_phone": "(978) 567-0646", "distance": 5722.216533750169}, {"id": "-cpT3RUWmbjXm6r9XVM0Og", "alias": "dairy-queen-clinton", "name": "Dairy Queen", "image_url": "https://s3-media4.fl.yelpcdn.com/bphoto/D-ypuqRhGhvJh3E04LVoNQ/o.jpg", "is_closed": false, "url": "https://www.yelp.com/biz/dairy-queen-clinton?adjust_creative=ywY5UnLZrNrRl2b93Ruy_g&utm_campaign=yelp_api_v3&utm_medium=api_v3_business_search&utm_source=ywY5UnLZrNrRl2b93Ruy_g", "review_count": 3, "categories": [{"alias": "icecream", "title": "Ice Cream & Frozen Yogurt"}, {"alias": "hotdogs", "title": "Fast Food"}], "rating": 3.5, "coordinates": {"latitude": 42.430102, "longitude": -71.680913}, "transactions": [], "price": "$", "location": {"address1": "655 High St", "address2": "", "address3": "", "city": "Clinton", "zip_code": "01510", "country": "US", "state": "MA", "display_address": ["655 High St", "Clinton, MA 01510"]}, "phone": "+19783655750", "display_phone": "(978) 365-5750", "distance": 6613.738360064976}, {"id": "wPpAR3cN45Bt7sxbaJf8ZQ", "alias": "mcdonalds-clinton-20", "name": "McDonald's", "image_url": "https://s3-media2.fl.yelpcdn.com/bphoto/X16zfqwOetDoDp403Z1uag/o.jpg", "is_closed": false, "url": "https://www.yelp.com/biz/mcdonalds-clinton-20?adjust_creative=ywY5UnLZrNrRl2b93Ruy_g&utm_campaign=yelp_api_v3&utm_medium=api_v3_business_search&utm_source=ywY5UnLZrNrRl2b93Ruy_g", "review_count": 17, "categories": [{"alias": "hotdogs", "title": "Fast Food"}, {"alias": "burgers", "title": "Burgers"}, {"alias": "coffee", "title": "Coffee & Tea"}], "rating": 1.5, "coordinates": {"latitude": 42.4324091207016, "longitude": -71.6871465649592}, "transactions": ["delivery"], "price": "$", "location": {"address1": "1040 Main St", "address2": "", "address3": "", "city": "Clinton", "zip_code": "01510", "country": "US", "state": "MA", "display_address": ["1040 Main St", "Clinton, MA 01510"]}, "phone": "+19783659894", "display_phone": "(978) 365-9894", "distance": 7134.713207782017}, {"id": "TnyUHLRY_-woiLJETE5cGg", "alias": "britneys-cafe-northborough", "name": "Britney's Cafe", "image_url": "https://s3-media2.fl.yelpcdn.com/bphoto/srF7ei2jCGb5o3QahbcuyQ/o.jpg", "is_closed": false, "url": "https://www.yelp.com/biz/britneys-cafe-northborough?adjust_creative=ywY5UnLZrNrRl2b93Ruy_g&utm_campaign=yelp_api_v3&utm_medium=api_v3_business_search&utm_source=ywY5UnLZrNrRl2b93Ruy_g", "review_count": 107, "categories": [{"alias": "breakfast_brunch", "title": "Breakfast & Brunch"}, {"alias": "waffles", "title": "Waffles"}, {"alias": "sandwiches", "title": "Sandwiches"}], "rating": 3.0, "coordinates": {"latitude": 42.32752, "longitude": -71.62192}, "transactions": ["delivery"], "price": "$", "location": {"address1": "291 Main St", "address2": "", "address3": "", "city": "Northborough", "zip_code": "01532", "country": "US", "state": "MA", "display_address": ["291 Main St", "Northborough, MA 01532"]}, "phone": "+15089363593", "display_phone": "(508) 936-3593", "distance": 6293.457086481243}]