[{"id": "mcZb2oSI-0x1vlPysfN4LA", "alias": "the-red-raven-gastropub-acton", "name": "The Red Raven Gastropub", "image_url": "https://s3-media2.fl.yelpcdn.com/bphoto/PF6eP8GTy7n1DCdD9rklUQ/o.jpg", "is_closed": false, "url": "https://www.yelp.com/biz/the-red-raven-gastropub-acton?adjust_creative=HdhkN5EEH6lAqE3kwhsHEQ&utm_campaign=yelp_api_v3&utm_medium=api_v3_business_search&utm_source=HdhkN5EEH6lAqE3kwhsHEQ", "review_count": 356, "categories": [{"alias": "gastropubs", "title": "Gastropubs"}], "rating": 3.0, "coordinates": {"latitude": 42.5210909755955, "longitude": -71.432013687558}, "transactions": [], "price": "$$", "location": {"address1": "3 Nagog Park", "address2": null, "address3": "", "city": "Acton", "zip_code": "01720", "country": "US", "state": "MA", "display_address": ["3 Nagog Park", "Acton, MA 01720"]}, "phone": "+19782742231", "display_phone": "(978) 274-2231", "distance": 289.7990030837978}, {"id": "dVUinhjpeVLEU-Uzd8JV3Q", "alias": "beijing-tokyo-acton-5", "name": "Beijing Tokyo", "image_url": "https://s3-media2.fl.yelpcdn.com/bphoto/y99WW4gqEmkiEt57XVGdSA/o.jpg", "is_closed": false, "url": "https://www.yelp.com/biz/beijing-tokyo-acton-5?adjust_creative=HdhkN5EEH6lAqE3kwhsHEQ&utm_campaign=yelp_api_v3&utm_medium=api_v3_business_search&utm_source=HdhkN5EEH6lAqE3kwhsHEQ", "review_count": 53, "categories": [{"alias": "chinese", "title": "Chinese"}, {"alias": "japanese", "title": "Japanese"}, {"alias": "bars", "title": "Bars"}], "rating": 4.0, "coordinates": {"latitude": 42.5224910880023, "longitude": -71.4315375519852}, "transactions": [], "location": {"address1": "103 Nagog Park", "address2": "", "address3": null, "city": "Acton", "zip_code": "01720", "country": "US", "state": "MA", "display_address": ["103 Nagog Park", "Acton, MA 01720"]}, "phone": "+19784298989", "display_phone": "(978) 429-8989", "distance": 379.16723737564894}, {"id": "T51Wxd2LnUcUNkYCOGYlZw", "alias": "crossroads-cafe-acton", "name": "Crossroads Cafe", "image_url": "https://s3-media4.fl.yelpcdn.com/bphoto/LGGpXVv1WmDC95QD7c1xIg/o.jpg", "is_closed": false, "url": "https://www.yelp.com/biz/crossroads-cafe-acton?adjust_creative=HdhkN5EEH6lAqE3kwhsHEQ&utm_campaign=yelp_api_v3&utm_medium=api_v3_business_search&utm_source=HdhkN5EEH6lAqE3kwhsHEQ", "review_count": 114, "categories": [{"alias": "tradamerican", "title": "American (Traditional)"}, {"alias": "lounges", "title": "Lounges"}], "rating": 3.5, "coordinates": {"latitude": 42.5231520552662, "longitude": -71.4325873768414}, "transactions": ["delivery"], "price": "$$", "location": {"address1": "405 Nagog Sq", "address2": "", "address3": "", "city": "Acton", "zip_code": "01720", "country": "US", "state": "MA", "display_address": ["405 Nagog Sq", "Acton, MA 01720"]}, "phone": "+19782639733", "display_phone": "(978) 263-9733", "distance": 487.93177273174604}, {"id": "NiZ71XJcKTk2d4HgMlJ_zQ", "alias": "mayuri-indian-cuisine-acton-3", "name": "Mayuri Indian Cuisine", "image_url": "https://s3-media4.fl.yelpcdn.com/bphoto/T5YlIdUqtsghaSD-t5Rm9A/o.jpg", "is_closed": false, "url": "https://www.yelp.com/biz/mayuri-indian-cuisine-acton-3?adjust_creative=HdhkN5EEH6lAqE3kwhsHEQ&utm_campaign=yelp_api_v3&utm_medium=api_v3_business_search&utm_source=HdhkN5EEH6lAqE3kwhsHEQ", "review_count": 83, "categories": [{"alias": "indpak", "title": "Indian"}], "rating": 4.0, "coordinates": {"latitude": 42.523, "longitude": -71.432142}, "transactions": ["pickup"], "price": "$$", "location": {"address1": "5 Nagog Park", "address2": "Ste 508", "address3": "Nagog Mall", "city": "Acton", "zip_code": "01720", "country": "US", "state": "MA", "display_address": ["5 Nagog Park", "Ste 508", "Nagog Mall", "Acton, MA 01720"]}, "phone": "+19782742323", "display_phone": "(978) 274-2323", "distance": 453.43372540969875}, {"id": "Mr05XLFALHFvxZaCzKfBhA", "alias": "bickfords-family-restaurant-acton", "name": "Bickford's Family Restaurant", "image_url": "https://s3-media3.fl.yelpcdn.com/bphoto/76JDUPMzeGz8VXFMI3YSHg/o.jpg", "is_closed": false, "url": "https://www.yelp.com/biz/bickfords-family-restaurant-acton?adjust_creative=HdhkN5EEH6lAqE3kwhsHEQ&utm_campaign=yelp_api_v3&utm_medium=api_v3_business_search&utm_source=HdhkN5EEH6lAqE3kwhsHEQ", "review_count": 35, "categories": [{"alias": "newamerican", "title": "American (New)"}, {"alias": "breakfast_brunch", "title": "Breakfast & Brunch"}, {"alias": "venues", "title": "Venues & Event Spaces"}], "rating": 3.0, "coordinates": {"latitude": 42.52437, "longitude": -71.43284}, "transactions": [], "price": "$", "location": {"address1": "20 Nagog Park", "address2": "", "address3": "", "city": "Acton", "zip_code": "01720", "country": "US", "state": "MA", "display_address": ["20 Nagog Park", "Acton, MA 01720"]}, "phone": "+19782630442", "display_phone": "(978) 263-0442", "distance": 488.6934794184765}]