[{"id": "kys7TxEIxNO8hmdUqYPQow", "alias": "john-andrews-farmhouse-restaurant-south-egremont", "name": "John Andrews Farmhouse Restaurant", "image_url": "https://s3-media2.fl.yelpcdn.com/bphoto/TURXOkf9nmA3Q1B7Fgn9gA/o.jpg", "is_closed": false, "url": "https://www.yelp.com/biz/john-andrews-farmhouse-restaurant-south-egremont?adjust_creative=ywY5UnLZrNrRl2b93Ruy_g&utm_campaign=yelp_api_v3&utm_medium=api_v3_business_search&utm_source=ywY5UnLZrNrRl2b93Ruy_g", "review_count": 87, "categories": [{"alias": "newamerican", "title": "American (New)"}], "rating": 4.0, "coordinates": {"latitude": 42.17093, "longitude": -73.4583}, "transactions": [], "price": "$$$", "location": {"address1": "224 Hillsdale Rd", "address2": "", "address3": "", "city": "South Egremont", "zip_code": "01258", "country": "US", "state": "MA", "display_address": ["224 Hillsdale Rd", "South Egremont, MA 01258"]}, "phone": "+14135283469", "display_phone": "(413) 528-3469", "distance": 3574.911227332847}, {"id": "LxlrXgIXUjFEev8rwP_1-A", "alias": "olde-egremont-country-store-egremont", "name": "Olde Egremont Country Store", "image_url": "", "is_closed": false, "url": "https://www.yelp.com/biz/olde-egremont-country-store-egremont?adjust_creative=ywY5UnLZrNrRl2b93Ruy_g&utm_campaign=yelp_api_v3&utm_medium=api_v3_business_search&utm_source=ywY5UnLZrNrRl2b93Ruy_g", "review_count": 2, "categories": [{"alias": "sandwiches", "title": "Sandwiches"}, {"alias": "coffee", "title": "Coffee & Tea"}, {"alias": "donuts", "title": "Donuts"}], "rating": 4.5, "coordinates": {"latitude": 42.19816, "longitude": -73.438571}, "transactions": [], "location": {"address1": "223 Egremont Plain Rd", "address2": "", "address3": "", "city": "Egremont", "zip_code": "01230", "country": "US", "state": "MA", "display_address": ["223 Egremont Plain Rd", "Egremont, MA 01230"]}, "phone": "+14135284796", "display_phone": "(413) 528-4796", "distance": 239.40759215956118}, {"id": "nRgnPH741Xti-7lD7dL2lA", "alias": "catamount-food-and-beverage-great-barrington", "name": "Catamount Food & Beverage", "image_url": "", "is_closed": false, "url": "https://www.yelp.com/biz/catamount-food-and-beverage-great-barrington?adjust_creative=ywY5UnLZrNrRl2b93Ruy_g&utm_campaign=yelp_api_v3&utm_medium=api_v3_business_search&utm_source=ywY5UnLZrNrRl2b93Ruy_g", "review_count": 3, "categories": [{"alias": "restaurants", "title": "Restaurants"}], "rating": 1.0, "coordinates": {"latitude": 42.16512, "longitude": -73.4742}, "transactions": [], "price": "$$", "location": {"address1": "17 Nicholson Rd", "address2": "", "address3": "", "city": "Great Barrington", "zip_code": "01230", "country": "US", "state": "MA", "display_address": ["17 Nicholson Rd", "Great Barrington, MA 01230"]}, "phone": "+14135286138", "display_phone": "(413) 528-6138", "distance": 4794.730211823327}, {"id": "C4OiIXuNN6PbCq8gaMyc1Q", "alias": "papas-best-batch-red-hook", "name": "Papa's Best Batch", "image_url": "https://s3-media2.fl.yelpcdn.com/bphoto/TP_X6t_lwfuT-1MI915hhA/o.jpg", "is_closed": false, "url": "https://www.yelp.com/biz/papas-best-batch-red-hook?adjust_creative=ywY5UnLZrNrRl2b93Ruy_g&utm_campaign=yelp_api_v3&utm_medium=api_v3_business_search&utm_source=ywY5UnLZrNrRl2b93Ruy_g", "review_count": 44, "categories": [{"alias": "bbq", "title": "Barbeque"}, {"alias": "foodtrucks", "title": "Food Trucks"}], "rating": 5.0, "coordinates": {"latitude": 42.028686, "longitude": -73.852675}, "transactions": [], "price": "$$", "location": {"address1": "243 Pitcher Ln", "address2": "", "address3": "Greig Farm", "city": "Red Hook", "zip_code": "12571", "country": "US", "state": "NY", "display_address": ["243 Pitcher Ln", "Greig Farm", "Red Hook, NY 12571"]}, "phone": "+19143885202", "display_phone": "(914) 388-5202", "distance": 39009.19894967702}, {"id": "qqA8YX58xnmEXLyanHfdUg", "alias": "stufd-food-truck-brooklyn", "name": "Stuf'd Food Truck", "image_url": "https://s3-media2.fl.yelpcdn.com/bphoto/_Wn0i-tLIOFinw8BPAqxPA/o.jpg", "is_closed": false, "url": "https://www.yelp.com/biz/stufd-food-truck-brooklyn?adjust_creative=ywY5UnLZrNrRl2b93Ruy_g&utm_campaign=yelp_api_v3&utm_medium=api_v3_business_search&utm_source=ywY5UnLZrNrRl2b93Ruy_g", "review_count": 4, "categories": [{"alias": "sandwiches", "title": "Sandwiches"}, {"alias": "foodtrucks", "title": "Food Trucks"}], "rating": 4.0, "coordinates": {"latitude": 40.7124539, "longitude": -73.9287374}, "transactions": [], "location": {"address1": "178 Varick Ave", "address2": "", "address3": null, "city": "Brooklyn", "zip_code": "11237", "country": "US", "state": "NY", "display_address": ["178 Varick Ave", "Brooklyn, NY 11237"]}, "phone": "+18457091808", "display_phone": "(845) 709-1808", "distance": 170351.0981353361}]