[{"id": "L23iQ-ONcUb0edZeJJX_nA", "alias": "chester-common-table-chester", "name": "Chester Common Table", "image_url": "https://s3-media4.fl.yelpcdn.com/bphoto/DAStUuP7cBK4DbiHf3HhTQ/o.jpg", "is_closed": false, "url": "https://www.yelp.com/biz/chester-common-table-chester?adjust_creative=ywY5UnLZrNrRl2b93Ruy_g&utm_campaign=yelp_api_v3&utm_medium=api_v3_business_search&utm_source=ywY5UnLZrNrRl2b93Ruy_g", "review_count": 32, "categories": [{"alias": "comfortfood", "title": "Comfort Food"}, {"alias": "tradamerican", "title": "American (Traditional)"}], "rating": 4.5, "coordinates": {"latitude": 42.280002, "longitude": -72.980058}, "transactions": [], "price": "$$", "location": {"address1": "30 Main St", "address2": null, "address3": "", "city": "Chester", "zip_code": "01011", "country": "US", "state": "MA", "display_address": ["30 Main St", "Chester, MA 01011"]}, "phone": "+14133541076", "display_phone": "(413) 354-1076", "distance": 7961.358602101463}, {"id": "IRDbtfi_STNrrinh1V3csg", "alias": "the-rabbit-hole-worthington-3", "name": "The Rabbit Hole", "image_url": "https://s3-media1.fl.yelpcdn.com/bphoto/EdhUcHZXdrg_qRpOyqAsSw/o.jpg", "is_closed": false, "url": "https://www.yelp.com/biz/the-rabbit-hole-worthington-3?adjust_creative=ywY5UnLZrNrRl2b93Ruy_g&utm_campaign=yelp_api_v3&utm_medium=api_v3_business_search&utm_source=ywY5UnLZrNrRl2b93Ruy_g", "review_count": 5, "categories": [{"alias": "newamerican", "title": "American (New)"}], "rating": 4.0, "coordinates": {"latitude": 42.40078, "longitude": -72.93759}, "transactions": [], "location": {"address1": "144 Huntington Rd", "address2": null, "address3": "", "city": "Worthington", "zip_code": "01098", "country": "US", "state": "MA", "display_address": ["144 Huntington Rd", "Worthington, MA 01098"]}, "phone": "+14132380144", "display_phone": "(413) 238-0144", "distance": 8424.093700684702}, {"id": "cdlN_aSJOn0EDVexGo0v5g", "alias": "comfort-kitchen-and-bar-huntington-2", "name": "Comfort Kitchen and Bar", "image_url": "https://s3-media2.fl.yelpcdn.com/bphoto/iKDnV5pwo5kA3mJBjTyPeQ/o.jpg", "is_closed": false, "url": "https://www.yelp.com/biz/comfort-kitchen-and-bar-huntington-2?adjust_creative=ywY5UnLZrNrRl2b93Ruy_g&utm_campaign=yelp_api_v3&utm_medium=api_v3_business_search&utm_source=ywY5UnLZrNrRl2b93Ruy_g", "review_count": 36, "categories": [{"alias": "bars", "title": "Bars"}, {"alias": "tradamerican", "title": "American (Traditional)"}], "rating": 4.5, "coordinates": {"latitude": 42.2348748399165, "longitude": -72.8799170197082}, "transactions": [], "price": "$$", "location": {"address1": "4 Main St", "address2": "", "address3": null, "city": "Huntington", "zip_code": "01050", "country": "US", "state": "MA", "display_address": ["4 Main St", "Huntington, MA 01050"]}, "phone": "+14132073011", "display_phone": "(413) 207-3011", "distance": 16555.105722979963}, {"id": "rCi5XRAlbjFJBD05OWfR1A", "alias": "velvet-restaurant-worthington-2", "name": "Velvet Restaurant", "image_url": "https://s3-media3.fl.yelpcdn.com/bphoto/UlVYHq_A04HTAXFdC6ALBA/o.jpg", "is_closed": false, "url": "https://www.yelp.com/biz/velvet-restaurant-worthington-2?adjust_creative=ywY5UnLZrNrRl2b93Ruy_g&utm_campaign=yelp_api_v3&utm_medium=api_v3_business_search&utm_source=ywY5UnLZrNrRl2b93Ruy_g", "review_count": 7, "categories": [{"alias": "bars", "title": "Bars"}, {"alias": "newamerican", "title": "American (New)"}], "rating": 4.0, "coordinates": {"latitude": 42.40855, "longitude": -72.94236}, "transactions": [], "location": {"address1": "113 Ridge Rd", "address2": null, "address3": "", "city": "Worthington", "zip_code": "01098", "country": "US", "state": "MA", "display_address": ["113 Ridge Rd", "Worthington, MA 01098"]}, "phone": "+14132384492", "display_phone": "(413) 238-4492", "distance": 8796.400719811025}, {"id": "b4-4eClP0ksWjfBUMkI1-A", "alias": "becket-general-store-becket-2", "name": "Becket General Store", "image_url": "https://s3-media2.fl.yelpcdn.com/bphoto/O1QiC8MXq3W-AcqbU7FaFQ/o.jpg", "is_closed": false, "url": "https://www.yelp.com/biz/becket-general-store-becket-2?adjust_creative=ywY5UnLZrNrRl2b93Ruy_g&utm_campaign=yelp_api_v3&utm_medium=api_v3_business_search&utm_source=ywY5UnLZrNrRl2b93Ruy_g", "review_count": 11, "categories": [{"alias": "breakfast_brunch", "title": "Breakfast & Brunch"}, {"alias": "pizza", "title": "Pizza"}, {"alias": "bars", "title": "Bars"}], "rating": 4.5, "coordinates": {"latitude": 42.3275317514641, "longitude": -73.0836283305567}, "transactions": [], "location": {"address1": "3235 Main St", "address2": "", "address3": null, "city": "Becket", "zip_code": "01223", "country": "US", "state": "MA", "display_address": ["3235 Main St", "Becket, MA 01223"]}, "phone": "+14136236026", "display_phone": "(413) 623-6026", "distance": 6381.210235910677}, {"id": "E0wk9-VkuKMY6TKHReKETw", "alias": "the-grouse-house-otis", "name": "The Grouse House", "image_url": "https://s3-media4.fl.yelpcdn.com/bphoto/87Fh7pVCqwvC2JYJXj0GPA/o.jpg", "is_closed": false, "url": "https://www.yelp.com/biz/the-grouse-house-otis?adjust_creative=ywY5UnLZrNrRl2b93Ruy_g&utm_campaign=yelp_api_v3&utm_medium=api_v3_business_search&utm_source=ywY5UnLZrNrRl2b93Ruy_g", "review_count": 20, "categories": [{"alias": "bbq", "title": "Barbeque"}, {"alias": "tradamerican", "title": "American (Traditional)"}], "rating": 4.0, "coordinates": {"latitude": 42.196707, "longitude": -73.100016}, "transactions": [], "price": "$", "location": {"address1": "195 Monterey Rd", "address2": null, "address3": null, "city": "Otis", "zip_code": "01253", "country": "US", "state": "MA", "display_address": ["195 Monterey Rd", "Otis, MA 01253"]}, "phone": "+14132694446", "display_phone": "(413) 269-4446", "distance": 18331.513392223518}, {"id": "aw0FDqkiYDIE33KmHW7YHQ", "alias": "listons-bar-and-grill-worthington", "name": "Listons Bar & Grill", "image_url": "https://s3-media2.fl.yelpcdn.com/bphoto/Zw2va6P_vOdum1skN8J6cQ/o.jpg", "is_closed": false, "url": "https://www.yelp.com/biz/listons-bar-and-grill-worthington?adjust_creative=ywY5UnLZrNrRl2b93Ruy_g&utm_campaign=yelp_api_v3&utm_medium=api_v3_business_search&utm_source=ywY5UnLZrNrRl2b93Ruy_g", "review_count": 7, "categories": [{"alias": "sportsbars", "title": "Sports Bars"}, {"alias": "tradamerican", "title": "American (Traditional)"}], "rating": 4.5, "coordinates": {"latitude": 42.42713, "longitude": -72.95322}, "transactions": [], "location": {"address1": "324 Old North Rd Rte 143", "address2": "", "address3": null, "city": "Worthington", "zip_code": "01098", "country": "US", "state": "MA", "display_address": ["324 Old North Rd Rte 143", "Worthington, MA 01098"]}, "phone": "+14132385353", "display_phone": "(413) 238-5353", "distance": 10049.69516590851}, {"id": "wrtX2ZzygWcN6PPLIJAZwA", "alias": "the-rapids-bar-and-grill-huntington-2", "name": "The Rapids Bar & Grill", "image_url": "https://s3-media3.fl.yelpcdn.com/bphoto/mlUj7X36KYNNjEEXZuNv-Q/o.jpg", "is_closed": false, "url": "https://www.yelp.com/biz/the-rapids-bar-and-grill-huntington-2?adjust_creative=ywY5UnLZrNrRl2b93Ruy_g&utm_campaign=yelp_api_v3&utm_medium=api_v3_business_search&utm_source=ywY5UnLZrNrRl2b93Ruy_g", "review_count": 15, "categories": [{"alias": "tradamerican", "title": "American (Traditional)"}, {"alias": "bars", "title": "Bars"}], "rating": 3.5, "coordinates": {"latitude": 42.27658, "longitude": -72.86391}, "transactions": [], "price": "$$", "location": {"address1": "200 Worthington Rd", "address2": null, "address3": "", "city": "Huntington", "zip_code": "01050", "country": "US", "state": "MA", "display_address": ["200 Worthington Rd", "Huntington, MA 01050"]}, "phone": "+14136673300", "display_phone": "(413) 667-3300", "distance": 14377.39754188012}, {"id": "KwAaAZte_nWKeny_lAb0nA", "alias": "dream-away-lodge-becket", "name": "Dream Away Lodge", "image_url": "https://s3-media2.fl.yelpcdn.com/bphoto/Oh289v27yllCU-Zj_WK1MA/o.jpg", "is_closed": false, "url": "https://www.yelp.com/biz/dream-away-lodge-becket?adjust_creative=ywY5UnLZrNrRl2b93Ruy_g&utm_campaign=yelp_api_v3&utm_medium=api_v3_business_search&utm_source=ywY5UnLZrNrRl2b93Ruy_g", "review_count": 87, "categories": [{"alias": "bars", "title": "Bars"}, {"alias": "newamerican", "title": "American (New)"}], "rating": 3.5, "coordinates": {"latitude": 42.32495, "longitude": -73.14103}, "transactions": [], "price": "$$", "location": {"address1": "1342 County Rd", "address2": "", "address3": "", "city": "Becket", "zip_code": "01223", "country": "US", "state": "MA", "display_address": ["1342 County Rd", "Becket, MA 01223"]}, "phone": "+14136238725", "display_phone": "(413) 623-8725", "distance": 10985.628519064821}, {"id": "EXUaFzhvXNjCRNmylmOhxw", "alias": "the-old-inn-on-the-green-at-the-pillow-becket", "name": "The Old Inn on the Green at the Pillow", "image_url": "https://s3-media2.fl.yelpcdn.com/bphoto/xeUMF_3ZHQOd0piGgU83RA/o.jpg", "is_closed": false, "url": "https://www.yelp.com/biz/the-old-inn-on-the-green-at-the-pillow-becket?adjust_creative=ywY5UnLZrNrRl2b93Ruy_g&utm_campaign=yelp_api_v3&utm_medium=api_v3_business_search&utm_source=ywY5UnLZrNrRl2b93Ruy_g", "review_count": 13, "categories": [{"alias": "newamerican", "title": "American (New)"}], "rating": 3.0, "coordinates": {"latitude": 42.26658, "longitude": -73.11659}, "transactions": [], "location": {"address1": "358 George Carter Rd", "address2": "", "address3": null, "city": "Becket", "zip_code": "01223", "country": "US", "state": "MA", "display_address": ["358 George Carter Rd", "Becket, MA 01223"]}, "phone": "+14132120303", "display_phone": "(413) 212-0303", "distance": 12748.908532719246}, {"id": "NE3t2ECJh8NDDsUbrlhwYQ", "alias": "mollisons-windy-hill-sugar-shack-worthington", "name": "Mollison's Windy Hill Sugar Shack", "image_url": "https://s3-media4.fl.yelpcdn.com/bphoto/4qQPuYhpx4YYjIR2a6o29A/o.jpg", "is_closed": false, "url": "https://www.yelp.com/biz/mollisons-windy-hill-sugar-shack-worthington?adjust_creative=ywY5UnLZrNrRl2b93Ruy_g&utm_campaign=yelp_api_v3&utm_medium=api_v3_business_search&utm_source=ywY5UnLZrNrRl2b93Ruy_g", "review_count": 2, "categories": [{"alias": "breakfast_brunch", "title": "Breakfast & Brunch"}], "rating": 4.5, "coordinates": {"latitude": 42.394454581771, "longitude": -72.9491633361976}, "transactions": [], "price": "$", "location": {"address1": "1 W Sam Hill Rd", "address2": "", "address3": "", "city": "Worthington", "zip_code": "01098", "country": "US", "state": "MA", "display_address": ["1 W Sam Hill Rd", "Worthington, MA 01098"]}, "phone": "+14132385869", "display_phone": "(413) 238-5869", "distance": 7258.373334037961}, {"id": "wqQ-cLMbLmxzc_p4jjDSxw", "alias": "the-old-creamery-cummington-2", "name": "The Old Creamery", "image_url": "https://s3-media3.fl.yelpcdn.com/bphoto/suPv8fzXhQdsR8elaUVfzg/o.jpg", "is_closed": false, "url": "https://www.yelp.com/biz/the-old-creamery-cummington-2?adjust_creative=ywY5UnLZrNrRl2b93Ruy_g&utm_campaign=yelp_api_v3&utm_medium=api_v3_business_search&utm_source=ywY5UnLZrNrRl2b93Ruy_g", "review_count": 31, "categories": [{"alias": "grocery", "title": "Grocery"}, {"alias": "bakeries", "title": "Bakeries"}, {"alias": "sandwiches", "title": "Sandwiches"}], "rating": 4.5, "coordinates": {"latitude": 42.464115, "longitude": -72.90535}, "transactions": [], "price": "$$", "location": {"address1": "445 Berkshire Trl", "address2": "", "address3": "", "city": "Cummington", "zip_code": "01026", "country": "US", "state": "MA", "display_address": ["445 Berkshire Trl", "Cummington, MA 01026"]}, "phone": "+14136345560", "display_phone": "(413) 634-5560", "distance": 15570.065032268558}, {"id": "E0BNgyLQy3WUwFSnMLaQpA", "alias": "high-hopes-farm-worthington", "name": "High Hopes Farm", "image_url": "https://s3-media2.fl.yelpcdn.com/bphoto/VlgVhYdSvdonXZaV59JGtQ/o.jpg", "is_closed": false, "url": "https://www.yelp.com/biz/high-hopes-farm-worthington?adjust_creative=ywY5UnLZrNrRl2b93Ruy_g&utm_campaign=yelp_api_v3&utm_medium=api_v3_business_search&utm_source=ywY5UnLZrNrRl2b93Ruy_g", "review_count": 4, "categories": [{"alias": "breakfast_brunch", "title": "Breakfast & Brunch"}], "rating": 5.0, "coordinates": {"latitude": 42.3418042, "longitude": -72.8882095}, "transactions": [], "price": "$$", "location": {"address1": "1132 Huntington Rd", "address2": "", "address3": "", "city": "Worthington", "zip_code": "01098", "country": "US", "state": "MA", "display_address": ["1132 Huntington Rd", "Worthington, MA 01098"]}, "phone": "+14132385919", "display_phone": "(413) 238-5919", "distance": 10088.561482534318}, {"id": "LsBWcjUV9pWHx18TFHmgxw", "alias": "deweys-public-house-dalton", "name": "Dewey's Public House", "image_url": "https://s3-media1.fl.yelpcdn.com/bphoto/IexiQnkl0NHDCGObVhW8QQ/o.jpg", "is_closed": false, "url": "https://www.yelp.com/biz/deweys-public-house-dalton?adjust_creative=ywY5UnLZrNrRl2b93Ruy_g&utm_campaign=yelp_api_v3&utm_medium=api_v3_business_search&utm_source=ywY5UnLZrNrRl2b93Ruy_g", "review_count": 17, "categories": [{"alias": "bars", "title": "Bars"}, {"alias": "tradamerican", "title": "American (Traditional)"}], "rating": 4.0, "coordinates": {"latitude": 42.4734917, "longitude": -73.156044}, "transactions": [], "price": "$$", "location": {"address1": "16 Depot St", "address2": "", "address3": "", "city": "Dalton", "zip_code": "01226", "country": "US", "state": "MA", "display_address": ["16 Depot St", "Dalton, MA 01226"]}, "phone": "+14136840900", "display_phone": "(413) 684-0900", "distance": 18363.922813420224}, {"id": "9LrxgQh9i7vmsFqGmz5B9Q", "alias": "norwich-lake-farm-and-sugar-barn-restaurant-huntington", "name": "Norwich Lake Farm and Sugar Barn Restaurant", "image_url": "https://s3-media1.fl.yelpcdn.com/bphoto/sWWUQk2ZbqD_GBJa2JjCTQ/o.jpg", "is_closed": false, "url": "https://www.yelp.com/biz/norwich-lake-farm-and-sugar-barn-restaurant-huntington?adjust_creative=ywY5UnLZrNrRl2b93Ruy_g&utm_campaign=yelp_api_v3&utm_medium=api_v3_business_search&utm_source=ywY5UnLZrNrRl2b93Ruy_g", "review_count": 2, "categories": [{"alias": "breakfast_brunch", "title": "Breakfast & Brunch"}], "rating": 5.0, "coordinates": {"latitude": 42.3006329582653, "longitude": -72.8408531472087}, "transactions": [], "location": {"address1": "87 Searle Rd", "address2": "", "address3": null, "city": "Huntington", "zip_code": "01050", "country": "US", "state": "MA", "display_address": ["87 Searle Rd", "Huntington, MA 01050"]}, "phone": "+14136678830", "display_phone": "(413) 667-8830", "distance": 14941.863016358055}, {"id": "Hz8ENDohZ-ZY2MooPz8-Eg", "alias": "spruce-corner-restaurant-goshen", "name": "Spruce Corner Restaurant", "image_url": "https://s3-media3.fl.yelpcdn.com/bphoto/Vf9B0rulKSpqtTS-E_lQrA/o.jpg", "is_closed": false, "url": "https://www.yelp.com/biz/spruce-corner-restaurant-goshen?adjust_creative=ywY5UnLZrNrRl2b93Ruy_g&utm_campaign=yelp_api_v3&utm_medium=api_v3_business_search&utm_source=ywY5UnLZrNrRl2b93Ruy_g", "review_count": 11, "categories": [{"alias": "tradamerican", "title": "American (Traditional)"}], "rating": 4.0, "coordinates": {"latitude": 42.45618, "longitude": -72.832747}, "transactions": [], "price": "$$", "location": {"address1": "188 Berkshire Trl W", "address2": "", "address3": "", "city": "Goshen", "zip_code": "01032", "country": "US", "state": "MA", "display_address": ["188 Berkshire Trl W", "Goshen, MA 01032"]}, "phone": "+14132683188", "display_phone": "(413) 268-3188", "distance": 18957.419408708985}, {"id": "ARnHCxfth45qbu5AU2g3Og", "alias": "classic-pizza-chester", "name": "Classic Pizza", "image_url": "https://s3-media3.fl.yelpcdn.com/bphoto/eAl51P7XAPmveVMWETkH2g/o.jpg", "is_closed": false, "url": "https://www.yelp.com/biz/classic-pizza-chester?adjust_creative=ywY5UnLZrNrRl2b93Ruy_g&utm_campaign=yelp_api_v3&utm_medium=api_v3_business_search&utm_source=ywY5UnLZrNrRl2b93Ruy_g", "review_count": 8, "categories": [{"alias": "pizza", "title": "Pizza"}], "rating": 3.5, "coordinates": {"latitude": 42.2799491882324, "longitude": -72.9793853759766}, "transactions": [], "price": "$$", "location": {"address1": "29 Main St", "address2": "", "address3": "", "city": "Chester", "zip_code": "01011", "country": "US", "state": "MA", "display_address": ["29 Main St", "Chester, MA 01011"]}, "phone": "+14133546554", "display_phone": "(413) 354-6554", "distance": 7973.362745092324}, {"id": "5fGDL6__gYOZ3aEqUrnprA", "alias": "dalton-restaurant-dalton", "name": "Dalton Restaurant", "image_url": "https://s3-media3.fl.yelpcdn.com/bphoto/s2zuMPhQulG1TNyWx1EfAg/o.jpg", "is_closed": false, "url": "https://www.yelp.com/biz/dalton-restaurant-dalton?adjust_creative=ywY5UnLZrNrRl2b93Ruy_g&utm_campaign=yelp_api_v3&utm_medium=api_v3_business_search&utm_source=ywY5UnLZrNrRl2b93Ruy_g", "review_count": 12, "categories": [{"alias": "diners", "title": "Diners"}], "rating": 4.0, "coordinates": {"latitude": 42.4734982, "longitude": -73.1721344}, "transactions": ["delivery"], "price": "$", "location": {"address1": "401 Main St", "address2": "", "address3": "", "city": "Dalton", "zip_code": "01226", "country": "US", "state": "MA", "display_address": ["401 Main St", "Dalton, MA 01226"]}, "phone": "+14136840414", "display_phone": "(413) 684-0414", "distance": 19241.312320881003}, {"id": "sZgz8QmrpPP9Bdb05duIIw", "alias": "sherwood-shoppe-becket", "name": "Sherwood Shoppe", "image_url": "https://s3-media4.fl.yelpcdn.com/bphoto/Aq0y_PiAhV_XqC56wD-m4Q/o.jpg", "is_closed": false, "url": "https://www.yelp.com/biz/sherwood-shoppe-becket?adjust_creative=ywY5UnLZrNrRl2b93Ruy_g&utm_campaign=yelp_api_v3&utm_medium=api_v3_business_search&utm_source=ywY5UnLZrNrRl2b93Ruy_g", "review_count": 12, "categories": [{"alias": "convenience", "title": "Convenience Stores"}, {"alias": "breakfast_brunch", "title": "Breakfast & Brunch"}, {"alias": "delis", "title": "Delis"}], "rating": 4.5, "coordinates": {"latitude": 42.2538082301617, "longitude": -73.0638302117586}, "transactions": [], "price": "$", "location": {"address1": "437 Wells Rd", "address2": "", "address3": "", "city": "Becket", "zip_code": "01223", "country": "US", "state": "MA", "display_address": ["437 Wells Rd", "Becket, MA 01223"]}, "phone": "+14136232338", "display_phone": "(413) 623-2338", "distance": 11305.58666853182}, {"id": "5pMuo6RdZ6JZF0E_Dl1eDQ", "alias": "home-club-hinsdale", "name": "Home Club", "image_url": "", "is_closed": false, "url": "https://www.yelp.com/biz/home-club-hinsdale?adjust_creative=ywY5UnLZrNrRl2b93Ruy_g&utm_campaign=yelp_api_v3&utm_medium=api_v3_business_search&utm_source=ywY5UnLZrNrRl2b93Ruy_g", "review_count": 1, "categories": [{"alias": "restaurants", "title": "Restaurants"}], "rating": 5.0, "coordinates": {"latitude": 42.4343329668045, "longitude": -73.1187625229359}, "transactions": [], "price": "$", "location": {"address1": "213 South St", "address2": "", "address3": "", "city": "Hinsdale", "zip_code": "01235", "country": "US", "state": "MA", "display_address": ["213 South St", "Hinsdale, MA 01235"]}, "phone": "+14136550167", "display_phone": "(413) 655-0167", "distance": 13076.21221681585}, {"id": "rHXDd-R9ztUJxKRMj2Ziqw", "alias": "goshen-snack-bar-williamsburg", "name": "Goshen Snack Bar", "image_url": "", "is_closed": false, "url": "https://www.yelp.com/biz/goshen-snack-bar-williamsburg?adjust_creative=ywY5UnLZrNrRl2b93Ruy_g&utm_campaign=yelp_api_v3&utm_medium=api_v3_business_search&utm_source=ywY5UnLZrNrRl2b93Ruy_g", "review_count": 1, "categories": [{"alias": "hotdogs", "title": "Fast Food"}], "rating": 5.0, "coordinates": {"latitude": 42.443226, "longitude": -72.815647}, "transactions": [], "location": {"address1": "47 Ball Rd", "address2": null, "address3": null, "city": "Williamsburg", "zip_code": "01096", "country": "US", "state": "MA", "display_address": ["47 Ball Rd", "Williamsburg, MA 01096"]}, "phone": "+14132689240", "display_phone": "(413) 268-9240", "distance": 19232.357326542053}, {"id": "jJi_0_zVAENFO1jNHFr2QA", "alias": "ozzies-steak-and-eggs-hinsdale", "name": "Ozzie's Steak & Eggs", "image_url": "https://s3-media2.fl.yelpcdn.com/bphoto/HmbCm2yJiHYPp3ccuEY5Tg/o.jpg", "is_closed": false, "url": "https://www.yelp.com/biz/ozzies-steak-and-eggs-hinsdale?adjust_creative=ywY5UnLZrNrRl2b93Ruy_g&utm_campaign=yelp_api_v3&utm_medium=api_v3_business_search&utm_source=ywY5UnLZrNrRl2b93Ruy_g", "review_count": 51, "categories": [{"alias": "newamerican", "title": "American (New)"}, {"alias": "breakfast_brunch", "title": "Breakfast & Brunch"}, {"alias": "seafood", "title": "Seafood"}], "rating": 4.5, "coordinates": {"latitude": 42.43803, "longitude": -73.125002}, "transactions": [], "price": "$$", "location": {"address1": "26 Maple St", "address2": "", "address3": "", "city": "Hinsdale", "zip_code": "01235", "country": "US", "state": "MA", "display_address": ["26 Maple St", "Hinsdale, MA 01235"]}, "phone": "+14136558309", "display_phone": "(413) 655-8309", "distance": 13725.227301096027}, {"id": "zfMgkBaSVR9KucqK1mmkOg", "alias": "jacobs-restaurant-dalton", "name": "Jacob's Restaurant", "image_url": "https://s3-media3.fl.yelpcdn.com/bphoto/70XUhQbB7N2n7moFQ37NaA/o.jpg", "is_closed": false, "url": "https://www.yelp.com/biz/jacobs-restaurant-dalton?adjust_creative=ywY5UnLZrNrRl2b93Ruy_g&utm_campaign=yelp_api_v3&utm_medium=api_v3_business_search&utm_source=ywY5UnLZrNrRl2b93Ruy_g", "review_count": 11, "categories": [{"alias": "restaurants", "title": "Restaurants"}], "rating": 3.0, "coordinates": {"latitude": 42.47424, "longitude": -73.16418}, "transactions": [], "price": "$", "location": {"address1": "51 Daly Ave", "address2": "", "address3": "", "city": "Dalton", "zip_code": "01226", "country": "US", "state": "MA", "display_address": ["51 Daly Ave", "Dalton, MA 01226"]}, "phone": "+14136849766", "display_phone": "(413) 684-9766", "distance": 18865.32429072377}, {"id": "qzb2lo-LNbUz2DaN6m5Qcw", "alias": "hot-harrys-fresh-burritos-dalton", "name": "Hot Harry's Fresh Burritos", "image_url": "https://s3-media1.fl.yelpcdn.com/bphoto/_LeE478T5T33qyGGCA9fgw/o.jpg", "is_closed": false, "url": "https://www.yelp.com/biz/hot-harrys-fresh-burritos-dalton?adjust_creative=ywY5UnLZrNrRl2b93Ruy_g&utm_campaign=yelp_api_v3&utm_medium=api_v3_business_search&utm_source=ywY5UnLZrNrRl2b93Ruy_g", "review_count": 5, "categories": [{"alias": "mexican", "title": "Mexican"}], "rating": 4.0, "coordinates": {"latitude": 42.4734965, "longitude": -73.1720944}, "transactions": ["delivery"], "location": {"address1": "403 Main St", "address2": "", "address3": null, "city": "Dalton", "zip_code": "01226", "country": "US", "state": "MA", "display_address": ["403 Main St", "Dalton, MA 01226"]}, "phone": "+14133000028", "display_phone": "(413) 300-0028", "distance": 19234.614729498186}, {"id": "b5dwwLNwKstRwY78mxS0nQ", "alias": "hinsdale-trading-company-hinsdale", "name": "Hinsdale Trading Company", "image_url": "https://s3-media1.fl.yelpcdn.com/bphoto/HpL6CkqF7IWTTOzbUp6WWA/o.jpg", "is_closed": false, "url": "https://www.yelp.com/biz/hinsdale-trading-company-hinsdale?adjust_creative=ywY5UnLZrNrRl2b93Ruy_g&utm_campaign=yelp_api_v3&utm_medium=api_v3_business_search&utm_source=ywY5UnLZrNrRl2b93Ruy_g", "review_count": 2, "categories": [{"alias": "pizza", "title": "Pizza"}, {"alias": "sandwiches", "title": "Sandwiches"}], "rating": 4.0, "coordinates": {"latitude": 42.4469440430403, "longitude": -73.1244655698538}, "transactions": [], "location": {"address1": "371 Old Dalton Rd", "address2": "", "address3": "", "city": "Hinsdale", "zip_code": "01235", "country": "US", "state": "MA", "display_address": ["371 Old Dalton Rd", "Hinsdale, MA 01235"]}, "phone": "+14136550161", "display_phone": "(413) 655-0161", "distance": 14746.764222609978}, {"id": "7V3RX-SPaYFt5aytErDK0g", "alias": "the-red-bucket-sugar-shack-worthington", "name": "The Red Bucket Sugar Shack", "image_url": "https://s3-media4.fl.yelpcdn.com/bphoto/dbHPKnAevuDhxLkRQIYEDw/o.jpg", "is_closed": false, "url": "https://www.yelp.com/biz/the-red-bucket-sugar-shack-worthington?adjust_creative=ywY5UnLZrNrRl2b93Ruy_g&utm_campaign=yelp_api_v3&utm_medium=api_v3_business_search&utm_source=ywY5UnLZrNrRl2b93Ruy_g", "review_count": 9, "categories": [{"alias": "breakfast_brunch", "title": "Breakfast & Brunch"}, {"alias": "tradamerican", "title": "American (Traditional)"}], "rating": 4.0, "coordinates": {"latitude": 42.344486, "longitude": -72.919398}, "transactions": [], "price": "$", "location": {"address1": "584 Kinnebrook Rd", "address2": "", "address3": "", "city": "Worthington", "zip_code": "01098", "country": "US", "state": "MA", "display_address": ["584 Kinnebrook Rd", "Worthington, MA 01098"]}, "phone": "+14132387710", "display_phone": "(413) 238-7710", "distance": 7538.739948415897}, {"id": "_4k5a9V9p6oDd0h8kCJbgg", "alias": "zuccos-family-restaurant-pittsfield", "name": "Zucco's Family Restaurant", "image_url": "https://s3-media3.fl.yelpcdn.com/bphoto/8kDDvVuGiEDPXeMZBNEPXA/o.jpg", "is_closed": false, "url": "https://www.yelp.com/biz/zuccos-family-restaurant-pittsfield?adjust_creative=ywY5UnLZrNrRl2b93Ruy_g&utm_campaign=yelp_api_v3&utm_medium=api_v3_business_search&utm_source=ywY5UnLZrNrRl2b93Ruy_g", "review_count": 24, "categories": [{"alias": "mediterranean", "title": "Mediterranean"}, {"alias": "italian", "title": "Italian"}, {"alias": "gluten_free", "title": "Gluten-Free"}], "rating": 3.0, "coordinates": {"latitude": 42.4633698981432, "longitude": -73.2147974686028}, "transactions": ["delivery", "pickup"], "price": "$$", "location": {"address1": "451 Dalton Ave", "address2": "", "address3": "", "city": "Pittsfield", "zip_code": "01201", "country": "US", "state": "MA", "display_address": ["451 Dalton Ave", "Pittsfield, MA 01201"]}, "phone": "+14134438112", "display_phone": "(413) 443-8112", "distance": 21094.150027997544}, {"id": "1J02t_gsLt_Rq2x0xPOzzg", "alias": "vivaldis-pizzeria-pittsfield", "name": "Vivaldi's Pizzeria", "image_url": "https://s3-media1.fl.yelpcdn.com/bphoto/4qvGd-y7a3vrDYNcI4-Cmw/o.jpg", "is_closed": false, "url": "https://www.yelp.com/biz/vivaldis-pizzeria-pittsfield?adjust_creative=ywY5UnLZrNrRl2b93Ruy_g&utm_campaign=yelp_api_v3&utm_medium=api_v3_business_search&utm_source=ywY5UnLZrNrRl2b93Ruy_g", "review_count": 32, "categories": [{"alias": "italian", "title": "Italian"}, {"alias": "pizza", "title": "Pizza"}, {"alias": "salad", "title": "Salad"}], "rating": 4.0, "coordinates": {"latitude": 42.46832, "longitude": -73.2038}, "transactions": ["delivery"], "price": "$", "location": {"address1": "5 Cheshire Rd", "address2": "", "address3": null, "city": "Pittsfield", "zip_code": "01201", "country": "US", "state": "MA", "display_address": ["5 Cheshire Rd", "Pittsfield, MA 01201"]}, "phone": "+14132365633", "display_phone": "(413) 236-5633", "distance": 20951.050031803967}, {"id": "IaXoc2JQs-4CYd3P2YA6FA", "alias": "o-laughlins-restaurant-pittsfield", "name": "O'laughlin's Restaurant", "image_url": "https://s3-media4.fl.yelpcdn.com/bphoto/kt_rEUI0423gfdSTtKxL_g/o.jpg", "is_closed": false, "url": "https://www.yelp.com/biz/o-laughlins-restaurant-pittsfield?adjust_creative=ywY5UnLZrNrRl2b93Ruy_g&utm_campaign=yelp_api_v3&utm_medium=api_v3_business_search&utm_source=ywY5UnLZrNrRl2b93Ruy_g", "review_count": 2, "categories": [{"alias": "tradamerican", "title": "American (Traditional)"}, {"alias": "irish_pubs", "title": "Irish Pub"}], "rating": 4.0, "coordinates": {"latitude": 42.4568138122559, "longitude": -73.212158203125}, "transactions": ["delivery"], "location": {"address1": "342 Merrill Rd", "address2": "", "address3": "", "city": "Pittsfield", "zip_code": "01201", "country": "US", "state": "MA", "display_address": ["342 Merrill Rd", "Pittsfield, MA 01201"]}, "phone": "+14134479507", "display_phone": "(413) 447-9507", "distance": 20483.741377698116}, {"id": "WpF2gHsX2rjlTGj-ohGkNA", "alias": "the-garden-grill-and-tavern-lanesborough", "name": "The Garden Grill & Tavern", "image_url": "https://s3-media2.fl.yelpcdn.com/bphoto/hqhdVQJQNlR6bAOyEy9dKg/o.jpg", "is_closed": false, "url": "https://www.yelp.com/biz/the-garden-grill-and-tavern-lanesborough?adjust_creative=ywY5UnLZrNrRl2b93Ruy_g&utm_campaign=yelp_api_v3&utm_medium=api_v3_business_search&utm_source=ywY5UnLZrNrRl2b93Ruy_g", "review_count": 12, "categories": [{"alias": "tradamerican", "title": "American (Traditional)"}], "rating": 2.0, "coordinates": {"latitude": 42.4936729, "longitude": -73.2017712}, "transactions": [], "price": "$$", "location": {"address1": "655 Cheshire Rd", "address2": "", "address3": "Berkshire Mal", "city": "Lanesborough", "zip_code": "01237", "country": "US", "state": "MA", "display_address": ["655 Cheshire Rd", "Berkshire Mal", "Lanesborough, MA 01237"]}, "phone": "+14134455300", "display_phone": "(413) 445-5300", "distance": 22541.60618693397}, {"id": "1vSpetXLeZnGEI-16WVUog", "alias": "the-brookhouse-sports-pub-and-restaurant-lanesborough", "name": "The Brookhouse Sports Pub & Restaurant", "image_url": "https://s3-media2.fl.yelpcdn.com/bphoto/U2Xz6KkR-gdwLE7XheFJAg/o.jpg", "is_closed": false, "url": "https://www.yelp.com/biz/the-brookhouse-sports-pub-and-restaurant-lanesborough?adjust_creative=ywY5UnLZrNrRl2b93Ruy_g&utm_campaign=yelp_api_v3&utm_medium=api_v3_business_search&utm_source=ywY5UnLZrNrRl2b93Ruy_g", "review_count": 18, "categories": [{"alias": "sportsbars", "title": "Sports Bars"}, {"alias": "tradamerican", "title": "American (Traditional)"}], "rating": 3.0, "coordinates": {"latitude": 42.492263, "longitude": -73.202163}, "transactions": ["delivery"], "price": "$$", "location": {"address1": "650 Chesire Rd", "address2": "", "address3": "", "city": "Lanesborough", "zip_code": "01237", "country": "US", "state": "MA", "display_address": ["650 Chesire Rd", "Lanesborough, MA 01237"]}, "phone": "+14134993331", "display_phone": "(413) 499-3331", "distance": 22471.97644927418}, {"id": "dTPRhcx8OZw-LhH1wlGuoQ", "alias": "koto-hibachi-steak-house-pittsfield", "name": "Koto Hibachi Steak House", "image_url": "https://s3-media1.fl.yelpcdn.com/bphoto/PC1JPjHBxzdpIZ5uDnjRpQ/o.jpg", "is_closed": false, "url": "https://www.yelp.com/biz/koto-hibachi-steak-house-pittsfield?adjust_creative=ywY5UnLZrNrRl2b93Ruy_g&utm_campaign=yelp_api_v3&utm_medium=api_v3_business_search&utm_source=ywY5UnLZrNrRl2b93Ruy_g", "review_count": 50, "categories": [{"alias": "sushi", "title": "Sushi Bars"}, {"alias": "japanese", "title": "Japanese"}, {"alias": "steak", "title": "Steakhouses"}], "rating": 3.0, "coordinates": {"latitude": 42.4674977, "longitude": -73.2051329}, "transactions": ["delivery"], "price": "$$", "location": {"address1": "795 Dalton Ave", "address2": "", "address3": "", "city": "Pittsfield", "zip_code": "01201", "country": "US", "state": "MA", "display_address": ["795 Dalton Ave", "Pittsfield, MA 01201"]}, "phone": "+14137707128", "display_phone": "(413) 770-7128", "distance": 20761.170843004213}, {"id": "0VAkYUcPyFvhr62FVzbpZg", "alias": "99-restaurants-pittsfield-2", "name": "99 Restaurants", "image_url": "https://s3-media3.fl.yelpcdn.com/bphoto/mKSEJrY9DvPWBM9rtWzllQ/o.jpg", "is_closed": false, "url": "https://www.yelp.com/biz/99-restaurants-pittsfield-2?adjust_creative=ywY5UnLZrNrRl2b93Ruy_g&utm_campaign=yelp_api_v3&utm_medium=api_v3_business_search&utm_source=ywY5UnLZrNrRl2b93Ruy_g", "review_count": 31, "categories": [{"alias": "tradamerican", "title": "American (Traditional)"}, {"alias": "seafood", "title": "Seafood"}, {"alias": "pubs", "title": "Pubs"}], "rating": 2.5, "coordinates": {"latitude": 42.4663972, "longitude": -73.2058286}, "transactions": [], "price": "$$", "location": {"address1": "609 Merrill Rd", "address2": "", "address3": "", "city": "Pittsfield", "zip_code": "01201", "country": "US", "state": "MA", "display_address": ["609 Merrill Rd", "Pittsfield, MA 01201"]}, "phone": "+14132360980", "display_phone": "(413) 236-0980", "distance": 20727.1148765302}, {"id": "PU85GdWhuT7Ucs8hefsDYQ", "alias": "stacies-corner-cafe-dalton", "name": "Stacie's Corner Cafe", "image_url": "https://s3-media1.fl.yelpcdn.com/bphoto/CwxXz-MYsKkEWZNhwaaP9g/o.jpg", "is_closed": false, "url": "https://www.yelp.com/biz/stacies-corner-cafe-dalton?adjust_creative=ywY5UnLZrNrRl2b93Ruy_g&utm_campaign=yelp_api_v3&utm_medium=api_v3_business_search&utm_source=ywY5UnLZrNrRl2b93Ruy_g", "review_count": 13, "categories": [{"alias": "cafes", "title": "Cafes"}, {"alias": "bakeries", "title": "Bakeries"}, {"alias": "breakfast_brunch", "title": "Breakfast & Brunch"}], "rating": 5.0, "coordinates": {"latitude": 42.43011, "longitude": -73.19659}, "transactions": ["delivery"], "location": {"address1": "813 Dalton Division Rd", "address2": null, "address3": "", "city": "Dalton", "zip_code": "01226", "country": "US", "state": "MA", "display_address": ["813 Dalton Division Rd", "Dalton, MA 01226"]}, "phone": "+14133444179", "display_phone": "(413) 344-4179", "distance": 17768.23033290878}, {"id": "6EQf1-9Jcha2gfDWTU2uCA", "alias": "hibachi-burffet-pittsfield", "name": "Hibachi Burffet", "image_url": "https://s3-media3.fl.yelpcdn.com/bphoto/Hw2AA6MhG3Xdq042h4nifA/o.jpg", "is_closed": false, "url": "https://www.yelp.com/biz/hibachi-burffet-pittsfield?adjust_creative=ywY5UnLZrNrRl2b93Ruy_g&utm_campaign=yelp_api_v3&utm_medium=api_v3_business_search&utm_source=ywY5UnLZrNrRl2b93Ruy_g", "review_count": 12, "categories": [{"alias": "chinese", "title": "Chinese"}], "rating": 3.0, "coordinates": {"latitude": 42.470356, "longitude": -73.2040024}, "transactions": [], "location": {"address1": "61 Cheshire Rd", "address2": "", "address3": "", "city": "Pittsfield", "zip_code": "01201", "country": "US", "state": "MA", "display_address": ["61 Cheshire Rd", "Pittsfield, MA 01201"]}, "phone": "", "display_phone": "", "distance": 20767.285813660823}, {"id": "oLaERtmDsjb6EUhEavOPWA", "alias": "angelinas-submarine-shops-dalton", "name": "Angelina's Submarine Shops", "image_url": "https://s3-media1.fl.yelpcdn.com/bphoto/lxov5wUSXOSsWqD-VHgOVQ/o.jpg", "is_closed": false, "url": "https://www.yelp.com/biz/angelinas-submarine-shops-dalton?adjust_creative=ywY5UnLZrNrRl2b93Ruy_g&utm_campaign=yelp_api_v3&utm_medium=api_v3_business_search&utm_source=ywY5UnLZrNrRl2b93Ruy_g", "review_count": 15, "categories": [{"alias": "sandwiches", "title": "Sandwiches"}], "rating": 3.5, "coordinates": {"latitude": 42.47359, "longitude": -73.16254}, "transactions": ["delivery", "pickup"], "price": "$", "location": {"address1": "657 Main St", "address2": "", "address3": "", "city": "Dalton", "zip_code": "01226", "country": "US", "state": "MA", "display_address": ["657 Main St", "Dalton, MA 01226"]}, "phone": "+14136841178", "display_phone": "(413) 684-1178", "distance": 18715.43049815021}, {"id": "WpkbEYbNkC252tMTmhFAKg", "alias": "chilis-pittsfield", "name": "Chili's", "image_url": "https://s3-media2.fl.yelpcdn.com/bphoto/Jm4gEu-XCkmcC5Fql-XDTA/o.jpg", "is_closed": false, "url": "https://www.yelp.com/biz/chilis-pittsfield?adjust_creative=ywY5UnLZrNrRl2b93Ruy_g&utm_campaign=yelp_api_v3&utm_medium=api_v3_business_search&utm_source=ywY5UnLZrNrRl2b93Ruy_g", "review_count": 20, "categories": [{"alias": "tex-mex", "title": "Tex-Mex"}, {"alias": "bars", "title": "Bars"}, {"alias": "tradamerican", "title": "American (Traditional)"}], "rating": 2.5, "coordinates": {"latitude": 42.46652, "longitude": -73.19619}, "transactions": [], "location": {"address1": "555 Hubbard Ave", "address2": "", "address3": null, "city": "Pittsfield", "zip_code": "01201", "country": "US", "state": "MA", "display_address": ["555 Hubbard Ave", "Pittsfield, MA 01201"]}, "phone": "", "display_phone": "", "distance": 20190.70563794404}, {"id": "wxQ4WF6IOxObxPXJM6AlYw", "alias": "misty-moonlight-diner-pittsfield", "name": "Misty Moonlight Diner", "image_url": "https://s3-media1.fl.yelpcdn.com/bphoto/HxRE5Va6F7N8hV8WYBNU2A/o.jpg", "is_closed": false, "url": "https://www.yelp.com/biz/misty-moonlight-diner-pittsfield?adjust_creative=ywY5UnLZrNrRl2b93Ruy_g&utm_campaign=yelp_api_v3&utm_medium=api_v3_business_search&utm_source=ywY5UnLZrNrRl2b93Ruy_g", "review_count": 49, "categories": [{"alias": "diners", "title": "Diners"}], "rating": 3.5, "coordinates": {"latitude": 42.4656219482422, "longitude": -73.2095642089844}, "transactions": ["delivery"], "price": "$$", "location": {"address1": "565 Dalton Ave", "address2": "", "address3": "", "city": "Pittsfield", "zip_code": "01201", "country": "US", "state": "MA", "display_address": ["565 Dalton Ave", "Pittsfield, MA 01201"]}, "phone": "+14134992483", "display_phone": "(413) 499-2483", "distance": 20909.99519561458}, {"id": "PCeGA7kPoRSvYo7VNyotPA", "alias": "mannys-pizza-dalton", "name": "Manny's Pizza", "image_url": "https://s3-media2.fl.yelpcdn.com/bphoto/nq6wW8BPgLO2u5nSum8XPw/o.jpg", "is_closed": false, "url": "https://www.yelp.com/biz/mannys-pizza-dalton?adjust_creative=ywY5UnLZrNrRl2b93Ruy_g&utm_campaign=yelp_api_v3&utm_medium=api_v3_business_search&utm_source=ywY5UnLZrNrRl2b93Ruy_g", "review_count": 7, "categories": [{"alias": "pizza", "title": "Pizza"}], "rating": 3.5, "coordinates": {"latitude": 42.4811831058193, "longitude": -73.1548690795898}, "transactions": ["delivery", "pickup"], "price": "$$", "location": {"address1": "302 North St", "address2": "", "address3": "", "city": "Dalton", "zip_code": "01226", "country": "US", "state": "MA", "display_address": ["302 North St", "Dalton, MA 01226"]}, "phone": "+14138425289", "display_phone": "(413) 842-5289", "distance": 18955.10227971033}, {"id": "BPyXFtPX_6PirL4p4HfIGA", "alias": "five-guys-pittsfield", "name": "Five Guys", "image_url": "https://s3-media1.fl.yelpcdn.com/bphoto/XerdEcgL30G8_SN5W5W1uA/o.jpg", "is_closed": false, "url": "https://www.yelp.com/biz/five-guys-pittsfield?adjust_creative=ywY5UnLZrNrRl2b93Ruy_g&utm_campaign=yelp_api_v3&utm_medium=api_v3_business_search&utm_source=ywY5UnLZrNrRl2b93Ruy_g", "review_count": 12, "categories": [{"alias": "burgers", "title": "Burgers"}, {"alias": "hotdogs", "title": "Fast Food"}], "rating": 4.0, "coordinates": {"latitude": 42.46647, "longitude": -73.2041799}, "transactions": [], "price": "$", "location": {"address1": "660 Merrill Rd", "address2": "", "address3": "", "city": "Pittsfield", "zip_code": "01201", "country": "US", "state": "MA", "display_address": ["660 Merrill Rd", "Pittsfield, MA 01201"]}, "phone": "+14134995900", "display_phone": "(413) 499-5900", "distance": 20488.07173543728}, {"id": "sVoxGa8_98EdhBZObbZEBA", "alias": "zens-doghouse-lanesboro", "name": "Zen's Doghouse", "image_url": "", "is_closed": false, "url": "https://www.yelp.com/biz/zens-doghouse-lanesboro?adjust_creative=ywY5UnLZrNrRl2b93Ruy_g&utm_campaign=yelp_api_v3&utm_medium=api_v3_business_search&utm_source=ywY5UnLZrNrRl2b93Ruy_g", "review_count": 1, "categories": [{"alias": "newamerican", "title": "American (New)"}], "rating": 3.0, "coordinates": {"latitude": 42.492415, "longitude": -73.202326}, "transactions": [], "location": {"address1": "650 Cheshire Rd", "address2": null, "address3": null, "city": "Lanesboro", "zip_code": "01237", "country": "US", "state": "MA", "display_address": ["650 Cheshire Rd", "Lanesboro, MA 01237"]}, "phone": "+14134993331", "display_phone": "(413) 499-3331", "distance": 22473.10687606993}, {"id": "naDTyJ1B4g-RjH_UE9-dcA", "alias": "williams-street-market-and-deli-pittsfield", "name": "Williams Street Market & Deli", "image_url": "", "is_closed": false, "url": "https://www.yelp.com/biz/williams-street-market-and-deli-pittsfield?adjust_creative=ywY5UnLZrNrRl2b93Ruy_g&utm_campaign=yelp_api_v3&utm_medium=api_v3_business_search&utm_source=ywY5UnLZrNrRl2b93Ruy_g", "review_count": 2, "categories": [{"alias": "delis", "title": "Delis"}], "rating": 2.5, "coordinates": {"latitude": 42.43171, "longitude": -73.2137}, "transactions": [], "location": {"address1": "740 Williams St", "address2": "", "address3": "", "city": "Pittsfield", "zip_code": "01201", "country": "US", "state": "MA", "display_address": ["740 Williams St", "Pittsfield, MA 01201"]}, "phone": "+14134478002", "display_phone": "(413) 447-8002", "distance": 19080.535863561243}, {"id": "hMY9WV4Z8BKgIWwHgnL01g", "alias": "applebees-grill-bar-pittsfield", "name": "Applebee's Grill + Bar", "image_url": "https://s3-media3.fl.yelpcdn.com/bphoto/lcgH8oFDmmaKXUDt_OBFfg/o.jpg", "is_closed": false, "url": "https://www.yelp.com/biz/applebees-grill-bar-pittsfield?adjust_creative=ywY5UnLZrNrRl2b93Ruy_g&utm_campaign=yelp_api_v3&utm_medium=api_v3_business_search&utm_source=ywY5UnLZrNrRl2b93Ruy_g", "review_count": 29, "categories": [{"alias": "tradamerican", "title": "American (Traditional)"}, {"alias": "sportsbars", "title": "Sports Bars"}, {"alias": "burgers", "title": "Burgers"}], "rating": 2.5, "coordinates": {"latitude": 42.468614, "longitude": -73.198755}, "transactions": [], "price": "$$", "location": {"address1": "555 Hubbard Ave", "address2": "Berkshire Crossing Shopping Center", "address3": "", "city": "Pittsfield", "zip_code": "01201", "country": "US", "state": "MA", "display_address": ["555 Hubbard Ave", "Berkshire Crossing Shopping Center", "Pittsfield, MA 01201"]}, "phone": "+14134995157", "display_phone": "(413) 499-5157", "distance": 20443.18325191608}, {"id": "pmy-RkBV3NjQYW2pQl9mQQ", "alias": "grand-buffet-star-chinese-restaurant-pittsfield", "name": "Grand Buffet Star Chinese Restaurant", "image_url": "https://s3-media2.fl.yelpcdn.com/bphoto/vZpisPXNq97CDzq8d_vqbA/o.jpg", "is_closed": false, "url": "https://www.yelp.com/biz/grand-buffet-star-chinese-restaurant-pittsfield?adjust_creative=ywY5UnLZrNrRl2b93Ruy_g&utm_campaign=yelp_api_v3&utm_medium=api_v3_business_search&utm_source=ywY5UnLZrNrRl2b93Ruy_g", "review_count": 11, "categories": [{"alias": "chinese", "title": "Chinese"}], "rating": 2.0, "coordinates": {"latitude": 42.470423, "longitude": -73.204747}, "transactions": [], "price": "$", "location": {"address1": "61 Cheshire Rd", "address2": "", "address3": "", "city": "Pittsfield", "zip_code": "01201", "country": "US", "state": "MA", "display_address": ["61 Cheshire Rd", "Pittsfield, MA 01201"]}, "phone": "+14134427000", "display_phone": "(413) 442-7000", "distance": 20946.767021769243}, {"id": "W8wy2-f1tkjZQPFe_xT4vQ", "alias": "subway-pittsfield-13", "name": "Subway", "image_url": "https://s3-media3.fl.yelpcdn.com/bphoto/TKupqtDxQ-vh8HoIQgur5A/o.jpg", "is_closed": false, "url": "https://www.yelp.com/biz/subway-pittsfield-13?adjust_creative=ywY5UnLZrNrRl2b93Ruy_g&utm_campaign=yelp_api_v3&utm_medium=api_v3_business_search&utm_source=ywY5UnLZrNrRl2b93Ruy_g", "review_count": 1, "categories": [{"alias": "sandwiches", "title": "Sandwiches"}], "rating": 4.0, "coordinates": {"latitude": 42.4649194, "longitude": -73.1985031}, "transactions": [], "price": "$", "location": {"address1": "555 Hubbard Ave", "address2": "Ste 12", "address3": null, "city": "Pittsfield", "zip_code": "01201", "country": "US", "state": "MA", "display_address": ["555 Hubbard Ave", "Ste 12", "Pittsfield, MA 01201"]}, "phone": "+14134422539", "display_phone": "(413) 442-2539", "distance": 20160.241762901398}, {"id": "JE7ddPRkUKhgWO0Jmy7xNg", "alias": "china-wok-pittsfield", "name": "China Wok", "image_url": "https://s3-media1.fl.yelpcdn.com/bphoto/jWYAgXQeOzMzTTvhnHWKXg/o.jpg", "is_closed": false, "url": "https://www.yelp.com/biz/china-wok-pittsfield?adjust_creative=ywY5UnLZrNrRl2b93Ruy_g&utm_campaign=yelp_api_v3&utm_medium=api_v3_business_search&utm_source=ywY5UnLZrNrRl2b93Ruy_g", "review_count": 15, "categories": [{"alias": "chinese", "title": "Chinese"}], "rating": 3.5, "coordinates": {"latitude": 42.4633937, "longitude": -73.2146138}, "transactions": ["delivery"], "price": "$", "location": {"address1": "457 Dalton Ave", "address2": "Ste 6", "address3": "", "city": "Pittsfield", "zip_code": "01201", "country": "US", "state": "MA", "display_address": ["457 Dalton Ave", "Ste 6", "Pittsfield, MA 01201"]}, "phone": "+14134488810", "display_phone": "(413) 448-8810", "distance": 21198.281892678555}, {"id": "_UOV6TpTX9oGunNqFNBT0g", "alias": "kellys-diner-pittsfield", "name": "Kelly's Diner", "image_url": "https://s3-media4.fl.yelpcdn.com/bphoto/dPhDpYeK2lP-PD8Qn1iPRA/o.jpg", "is_closed": false, "url": "https://www.yelp.com/biz/kellys-diner-pittsfield?adjust_creative=ywY5UnLZrNrRl2b93Ruy_g&utm_campaign=yelp_api_v3&utm_medium=api_v3_business_search&utm_source=ywY5UnLZrNrRl2b93Ruy_g", "review_count": 30, "categories": [{"alias": "breakfast_brunch", "title": "Breakfast & Brunch"}], "rating": 3.5, "coordinates": {"latitude": 42.467871, "longitude": -73.202713}, "transactions": ["delivery"], "price": "$", "location": {"address1": "860 Dalton Ave", "address2": "", "address3": "", "city": "Pittsfield", "zip_code": "01201", "country": "US", "state": "MA", "display_address": ["860 Dalton Ave", "Pittsfield, MA 01201"]}, "phone": "+14134421875", "display_phone": "(413) 442-1875", "distance": 20635.834135906625}, {"id": "xQ_jSCeekj2nmebWiUWVBQ", "alias": "subway-pittsfield-18", "name": "Subway", "image_url": "https://s3-media2.fl.yelpcdn.com/bphoto/Ns0oKq_wodrGXc3l_uQ-lQ/o.jpg", "is_closed": false, "url": "https://www.yelp.com/biz/subway-pittsfield-18?adjust_creative=ywY5UnLZrNrRl2b93Ruy_g&utm_campaign=yelp_api_v3&utm_medium=api_v3_business_search&utm_source=ywY5UnLZrNrRl2b93Ruy_g", "review_count": 1, "categories": [{"alias": "sandwiches", "title": "Sandwiches"}], "rating": 4.0, "coordinates": {"latitude": 42.464833, "longitude": -73.214439}, "transactions": [], "price": "$", "location": {"address1": "457 Dalton Ave", "address2": "", "address3": "", "city": "Pittsfield", "zip_code": "01201", "country": "US", "state": "MA", "display_address": ["457 Dalton Ave", "Pittsfield, MA 01201"]}, "phone": "+14134990067", "display_phone": "(413) 499-0067", "distance": 21170.23770237064}, {"id": "j3iGXa2h_E9-JDTYhcBMEg", "alias": "hold-the-anchovies-pittsfield", "name": "Hold the Anchovies", "image_url": "", "is_closed": false, "url": "https://www.yelp.com/biz/hold-the-anchovies-pittsfield?adjust_creative=ywY5UnLZrNrRl2b93Ruy_g&utm_campaign=yelp_api_v3&utm_medium=api_v3_business_search&utm_source=ywY5UnLZrNrRl2b93Ruy_g", "review_count": 1, "categories": [{"alias": "pizza", "title": "Pizza"}], "rating": 1.0, "coordinates": {"latitude": 42.46429, "longitude": -73.21442}, "transactions": [], "price": "$$", "location": {"address1": "455 Dalton Ave", "address2": "", "address3": "", "city": "Pittsfield", "zip_code": "01201", "country": "US", "state": "MA", "display_address": ["455 Dalton Ave", "Pittsfield, MA 01201"]}, "phone": "+14134432400", "display_phone": "(413) 443-2400", "distance": 21132.471136346958}, {"id": "wGMb0UHJg7OtJSZ0dD7qvg", "alias": "mcdonalds-blandford-4", "name": "McDonald's", "image_url": "https://s3-media4.fl.yelpcdn.com/bphoto/pjUOJQaJPKc12XOIG90l6g/o.jpg", "is_closed": false, "url": "https://www.yelp.com/biz/mcdonalds-blandford-4?adjust_creative=ywY5UnLZrNrRl2b93Ruy_g&utm_campaign=yelp_api_v3&utm_medium=api_v3_business_search&utm_source=ywY5UnLZrNrRl2b93Ruy_g", "review_count": 3, "categories": [{"alias": "coffee", "title": "Coffee & Tea"}, {"alias": "burgers", "title": "Burgers"}, {"alias": "hotdogs", "title": "Fast Food"}], "rating": 1.5, "coordinates": {"latitude": 42.1954836, "longitude": -72.9326521}, "transactions": [], "price": "$", "location": {"address1": "50 Massachusetts Tpke", "address2": null, "address3": null, "city": "Blandford", "zip_code": "01008", "country": "US", "state": "MA", "display_address": ["50 Massachusetts Tpke", "Blandford, MA 01008"]}, "phone": "+14138482284", "display_phone": "(413) 848-2284", "distance": 18126.964172974225}, {"id": "9KNacuxUSbU6_v10Jn8Npg", "alias": "friendlys-pittsfield", "name": "Friendly's", "image_url": "https://s3-media3.fl.yelpcdn.com/bphoto/DAdk5s3FnedyuVpFxs0jfw/o.jpg", "is_closed": false, "url": "https://www.yelp.com/biz/friendlys-pittsfield?adjust_creative=ywY5UnLZrNrRl2b93Ruy_g&utm_campaign=yelp_api_v3&utm_medium=api_v3_business_search&utm_source=ywY5UnLZrNrRl2b93Ruy_g", "review_count": 22, "categories": [{"alias": "icecream", "title": "Ice Cream & Frozen Yogurt"}, {"alias": "burgers", "title": "Burgers"}, {"alias": "tradamerican", "title": "American (Traditional)"}], "rating": 2.5, "coordinates": {"latitude": 42.4683225899935, "longitude": -73.2024212926626}, "transactions": ["delivery"], "price": "$$", "location": {"address1": "841 Dalton Ave", "address2": "", "address3": "", "city": "Pittsfield", "zip_code": "01201", "country": "US", "state": "MA", "display_address": ["841 Dalton Ave", "Pittsfield, MA 01201"]}, "phone": "+14134430282", "display_phone": "(413) 443-0282", "distance": 20723.19502330119}, {"id": "PtjQ9BHdSh-InDjpYEoLAw", "alias": "pizza-hut-pittsfield-7", "name": "Pizza Hut", "image_url": "https://s3-media2.fl.yelpcdn.com/bphoto/0fWoaDnHsxJ4fqSSKwa4-w/o.jpg", "is_closed": false, "url": "https://www.yelp.com/biz/pizza-hut-pittsfield-7?adjust_creative=ywY5UnLZrNrRl2b93Ruy_g&utm_campaign=yelp_api_v3&utm_medium=api_v3_business_search&utm_source=ywY5UnLZrNrRl2b93Ruy_g", "review_count": 5, "categories": [{"alias": "italian", "title": "Italian"}, {"alias": "pizza", "title": "Pizza"}], "rating": 2.5, "coordinates": {"latitude": 42.465908213687, "longitude": -73.2030403283647}, "transactions": ["pickup", "delivery"], "price": "$", "location": {"address1": "660 Merrill Rd", "address2": null, "address3": null, "city": "Pittsfield", "zip_code": "01201", "country": "US", "state": "MA", "display_address": ["660 Merrill Rd", "Pittsfield, MA 01201"]}, "phone": "+14134999891", "display_phone": "(413) 499-9891", "distance": 20516.18567680983}, {"id": "KWeBXXzXh9OFbPqCm4_-nA", "alias": "panera-bread-pittsfield", "name": "Panera Bread", "image_url": "https://s3-media3.fl.yelpcdn.com/bphoto/uamCSTPMYSB1mNZV221n9g/o.jpg", "is_closed": false, "url": "https://www.yelp.com/biz/panera-bread-pittsfield?adjust_creative=ywY5UnLZrNrRl2b93Ruy_g&utm_campaign=yelp_api_v3&utm_medium=api_v3_business_search&utm_source=ywY5UnLZrNrRl2b93Ruy_g", "review_count": 18, "categories": [{"alias": "sandwiches", "title": "Sandwiches"}, {"alias": "salad", "title": "Salad"}, {"alias": "soup", "title": "Soup"}], "rating": 2.5, "coordinates": {"latitude": 42.465182, "longitude": -73.206932}, "transactions": [], "price": "$$", "location": {"address1": "635 Merrill Rd", "address2": null, "address3": null, "city": "Pittsfield", "zip_code": "01201", "country": "US", "state": "MA", "display_address": ["635 Merrill Rd", "Pittsfield, MA 01201"]}, "phone": "+14134433200", "display_phone": "(413) 443-3200", "distance": 20711.83595206213}, {"id": "j9UeZCXnFfeMlwqFnIXfCw", "alias": "wendys-pittsfield-2", "name": "Wendy's", "image_url": "https://s3-media1.fl.yelpcdn.com/bphoto/PXtaHMk789N-we_ZBFnlhQ/o.jpg", "is_closed": false, "url": "https://www.yelp.com/biz/wendys-pittsfield-2?adjust_creative=ywY5UnLZrNrRl2b93Ruy_g&utm_campaign=yelp_api_v3&utm_medium=api_v3_business_search&utm_source=ywY5UnLZrNrRl2b93Ruy_g", "review_count": 17, "categories": [{"alias": "hotdogs", "title": "Fast Food"}, {"alias": "burgers", "title": "Burgers"}], "rating": 2.5, "coordinates": {"latitude": 42.468646, "longitude": -73.195668}, "transactions": ["delivery"], "price": "$", "location": {"address1": "556 Hubbard Avenue", "address2": "", "address3": "", "city": "Pittsfield", "zip_code": "01201", "country": "US", "state": "MA", "display_address": ["556 Hubbard Avenue", "Pittsfield, MA 01201"]}, "phone": "+14134422053", "display_phone": "(413) 442-2053", "distance": 20255.87204963583}, {"id": "3TyINqqzEADspKjjStQOsQ", "alias": "mcdonalds-pittsfield", "name": "McDonald's", "image_url": "https://s3-media3.fl.yelpcdn.com/bphoto/JeCD1DpJ1rrasg9aYG7Eew/o.jpg", "is_closed": false, "url": "https://www.yelp.com/biz/mcdonalds-pittsfield?adjust_creative=ywY5UnLZrNrRl2b93Ruy_g&utm_campaign=yelp_api_v3&utm_medium=api_v3_business_search&utm_source=ywY5UnLZrNrRl2b93Ruy_g", "review_count": 5, "categories": [{"alias": "coffee", "title": "Coffee & Tea"}, {"alias": "burgers", "title": "Burgers"}, {"alias": "hotdogs", "title": "Fast Food"}], "rating": 3.0, "coordinates": {"latitude": 42.468519, "longitude": -73.2040031329598}, "transactions": [], "price": "$", "location": {"address1": "61 Cheshire Rd", "address2": "", "address3": "", "city": "Pittsfield", "zip_code": "01201", "country": "US", "state": "MA", "display_address": ["61 Cheshire Rd", "Pittsfield, MA 01201"]}, "phone": "+14134424602", "display_phone": "(413) 442-4602", "distance": 20763.164062235966}, {"id": "dPrW7czCTb9yQkZsiyhKcg", "alias": "papa-ginos-pizzeria-pittsfield", "name": "Papa Gino's Pizzeria", "image_url": "https://s3-media1.fl.yelpcdn.com/bphoto/NKN58oe59RYs8nXmvCD_Qg/o.jpg", "is_closed": false, "url": "https://www.yelp.com/biz/papa-ginos-pizzeria-pittsfield?adjust_creative=ywY5UnLZrNrRl2b93Ruy_g&utm_campaign=yelp_api_v3&utm_medium=api_v3_business_search&utm_source=ywY5UnLZrNrRl2b93Ruy_g", "review_count": 21, "categories": [{"alias": "pizza", "title": "Pizza"}], "rating": 2.5, "coordinates": {"latitude": 42.4659526682081, "longitude": -73.2064502022769}, "transactions": ["delivery"], "price": "$$", "location": {"address1": "685 Merrill Rd", "address2": null, "address3": null, "city": "Pittsfield", "zip_code": "01201", "country": "US", "state": "MA", "display_address": ["685 Merrill Rd", "Pittsfield, MA 01201"]}, "phone": "+14134455307", "display_phone": "(413) 445-5307", "distance": 20735.223971750238}, {"id": "JdgwEC4QOezifl1_1dtCXA", "alias": "taco-bell-pittsfield-2", "name": "Taco Bell", "image_url": "https://s3-media1.fl.yelpcdn.com/bphoto/SDdSHQO3GYmXloHlSlEiKQ/o.jpg", "is_closed": false, "url": "https://www.yelp.com/biz/taco-bell-pittsfield-2?adjust_creative=ywY5UnLZrNrRl2b93Ruy_g&utm_campaign=yelp_api_v3&utm_medium=api_v3_business_search&utm_source=ywY5UnLZrNrRl2b93Ruy_g", "review_count": 15, "categories": [{"alias": "hotdogs", "title": "Fast Food"}, {"alias": "tacos", "title": "Tacos"}], "rating": 2.5, "coordinates": {"latitude": 42.4690315746512, "longitude": -73.1969030708575}, "transactions": ["delivery"], "price": "$", "location": {"address1": "555 Hubbard Ave", "address2": "", "address3": "", "city": "Pittsfield", "zip_code": "01201", "country": "US", "state": "MA", "display_address": ["555 Hubbard Ave", "Pittsfield, MA 01201"]}, "phone": "+14134421007", "display_phone": "(413) 442-1007", "distance": 20359.454884741175}, {"id": "qqA8YX58xnmEXLyanHfdUg", "alias": "stufd-food-truck-brooklyn", "name": "Stuf'd Food Truck", "image_url": "https://s3-media2.fl.yelpcdn.com/bphoto/_Wn0i-tLIOFinw8BPAqxPA/o.jpg", "is_closed": false, "url": "https://www.yelp.com/biz/stufd-food-truck-brooklyn?adjust_creative=ywY5UnLZrNrRl2b93Ruy_g&utm_campaign=yelp_api_v3&utm_medium=api_v3_business_search&utm_source=ywY5UnLZrNrRl2b93Ruy_g", "review_count": 4, "categories": [{"alias": "sandwiches", "title": "Sandwiches"}, {"alias": "foodtrucks", "title": "Food Trucks"}], "rating": 4.0, "coordinates": {"latitude": 40.7124539, "longitude": -73.9287374}, "transactions": [], "location": {"address1": "178 Varick Ave", "address2": "", "address3": null, "city": "Brooklyn", "zip_code": "11237", "country": "US", "state": "NY", "display_address": ["178 Varick Ave", "Brooklyn, NY 11237"]}, "phone": "+18457091808", "display_phone": "(845) 709-1808", "distance": 197237.35432273435}]