[{"id": "bpFnJ6jqbDEzvCfW-vyRTg", "alias": "brickstone-kitchen-sutton", "name": "Brickstone Kitchen", "image_url": "https://s3-media2.fl.yelpcdn.com/bphoto/YqIX8MJIbzt7V-kFshZUYw/o.jpg", "is_closed": false, "url": "https://www.yelp.com/biz/brickstone-kitchen-sutton?adjust_creative=asslzE1UV0XuKI953B1vtw&utm_campaign=yelp_api_v3&utm_medium=api_v3_business_search&utm_source=asslzE1UV0XuKI953B1vtw", "review_count": 46, "categories": [{"alias": "pizza", "title": "Pizza"}, {"alias": "italian", "title": "Italian"}, {"alias": "seafood", "title": "Seafood"}], "rating": 4.0, "coordinates": {"latitude": 42.1568126349271, "longitude": -71.729104667902}, "transactions": ["delivery"], "location": {"address1": "4 Worcester-Providence Tpke", "address2": "", "address3": null, "city": "Sutton", "zip_code": "01590", "country": "US", "state": "MA", "display_address": ["4 Worcester-Providence Tpke", "Sutton, MA 01590"]}, "phone": "+15088658650", "display_phone": "(508) 865-8650", "distance": 4431.22452612176}, {"id": "-2RuJhj3BfHICxo-u8g4PA", "alias": "red-rock-grill-and-bar-upton-2", "name": "Red Rock Grill & Bar", "image_url": "https://s3-media3.fl.yelpcdn.com/bphoto/v5K-qqQlctWMu_QarUyj-g/o.jpg", "is_closed": false, "url": "https://www.yelp.com/biz/red-rock-grill-and-bar-upton-2?adjust_creative=asslzE1UV0XuKI953B1vtw&utm_campaign=yelp_api_v3&utm_medium=api_v3_business_search&utm_source=asslzE1UV0XuKI953B1vtw", "review_count": 294, "categories": [{"alias": "tradamerican", "title": "American (Traditional)"}, {"alias": "cocktailbars", "title": "Cocktail Bars"}], "rating": 4.0, "coordinates": {"latitude": 42.1790776, "longitude": -71.6399448}, "transactions": ["delivery"], "price": "$$", "location": {"address1": "66 W Main St", "address2": "", "address3": "", "city": "Upton", "zip_code": "01568", "country": "US", "state": "MA", "display_address": ["66 W Main St", "Upton, MA 01568"]}, "phone": "+15085290500", "display_phone": "(508) 529-0500", "distance": 3418.4738074930806}, {"id": "4pJVWgu0AtGC_0Fu4jclQg", "alias": "grafton-grill-north-grafton", "name": "Grafton Grill", "image_url": "https://s3-media1.fl.yelpcdn.com/bphoto/_KBeFq-_-abFny2KY3SnxQ/o.jpg", "is_closed": false, "url": "https://www.yelp.com/biz/grafton-grill-north-grafton?adjust_creative=asslzE1UV0XuKI953B1vtw&utm_campaign=yelp_api_v3&utm_medium=api_v3_business_search&utm_source=asslzE1UV0XuKI953B1vtw", "review_count": 122, "categories": [{"alias": "bars", "title": "Bars"}, {"alias": "salad", "title": "Salad"}, {"alias": "newamerican", "title": "American (New)"}], "rating": 4.0, "coordinates": {"latitude": 42.2303, "longitude": -71.70862}, "transactions": ["delivery", "pickup"], "price": "$$", "location": {"address1": "10 Bridge St", "address2": null, "address3": null, "city": "North Grafton", "zip_code": "01536", "country": "US", "state": "MA", "display_address": ["10 Bridge St", "North Grafton, MA 01536"]}, "phone": "+15088390333", "display_phone": "(508) 839-0333", "distance": 6599.093156761454}, {"id": "5CU7BIMLyHRGSSq10cLekw", "alias": "john-henry-tavern-grafton", "name": "John Henry Tavern", "image_url": "https://s3-media1.fl.yelpcdn.com/bphoto/wfGb_PFepT6cg5NvDCk3aA/o.jpg", "is_closed": false, "url": "https://www.yelp.com/biz/john-henry-tavern-grafton?adjust_creative=asslzE1UV0XuKI953B1vtw&utm_campaign=yelp_api_v3&utm_medium=api_v3_business_search&utm_source=asslzE1UV0XuKI953B1vtw", "review_count": 15, "categories": [{"alias": "pubs", "title": "Pubs"}, {"alias": "newamerican", "title": "American (New)"}], "rating": 3.5, "coordinates": {"latitude": 42.1947606, "longitude": -71.6800296}, "transactions": [], "price": "$$", "location": {"address1": "42 Magill Dr", "address2": null, "address3": null, "city": "Grafton", "zip_code": "01519", "country": "US", "state": "MA", "display_address": ["42 Magill Dr", "Grafton, MA 01519"]}, "phone": "+15088391945", "display_phone": "(508) 839-1945", "distance": 2244.4521330284124}, {"id": "UvlxXIaBSdZMbn4IMSc92g", "alias": "118-main-street-kitchen-and-spirits-upton", "name": "118 Main Street Kitchen & Spirits", "image_url": "https://s3-media3.fl.yelpcdn.com/bphoto/HbssHaMexb34Dk7WbOH_KA/o.jpg", "is_closed": false, "url": "https://www.yelp.com/biz/118-main-street-kitchen-and-spirits-upton?adjust_creative=asslzE1UV0XuKI953B1vtw&utm_campaign=yelp_api_v3&utm_medium=api_v3_business_search&utm_source=asslzE1UV0XuKI953B1vtw", "review_count": 29, "categories": [{"alias": "newamerican", "title": "American (New)"}], "rating": 3.5, "coordinates": {"latitude": 42.1696108481808, "longitude": -71.6204329580069}, "transactions": [], "location": {"address1": "118 Main St", "address2": "", "address3": null, "city": "Upton", "zip_code": "01568", "country": "US", "state": "MA", "display_address": ["118 Main St", "Upton, MA 01568"]}, "phone": "+15086031304", "display_phone": "(508) 603-1304", "distance": 5020.649045888044}, {"id": "jd9Qez3S2Lt9xSx5ic53yw", "alias": "hunters-grille-and-tap-at-the-grafton-inn-grafton", "name": "Hunter's Grille And Tap at The Grafton Inn", "image_url": "https://s3-media1.fl.yelpcdn.com/bphoto/r_5WLQZSnoxnaeFQ-2aHUg/o.jpg", "is_closed": false, "url": "https://www.yelp.com/biz/hunters-grille-and-tap-at-the-grafton-inn-grafton?adjust_creative=asslzE1UV0XuKI953B1vtw&utm_campaign=yelp_api_v3&utm_medium=api_v3_business_search&utm_source=asslzE1UV0XuKI953B1vtw", "review_count": 104, "categories": [{"alias": "hotels", "title": "Hotels"}, {"alias": "bars", "title": "Bars"}, {"alias": "tradamerican", "title": "American (Traditional)"}], "rating": 3.5, "coordinates": {"latitude": 42.2064933776855, "longitude": -71.684440612793}, "transactions": ["delivery"], "price": "$$", "location": {"address1": "25 Grafton Common", "address2": "", "address3": "", "city": "Grafton", "zip_code": "01519", "country": "US", "state": "MA", "display_address": ["25 Grafton Common", "Grafton, MA 01519"]}, "phone": "+15088395931", "display_phone": "(508) 839-5931", "distance": 3555.1490997816877}, {"id": "1-oKoaZsSam5SBgnUjpD4Q", "alias": "the-coop-millbury", "name": "The Coop", "image_url": "https://s3-media2.fl.yelpcdn.com/bphoto/Rn1ruBbcxc5T0fX5edgQsQ/o.jpg", "is_closed": false, "url": "https://www.yelp.com/biz/the-coop-millbury?adjust_creative=asslzE1UV0XuKI953B1vtw&utm_campaign=yelp_api_v3&utm_medium=api_v3_business_search&utm_source=asslzE1UV0XuKI953B1vtw", "review_count": 147, "categories": [{"alias": "chicken_wings", "title": "Chicken Wings"}, {"alias": "bbq", "title": "Barbeque"}, {"alias": "sandwiches", "title": "Sandwiches"}], "rating": 4.5, "coordinates": {"latitude": 42.1912, "longitude": -71.76148}, "transactions": ["delivery", "pickup"], "price": "$$", "location": {"address1": "110 Elm St", "address2": "", "address3": null, "city": "Millbury", "zip_code": "01527", "country": "US", "state": "MA", "display_address": ["110 Elm St", "Millbury, MA 01527"]}, "phone": "+15088653100", "display_phone": "(508) 865-3100", "distance": 6881.745352619971}, {"id": "xdhpueBbA9Pztwn7TuR7Pg", "alias": "divine-thai-northbridge", "name": "Divine Thai", "image_url": "https://s3-media4.fl.yelpcdn.com/bphoto/NIonMRv3pg-5xeTFcrDjdg/o.jpg", "is_closed": false, "url": "https://www.yelp.com/biz/divine-thai-northbridge?adjust_creative=asslzE1UV0XuKI953B1vtw&utm_campaign=yelp_api_v3&utm_medium=api_v3_business_search&utm_source=asslzE1UV0XuKI953B1vtw", "review_count": 91, "categories": [{"alias": "thai", "title": "Thai"}], "rating": 4.5, "coordinates": {"latitude": 42.1123352, "longitude": -71.6596985}, "transactions": ["delivery"], "price": "$$", "location": {"address1": "123 Church St", "address2": "", "address3": "", "city": "Northbridge", "zip_code": "01588", "country": "US", "state": "MA", "display_address": ["123 Church St", "Northbridge, MA 01588"]}, "phone": "+15082344500", "display_phone": "(508) 234-4500", "distance": 7161.3045527123695}, {"id": "YCVM0wIYS2hqGGsH0gTcbg", "alias": "janets-hilltop-lounge-and-restaurant-south-grafton", "name": "Janet's Hilltop Lounge & Restaurant", "image_url": "https://s3-media3.fl.yelpcdn.com/bphoto/o0oLzr3wcKimYSPL8DNx8g/o.jpg", "is_closed": false, "url": "https://www.yelp.com/biz/janets-hilltop-lounge-and-restaurant-south-grafton?adjust_creative=asslzE1UV0XuKI953B1vtw&utm_campaign=yelp_api_v3&utm_medium=api_v3_business_search&utm_source=asslzE1UV0XuKI953B1vtw", "review_count": 18, "categories": [{"alias": "tradamerican", "title": "American (Traditional)"}, {"alias": "seafood", "title": "Seafood"}, {"alias": "sandwiches", "title": "Sandwiches"}], "rating": 3.0, "coordinates": {"latitude": 42.1660899, "longitude": -71.68197}, "transactions": [], "price": "$$", "location": {"address1": "59 Maple Ave", "address2": "", "address3": "", "city": "South Grafton", "zip_code": "01560", "country": "US", "state": "MA", "display_address": ["59 Maple Ave", "South Grafton, MA 01560"]}, "phone": "+15088396838", "display_phone": "(508) 839-6838", "distance": 956.8857637604694}, {"id": "y_KJIHT4KktvfS5EPJVGbg", "alias": "110-grill-millbury", "name": "110 Grill", "image_url": "https://s3-media2.fl.yelpcdn.com/bphoto/PXwXjrb5dg8WcHeGFjgvVQ/o.jpg", "is_closed": false, "url": "https://www.yelp.com/biz/110-grill-millbury?adjust_creative=asslzE1UV0XuKI953B1vtw&utm_campaign=yelp_api_v3&utm_medium=api_v3_business_search&utm_source=asslzE1UV0XuKI953B1vtw", "review_count": 28, "categories": [{"alias": "newamerican", "title": "American (New)"}, {"alias": "tradamerican", "title": "American (Traditional)"}, {"alias": "cocktailbars", "title": "Cocktail Bars"}], "rating": 3.5, "coordinates": {"latitude": 42.199302, "longitude": -71.778872}, "transactions": ["delivery"], "location": {"address1": "70 Worcester-Providence Tpk", "address2": null, "address3": "", "city": "Millbury", "zip_code": "01527", "country": "US", "state": "MA", "display_address": ["70 Worcester-Providence Tpk", "Millbury, MA 01527"]}, "phone": "+15088658110", "display_phone": "(508) 865-8110", "distance": 8520.34220584119}, {"id": "zR7WIqWDpeuMeCtf5obXpA", "alias": "new-fancy-house-of-pizza-south-grafton", "name": "New Fancy House of Pizza", "image_url": "https://s3-media2.fl.yelpcdn.com/bphoto/_q9VbnDl0dq-x6qxs4Is-A/o.jpg", "is_closed": false, "url": "https://www.yelp.com/biz/new-fancy-house-of-pizza-south-grafton?adjust_creative=asslzE1UV0XuKI953B1vtw&utm_campaign=yelp_api_v3&utm_medium=api_v3_business_search&utm_source=asslzE1UV0XuKI953B1vtw", "review_count": 14, "categories": [{"alias": "pizza", "title": "Pizza"}], "rating": 3.5, "coordinates": {"latitude": 42.176514, "longitude": -71.681079}, "transactions": [], "price": "$", "location": {"address1": "3 Main St", "address2": "", "address3": "", "city": "South Grafton", "zip_code": "01560", "country": "US", "state": "MA", "display_address": ["3 Main St", "South Grafton, MA 01560"]}, "phone": "+15088396488", "display_phone": "(508) 839-6488", "distance": 218.53574886334331}, {"id": "Ta5QtusuYzGR1OnzKOL0hw", "alias": "cancuns-family-mexican-restaurant-north-grafton", "name": "Cancun's Family Mexican Restaurant", "image_url": "https://s3-media2.fl.yelpcdn.com/bphoto/wgVrOqoLiKVCAlNVSJjB9Q/o.jpg", "is_closed": false, "url": "https://www.yelp.com/biz/cancuns-family-mexican-restaurant-north-grafton?adjust_creative=asslzE1UV0XuKI953B1vtw&utm_campaign=yelp_api_v3&utm_medium=api_v3_business_search&utm_source=asslzE1UV0XuKI953B1vtw", "review_count": 150, "categories": [{"alias": "mexican", "title": "Mexican"}], "rating": 4.0, "coordinates": {"latitude": 42.21551, "longitude": -71.693}, "transactions": ["delivery"], "price": "$$", "location": {"address1": "75 Worcester St", "address2": "", "address3": "", "city": "North Grafton", "zip_code": "01536", "country": "US", "state": "MA", "display_address": ["75 Worcester St", "North Grafton, MA 01536"]}, "phone": "+15088398800", "display_phone": "(508) 839-8800", "distance": 4662.460133523938}, {"id": "koht0BcHc5G52iI_8glWOg", "alias": "kai-mook-millbury", "name": "Kai Mook", "image_url": "https://s3-media3.fl.yelpcdn.com/bphoto/5qr3qCpQRnjebfUX86PH5A/o.jpg", "is_closed": false, "url": "https://www.yelp.com/biz/kai-mook-millbury?adjust_creative=asslzE1UV0XuKI953B1vtw&utm_campaign=yelp_api_v3&utm_medium=api_v3_business_search&utm_source=asslzE1UV0XuKI953B1vtw", "review_count": 61, "categories": [{"alias": "thai", "title": "Thai"}, {"alias": "salad", "title": "Salad"}, {"alias": "coffee", "title": "Coffee & Tea"}], "rating": 4.5, "coordinates": {"latitude": 42.1939832, "longitude": -71.7592259}, "transactions": ["delivery"], "location": {"address1": "3 Howe Ave", "address2": "", "address3": null, "city": "Millbury", "zip_code": "01527", "country": "US", "state": "MA", "display_address": ["3 Howe Ave", "Millbury, MA 01527"]}, "phone": "+15088659656", "display_phone": "(508) 865-9656", "distance": 6805.036414249434}, {"id": "EIWYPSesdDzsGuMFKnrQQg", "alias": "grille-122-northbridge", "name": "Grille 122", "image_url": "https://s3-media2.fl.yelpcdn.com/bphoto/sqXDj8wvul-BVFZUSW7Ghg/o.jpg", "is_closed": false, "url": "https://www.yelp.com/biz/grille-122-northbridge?adjust_creative=asslzE1UV0XuKI953B1vtw&utm_campaign=yelp_api_v3&utm_medium=api_v3_business_search&utm_source=asslzE1UV0XuKI953B1vtw", "review_count": 31, "categories": [{"alias": "bars", "title": "Bars"}, {"alias": "tradamerican", "title": "American (Traditional)"}], "rating": 3.0, "coordinates": {"latitude": 42.0997, "longitude": -71.644}, "transactions": [], "price": "$$", "location": {"address1": "91 Providence Rd", "address2": "", "address3": null, "city": "Northbridge", "zip_code": "01588", "country": "US", "state": "MA", "display_address": ["91 Providence Rd", "Northbridge, MA 01588"]}, "phone": "+15083729498", "display_phone": "(508) 372-9498", "distance": 8868.38852625358}, {"id": "7Hmd7L0KvWfOZFEkCLQB9A", "alias": "pub-122-grafton", "name": "Pub 122", "image_url": "https://s3-media3.fl.yelpcdn.com/bphoto/25_-CWMsbv1hpQZoNgnAvw/o.jpg", "is_closed": false, "url": "https://www.yelp.com/biz/pub-122-grafton?adjust_creative=asslzE1UV0XuKI953B1vtw&utm_campaign=yelp_api_v3&utm_medium=api_v3_business_search&utm_source=asslzE1UV0XuKI953B1vtw", "review_count": 25, "categories": [{"alias": "breakfast_brunch", "title": "Breakfast & Brunch"}, {"alias": "pubs", "title": "Pubs"}, {"alias": "indpak", "title": "Indian"}], "rating": 4.5, "coordinates": {"latitude": 42.22848, "longitude": -71.7208799}, "transactions": ["delivery"], "location": {"address1": "215 Worcester St", "address2": "", "address3": null, "city": "Grafton", "zip_code": "01536", "country": "US", "state": "MA", "display_address": ["215 Worcester St", "Grafton, MA 01536"]}, "phone": "+17742935004", "display_phone": "(774) 293-5004", "distance": 6828.715364028182}, {"id": "-uN7mgH2147YHuwgQb0iUw", "alias": "the-green-plate-whitinsville-3", "name": "The Green Plate", "image_url": "https://s3-media3.fl.yelpcdn.com/bphoto/QMD1DgjIYzSu-GJSRajR-g/o.jpg", "is_closed": false, "url": "https://www.yelp.com/biz/the-green-plate-whitinsville-3?adjust_creative=asslzE1UV0XuKI953B1vtw&utm_campaign=yelp_api_v3&utm_medium=api_v3_business_search&utm_source=asslzE1UV0XuKI953B1vtw", "review_count": 26, "categories": [{"alias": "catering", "title": "Caterers"}, {"alias": "gluten_free", "title": "Gluten-Free"}, {"alias": "cafes", "title": "Cafes"}], "rating": 4.5, "coordinates": {"latitude": 42.112744, "longitude": -71.6586675}, "transactions": ["delivery"], "location": {"address1": "167 Church St", "address2": null, "address3": "", "city": "Whitinsville", "zip_code": "01588", "country": "US", "state": "MA", "display_address": ["167 Church St", "Whitinsville, MA 01588"]}, "phone": "+17748130200", "display_phone": "(774) 813-0200", "distance": 7118.647140261309}, {"id": "8c0rDX-WTozOevJaJTybnQ", "alias": "reunion-tap-and-table-grafton", "name": "Reunion Tap & Table", "image_url": "https://s3-media3.fl.yelpcdn.com/bphoto/_R_k-2yV9MvA94bRhp6_oQ/o.jpg", "is_closed": false, "url": "https://www.yelp.com/biz/reunion-tap-and-table-grafton?adjust_creative=asslzE1UV0XuKI953B1vtw&utm_campaign=yelp_api_v3&utm_medium=api_v3_business_search&utm_source=asslzE1UV0XuKI953B1vtw", "review_count": 119, "categories": [{"alias": "tradamerican", "title": "American (Traditional)"}, {"alias": "breakfast_brunch", "title": "Breakfast & Brunch"}, {"alias": "coffee", "title": "Coffee & Tea"}], "rating": 3.5, "coordinates": {"latitude": 42.2304699, "longitude": -71.71721}, "transactions": ["delivery", "pickup"], "price": "$$", "location": {"address1": "198 Worcester St", "address2": null, "address3": "", "city": "Grafton", "zip_code": "01536", "country": "US", "state": "MA", "display_address": ["198 Worcester St", "Grafton, MA 01536"]}, "phone": "+17742935501", "display_phone": "(774) 293-5501", "distance": 6888.189662374002}, {"id": "cpYEQmnv9Oe4HlGKrMaYwA", "alias": "village-knoll-variety-millbury-2", "name": "Village Knoll Variety", "image_url": "https://s3-media1.fl.yelpcdn.com/bphoto/u8sTxenraDhTe72ulpYC0w/o.jpg", "is_closed": false, "url": "https://www.yelp.com/biz/village-knoll-variety-millbury-2?adjust_creative=asslzE1UV0XuKI953B1vtw&utm_campaign=yelp_api_v3&utm_medium=api_v3_business_search&utm_source=asslzE1UV0XuKI953B1vtw", "review_count": 1, "categories": [{"alias": "grocery", "title": "Grocery"}, {"alias": "delis", "title": "Delis"}, {"alias": "beerbar", "title": "Beer Bar"}], "rating": 5.0, "coordinates": {"latitude": 42.1795768737793, "longitude": -71.7710723876953}, "transactions": [], "price": "$", "location": {"address1": "107 W Main St", "address2": "", "address3": "", "city": "Millbury", "zip_code": "01527", "country": "US", "state": "MA", "display_address": ["107 W Main St", "Millbury, MA 01527"]}, "phone": "+15088659290", "display_phone": "(508) 865-9290", "distance": 7454.1810077806895}, {"id": "1_NXWM7QOA1dbc5266T7og", "alias": "bushel-n-peck-grafton", "name": "Bushel 'N Peck", "image_url": "https://s3-media2.fl.yelpcdn.com/bphoto/PMN3poj1DYJvP6n0OFbddA/o.jpg", "is_closed": false, "url": "https://www.yelp.com/biz/bushel-n-peck-grafton?adjust_creative=asslzE1UV0XuKI953B1vtw&utm_campaign=yelp_api_v3&utm_medium=api_v3_business_search&utm_source=asslzE1UV0XuKI953B1vtw", "review_count": 78, "categories": [{"alias": "breakfast_brunch", "title": "Breakfast & Brunch"}, {"alias": "delis", "title": "Delis"}], "rating": 4.0, "coordinates": {"latitude": 42.207954, "longitude": -71.685357}, "transactions": ["delivery", "pickup"], "price": "$", "location": {"address1": "8 Worcester St", "address2": "", "address3": "", "city": "Grafton", "zip_code": "01519", "country": "US", "state": "MA", "display_address": ["8 Worcester St", "Grafton, MA 01519"]}, "phone": "+15088393005", "display_phone": "(508) 839-3005", "distance": 3727.557199457748}, {"id": "XHImRp-8AO-YsDlPFnxxMQ", "alias": "scales-seafood-and-more-millbury", "name": "Scales Seafood & More", "image_url": "https://s3-media4.fl.yelpcdn.com/bphoto/MZDjxJY5EDh9Yvk2hpXTjw/o.jpg", "is_closed": false, "url": "https://www.yelp.com/biz/scales-seafood-and-more-millbury?adjust_creative=asslzE1UV0XuKI953B1vtw&utm_campaign=yelp_api_v3&utm_medium=api_v3_business_search&utm_source=asslzE1UV0XuKI953B1vtw", "review_count": 86, "categories": [{"alias": "seafood", "title": "Seafood"}, {"alias": "icecream", "title": "Ice Cream & Frozen Yogurt"}], "rating": 3.5, "coordinates": {"latitude": 42.1917381, "longitude": -71.7659683}, "transactions": ["delivery"], "price": "$$", "location": {"address1": "45 River St", "address2": "", "address3": "", "city": "Millbury", "zip_code": "01527", "country": "US", "state": "MA", "display_address": ["45 River St", "Millbury, MA 01527"]}, "phone": "+15088653377", "display_phone": "(508) 865-3377", "distance": 7298.809503613624}, {"id": "TiH7xURLrMjN950go7xb0g", "alias": "post-office-pub-restaurant-north-grafton", "name": "Post Office Pub Restaurant", "image_url": "https://s3-media3.fl.yelpcdn.com/bphoto/VGCI4wJZb2MPqMbHFcwkdg/o.jpg", "is_closed": false, "url": "https://www.yelp.com/biz/post-office-pub-restaurant-north-grafton?adjust_creative=asslzE1UV0XuKI953B1vtw&utm_campaign=yelp_api_v3&utm_medium=api_v3_business_search&utm_source=asslzE1UV0XuKI953B1vtw", "review_count": 145, "categories": [{"alias": "tradamerican", "title": "American (Traditional)"}, {"alias": "pubs", "title": "Pubs"}], "rating": 3.0, "coordinates": {"latitude": 42.2323549, "longitude": -71.7076399}, "transactions": ["delivery"], "price": "$$", "location": {"address1": "1 Ray St", "address2": "", "address3": "", "city": "North Grafton", "zip_code": "01536", "country": "US", "state": "MA", "display_address": ["1 Ray St", "North Grafton, MA 01536"]}, "phone": "+15088396106", "display_phone": "(508) 839-6106", "distance": 6806.613545375427}, {"id": "v6ADECUR5cucfdmoFP4m0A", "alias": "calabria-restaurant-millbury", "name": "Calabria Restaurant", "image_url": "https://s3-media4.fl.yelpcdn.com/bphoto/_mKUanhabuacpF7yDZLFuw/o.jpg", "is_closed": false, "url": "https://www.yelp.com/biz/calabria-restaurant-millbury?adjust_creative=asslzE1UV0XuKI953B1vtw&utm_campaign=yelp_api_v3&utm_medium=api_v3_business_search&utm_source=asslzE1UV0XuKI953B1vtw", "review_count": 70, "categories": [{"alias": "italian", "title": "Italian"}], "rating": 3.5, "coordinates": {"latitude": 42.1909141540527, "longitude": -71.7600479125977}, "transactions": ["delivery", "pickup"], "price": "$$", "location": {"address1": "7 S Main St", "address2": "", "address3": "", "city": "Millbury", "zip_code": "01527", "country": "US", "state": "MA", "display_address": ["7 S Main St", "Millbury, MA 01527"]}, "phone": "+15085819700", "display_phone": "(508) 581-9700", "distance": 6767.748212853233}, {"id": "SyQ4DPupQi-E4xmPosrnuA", "alias": "accra-girls-worcester", "name": "Accra Girls", "image_url": "https://s3-media2.fl.yelpcdn.com/bphoto/osDA5vV49R8urtDA2XEFdQ/o.jpg", "is_closed": false, "url": "https://www.yelp.com/biz/accra-girls-worcester?adjust_creative=asslzE1UV0XuKI953B1vtw&utm_campaign=yelp_api_v3&utm_medium=api_v3_business_search&utm_source=asslzE1UV0XuKI953B1vtw", "review_count": 15, "categories": [{"alias": "african", "title": "African"}], "rating": 4.5, "coordinates": {"latitude": 42.2361675817755, "longitude": -71.751917861402}, "transactions": ["delivery"], "price": "$$", "location": {"address1": "1280 Grafton St", "address2": "", "address3": null, "city": "Worcester", "zip_code": "01604", "country": "US", "state": "MA", "display_address": ["1280 Grafton St", "Worcester, MA 01604"]}, "phone": "+15084590054", "display_phone": "(508) 459-0054", "distance": 9001.16533004403}, {"id": "e7QvzUKpLZW-h3jJwatgYg", "alias": "tonys-sutton-pizza-restaurant-sutton", "name": "Tony's Sutton Pizza Restaurant", "image_url": "https://s3-media3.fl.yelpcdn.com/bphoto/-zdll-u8teHV7LaMn0MdNQ/o.jpg", "is_closed": false, "url": "https://www.yelp.com/biz/tonys-sutton-pizza-restaurant-sutton?adjust_creative=asslzE1UV0XuKI953B1vtw&utm_campaign=yelp_api_v3&utm_medium=api_v3_business_search&utm_source=asslzE1UV0XuKI953B1vtw", "review_count": 94, "categories": [{"alias": "pizza", "title": "Pizza"}], "rating": 3.5, "coordinates": {"latitude": 42.16156, "longitude": -71.73985}, "transactions": ["delivery"], "price": "$", "location": {"address1": "146 Worcester Providence Tpke", "address2": "", "address3": "", "city": "Sutton", "zip_code": "01590", "country": "US", "state": "MA", "display_address": ["146 Worcester Providence Tpke", "Sutton, MA 01590"]}, "phone": "+15088659544", "display_phone": "(508) 865-9544", "distance": 5051.9854413620515}, {"id": "lhC9J5lPOiuHuJbk_z0dYg", "alias": "king-jade-restaurant-whitinsville", "name": "King Jade Restaurant", "image_url": "https://s3-media3.fl.yelpcdn.com/bphoto/48fNZqZPDww3uX4d1aDmYA/o.jpg", "is_closed": false, "url": "https://www.yelp.com/biz/king-jade-restaurant-whitinsville?adjust_creative=asslzE1UV0XuKI953B1vtw&utm_campaign=yelp_api_v3&utm_medium=api_v3_business_search&utm_source=asslzE1UV0XuKI953B1vtw", "review_count": 57, "categories": [{"alias": "chinese", "title": "Chinese"}], "rating": 3.5, "coordinates": {"latitude": 42.1264885, "longitude": -71.6467951}, "transactions": ["delivery"], "price": "$$", "location": {"address1": "1229 Providence Rd", "address2": "", "address3": "", "city": "Whitinsville", "zip_code": "01588", "country": "US", "state": "MA", "display_address": ["1229 Providence Rd", "Whitinsville, MA 01588"]}, "phone": "+15082345968", "display_phone": "(508) 234-5968", "distance": 6005.727305603618}, {"id": "85l7501xBza5ggvD24IZ1A", "alias": "stephanies-daily-grind-north-grafton", "name": "Stephanie's Daily Grind", "image_url": "https://s3-media4.fl.yelpcdn.com/bphoto/2h4p2yUBfk4_CO93KbGVoQ/o.jpg", "is_closed": false, "url": "https://www.yelp.com/biz/stephanies-daily-grind-north-grafton?adjust_creative=asslzE1UV0XuKI953B1vtw&utm_campaign=yelp_api_v3&utm_medium=api_v3_business_search&utm_source=asslzE1UV0XuKI953B1vtw", "review_count": 26, "categories": [{"alias": "coffee", "title": "Coffee & Tea"}, {"alias": "bagels", "title": "Bagels"}, {"alias": "sandwiches", "title": "Sandwiches"}], "rating": 4.0, "coordinates": {"latitude": 42.21614, "longitude": -71.6939}, "transactions": [], "price": "$$", "location": {"address1": "79 Worcester St", "address2": null, "address3": "", "city": "North Grafton", "zip_code": "01536", "country": "US", "state": "MA", "display_address": ["79 Worcester St", "North Grafton, MA 01536"]}, "phone": "+17742935133", "display_phone": "(774) 293-5133", "distance": 4739.920323895683}, {"id": "XIR1_GVjl2M2P9uit2kxpA", "alias": "jade-garden-upton", "name": "Jade Garden", "image_url": "https://s3-media4.fl.yelpcdn.com/bphoto/WriBZG7PoJaEpyko39SlEw/o.jpg", "is_closed": false, "url": "https://www.yelp.com/biz/jade-garden-upton?adjust_creative=asslzE1UV0XuKI953B1vtw&utm_campaign=yelp_api_v3&utm_medium=api_v3_business_search&utm_source=asslzE1UV0XuKI953B1vtw", "review_count": 40, "categories": [{"alias": "chinese", "title": "Chinese"}], "rating": 4.0, "coordinates": {"latitude": 42.170270275884, "longitude": -71.619636916253}, "transactions": [], "price": "$$", "location": {"address1": "113 Main St", "address2": "", "address3": "", "city": "Upton", "zip_code": "01568", "country": "US", "state": "MA", "display_address": ["113 Main St", "Upton, MA 01568"]}, "phone": "+15085296288", "display_phone": "(508) 529-6288", "distance": 5078.373737253488}, {"id": "xAwY8gxKTXVYNCTOZ0Y4Tw", "alias": "wongs-restaurant-grafton", "name": "Wong's Restaurant", "image_url": "https://s3-media3.fl.yelpcdn.com/bphoto/VT9qyvlQ1UoUZeNNru3CBQ/o.jpg", "is_closed": false, "url": "https://www.yelp.com/biz/wongs-restaurant-grafton?adjust_creative=asslzE1UV0XuKI953B1vtw&utm_campaign=yelp_api_v3&utm_medium=api_v3_business_search&utm_source=asslzE1UV0XuKI953B1vtw", "review_count": 47, "categories": [{"alias": "chinese", "title": "Chinese"}], "rating": 3.0, "coordinates": {"latitude": 42.2058906555176, "longitude": -71.6769561767578}, "transactions": [], "price": "$$", "location": {"address1": "62 Upton St", "address2": "", "address3": "", "city": "Grafton", "zip_code": "01519", "country": "US", "state": "MA", "display_address": ["62 Upton St", "Grafton, MA 01519"]}, "phone": "+15088393020", "display_phone": "(508) 839-3020", "distance": 3511.830888344762}, {"id": "SwMdUO6saMvaX65aSfZtjA", "alias": "pearl-caf\u00e9-north-grafton-2", "name": "Pearl Caf\u00e9", "image_url": "https://s3-media2.fl.yelpcdn.com/bphoto/0idFBJUlTbWfaGXkRGc3zw/o.jpg", "is_closed": false, "url": "https://www.yelp.com/biz/pearl-caf%C3%A9-north-grafton-2?adjust_creative=asslzE1UV0XuKI953B1vtw&utm_campaign=yelp_api_v3&utm_medium=api_v3_business_search&utm_source=asslzE1UV0XuKI953B1vtw", "review_count": 36, "categories": [{"alias": "chinese", "title": "Chinese"}], "rating": 4.0, "coordinates": {"latitude": 42.230309, "longitude": -71.717443}, "transactions": ["delivery"], "price": "$$", "location": {"address1": "198 Worcester St", "address2": "Ste 4", "address3": "", "city": "North Grafton", "zip_code": "01536", "country": "US", "state": "MA", "display_address": ["198 Worcester St", "Ste 4", "North Grafton, MA 01536"]}, "phone": "+15088393899", "display_phone": "(508) 839-3899", "distance": 6885.305234816887}, {"id": "LoIq8iKvZkWDueFu864Iow", "alias": "kyoto-sushi-bar-and-grill-northbridge", "name": "Kyoto Sushi Bar & Grill", "image_url": "https://s3-media3.fl.yelpcdn.com/bphoto/GUbWSX3gpmmBVZpOxcq7ug/o.jpg", "is_closed": false, "url": "https://www.yelp.com/biz/kyoto-sushi-bar-and-grill-northbridge?adjust_creative=asslzE1UV0XuKI953B1vtw&utm_campaign=yelp_api_v3&utm_medium=api_v3_business_search&utm_source=asslzE1UV0XuKI953B1vtw", "review_count": 48, "categories": [{"alias": "japanese", "title": "Japanese"}, {"alias": "sushi", "title": "Sushi Bars"}], "rating": 3.5, "coordinates": {"latitude": 42.113716066928, "longitude": -71.6578243467222}, "transactions": ["delivery"], "price": "$$", "location": {"address1": "185 Church St", "address2": "", "address3": "", "city": "Northbridge", "zip_code": "01588", "country": "US", "state": "MA", "display_address": ["185 Church St", "Northbridge, MA 01588"]}, "phone": "+15083729516", "display_phone": "(508) 372-9516", "distance": 7032.838039610829}, {"id": "xVaaTuDNhQCB6tygRB2Vqw", "alias": "the-national-grill-sutton", "name": "The National Grill", "image_url": "https://s3-media3.fl.yelpcdn.com/bphoto/fM0fbN6GxgFETYvCpgZiFQ/o.jpg", "is_closed": false, "url": "https://www.yelp.com/biz/the-national-grill-sutton?adjust_creative=asslzE1UV0XuKI953B1vtw&utm_campaign=yelp_api_v3&utm_medium=api_v3_business_search&utm_source=asslzE1UV0XuKI953B1vtw", "review_count": 2, "categories": [{"alias": "tradamerican", "title": "American (Traditional)"}, {"alias": "burgers", "title": "Burgers"}, {"alias": "sandwiches", "title": "Sandwiches"}], "rating": 3.5, "coordinates": {"latitude": 42.120342, "longitude": -71.766884}, "transactions": [], "location": {"address1": "227 Putnam Hill Rd", "address2": "", "address3": "Blackstone National Golf Club", "city": "Sutton", "zip_code": "01590", "country": "US", "state": "MA", "display_address": ["227 Putnam Hill Rd", "Blackstone National Golf Club", "Sutton, MA 01590"]}, "phone": "+15088652111", "display_phone": "(508) 865-2111", "distance": 9302.398012418524}, {"id": "qoZy-Vt2rRHOG32p-Hr0yA", "alias": "breakfast-at-stephanies-upton", "name": "Breakfast At Stephanie's", "image_url": "https://s3-media1.fl.yelpcdn.com/bphoto/rtx-zf0B0YqUZPS7wEUCnA/o.jpg", "is_closed": false, "url": "https://www.yelp.com/biz/breakfast-at-stephanies-upton?adjust_creative=asslzE1UV0XuKI953B1vtw&utm_campaign=yelp_api_v3&utm_medium=api_v3_business_search&utm_source=asslzE1UV0XuKI953B1vtw", "review_count": 177, "categories": [{"alias": "breakfast_brunch", "title": "Breakfast & Brunch"}], "rating": 4.0, "coordinates": {"latitude": 42.169584, "longitude": -71.625271}, "transactions": [], "price": "$", "location": {"address1": "3 Farm St", "address2": null, "address3": "", "city": "Upton", "zip_code": "01568", "country": "US", "state": "MA", "display_address": ["3 Farm St", "Upton, MA 01568"]}, "phone": "+15086031668", "display_phone": "(508) 603-1668", "distance": 4624.944011281884}, {"id": "mZgplWy0UBkpNP8zPykLvw", "alias": "cheesy-street-grill-westborough-2", "name": "Cheesy Street Grill", "image_url": "https://s3-media2.fl.yelpcdn.com/bphoto/nMSYE1fWfJM0DmH6XS8kIA/o.jpg", "is_closed": false, "url": "https://www.yelp.com/biz/cheesy-street-grill-westborough-2?adjust_creative=asslzE1UV0XuKI953B1vtw&utm_campaign=yelp_api_v3&utm_medium=api_v3_business_search&utm_source=asslzE1UV0XuKI953B1vtw", "review_count": 26, "categories": [{"alias": "tradamerican", "title": "American (Traditional)"}, {"alias": "comfortfood", "title": "Comfort Food"}, {"alias": "foodtrucks", "title": "Food Trucks"}], "rating": 4.5, "coordinates": {"latitude": 42.245423076891, "longitude": -71.5919565052796}, "transactions": ["delivery", "pickup"], "price": "$", "location": {"address1": "I-90 Westbound", "address2": null, "address3": "", "city": "Westborough", "zip_code": "01580", "country": "US", "state": "MA", "display_address": ["I-90 Westbound", "Westborough, MA 01580"]}, "phone": "+18609302472", "display_phone": "(860) 930-2472", "distance": 10761.175647493421}, {"id": "vFfkdVSe5tk6SfSuhZzMXQ", "alias": "wheelock-inn-millbury", "name": "Wheelock Inn", "image_url": "https://s3-media3.fl.yelpcdn.com/bphoto/weM1CbftXp44m1DNqf9_BA/o.jpg", "is_closed": false, "url": "https://www.yelp.com/biz/wheelock-inn-millbury?adjust_creative=asslzE1UV0XuKI953B1vtw&utm_campaign=yelp_api_v3&utm_medium=api_v3_business_search&utm_source=asslzE1UV0XuKI953B1vtw", "review_count": 17, "categories": [{"alias": "pubs", "title": "Pubs"}, {"alias": "seafood", "title": "Seafood"}], "rating": 3.5, "coordinates": {"latitude": 42.2209358215332, "longitude": -71.7490081787109}, "transactions": [], "price": "$$", "location": {"address1": "82 Wheelock Ave", "address2": null, "address3": null, "city": "Millbury", "zip_code": "01527", "country": "US", "state": "MA", "display_address": ["82 Wheelock Ave", "Millbury, MA 01527"]}, "phone": "+15087913477", "display_phone": "(508) 791-3477", "distance": 7624.738925032138}, {"id": "2YDv6ATuncjf_jP1645a6A", "alias": "schultzys-place-sutton", "name": "Schultzy's Place", "image_url": "https://s3-media4.fl.yelpcdn.com/bphoto/9hKQT4UdlS1uDj9Pj4UHWA/o.jpg", "is_closed": false, "url": "https://www.yelp.com/biz/schultzys-place-sutton?adjust_creative=asslzE1UV0XuKI953B1vtw&utm_campaign=yelp_api_v3&utm_medium=api_v3_business_search&utm_source=asslzE1UV0XuKI953B1vtw", "review_count": 55, "categories": [{"alias": "cafes", "title": "Cafes"}, {"alias": "breakfast_brunch", "title": "Breakfast & Brunch"}], "rating": 4.0, "coordinates": {"latitude": 42.1746019273996, "longitude": -71.7225104570389}, "transactions": ["delivery"], "price": "$", "location": {"address1": "3 Boston Rd", "address2": "", "address3": "", "city": "Sutton", "zip_code": "01590", "country": "US", "state": "MA", "display_address": ["3 Boston Rd", "Sutton, MA 01590"]}, "phone": "+15088656777", "display_phone": "(508) 865-6777", "distance": 3422.0189500075558}, {"id": "Iy8JrkRw5g98oZFKyJ1Ubg", "alias": "feng-asian-bistro-millbury-2", "name": "Feng Asian Bistro", "image_url": "https://s3-media1.fl.yelpcdn.com/bphoto/bwCn-Qap-Vus6c_nxcuaNg/o.jpg", "is_closed": false, "url": "https://www.yelp.com/biz/feng-asian-bistro-millbury-2?adjust_creative=asslzE1UV0XuKI953B1vtw&utm_campaign=yelp_api_v3&utm_medium=api_v3_business_search&utm_source=asslzE1UV0XuKI953B1vtw", "review_count": 164, "categories": [{"alias": "sushi", "title": "Sushi Bars"}, {"alias": "asianfusion", "title": "Asian Fusion"}, {"alias": "japanese", "title": "Japanese"}], "rating": 3.5, "coordinates": {"latitude": 42.1996124, "longitude": -71.7780874}, "transactions": ["delivery"], "price": "$$", "location": {"address1": "70 Worcester-Providence Tpke", "address2": "", "address3": "", "city": "Millbury", "zip_code": "01527", "country": "US", "state": "MA", "display_address": ["70 Worcester-Providence Tpke", "Millbury, MA 01527"]}, "phone": "+15088654400", "display_phone": "(508) 865-4400", "distance": 8470.435649210112}, {"id": "GQ0UJEXwrIE5SbdlF4u1VA", "alias": "a-and-d-pizza-millbury", "name": "A & D Pizza", "image_url": "https://s3-media1.fl.yelpcdn.com/bphoto/4SH6_S7m8Kn-vZc9q_1yEQ/o.jpg", "is_closed": false, "url": "https://www.yelp.com/biz/a-and-d-pizza-millbury?adjust_creative=asslzE1UV0XuKI953B1vtw&utm_campaign=yelp_api_v3&utm_medium=api_v3_business_search&utm_source=asslzE1UV0XuKI953B1vtw", "review_count": 53, "categories": [{"alias": "pizza", "title": "Pizza"}], "rating": 3.5, "coordinates": {"latitude": 42.19191, "longitude": -71.7591}, "transactions": ["delivery"], "price": "$", "location": {"address1": "60 Elm St", "address2": "", "address3": "", "city": "Millbury", "zip_code": "01527", "country": "US", "state": "MA", "display_address": ["60 Elm St", "Millbury, MA 01527"]}, "phone": "+15088659013", "display_phone": "(508) 865-9013", "distance": 6722.929320375949}, {"id": "LR9vzh5pFbwzWilgLLlUqg", "alias": "main-street-pizza-upton-4", "name": "Main Street Pizza", "image_url": "https://s3-media3.fl.yelpcdn.com/bphoto/DuQ277xziAjtWL7xyja-Yw/o.jpg", "is_closed": false, "url": "https://www.yelp.com/biz/main-street-pizza-upton-4?adjust_creative=asslzE1UV0XuKI953B1vtw&utm_campaign=yelp_api_v3&utm_medium=api_v3_business_search&utm_source=asslzE1UV0XuKI953B1vtw", "review_count": 13, "categories": [{"alias": "pizza", "title": "Pizza"}, {"alias": "sandwiches", "title": "Sandwiches"}], "rating": 3.5, "coordinates": {"latitude": 42.1699035456888, "longitude": -71.6192603775148}, "transactions": [], "price": "$", "location": {"address1": "113 Main St", "address2": "", "address3": "", "city": "Upton", "zip_code": "01568", "country": "US", "state": "MA", "display_address": ["113 Main St", "Upton, MA 01568"]}, "phone": "+15085293500", "display_phone": "(508) 529-3500", "distance": 5113.273821568818}, {"id": "-5aeb8D7G7OHQ-Gvfl52MQ", "alias": "pegs-diner-whitinsville", "name": "Peg's Diner", "image_url": "https://s3-media1.fl.yelpcdn.com/bphoto/t-C8pvxFWhyNc5WB4tXDgQ/o.jpg", "is_closed": false, "url": "https://www.yelp.com/biz/pegs-diner-whitinsville?adjust_creative=asslzE1UV0XuKI953B1vtw&utm_campaign=yelp_api_v3&utm_medium=api_v3_business_search&utm_source=asslzE1UV0XuKI953B1vtw", "review_count": 21, "categories": [{"alias": "diners", "title": "Diners"}], "rating": 4.5, "coordinates": {"latitude": 42.1117175527295, "longitude": -71.6611186929159}, "transactions": ["delivery"], "price": "$", "location": {"address1": "87 Church St", "address2": "", "address3": "", "city": "Whitinsville", "zip_code": "01588", "country": "US", "state": "MA", "display_address": ["87 Church St", "Whitinsville, MA 01588"]}, "phone": "+15082340170", "display_phone": "(508) 234-0170", "distance": 7170.16580634131}, {"id": "geQa_WAOTDDol9hk76AI3Q", "alias": "king-jade-ii-restaurant-north-grafton", "name": "King Jade II Restaurant", "image_url": "https://s3-media1.fl.yelpcdn.com/bphoto/9y2G-kJE8vgq0T5LCdhC0w/o.jpg", "is_closed": false, "url": "https://www.yelp.com/biz/king-jade-ii-restaurant-north-grafton?adjust_creative=asslzE1UV0XuKI953B1vtw&utm_campaign=yelp_api_v3&utm_medium=api_v3_business_search&utm_source=asslzE1UV0XuKI953B1vtw", "review_count": 18, "categories": [{"alias": "chinese", "title": "Chinese"}], "rating": 3.0, "coordinates": {"latitude": 42.21637, "longitude": -71.69347}, "transactions": ["delivery", "pickup"], "location": {"address1": "78 Worcester St", "address2": "Ste 3", "address3": "", "city": "North Grafton", "zip_code": "01536", "country": "US", "state": "MA", "display_address": ["78 Worcester St", "Ste 3", "North Grafton, MA 01536"]}, "phone": "+15088398868", "display_phone": "(508) 839-8868", "distance": 4697.231638290792}, {"id": "Eg70YXtv_hi79RLNthWHBQ", "alias": "yummy-steakhouse-worcester-2", "name": "Yummy Steakhouse", "image_url": "https://s3-media2.fl.yelpcdn.com/bphoto/x5ELXgdm4v6zVxzvVZcfew/o.jpg", "is_closed": false, "url": "https://www.yelp.com/biz/yummy-steakhouse-worcester-2?adjust_creative=asslzE1UV0XuKI953B1vtw&utm_campaign=yelp_api_v3&utm_medium=api_v3_business_search&utm_source=asslzE1UV0XuKI953B1vtw", "review_count": 93, "categories": [{"alias": "sushi", "title": "Sushi Bars"}, {"alias": "teppanyaki", "title": "Teppanyaki"}, {"alias": "asianfusion", "title": "Asian Fusion"}], "rating": 4.0, "coordinates": {"latitude": 42.2415852959508, "longitude": -71.7539578290557}, "transactions": ["delivery", "pickup"], "price": "$$", "location": {"address1": "1121 Grafton St", "address2": "", "address3": "", "city": "Worcester", "zip_code": "01604", "country": "US", "state": "MA", "display_address": ["1121 Grafton St", "Worcester, MA 01604"]}, "phone": "+15087521668", "display_phone": "(508) 752-1668", "distance": 9571.956399069348}, {"id": "QmQmG6gxwUoISY8XUSRXXA", "alias": "longhorn-steakhouse-curbside-to-go-available-millbury", "name": "LongHorn Steakhouse - Curbside To Go Available", "image_url": "https://s3-media2.fl.yelpcdn.com/bphoto/eAjCZ1tv-Wk782wWFAS-aw/o.jpg", "is_closed": false, "url": "https://www.yelp.com/biz/longhorn-steakhouse-curbside-to-go-available-millbury?adjust_creative=asslzE1UV0XuKI953B1vtw&utm_campaign=yelp_api_v3&utm_medium=api_v3_business_search&utm_source=asslzE1UV0XuKI953B1vtw", "review_count": 97, "categories": [{"alias": "steak", "title": "Steakhouses"}, {"alias": "tradamerican", "title": "American (Traditional)"}, {"alias": "bbq", "title": "Barbeque"}], "rating": 3.5, "coordinates": {"latitude": 42.19654, "longitude": -71.776194}, "transactions": [], "price": "$$", "location": {"address1": "70 Worcester Providence Tpke", "address2": "Ste 635", "address3": "", "city": "Millbury", "zip_code": "01527", "country": "US", "state": "MA", "display_address": ["70 Worcester Providence Tpke", "Ste 635", "Millbury, MA 01527"]}, "phone": "+15088652202", "display_phone": "(508) 865-2202", "distance": 8215.534019880142}, {"id": "GpD-gxtsvv0Y-S_SXzchaA", "alias": "new-china-pacific-restaurant-whitinsville", "name": "New China Pacific Restaurant", "image_url": "https://s3-media1.fl.yelpcdn.com/bphoto/ewieQs_lylCwUI3wdI_eCw/o.jpg", "is_closed": false, "url": "https://www.yelp.com/biz/new-china-pacific-restaurant-whitinsville?adjust_creative=asslzE1UV0XuKI953B1vtw&utm_campaign=yelp_api_v3&utm_medium=api_v3_business_search&utm_source=asslzE1UV0XuKI953B1vtw", "review_count": 37, "categories": [{"alias": "szechuan", "title": "Szechuan"}, {"alias": "cocktailbars", "title": "Cocktail Bars"}], "rating": 3.0, "coordinates": {"latitude": 42.0985303923564, "longitude": -71.6447227075696}, "transactions": [], "price": "$$", "location": {"address1": "683 Linwood Ave", "address2": "", "address3": "", "city": "Whitinsville", "zip_code": "01588", "country": "US", "state": "MA", "display_address": ["683 Linwood Ave", "Whitinsville, MA 01588"]}, "phone": "+15082348100", "display_phone": "(508) 234-8100", "distance": 8970.219827568313}, {"id": "wbdbh7Unhi8Fvpaqoba7rg", "alias": "paesano-pizzeria-worcester", "name": "Paesano Pizzeria", "image_url": "https://s3-media4.fl.yelpcdn.com/bphoto/rJCbxHbmBdH4__PjHkPiLQ/o.jpg", "is_closed": false, "url": "https://www.yelp.com/biz/paesano-pizzeria-worcester?adjust_creative=asslzE1UV0XuKI953B1vtw&utm_campaign=yelp_api_v3&utm_medium=api_v3_business_search&utm_source=asslzE1UV0XuKI953B1vtw", "review_count": 74, "categories": [{"alias": "pizza", "title": "Pizza"}, {"alias": "italian", "title": "Italian"}], "rating": 3.5, "coordinates": {"latitude": 42.2419231687621, "longitude": -71.7543145988212}, "transactions": ["delivery"], "price": "$$", "location": {"address1": "1121 Grafton St", "address2": "", "address3": "", "city": "Worcester", "zip_code": "01604", "country": "US", "state": "MA", "display_address": ["1121 Grafton St", "Worcester, MA 01604"]}, "phone": "+15087911121", "display_phone": "(508) 791-1121", "distance": 9619.63716417778}, {"id": "BO8QCbDc8Mj9UjJkIOqAtg", "alias": "tgi-fridays-millbury", "name": "TGI Fridays", "image_url": "https://s3-media4.fl.yelpcdn.com/bphoto/bxKc2uPziDHZ93UO2vTRTg/o.jpg", "is_closed": false, "url": "https://www.yelp.com/biz/tgi-fridays-millbury?adjust_creative=asslzE1UV0XuKI953B1vtw&utm_campaign=yelp_api_v3&utm_medium=api_v3_business_search&utm_source=asslzE1UV0XuKI953B1vtw", "review_count": 90, "categories": [{"alias": "tradamerican", "title": "American (Traditional)"}], "rating": 2.0, "coordinates": {"latitude": 42.196692, "longitude": -71.776864}, "transactions": ["delivery"], "price": "$$", "location": {"address1": "70 Worcester Providence Turnpike", "address2": "", "address3": "", "city": "Millbury", "zip_code": "01527", "country": "US", "state": "MA", "display_address": ["70 Worcester Providence Turnpike", "Millbury, MA 01527"]}, "phone": "+15088659189", "display_phone": "(508) 865-9189", "distance": 8273.2567301135}, {"id": "chh9P1k7sZu3PupNSQI59A", "alias": "golden-wok-worcester", "name": "Golden Wok", "image_url": "https://s3-media2.fl.yelpcdn.com/bphoto/JXTBQ6wommRl3ykbMlggww/o.jpg", "is_closed": false, "url": "https://www.yelp.com/biz/golden-wok-worcester?adjust_creative=asslzE1UV0XuKI953B1vtw&utm_campaign=yelp_api_v3&utm_medium=api_v3_business_search&utm_source=asslzE1UV0XuKI953B1vtw", "review_count": 75, "categories": [{"alias": "chinese", "title": "Chinese"}], "rating": 4.0, "coordinates": {"latitude": 42.24703, "longitude": -71.76129}, "transactions": ["delivery"], "price": "$", "location": {"address1": "894 Grafton St", "address2": "", "address3": "", "city": "Worcester", "zip_code": "01604", "country": "US", "state": "MA", "display_address": ["894 Grafton St", "Worcester, MA 01604"]}, "phone": "+15087911288", "display_phone": "(508) 791-1288", "distance": 10445.749825106943}, {"id": "_NytxfQXYGy5CxUk4iGa4A", "alias": "puffins-restaurant-millbury", "name": "Puffin's Restaurant", "image_url": "https://s3-media2.fl.yelpcdn.com/bphoto/kQ_QNZUuynVAa5ieDkdo0A/o.jpg", "is_closed": false, "url": "https://www.yelp.com/biz/puffins-restaurant-millbury?adjust_creative=asslzE1UV0XuKI953B1vtw&utm_campaign=yelp_api_v3&utm_medium=api_v3_business_search&utm_source=asslzE1UV0XuKI953B1vtw", "review_count": 71, "categories": [{"alias": "newamerican", "title": "American (New)"}, {"alias": "tradamerican", "title": "American (Traditional)"}, {"alias": "breakfast_brunch", "title": "Breakfast & Brunch"}], "rating": 3.5, "coordinates": {"latitude": 42.1967981188078, "longitude": -71.7637552700717}, "transactions": ["delivery"], "price": "$", "location": {"address1": "95 Main St", "address2": "", "address3": "", "city": "Millbury", "zip_code": "01527", "country": "US", "state": "MA", "display_address": ["95 Main St", "Millbury, MA 01527"]}, "phone": "+15088652252", "display_phone": "(508) 865-2252", "distance": 7253.069109985598}, {"id": "mJnOua0hVBJ2eeu1mErJQg", "alias": "peking-garden-sutton", "name": "Peking Garden", "image_url": "https://s3-media3.fl.yelpcdn.com/bphoto/B3kYDKwKjArzXk5a09_7cQ/o.jpg", "is_closed": false, "url": "https://www.yelp.com/biz/peking-garden-sutton?adjust_creative=asslzE1UV0XuKI953B1vtw&utm_campaign=yelp_api_v3&utm_medium=api_v3_business_search&utm_source=asslzE1UV0XuKI953B1vtw", "review_count": 26, "categories": [{"alias": "chinese", "title": "Chinese"}], "rating": 2.5, "coordinates": {"latitude": 42.1745342, "longitude": -71.7223978}, "transactions": ["delivery"], "price": "$", "location": {"address1": "3 Boston Rd", "address2": "", "address3": "", "city": "Sutton", "zip_code": "01590", "country": "US", "state": "MA", "display_address": ["3 Boston Rd", "Sutton, MA 01590"]}, "phone": "+15088650507", "display_phone": "(508) 865-0507", "distance": 3393.535829752018}, {"id": "Bg2x3OtgVw--dvChJD5smg", "alias": "pearl-cafe-ii-millbury", "name": "Pearl Cafe II", "image_url": "https://s3-media4.fl.yelpcdn.com/bphoto/bERAQAvSKTGKjHOSAKexUw/o.jpg", "is_closed": false, "url": "https://www.yelp.com/biz/pearl-cafe-ii-millbury?adjust_creative=asslzE1UV0XuKI953B1vtw&utm_campaign=yelp_api_v3&utm_medium=api_v3_business_search&utm_source=asslzE1UV0XuKI953B1vtw", "review_count": 22, "categories": [{"alias": "chinese", "title": "Chinese"}], "rating": 3.5, "coordinates": {"latitude": 42.1913030767059, "longitude": -71.7608588563859}, "transactions": ["delivery"], "price": "$$", "location": {"address1": "92 Elm St", "address2": null, "address3": null, "city": "Millbury", "zip_code": "01527", "country": "US", "state": "MA", "display_address": ["92 Elm St", "Millbury, MA 01527"]}, "phone": "+15085818886", "display_phone": "(508) 581-8886", "distance": 6838.7249568054995}, {"id": "FS1KJ2daQpZV797hnobOZA", "alias": "red-robin-gourmet-burgers-and-brews-millbury", "name": "Red Robin Gourmet Burgers and Brews", "image_url": "https://s3-media2.fl.yelpcdn.com/bphoto/RfVwG6nOKC57LHGnIk6msQ/o.jpg", "is_closed": false, "url": "https://www.yelp.com/biz/red-robin-gourmet-burgers-and-brews-millbury?adjust_creative=asslzE1UV0XuKI953B1vtw&utm_campaign=yelp_api_v3&utm_medium=api_v3_business_search&utm_source=asslzE1UV0XuKI953B1vtw", "review_count": 147, "categories": [{"alias": "burgers", "title": "Burgers"}, {"alias": "tradamerican", "title": "American (Traditional)"}], "rating": 3.0, "coordinates": {"latitude": 42.199245, "longitude": -71.77723}, "transactions": ["delivery"], "price": "$$", "location": {"address1": "70 Worcester Providence Turnpike", "address2": "Ste 500", "address3": "", "city": "Millbury", "zip_code": "01527", "country": "US", "state": "MA", "display_address": ["70 Worcester Providence Turnpike", "Ste 500", "Millbury, MA 01527"]}, "phone": "+15085819200", "display_phone": "(508) 581-9200", "distance": 8390.330050120936}, {"id": "K9RpZpwuXdImLIgdcBwWNw", "alias": "pizza-chef-millbury", "name": "Pizza Chef", "image_url": "https://s3-media3.fl.yelpcdn.com/bphoto/rBuZiaLKDovFBynMKfdxRw/o.jpg", "is_closed": false, "url": "https://www.yelp.com/biz/pizza-chef-millbury?adjust_creative=asslzE1UV0XuKI953B1vtw&utm_campaign=yelp_api_v3&utm_medium=api_v3_business_search&utm_source=asslzE1UV0XuKI953B1vtw", "review_count": 53, "categories": [{"alias": "pizza", "title": "Pizza"}], "rating": 3.5, "coordinates": {"latitude": 42.19249, "longitude": -71.7607}, "transactions": ["delivery"], "price": "$", "location": {"address1": "32 N Main St", "address2": "", "address3": "", "city": "Millbury", "zip_code": "01527", "country": "US", "state": "MA", "display_address": ["32 N Main St", "Millbury, MA 01527"]}, "phone": "+15088653700", "display_phone": "(508) 865-3700", "distance": 6858.454966652692}, {"id": "Wo5DI_-7XHu53bKCH9Ps9Q", "alias": "feng-shui-millbury", "name": "Feng Shui", "image_url": "https://s3-media3.fl.yelpcdn.com/bphoto/ihFxfcBFwgKIhW7Ph8mkHQ/o.jpg", "is_closed": false, "url": "https://www.yelp.com/biz/feng-shui-millbury?adjust_creative=asslzE1UV0XuKI953B1vtw&utm_campaign=yelp_api_v3&utm_medium=api_v3_business_search&utm_source=asslzE1UV0XuKI953B1vtw", "review_count": 4, "categories": [{"alias": "japanese", "title": "Japanese"}], "rating": 3.5, "coordinates": {"latitude": 42.18923, "longitude": -71.76219}, "transactions": [], "location": {"address1": "Blacksone Valley Plz", "address2": "", "address3": "", "city": "Millbury", "zip_code": "01527", "country": "US", "state": "MA", "display_address": ["Blacksone Valley Plz", "Millbury, MA 01527"]}, "phone": "", "display_phone": "", "distance": 8222.939619011568}, {"id": "d7xvA4Y0PNbanoGaWpdjQw", "alias": "northbridge-house-of-pizza-northbridge", "name": "Northbridge House of Pizza", "image_url": "https://s3-media1.fl.yelpcdn.com/bphoto/GfY2772blRFfs9eihosV7A/o.jpg", "is_closed": false, "url": "https://www.yelp.com/biz/northbridge-house-of-pizza-northbridge?adjust_creative=asslzE1UV0XuKI953B1vtw&utm_campaign=yelp_api_v3&utm_medium=api_v3_business_search&utm_source=asslzE1UV0XuKI953B1vtw", "review_count": 14, "categories": [{"alias": "pizza", "title": "Pizza"}], "rating": 3.0, "coordinates": {"latitude": 42.1516011, "longitude": -71.6500793}, "transactions": ["delivery"], "price": "$", "location": {"address1": "2225 Providence Rd", "address2": "", "address3": "", "city": "Northbridge", "zip_code": "01534", "country": "US", "state": "MA", "display_address": ["2225 Providence Rd", "Northbridge, MA 01534"]}, "phone": "+15082343936", "display_phone": "(508) 234-3936", "distance": 3598.6384735604324}, {"id": "Qn6ajuuNh7N_pgntxY80ug", "alias": "foodworks-millbury", "name": "Foodworks", "image_url": "https://s3-media2.fl.yelpcdn.com/bphoto/-ZKHYtClFXyg6ORBwvD3_A/o.jpg", "is_closed": false, "url": "https://www.yelp.com/biz/foodworks-millbury?adjust_creative=asslzE1UV0XuKI953B1vtw&utm_campaign=yelp_api_v3&utm_medium=api_v3_business_search&utm_source=asslzE1UV0XuKI953B1vtw", "review_count": 16, "categories": [{"alias": "chinese", "title": "Chinese"}], "rating": 3.5, "coordinates": {"latitude": 42.1912, "longitude": -71.76148}, "transactions": ["delivery", "pickup"], "price": "$$", "location": {"address1": "110 Elm St", "address2": "", "address3": "", "city": "Millbury", "zip_code": "01527", "country": "US", "state": "MA", "display_address": ["110 Elm St", "Millbury, MA 01527"]}, "phone": "+15088651707", "display_phone": "(508) 865-1707", "distance": 6881.99141938909}, {"id": "-LxvI8IAf5SqlfUZ2d1QZw", "alias": "chatters-bar-and-grill-providence", "name": "Chatters Bar & Grill", "image_url": "", "is_closed": false, "url": "https://www.yelp.com/biz/chatters-bar-and-grill-providence?adjust_creative=asslzE1UV0XuKI953B1vtw&utm_campaign=yelp_api_v3&utm_medium=api_v3_business_search&utm_source=asslzE1UV0XuKI953B1vtw", "review_count": 2, "categories": [{"alias": "newamerican", "title": "American (New)"}], "rating": 3.0, "coordinates": {"latitude": 42.199911, "longitude": -71.778245}, "transactions": [], "location": {"address1": "1 Providence Pl", "address2": "", "address3": "Providence Place Mall", "city": "Providence", "zip_code": "02908", "country": "US", "state": "RI", "display_address": ["1 Providence Pl", "Providence Place Mall", "Providence, RI 02908"]}, "phone": "", "display_phone": "", "distance": 8493.632343664867}, {"id": "XZBRXtlw1IO3SFsPS5N7rg", "alias": "rose-garden-restaurant-and-pub-upton", "name": "Rose Garden Restaurant & Pub", "image_url": "https://s3-media4.fl.yelpcdn.com/bphoto/wx4Pm_Ld9z6PpRBERV6xEw/o.jpg", "is_closed": false, "url": "https://www.yelp.com/biz/rose-garden-restaurant-and-pub-upton?adjust_creative=asslzE1UV0XuKI953B1vtw&utm_campaign=yelp_api_v3&utm_medium=api_v3_business_search&utm_source=asslzE1UV0XuKI953B1vtw", "review_count": 35, "categories": [{"alias": "tradamerican", "title": "American (Traditional)"}, {"alias": "pizza", "title": "Pizza"}, {"alias": "pubs", "title": "Pubs"}], "rating": 3.0, "coordinates": {"latitude": 42.174087, "longitude": -71.60017}, "transactions": [], "price": "$$", "location": {"address1": "16 Milford St", "address2": "", "address3": "", "city": "Upton", "zip_code": "01568", "country": "US", "state": "MA", "display_address": ["16 Milford St", "Upton, MA 01568"]}, "phone": "+15085297776", "display_phone": "(508) 529-7776", "distance": 6646.997427879402}, {"id": "w7nK16af2rt_kO2HUBcM0g", "alias": "uno-pizzeria-and-grill-millbury", "name": "Uno Pizzeria & Grill", "image_url": "https://s3-media4.fl.yelpcdn.com/bphoto/NfuIL8h-5oh6IMcIYleLzQ/o.jpg", "is_closed": false, "url": "https://www.yelp.com/biz/uno-pizzeria-and-grill-millbury?adjust_creative=asslzE1UV0XuKI953B1vtw&utm_campaign=yelp_api_v3&utm_medium=api_v3_business_search&utm_source=asslzE1UV0XuKI953B1vtw", "review_count": 59, "categories": [{"alias": "pizza", "title": "Pizza"}, {"alias": "gluten_free", "title": "Gluten-Free"}, {"alias": "tradamerican", "title": "American (Traditional)"}], "rating": 2.5, "coordinates": {"latitude": 42.196621526919, "longitude": -71.7780169148893}, "transactions": ["delivery", "pickup"], "price": "$$", "location": {"address1": "70 Worcester Providence Hwy", "address2": "Ste 441", "address3": "", "city": "Millbury", "zip_code": "01527", "country": "US", "state": "MA", "display_address": ["70 Worcester Providence Hwy", "Ste 441", "Millbury, MA 01527"]}, "phone": "+15085817866", "display_phone": "(508) 581-7866", "distance": 8361.711878092257}, {"id": "VhZLjn49eRRHJAka6XDuJg", "alias": "village-house-of-pizza-whitinsville", "name": "Village House of Pizza", "image_url": "https://s3-media2.fl.yelpcdn.com/bphoto/6t3MStQNlY-_i59LUMDk0A/o.jpg", "is_closed": false, "url": "https://www.yelp.com/biz/village-house-of-pizza-whitinsville?adjust_creative=asslzE1UV0XuKI953B1vtw&utm_campaign=yelp_api_v3&utm_medium=api_v3_business_search&utm_source=asslzE1UV0XuKI953B1vtw", "review_count": 24, "categories": [{"alias": "pizza", "title": "Pizza"}, {"alias": "salad", "title": "Salad"}, {"alias": "sandwiches", "title": "Sandwiches"}], "rating": 4.0, "coordinates": {"latitude": 42.1164404961342, "longitude": -71.6839722552948}, "transactions": ["delivery"], "price": "$", "location": {"address1": "199 N Main St", "address2": "", "address3": "", "city": "Whitinsville", "zip_code": "01588", "country": "US", "state": "MA", "display_address": ["199 N Main St", "Whitinsville, MA 01588"]}, "phone": "+15082346261", "display_phone": "(508) 234-6261", "distance": 6470.406236131206}, {"id": "QJ1P90Wkg9rz_FY-vOvDDA", "alias": "five-guys-sutton", "name": "Five Guys", "image_url": "https://s3-media1.fl.yelpcdn.com/bphoto/esJE7I_65f5J9coJWGr3TQ/o.jpg", "is_closed": false, "url": "https://www.yelp.com/biz/five-guys-sutton?adjust_creative=asslzE1UV0XuKI953B1vtw&utm_campaign=yelp_api_v3&utm_medium=api_v3_business_search&utm_source=asslzE1UV0XuKI953B1vtw", "review_count": 17, "categories": [{"alias": "hotdogs", "title": "Fast Food"}, {"alias": "burgers", "title": "Burgers"}], "rating": 3.0, "coordinates": {"latitude": 42.1597387, "longitude": -71.7348844}, "transactions": ["delivery"], "price": "$", "location": {"address1": "26 Galaxy Pass", "address2": "", "address3": "", "city": "Sutton", "zip_code": "01590", "country": "US", "state": "MA", "display_address": ["26 Galaxy Pass", "Sutton, MA 01590"]}, "phone": "+15089178555", "display_phone": "(508) 917-8555", "distance": 4739.1838256893925}, {"id": "dyIMv5PGbPPsLhyohcNudQ", "alias": "pirates-cove-linwood", "name": "Pirate's Cove", "image_url": "https://s3-media2.fl.yelpcdn.com/bphoto/MJ1L__WC7H9j-AP-5cDNAw/o.jpg", "is_closed": false, "url": "https://www.yelp.com/biz/pirates-cove-linwood?adjust_creative=asslzE1UV0XuKI953B1vtw&utm_campaign=yelp_api_v3&utm_medium=api_v3_business_search&utm_source=asslzE1UV0XuKI953B1vtw", "review_count": 29, "categories": [{"alias": "seafood", "title": "Seafood"}, {"alias": "icecream", "title": "Ice Cream & Frozen Yogurt"}, {"alias": "hotdog", "title": "Hot Dogs"}], "rating": 3.5, "coordinates": {"latitude": 42.09934, "longitude": -71.64351}, "transactions": [], "price": "$$", "location": {"address1": "74 Providence Rd", "address2": "", "address3": "", "city": "Linwood", "zip_code": "01525", "country": "US", "state": "MA", "display_address": ["74 Providence Rd", "Linwood, MA 01525"]}, "phone": "+15082340700", "display_phone": "(508) 234-0700", "distance": 8940.508778637173}, {"id": "UAsEW-fPrVXMgZSXTkfLYg", "alias": "jims-pizza-and-restaurant-sutton", "name": "Jim's Pizza & Restaurant", "image_url": "https://s3-media2.fl.yelpcdn.com/bphoto/UbbwGYWXed_WacIzdu-xjg/o.jpg", "is_closed": false, "url": "https://www.yelp.com/biz/jims-pizza-and-restaurant-sutton?adjust_creative=asslzE1UV0XuKI953B1vtw&utm_campaign=yelp_api_v3&utm_medium=api_v3_business_search&utm_source=asslzE1UV0XuKI953B1vtw", "review_count": 18, "categories": [{"alias": "pizza", "title": "Pizza"}, {"alias": "salad", "title": "Salad"}, {"alias": "italian", "title": "Italian"}], "rating": 2.5, "coordinates": {"latitude": 42.1745342, "longitude": -71.7223978}, "transactions": ["delivery"], "price": "$", "location": {"address1": "3 Boston Rd", "address2": "", "address3": "", "city": "Sutton", "zip_code": "01590", "country": "US", "state": "MA", "display_address": ["3 Boston Rd", "Sutton, MA 01590"]}, "phone": "+15088650517", "display_phone": "(508) 865-0517", "distance": 3393.535829752018}, {"id": "mO_PBWmn3wj_2Pmo597KPw", "alias": "upton-house-of-pizza-upton", "name": "Upton House of Pizza", "image_url": "https://s3-media1.fl.yelpcdn.com/bphoto/gEcRlZ00HVOkXSlVoiOJ5g/o.jpg", "is_closed": false, "url": "https://www.yelp.com/biz/upton-house-of-pizza-upton?adjust_creative=asslzE1UV0XuKI953B1vtw&utm_campaign=yelp_api_v3&utm_medium=api_v3_business_search&utm_source=asslzE1UV0XuKI953B1vtw", "review_count": 15, "categories": [{"alias": "pizza", "title": "Pizza"}, {"alias": "italian", "title": "Italian"}], "rating": 3.0, "coordinates": {"latitude": 42.17436, "longitude": -71.602354}, "transactions": [], "price": "$$", "location": {"address1": "6 Milford St", "address2": "", "address3": "", "city": "Upton", "zip_code": "01568", "country": "US", "state": "MA", "display_address": ["6 Milford St", "Upton, MA 01568"]}, "phone": "+15085296666", "display_phone": "(508) 529-6666", "distance": 6474.798685968175}, {"id": "viPH-ro4y-nZQGTuHCSD0g", "alias": "harrys-famous-pizza-whitinsville", "name": "Harry's Famous Pizza", "image_url": "https://s3-media3.fl.yelpcdn.com/bphoto/OkqPCaMOofW2tszWiBcjuA/o.jpg", "is_closed": false, "url": "https://www.yelp.com/biz/harrys-famous-pizza-whitinsville?adjust_creative=asslzE1UV0XuKI953B1vtw&utm_campaign=yelp_api_v3&utm_medium=api_v3_business_search&utm_source=asslzE1UV0XuKI953B1vtw", "review_count": 41, "categories": [{"alias": "pizza", "title": "Pizza"}, {"alias": "italian", "title": "Italian"}], "rating": 3.5, "coordinates": {"latitude": 42.113355, "longitude": -71.658354}, "transactions": ["delivery"], "price": "$", "location": {"address1": "185 Church St", "address2": "", "address3": "", "city": "Whitinsville", "zip_code": "01588", "country": "US", "state": "MA", "display_address": ["185 Church St", "Whitinsville, MA 01588"]}, "phone": "+15082345155", "display_phone": "(508) 234-5155", "distance": 7059.822279839194}, {"id": "nFhhGXWbvkjsIqaqL8E7gQ", "alias": "cranberries-restaurant-worcester", "name": "Cranberries Restaurant", "image_url": "https://s3-media2.fl.yelpcdn.com/bphoto/sxttQHTwRugeollch1fFIg/o.jpg", "is_closed": false, "url": "https://www.yelp.com/biz/cranberries-restaurant-worcester?adjust_creative=asslzE1UV0XuKI953B1vtw&utm_campaign=yelp_api_v3&utm_medium=api_v3_business_search&utm_source=asslzE1UV0XuKI953B1vtw", "review_count": 6, "categories": [{"alias": "catering", "title": "Caterers"}, {"alias": "diners", "title": "Diners"}], "rating": 4.0, "coordinates": {"latitude": 42.24608, "longitude": -71.77345}, "transactions": ["delivery"], "price": "$$", "location": {"address1": "142 Massasoit Rd", "address2": "", "address3": "", "city": "Worcester", "zip_code": "01604", "country": "US", "state": "MA", "display_address": ["142 Massasoit Rd", "Worcester, MA 01604"]}, "phone": "+15087537885", "display_phone": "(508) 753-7885", "distance": 11004.727965130485}, {"id": "BPbJF_7TGoaOvzZ4ftszwg", "alias": "subway-grafton-13", "name": "Subway", "image_url": "https://s3-media2.fl.yelpcdn.com/bphoto/0XrdnWwrGzwKG1qOEorqqw/o.jpg", "is_closed": false, "url": "https://www.yelp.com/biz/subway-grafton-13?adjust_creative=asslzE1UV0XuKI953B1vtw&utm_campaign=yelp_api_v3&utm_medium=api_v3_business_search&utm_source=asslzE1UV0XuKI953B1vtw", "review_count": 6, "categories": [{"alias": "sandwiches", "title": "Sandwiches"}], "rating": 2.5, "coordinates": {"latitude": 42.2195680749257, "longitude": -71.6957899067459}, "transactions": [], "price": "$", "location": {"address1": "100 Worcester St", "address2": "Spc 70", "address3": "Country Plaza Shopping Center", "city": "Grafton", "zip_code": "01519", "country": "US", "state": "MA", "display_address": ["100 Worcester St", "Spc 70", "Country Plaza Shopping Center", "Grafton, MA 01519"]}, "phone": "+15088399595", "display_phone": "(508) 839-9595", "distance": 5148.09222189489}, {"id": "-YpXG9qxxy7XflnLxCL9Xw", "alias": "moes-hot-dog-truck-worcester", "name": "Moe's Hot Dog Truck", "image_url": "https://s3-media3.fl.yelpcdn.com/bphoto/sMpAm2Gno1Gu-Qpc1cTnCA/o.jpg", "is_closed": false, "url": "https://www.yelp.com/biz/moes-hot-dog-truck-worcester?adjust_creative=asslzE1UV0XuKI953B1vtw&utm_campaign=yelp_api_v3&utm_medium=api_v3_business_search&utm_source=asslzE1UV0XuKI953B1vtw", "review_count": 5, "categories": [{"alias": "hotdog", "title": "Hot Dogs"}, {"alias": "foodtrucks", "title": "Food Trucks"}], "rating": 4.0, "coordinates": {"latitude": 42.2441520690918, "longitude": -71.7570037841797}, "transactions": [], "price": "$", "location": {"address1": "1015 Grafton St", "address2": "", "address3": "", "city": "Worcester", "zip_code": "01604", "country": "US", "state": "MA", "display_address": ["1015 Grafton St", "Worcester, MA 01604"]}, "phone": "+15087697114", "display_phone": "(508) 769-7114", "distance": 9951.54761071212}, {"id": "0_bwAGApwJbMwPnY3SsKhQ", "alias": "lakeview-house-of-pizza-grafton", "name": "Lakeview House of Pizza", "image_url": "https://s3-media2.fl.yelpcdn.com/bphoto/RteXlojtWBgl12-kDFNKBg/o.jpg", "is_closed": false, "url": "https://www.yelp.com/biz/lakeview-house-of-pizza-grafton?adjust_creative=asslzE1UV0XuKI953B1vtw&utm_campaign=yelp_api_v3&utm_medium=api_v3_business_search&utm_source=asslzE1UV0XuKI953B1vtw", "review_count": 19, "categories": [{"alias": "pizza", "title": "Pizza"}, {"alias": "sandwiches", "title": "Sandwiches"}], "rating": 3.0, "coordinates": {"latitude": 42.2162991, "longitude": -71.69336}, "transactions": [], "price": "$", "location": {"address1": "78 Worcester St", "address2": "", "address3": "", "city": "Grafton", "zip_code": "01536", "country": "US", "state": "MA", "display_address": ["78 Worcester St", "Grafton, MA 01536"]}, "phone": "+15088397040", "display_phone": "(508) 839-7040", "distance": 4748.767227612556}, {"id": "X0T0rewIGkEWIqfY8BVtvg", "alias": "jubes-family-restaurant-whitinsville", "name": "Jube's Family Restaurant", "image_url": "https://s3-media3.fl.yelpcdn.com/bphoto/wU7vYb3Ia1IEnwXSw4bBuA/o.jpg", "is_closed": false, "url": "https://www.yelp.com/biz/jubes-family-restaurant-whitinsville?adjust_creative=asslzE1UV0XuKI953B1vtw&utm_campaign=yelp_api_v3&utm_medium=api_v3_business_search&utm_source=asslzE1UV0XuKI953B1vtw", "review_count": 42, "categories": [{"alias": "tradamerican", "title": "American (Traditional)"}, {"alias": "breakfast_brunch", "title": "Breakfast & Brunch"}], "rating": 3.0, "coordinates": {"latitude": 42.1265970915556, "longitude": -71.6466998308897}, "transactions": ["delivery"], "price": "$$", "location": {"address1": "1227 Providence Rd", "address2": "", "address3": "", "city": "Whitinsville", "zip_code": "01588", "country": "US", "state": "MA", "display_address": ["1227 Providence Rd", "Whitinsville, MA 01588"]}, "phone": "+15082347768", "display_phone": "(508) 234-7768", "distance": 6001.268397911374}, {"id": "5hm2YXNlxPW_YDwFdQUhOw", "alias": "nikos-pizza-house-worcester", "name": "Niko's Pizza House", "image_url": "https://s3-media3.fl.yelpcdn.com/bphoto/529KcF9EJeWwsYTzkNu0Jw/o.jpg", "is_closed": false, "url": "https://www.yelp.com/biz/nikos-pizza-house-worcester?adjust_creative=asslzE1UV0XuKI953B1vtw&utm_campaign=yelp_api_v3&utm_medium=api_v3_business_search&utm_source=asslzE1UV0XuKI953B1vtw", "review_count": 20, "categories": [{"alias": "pizza", "title": "Pizza"}], "rating": 3.0, "coordinates": {"latitude": 42.2506251, "longitude": -71.7662788}, "transactions": ["delivery"], "price": "$", "location": {"address1": "752 Grafton St", "address2": "", "address3": "", "city": "Worcester", "zip_code": "01604", "country": "US", "state": "MA", "display_address": ["752 Grafton St", "Worcester, MA 01604"]}, "phone": "+15087520333", "display_phone": "(508) 752-0333", "distance": 10968.679577407578}, {"id": "LjcD7neDAEFUVyVagxcKNQ", "alias": "k-ps-breakfast-and-lunch-sutton", "name": "K P's Breakfast & Lunch", "image_url": "https://s3-media3.fl.yelpcdn.com/bphoto/NNwyO-lmP6bsxi7RH1J75A/o.jpg", "is_closed": false, "url": "https://www.yelp.com/biz/k-ps-breakfast-and-lunch-sutton?adjust_creative=asslzE1UV0XuKI953B1vtw&utm_campaign=yelp_api_v3&utm_medium=api_v3_business_search&utm_source=asslzE1UV0XuKI953B1vtw", "review_count": 21, "categories": [{"alias": "breakfast_brunch", "title": "Breakfast & Brunch"}], "rating": 3.0, "coordinates": {"latitude": 42.17544, "longitude": -71.721}, "transactions": ["delivery"], "price": "$", "location": {"address1": "10 Providence Rd", "address2": "", "address3": "", "city": "Sutton", "zip_code": "01590", "country": "US", "state": "MA", "display_address": ["10 Providence Rd", "Sutton, MA 01590"]}, "phone": "+15088651328", "display_phone": "(508) 865-1328", "distance": 3298.516866657856}, {"id": "YUwdbJ1K8CeE68L5G6Fsfg", "alias": "grafton-pizza-north-grafton", "name": "Grafton Pizza", "image_url": "https://s3-media2.fl.yelpcdn.com/bphoto/9W6SaFbdrVlGN8_uTg4jAA/o.jpg", "is_closed": false, "url": "https://www.yelp.com/biz/grafton-pizza-north-grafton?adjust_creative=asslzE1UV0XuKI953B1vtw&utm_campaign=yelp_api_v3&utm_medium=api_v3_business_search&utm_source=asslzE1UV0XuKI953B1vtw", "review_count": 26, "categories": [{"alias": "pizza", "title": "Pizza"}], "rating": 3.0, "coordinates": {"latitude": 42.22999, "longitude": -71.71824}, "transactions": ["delivery"], "price": "$", "location": {"address1": "204 Worcester St", "address2": "", "address3": "", "city": "North Grafton", "zip_code": "01536", "country": "US", "state": "MA", "display_address": ["204 Worcester St", "North Grafton, MA 01536"]}, "phone": "+15088395382", "display_phone": "(508) 839-5382", "distance": 6884.066329640617}, {"id": "4I5Vj-CiIFpINWaKtLCBBQ", "alias": "panera-bread-millbury-5", "name": "Panera Bread", "image_url": "https://s3-media4.fl.yelpcdn.com/bphoto/4EyRhuqiDri7XUKCummf-Q/o.jpg", "is_closed": false, "url": "https://www.yelp.com/biz/panera-bread-millbury-5?adjust_creative=asslzE1UV0XuKI953B1vtw&utm_campaign=yelp_api_v3&utm_medium=api_v3_business_search&utm_source=asslzE1UV0XuKI953B1vtw", "review_count": 62, "categories": [{"alias": "sandwiches", "title": "Sandwiches"}, {"alias": "salad", "title": "Salad"}, {"alias": "soup", "title": "Soup"}], "rating": 3.0, "coordinates": {"latitude": 42.1974657, "longitude": -71.775797}, "transactions": ["delivery"], "price": "$$", "location": {"address1": "70 Worcester-providence Tpke", "address2": "Ste 605", "address3": "", "city": "Millbury", "zip_code": "01527", "country": "US", "state": "MA", "display_address": ["70 Worcester-providence Tpke", "Ste 605", "Millbury, MA 01527"]}, "phone": "+15088656756", "display_phone": "(508) 865-6756", "distance": 8215.539489250661}, {"id": "-kl0vmV9dwkjQPrrrQAKJw", "alias": "99-restaurants-worcester", "name": "99 Restaurants", "image_url": "https://s3-media1.fl.yelpcdn.com/bphoto/GdBatGfERDiuCwKDtaXNXQ/o.jpg", "is_closed": false, "url": "https://www.yelp.com/biz/99-restaurants-worcester?adjust_creative=asslzE1UV0XuKI953B1vtw&utm_campaign=yelp_api_v3&utm_medium=api_v3_business_search&utm_source=asslzE1UV0XuKI953B1vtw", "review_count": 40, "categories": [{"alias": "tradamerican", "title": "American (Traditional)"}, {"alias": "pubs", "title": "Pubs"}], "rating": 3.5, "coordinates": {"latitude": 42.240062713623, "longitude": -71.7461776733398}, "transactions": [], "price": "$$", "location": {"address1": "50 SW Cutoff", "address2": "", "address3": "Rt 20", "city": "Worcester", "zip_code": "01604", "country": "US", "state": "MA", "display_address": ["50 SW Cutoff", "Rt 20", "Worcester, MA 01604"]}, "phone": "+15083633999", "display_phone": "(508) 363-3999", "distance": 9046.381752358973}, {"id": "duBbkV1mz80Vi7ysNoAtTQ", "alias": "crystal-catering-whitinsville", "name": "Crystal Catering", "image_url": "", "is_closed": false, "url": "https://www.yelp.com/biz/crystal-catering-whitinsville?adjust_creative=asslzE1UV0XuKI953B1vtw&utm_campaign=yelp_api_v3&utm_medium=api_v3_business_search&utm_source=asslzE1UV0XuKI953B1vtw", "review_count": 1, "categories": [{"alias": "servicestations", "title": "Gas Stations"}, {"alias": "autorepair", "title": "Auto Repair"}, {"alias": "catering", "title": "Caterers"}, {"alias": "delis", "title": "Delis"}], "rating": 1.0, "coordinates": {"latitude": 42.112919, "longitude": -71.658243}, "transactions": [], "location": {"address1": "175 Church St", "address2": "", "address3": "", "city": "Whitinsville", "zip_code": "01588", "country": "US", "state": "MA", "display_address": ["175 Church St", "Whitinsville, MA 01588"]}, "phone": "+15082341209", "display_phone": "(508) 234-1209", "distance": 7100.8022997108}, {"id": "GHHCcQzHFyhkx8wxxE8fcQ", "alias": "foodworks-worcester", "name": "Foodworks", "image_url": "https://s3-media4.fl.yelpcdn.com/bphoto/q70qkr1kQHUPBJRTdLAn7Q/o.jpg", "is_closed": false, "url": "https://www.yelp.com/biz/foodworks-worcester?adjust_creative=asslzE1UV0XuKI953B1vtw&utm_campaign=yelp_api_v3&utm_medium=api_v3_business_search&utm_source=asslzE1UV0XuKI953B1vtw", "review_count": 22, "categories": [{"alias": "chinese", "title": "Chinese"}], "rating": 2.0, "coordinates": {"latitude": 42.2386474609375, "longitude": -71.7469635009766}, "transactions": ["delivery", "pickup"], "price": "$$", "location": {"address1": "50 SW Cutoff", "address2": "", "address3": "", "city": "Worcester", "zip_code": "01604", "country": "US", "state": "MA", "display_address": ["50 SW Cutoff", "Worcester, MA 01604"]}, "phone": "+15087520938", "display_phone": "(508) 752-0938", "distance": 8959.36906726293}, {"id": "kGw5X28Vri1TTW6c7y8EkQ", "alias": "edgemere-diner-shrewsbury-2", "name": "Edgemere Diner", "image_url": "https://s3-media3.fl.yelpcdn.com/bphoto/ms_RfJ5yfG5adCCEFy3diQ/o.jpg", "is_closed": false, "url": "https://www.yelp.com/biz/edgemere-diner-shrewsbury-2?adjust_creative=asslzE1UV0XuKI953B1vtw&utm_campaign=yelp_api_v3&utm_medium=api_v3_business_search&utm_source=asslzE1UV0XuKI953B1vtw", "review_count": 99, "categories": [{"alias": "breakfast_brunch", "title": "Breakfast & Brunch"}, {"alias": "diners", "title": "Diners"}], "rating": 4.5, "coordinates": {"latitude": 42.245, "longitude": -71.73779}, "transactions": [], "price": "$", "location": {"address1": "51 Hartfod Tpke", "address2": "", "address3": "", "city": "Shrewsbury", "zip_code": "01545", "country": "US", "state": "MA", "display_address": ["51 Hartfod Tpke", "Shrewsbury, MA 01545"]}, "phone": "", "display_phone": "", "distance": 9127.789129317123}, {"id": "PXZfUBp1RbdWMAsxO1CpFg", "alias": "dees-place-shrewsbury", "name": "Dee's Place", "image_url": "", "is_closed": false, "url": "https://www.yelp.com/biz/dees-place-shrewsbury?adjust_creative=asslzE1UV0XuKI953B1vtw&utm_campaign=yelp_api_v3&utm_medium=api_v3_business_search&utm_source=asslzE1UV0XuKI953B1vtw", "review_count": 2, "categories": [{"alias": "tradamerican", "title": "American (Traditional)"}], "rating": 3.0, "coordinates": {"latitude": 42.24339, "longitude": -71.73992}, "transactions": [], "price": "$", "location": {"address1": "1 Pineland Ave", "address2": "", "address3": "", "city": "Shrewsbury", "zip_code": "01545", "country": "US", "state": "MA", "display_address": ["1 Pineland Ave", "Shrewsbury, MA 01545"]}, "phone": "+17742610068", "display_phone": "(774) 261-0068", "distance": 9067.40004485388}, {"id": "MsIxw9V1uehtUYP3AjmR7A", "alias": "new-england-pizza-and-subs-whitinsville", "name": "New England Pizza & Subs", "image_url": "https://s3-media2.fl.yelpcdn.com/bphoto/dclyiNkaj8cRm0cBRFwkmg/o.jpg", "is_closed": false, "url": "https://www.yelp.com/biz/new-england-pizza-and-subs-whitinsville?adjust_creative=asslzE1UV0XuKI953B1vtw&utm_campaign=yelp_api_v3&utm_medium=api_v3_business_search&utm_source=asslzE1UV0XuKI953B1vtw", "review_count": 9, "categories": [{"alias": "pizza", "title": "Pizza"}], "rating": 3.0, "coordinates": {"latitude": 42.123285, "longitude": -71.645232}, "transactions": ["delivery", "pickup"], "price": "$", "location": {"address1": "1115 Providence Rd", "address2": "", "address3": "", "city": "Whitinsville", "zip_code": "01588", "country": "US", "state": "MA", "display_address": ["1115 Providence Rd", "Whitinsville, MA 01588"]}, "phone": "+15082341888", "display_phone": "(508) 234-1888", "distance": 6421.086792957883}, {"id": "nrcJ1eEXDiCrznoIk8R8Kg", "alias": "peruchos-pizza-worcester", "name": "Peruchos Pizza", "image_url": "https://s3-media4.fl.yelpcdn.com/bphoto/GVWcS1IARMLP6Kk7MitQYQ/o.jpg", "is_closed": false, "url": "https://www.yelp.com/biz/peruchos-pizza-worcester?adjust_creative=asslzE1UV0XuKI953B1vtw&utm_campaign=yelp_api_v3&utm_medium=api_v3_business_search&utm_source=asslzE1UV0XuKI953B1vtw", "review_count": 27, "categories": [{"alias": "pizza", "title": "Pizza"}], "rating": 3.0, "coordinates": {"latitude": 42.2361298, "longitude": -71.7520218}, "transactions": ["delivery", "pickup"], "price": "$", "location": {"address1": "1280 Grafton St", "address2": null, "address3": null, "city": "Worcester", "zip_code": "01604", "country": "US", "state": "MA", "display_address": ["1280 Grafton St", "Worcester, MA 01604"]}, "phone": "+15087679800", "display_phone": "(508) 767-9800", "distance": 9003.962219986268}, {"id": "jBoRG-SfpOwAzxwT3hTlRw", "alias": "palmas-bakery-worcester", "name": "Palma's Bakery", "image_url": "https://s3-media2.fl.yelpcdn.com/bphoto/k3DKweTgC3YQigs_cjWd9A/o.jpg", "is_closed": false, "url": "https://www.yelp.com/biz/palmas-bakery-worcester?adjust_creative=asslzE1UV0XuKI953B1vtw&utm_campaign=yelp_api_v3&utm_medium=api_v3_business_search&utm_source=asslzE1UV0XuKI953B1vtw", "review_count": 38, "categories": [{"alias": "delis", "title": "Delis"}, {"alias": "sandwiches", "title": "Sandwiches"}, {"alias": "desserts", "title": "Desserts"}], "rating": 4.5, "coordinates": {"latitude": 42.250432, "longitude": -71.781405}, "transactions": ["delivery"], "price": "$", "location": {"address1": "3 Rice Sq", "address2": "Ste B", "address3": "", "city": "Worcester", "zip_code": "01604", "country": "US", "state": "MA", "display_address": ["3 Rice Sq", "Ste B", "Worcester, MA 01604"]}, "phone": "+15087989942", "display_phone": "(508) 798-9942", "distance": 11811.93537915795}, {"id": "Ask85cLMl28aX-mTAkBGUw", "alias": "corner-pizza-and-grill-northbridge", "name": "Corner Pizza and Grill", "image_url": "https://s3-media4.fl.yelpcdn.com/bphoto/WyPEgTw4PzppZ6szHR2PFA/o.jpg", "is_closed": false, "url": "https://www.yelp.com/biz/corner-pizza-and-grill-northbridge?adjust_creative=asslzE1UV0XuKI953B1vtw&utm_campaign=yelp_api_v3&utm_medium=api_v3_business_search&utm_source=asslzE1UV0XuKI953B1vtw", "review_count": 39, "categories": [{"alias": "pizza", "title": "Pizza"}, {"alias": "hotdogs", "title": "Fast Food"}, {"alias": "sandwiches", "title": "Sandwiches"}], "rating": 2.5, "coordinates": {"latitude": 42.1122409, "longitude": -71.659859}, "transactions": [], "price": "$$", "location": {"address1": "125 Church St", "address2": "", "address3": "", "city": "Northbridge", "zip_code": "01588", "country": "US", "state": "MA", "display_address": ["125 Church St", "Northbridge, MA 01588"]}, "phone": "+15082340001", "display_phone": "(508) 234-0001", "distance": 7148.135372698567}, {"id": "1NsHOxcujNJssKy0CrH_oQ", "alias": "subway-whitinsville-4", "name": "Subway", "image_url": "https://s3-media3.fl.yelpcdn.com/bphoto/gRhh_FwqF09CXLuhjxcEaA/o.jpg", "is_closed": false, "url": "https://www.yelp.com/biz/subway-whitinsville-4?adjust_creative=asslzE1UV0XuKI953B1vtw&utm_campaign=yelp_api_v3&utm_medium=api_v3_business_search&utm_source=asslzE1UV0XuKI953B1vtw", "review_count": 3, "categories": [{"alias": "sandwiches", "title": "Sandwiches"}], "rating": 2.5, "coordinates": {"latitude": 42.1111714, "longitude": -71.6619159499166}, "transactions": [], "price": "$", "location": {"address1": "56 Church St", "address2": "", "address3": "", "city": "Whitinsville", "zip_code": "01588", "country": "US", "state": "MA", "display_address": ["56 Church St", "Whitinsville, MA 01588"]}, "phone": "+15082344007", "display_phone": "(508) 234-4007", "distance": 7224.744344208008}, {"id": "7bFiD9xoSuY2ftHM1ml5zQ", "alias": "the-valley-cafe-whitinsville", "name": "The Valley Cafe", "image_url": "https://s3-media2.fl.yelpcdn.com/bphoto/sFakK7jvXEbFRXLF5_wQHw/o.jpg", "is_closed": false, "url": "https://www.yelp.com/biz/the-valley-cafe-whitinsville?adjust_creative=asslzE1UV0XuKI953B1vtw&utm_campaign=yelp_api_v3&utm_medium=api_v3_business_search&utm_source=asslzE1UV0XuKI953B1vtw", "review_count": 50, "categories": [{"alias": "breakfast_brunch", "title": "Breakfast & Brunch"}, {"alias": "tradamerican", "title": "American (Traditional)"}, {"alias": "seafood", "title": "Seafood"}], "rating": 3.0, "coordinates": {"latitude": 42.1116334429747, "longitude": -71.660699450045}, "transactions": ["delivery"], "price": "$$", "location": {"address1": "98A Church St", "address2": null, "address3": null, "city": "Whitinsville", "zip_code": "01588", "country": "US", "state": "MA", "display_address": ["98A Church St", "Whitinsville, MA 01588"]}, "phone": "+15082342180", "display_phone": "(508) 234-2180", "distance": 7197.24957146789}, {"id": "8y4fIR8jZ9tddmKcpRY6BQ", "alias": "applebees-grill-bar-millbury", "name": "Applebee's Grill + Bar", "image_url": "https://s3-media1.fl.yelpcdn.com/bphoto/5rwINwRdnBgf3omLWggwrg/o.jpg", "is_closed": false, "url": "https://www.yelp.com/biz/applebees-grill-bar-millbury?adjust_creative=asslzE1UV0XuKI953B1vtw&utm_campaign=yelp_api_v3&utm_medium=api_v3_business_search&utm_source=asslzE1UV0XuKI953B1vtw", "review_count": 46, "categories": [{"alias": "tradamerican", "title": "American (Traditional)"}, {"alias": "burgers", "title": "Burgers"}, {"alias": "sportsbars", "title": "Sports Bars"}], "rating": 2.5, "coordinates": {"latitude": 42.1973, "longitude": -71.778}, "transactions": ["delivery"], "price": "$$", "location": {"address1": "70 Worcester Providence Turnpike", "address2": "", "address3": "", "city": "Millbury", "zip_code": "01527", "country": "US", "state": "MA", "display_address": ["70 Worcester Providence Turnpike", "Millbury, MA 01527"]}, "phone": "+15085819270", "display_phone": "(508) 581-9270", "distance": 8382.757196621602}, {"id": "283extjO6R0SSAUhA280Tg", "alias": "chuck-e-cheese-worcester", "name": "Chuck E. Cheese", "image_url": "https://s3-media1.fl.yelpcdn.com/bphoto/PEgWgl7E1UZEyHmDiNFWqA/o.jpg", "is_closed": false, "url": "https://www.yelp.com/biz/chuck-e-cheese-worcester?adjust_creative=asslzE1UV0XuKI953B1vtw&utm_campaign=yelp_api_v3&utm_medium=api_v3_business_search&utm_source=asslzE1UV0XuKI953B1vtw", "review_count": 14, "categories": [{"alias": "pizza", "title": "Pizza"}, {"alias": "arcades", "title": "Arcades"}, {"alias": "kids_activities", "title": "Kids Activities"}], "rating": 3.5, "coordinates": {"latitude": 42.2387847900391, "longitude": -71.7470855712891}, "transactions": ["delivery", "pickup"], "price": "$$", "location": {"address1": "50 SW Cutoff", "address2": "", "address3": "", "city": "Worcester", "zip_code": "01604", "country": "US", "state": "MA", "display_address": ["50 SW Cutoff", "Worcester, MA 01604"]}, "phone": "+15087545151", "display_phone": "(508) 754-5151", "distance": 8977.604569556548}, {"id": "MbUZnF2En0dzHdlW9dUkZQ", "alias": "d-angelo-sandwich-shop-worcester", "name": "D'angelo Sandwich Shop", "image_url": "https://s3-media3.fl.yelpcdn.com/bphoto/uwN-aa641qtEUUwr443N2w/o.jpg", "is_closed": false, "url": "https://www.yelp.com/biz/d-angelo-sandwich-shop-worcester?adjust_creative=asslzE1UV0XuKI953B1vtw&utm_campaign=yelp_api_v3&utm_medium=api_v3_business_search&utm_source=asslzE1UV0XuKI953B1vtw", "review_count": 3, "categories": [{"alias": "sandwiches", "title": "Sandwiches"}], "rating": 2.5, "coordinates": {"latitude": 42.2258983846513, "longitude": -71.7619562889805}, "transactions": ["delivery"], "price": "$", "location": {"address1": "540 Massasoit Rd", "address2": "", "address3": "", "city": "Worcester", "zip_code": "01604", "country": "US", "state": "MA", "display_address": ["540 Massasoit Rd", "Worcester, MA 01604"]}, "phone": "+15083633791", "display_phone": "(508) 363-3791", "distance": 8828.42681568108}, {"id": "1SuoCIw7QxUQsxPVSaqvKA", "alias": "burger-king-whitinsville", "name": "Burger King", "image_url": "https://s3-media1.fl.yelpcdn.com/bphoto/LiLzKEDUM_mBq1ejVofkWw/o.jpg", "is_closed": false, "url": "https://www.yelp.com/biz/burger-king-whitinsville?adjust_creative=asslzE1UV0XuKI953B1vtw&utm_campaign=yelp_api_v3&utm_medium=api_v3_business_search&utm_source=asslzE1UV0XuKI953B1vtw", "review_count": 12, "categories": [{"alias": "burgers", "title": "Burgers"}, {"alias": "hotdogs", "title": "Fast Food"}], "rating": 2.0, "coordinates": {"latitude": 42.1253046, "longitude": -71.6464458}, "transactions": [], "price": "$", "location": {"address1": "1177 Providence Rd", "address2": "", "address3": "", "city": "Whitinsville", "zip_code": "01588", "country": "US", "state": "MA", "display_address": ["1177 Providence Rd", "Whitinsville, MA 01588"]}, "phone": "", "display_phone": "", "distance": 6315.158833857706}, {"id": "dH0jwnYkhXIBiUlv0qBgdw", "alias": "pepperoni-express-north-grafton", "name": "Pepperoni Express", "image_url": "https://s3-media3.fl.yelpcdn.com/bphoto/FjNjvCZywOYos8a0NBmHOA/o.jpg", "is_closed": false, "url": "https://www.yelp.com/biz/pepperoni-express-north-grafton?adjust_creative=asslzE1UV0XuKI953B1vtw&utm_campaign=yelp_api_v3&utm_medium=api_v3_business_search&utm_source=asslzE1UV0XuKI953B1vtw", "review_count": 48, "categories": [{"alias": "pizza", "title": "Pizza"}, {"alias": "breakfast_brunch", "title": "Breakfast & Brunch"}, {"alias": "sandwiches", "title": "Sandwiches"}], "rating": 2.5, "coordinates": {"latitude": 42.218674, "longitude": -71.696302}, "transactions": ["delivery", "pickup"], "price": "$", "location": {"address1": "92 Worcester St", "address2": "", "address3": "", "city": "North Grafton", "zip_code": "01536", "country": "US", "state": "MA", "display_address": ["92 Worcester St", "North Grafton, MA 01536"]}, "phone": "+15088396040", "display_phone": "(508) 839-6040", "distance": 5061.91360257683}, {"id": "sjPaDyaWR6WH5KKy4WdlWQ", "alias": "golden-pizza-on-grafton-worcester", "name": "Golden Pizza on Grafton", "image_url": "https://s3-media3.fl.yelpcdn.com/bphoto/uuQc9FgyZn93AjcmXifLmg/o.jpg", "is_closed": false, "url": "https://www.yelp.com/biz/golden-pizza-on-grafton-worcester?adjust_creative=asslzE1UV0XuKI953B1vtw&utm_campaign=yelp_api_v3&utm_medium=api_v3_business_search&utm_source=asslzE1UV0XuKI953B1vtw", "review_count": 27, "categories": [{"alias": "pizza", "title": "Pizza"}, {"alias": "italian", "title": "Italian"}, {"alias": "chicken_wings", "title": "Chicken Wings"}], "rating": 2.5, "coordinates": {"latitude": 42.24105, "longitude": -71.75352}, "transactions": ["delivery"], "price": "$", "location": {"address1": "1137 Grafton St", "address2": null, "address3": "", "city": "Worcester", "zip_code": "01604", "country": "US", "state": "MA", "display_address": ["1137 Grafton St", "Worcester, MA 01604"]}, "phone": "+15087701533", "display_phone": "(508) 770-1533", "distance": 9504.07164603655}, {"id": "c-oMhwyZegl4EMiT3ltdhg", "alias": "dominos-pizza-worcester-6", "name": "Domino's Pizza", "image_url": "", "is_closed": false, "url": "https://www.yelp.com/biz/dominos-pizza-worcester-6?adjust_creative=asslzE1UV0XuKI953B1vtw&utm_campaign=yelp_api_v3&utm_medium=api_v3_business_search&utm_source=asslzE1UV0XuKI953B1vtw", "review_count": 16, "categories": [{"alias": "pizza", "title": "Pizza"}, {"alias": "chicken_wings", "title": "Chicken Wings"}, {"alias": "sandwiches", "title": "Sandwiches"}], "rating": 1.5, "coordinates": {"latitude": 42.2340584, "longitude": -71.7460022}, "transactions": [], "price": "$", "location": {"address1": "1413 Grafton St", "address2": null, "address3": null, "city": "Worcester", "zip_code": "01604", "country": "US", "state": "MA", "display_address": ["1413 Grafton St", "Worcester, MA 01604"]}, "phone": "+15087971122", "display_phone": "(508) 797-1122", "distance": 8519.144013768613}, {"id": "hxNK6ypf2_Hj3InaF5-Mzg", "alias": "pizza-hut-millbury", "name": "Pizza Hut", "image_url": "https://s3-media4.fl.yelpcdn.com/bphoto/gDwuOsVCEQF-yrBU3aV55A/o.jpg", "is_closed": false, "url": "https://www.yelp.com/biz/pizza-hut-millbury?adjust_creative=asslzE1UV0XuKI953B1vtw&utm_campaign=yelp_api_v3&utm_medium=api_v3_business_search&utm_source=asslzE1UV0XuKI953B1vtw", "review_count": 1, "categories": [{"alias": "hotdogs", "title": "Fast Food"}, {"alias": "pizza", "title": "Pizza"}], "rating": 3.0, "coordinates": {"latitude": 42.19705, "longitude": -71.77707}, "transactions": [], "price": "$", "location": {"address1": "70 Worcester Providence Tpke", "address2": "Ste 100", "address3": "", "city": "Millbury", "zip_code": "01527", "country": "US", "state": "MA", "display_address": ["70 Worcester Providence Tpke", "Ste 100", "Millbury, MA 01527"]}, "phone": "", "display_phone": "", "distance": 8261.271944884003}, {"id": "2VZinIb_CQaMEtOrZcBa1g", "alias": "dominos-pizza-whitinsville", "name": "Domino's Pizza", "image_url": "https://s3-media2.fl.yelpcdn.com/bphoto/o6tAg1nvf8x3feSWFHSPRw/o.jpg", "is_closed": false, "url": "https://www.yelp.com/biz/dominos-pizza-whitinsville?adjust_creative=asslzE1UV0XuKI953B1vtw&utm_campaign=yelp_api_v3&utm_medium=api_v3_business_search&utm_source=asslzE1UV0XuKI953B1vtw", "review_count": 13, "categories": [{"alias": "pizza", "title": "Pizza"}, {"alias": "chicken_wings", "title": "Chicken Wings"}, {"alias": "sandwiches", "title": "Sandwiches"}], "rating": 1.5, "coordinates": {"latitude": 42.1114044, "longitude": -71.6613998}, "transactions": [], "price": "$", "location": {"address1": "72 Church St", "address2": null, "address3": null, "city": "Whitinsville", "zip_code": "01588", "country": "US", "state": "MA", "display_address": ["72 Church St", "Whitinsville, MA 01588"]}, "phone": "+15082662000", "display_phone": "(508) 266-2000", "distance": 7220.339279825635}, {"id": "n24g6pIyB4K9xJTUerphhw", "alias": "qdoba-mexican-eats-millbury", "name": "QDOBA Mexican Eats", "image_url": "https://s3-media3.fl.yelpcdn.com/bphoto/j2QJ4Bqx7tZN3WQiBUvtPA/o.jpg", "is_closed": false, "url": "https://www.yelp.com/biz/qdoba-mexican-eats-millbury?adjust_creative=asslzE1UV0XuKI953B1vtw&utm_campaign=yelp_api_v3&utm_medium=api_v3_business_search&utm_source=asslzE1UV0XuKI953B1vtw", "review_count": 56, "categories": [{"alias": "mexican", "title": "Mexican"}, {"alias": "hotdogs", "title": "Fast Food"}], "rating": 2.5, "coordinates": {"latitude": 42.1994342177244, "longitude": -71.7783325910568}, "transactions": [], "price": "$", "location": {"address1": "70 Worcester Providence Tpke", "address2": "Ste 425", "address3": "", "city": "Millbury", "zip_code": "01527", "country": "US", "state": "MA", "display_address": ["70 Worcester Providence Tpke", "Ste 425", "Millbury, MA 01527"]}, "phone": "+15088650500", "display_phone": "(508) 865-0500", "distance": 8483.055866494036}, {"id": "1zVn_08Ruu5obfnjdhTL3g", "alias": "wholly-cannoli-worcester", "name": "Wholly Cannoli", "image_url": "https://s3-media2.fl.yelpcdn.com/bphoto/ThfNi-Glp6WLBli5A-qa2g/o.jpg", "is_closed": false, "url": "https://www.yelp.com/biz/wholly-cannoli-worcester?adjust_creative=asslzE1UV0XuKI953B1vtw&utm_campaign=yelp_api_v3&utm_medium=api_v3_business_search&utm_source=asslzE1UV0XuKI953B1vtw", "review_count": 182, "categories": [{"alias": "bakeries", "title": "Bakeries"}, {"alias": "pizza", "title": "Pizza"}, {"alias": "sandwiches", "title": "Sandwiches"}], "rating": 3.5, "coordinates": {"latitude": 42.2506724, "longitude": -71.780637}, "transactions": ["delivery"], "price": "$", "location": {"address1": "490 Grafton St", "address2": "", "address3": "", "city": "Worcester", "zip_code": "01604", "country": "US", "state": "MA", "display_address": ["490 Grafton St", "Worcester, MA 01604"]}, "phone": "+15087530224", "display_phone": "(508) 753-0224", "distance": 11761.063924015847}, {"id": "7fxWuuKzN4VulIB422BBhw", "alias": "subway-worcester-40", "name": "Subway", "image_url": "https://s3-media2.fl.yelpcdn.com/bphoto/NbtUjNvXjuhAsGLZeFpGwg/o.jpg", "is_closed": false, "url": "https://www.yelp.com/biz/subway-worcester-40?adjust_creative=asslzE1UV0XuKI953B1vtw&utm_campaign=yelp_api_v3&utm_medium=api_v3_business_search&utm_source=asslzE1UV0XuKI953B1vtw", "review_count": 5, "categories": [{"alias": "sandwiches", "title": "Sandwiches"}], "rating": 2.0, "coordinates": {"latitude": 42.2481696958574, "longitude": -71.7595938661466}, "transactions": ["delivery", "pickup"], "price": "$", "location": {"address1": "897 Grafton St", "address2": null, "address3": null, "city": "Worcester", "zip_code": "01604", "country": "US", "state": "MA", "display_address": ["897 Grafton St", "Worcester, MA 01604"]}, "phone": "+15087912525", "display_phone": "(508) 791-2525", "distance": 10433.510993821299}, {"id": "23cyGoXFdHnwvQvXg0-O_g", "alias": "mcdonalds-whitinsville-2", "name": "McDonald's", "image_url": "https://s3-media3.fl.yelpcdn.com/bphoto/n_RAo9mGBU7uE7Buj1E0Xw/o.jpg", "is_closed": false, "url": "https://www.yelp.com/biz/mcdonalds-whitinsville-2?adjust_creative=asslzE1UV0XuKI953B1vtw&utm_campaign=yelp_api_v3&utm_medium=api_v3_business_search&utm_source=asslzE1UV0XuKI953B1vtw", "review_count": 8, "categories": [{"alias": "coffee", "title": "Coffee & Tea"}, {"alias": "burgers", "title": "Burgers"}, {"alias": "hotdogs", "title": "Fast Food"}], "rating": 2.5, "coordinates": {"latitude": 42.1255259188669, "longitude": -71.6460567712784}, "transactions": [], "price": "$", "location": {"address1": "1190 Providence Rd", "address2": null, "address3": null, "city": "Whitinsville", "zip_code": "01588", "country": "US", "state": "MA", "display_address": ["1190 Providence Rd", "Whitinsville, MA 01588"]}, "phone": "+15082342960", "display_phone": "(508) 234-2960", "distance": 6168.712046970474}, {"id": "yWvEr3Hd2flKaB7-Qdr9vw", "alias": "d-angelo-westboro", "name": "D'angelo", "image_url": "https://s3-media3.fl.yelpcdn.com/bphoto/W1Pi-nt6TebD804Zr4-CrA/o.jpg", "is_closed": false, "url": "https://www.yelp.com/biz/d-angelo-westboro?adjust_creative=asslzE1UV0XuKI953B1vtw&utm_campaign=yelp_api_v3&utm_medium=api_v3_business_search&utm_source=asslzE1UV0XuKI953B1vtw", "review_count": 3, "categories": [{"alias": "hotdogs", "title": "Fast Food"}, {"alias": "sandwiches", "title": "Sandwiches"}], "rating": 2.5, "coordinates": {"latitude": 42.2452725, "longitude": -71.59211483}, "transactions": [], "price": "$", "location": {"address1": "11 Massachusetts Tpke West", "address2": "", "address3": "", "city": "Westboro", "zip_code": "01581", "country": "US", "state": "MA", "display_address": ["11 Massachusetts Tpke West", "Westboro, MA 01581"]}, "phone": "+15083668792", "display_phone": "(508) 366-8792", "distance": 10483.071780323662}, {"id": "iI6u7GfkG2KNZxGREiGyyw", "alias": "papa-ginos-pizzeria-worcester-4", "name": "Papa Gino's Pizzeria", "image_url": "https://s3-media1.fl.yelpcdn.com/bphoto/alB7uSUYnCG1ApHWATVjZQ/o.jpg", "is_closed": false, "url": "https://www.yelp.com/biz/papa-ginos-pizzeria-worcester-4?adjust_creative=asslzE1UV0XuKI953B1vtw&utm_campaign=yelp_api_v3&utm_medium=api_v3_business_search&utm_source=asslzE1UV0XuKI953B1vtw", "review_count": 15, "categories": [{"alias": "pizza", "title": "Pizza"}], "rating": 2.5, "coordinates": {"latitude": 42.24757, "longitude": -71.76097}, "transactions": ["delivery"], "price": "$$", "location": {"address1": "915 Grafton St", "address2": "", "address3": "", "city": "Worcester", "zip_code": "01604", "country": "US", "state": "MA", "display_address": ["915 Grafton St", "Worcester, MA 01604"]}, "phone": "+15087929313", "display_phone": "(508) 792-9313", "distance": 10364.014445417552}, {"id": "BuCb_TGSGbd9R0a85zdF9A", "alias": "subway-millbury-6", "name": "Subway", "image_url": "https://s3-media2.fl.yelpcdn.com/bphoto/K1uuyBJXDL6Juxcwheeb2w/o.jpg", "is_closed": false, "url": "https://www.yelp.com/biz/subway-millbury-6?adjust_creative=asslzE1UV0XuKI953B1vtw&utm_campaign=yelp_api_v3&utm_medium=api_v3_business_search&utm_source=asslzE1UV0XuKI953B1vtw", "review_count": 3, "categories": [{"alias": "sandwiches", "title": "Sandwiches"}], "rating": 2.0, "coordinates": {"latitude": 42.193081, "longitude": -71.7565703027612}, "transactions": ["delivery", "pickup"], "price": "$", "location": {"address1": "41 Canal St", "address2": "", "address3": "", "city": "Millbury", "zip_code": "01527", "country": "US", "state": "MA", "display_address": ["41 Canal St", "Millbury, MA 01527"]}, "phone": "+15088657866", "display_phone": "(508) 865-7866", "distance": 6558.563945461824}, {"id": "MFEFDPW631qBI5VKawiH0Q", "alias": "papa-johns-pizza-worcester", "name": "Papa John's Pizza", "image_url": "https://s3-media2.fl.yelpcdn.com/bphoto/0BQNN4k8Ir-w3aITJtk99Q/o.jpg", "is_closed": false, "url": "https://www.yelp.com/biz/papa-johns-pizza-worcester?adjust_creative=asslzE1UV0XuKI953B1vtw&utm_campaign=yelp_api_v3&utm_medium=api_v3_business_search&utm_source=asslzE1UV0XuKI953B1vtw", "review_count": 13, "categories": [{"alias": "pizza", "title": "Pizza"}], "rating": 3.0, "coordinates": {"latitude": 42.250789, "longitude": -71.769996}, "transactions": [], "price": "$", "location": {"address1": "691 Grafton St", "address2": null, "address3": "", "city": "Worcester", "zip_code": "01604", "country": "US", "state": "MA", "display_address": ["691 Grafton St", "Worcester, MA 01604"]}, "phone": "+15087545200", "display_phone": "(508) 754-5200", "distance": 11205.80523571731}, {"id": "ezpiAbjAVEdb5gzkbc19FQ", "alias": "subway-whitinsville-5", "name": "Subway", "image_url": "https://s3-media1.fl.yelpcdn.com/bphoto/5D26EA4ucXJfAKgkQPruTA/o.jpg", "is_closed": false, "url": "https://www.yelp.com/biz/subway-whitinsville-5?adjust_creative=asslzE1UV0XuKI953B1vtw&utm_campaign=yelp_api_v3&utm_medium=api_v3_business_search&utm_source=asslzE1UV0XuKI953B1vtw", "review_count": 6, "categories": [{"alias": "sandwiches", "title": "Sandwiches"}], "rating": 2.0, "coordinates": {"latitude": 42.1076898334229, "longitude": -71.7000950436261}, "transactions": [], "price": "$", "location": {"address1": "100 Valley Pkwy", "address2": null, "address3": null, "city": "Whitinsville", "zip_code": "01588", "country": "US", "state": "MA", "display_address": ["100 Valley Pkwy", "Whitinsville, MA 01588"]}, "phone": "+15082342440", "display_phone": "(508) 234-2440", "distance": 7603.79177880094}, {"id": "0m38Id683zepkLR5L7in0g", "alias": "brodys-diner-shrewsbury", "name": "Brody's Diner", "image_url": "https://s3-media2.fl.yelpcdn.com/bphoto/Dm85Fod8YQW8ZqSei1DEIg/o.jpg", "is_closed": false, "url": "https://www.yelp.com/biz/brodys-diner-shrewsbury?adjust_creative=asslzE1UV0XuKI953B1vtw&utm_campaign=yelp_api_v3&utm_medium=api_v3_business_search&utm_source=asslzE1UV0XuKI953B1vtw", "review_count": 99, "categories": [{"alias": "breakfast_brunch", "title": "Breakfast & Brunch"}], "rating": 3.5, "coordinates": {"latitude": 42.2493589417396, "longitude": -71.7150464432286}, "transactions": [], "price": "$", "location": {"address1": "308 Hartford Tpke", "address2": "", "address3": "", "city": "Shrewsbury", "zip_code": "01545", "country": "US", "state": "MA", "display_address": ["308 Hartford Tpke", "Shrewsbury, MA 01545"]}, "phone": "+15087544400", "display_phone": "(508) 754-4400", "distance": 8774.635417791576}, {"id": "0WndBFxhsvDE1ItBAyub9Q", "alias": "friendlys-worcester-3", "name": "Friendly's", "image_url": "https://s3-media2.fl.yelpcdn.com/bphoto/C41zWDck5zVDo9e4bNCyHg/o.jpg", "is_closed": false, "url": "https://www.yelp.com/biz/friendlys-worcester-3?adjust_creative=asslzE1UV0XuKI953B1vtw&utm_campaign=yelp_api_v3&utm_medium=api_v3_business_search&utm_source=asslzE1UV0XuKI953B1vtw", "review_count": 60, "categories": [{"alias": "icecream", "title": "Ice Cream & Frozen Yogurt"}, {"alias": "tradamerican", "title": "American (Traditional)"}, {"alias": "burgers", "title": "Burgers"}], "rating": 2.0, "coordinates": {"latitude": 42.2452659606934, "longitude": -71.7595367431641}, "transactions": ["delivery"], "price": "$", "location": {"address1": "966 Grafton St", "address2": null, "address3": null, "city": "Worcester", "zip_code": "01604", "country": "US", "state": "MA", "display_address": ["966 Grafton St", "Worcester, MA 01604"]}, "phone": "+15087983298", "display_phone": "(508) 798-3298", "distance": 10179.477611638451}, {"id": "mk9diaP7yIdSjpiHkxYWfQ", "alias": "j-and-j-pizza-express-worcester-2", "name": "J&J Pizza Express", "image_url": "https://s3-media2.fl.yelpcdn.com/bphoto/1uaiaWNAmRS2JeYFrT8znA/o.jpg", "is_closed": false, "url": "https://www.yelp.com/biz/j-and-j-pizza-express-worcester-2?adjust_creative=asslzE1UV0XuKI953B1vtw&utm_campaign=yelp_api_v3&utm_medium=api_v3_business_search&utm_source=asslzE1UV0XuKI953B1vtw", "review_count": 36, "categories": [{"alias": "pizza", "title": "Pizza"}, {"alias": "diners", "title": "Diners"}, {"alias": "seafood", "title": "Seafood"}], "rating": 2.5, "coordinates": {"latitude": 42.250717, "longitude": -71.781068}, "transactions": ["delivery", "pickup"], "price": "$$", "location": {"address1": "3 Rice Sq", "address2": null, "address3": null, "city": "Worcester", "zip_code": "01604", "country": "US", "state": "MA", "display_address": ["3 Rice Sq", "Worcester, MA 01604"]}, "phone": "+15087970003", "display_phone": "(508) 797-0003", "distance": 11815.190550837298}, {"id": "kRm4cerW0s50f94WOSEpig", "alias": "burger-king-worcester", "name": "Burger King", "image_url": "https://s3-media1.fl.yelpcdn.com/bphoto/chnbJR4gqFoKKaIC77HuRg/o.jpg", "is_closed": false, "url": "https://www.yelp.com/biz/burger-king-worcester?adjust_creative=asslzE1UV0XuKI953B1vtw&utm_campaign=yelp_api_v3&utm_medium=api_v3_business_search&utm_source=asslzE1UV0XuKI953B1vtw", "review_count": 11, "categories": [{"alias": "burgers", "title": "Burgers"}, {"alias": "hotdogs", "title": "Fast Food"}], "rating": 2.0, "coordinates": {"latitude": 42.248341, "longitude": -71.761499}, "transactions": ["delivery"], "price": "$", "location": {"address1": "865 Grafton Street", "address2": "", "address3": "", "city": "Worcester", "zip_code": "01604", "country": "US", "state": "MA", "display_address": ["865 Grafton Street", "Worcester, MA 01604"]}, "phone": "", "display_phone": "", "distance": 10552.062289273605}, {"id": "3AtxCc_n7s67a_tkAOOftw", "alias": "boston-market-westborough", "name": "Boston Market", "image_url": "https://s3-media2.fl.yelpcdn.com/bphoto/ah-g4KNeoSEC5KkyfBQjeQ/o.jpg", "is_closed": false, "url": "https://www.yelp.com/biz/boston-market-westborough?adjust_creative=asslzE1UV0XuKI953B1vtw&utm_campaign=yelp_api_v3&utm_medium=api_v3_business_search&utm_source=asslzE1UV0XuKI953B1vtw", "review_count": 9, "categories": [{"alias": "comfortfood", "title": "Comfort Food"}, {"alias": "tradamerican", "title": "American (Traditional)"}, {"alias": "sandwiches", "title": "Sandwiches"}], "rating": 3.0, "coordinates": {"latitude": 42.23584, "longitude": -71.60431}, "transactions": [], "price": "$", "location": {"address1": "Mass Turnpike Westbound I-90 Milepost 10", "address2": "Service Area 6A", "address3": "", "city": "Westborough", "zip_code": "01581", "country": "US", "state": "MA", "display_address": ["Mass Turnpike Westbound I-90 Milepost 10", "Service Area 6A", "Westborough, MA 01581"]}, "phone": "+15088709969", "display_phone": "(508) 870-9969", "distance": 10723.822099201398}, {"id": "tLzLfdTeOT1GARbhRlxFYQ", "alias": "mcdonalds-worcester-2", "name": "McDonald's", "image_url": "https://s3-media2.fl.yelpcdn.com/bphoto/59llkF7CvSjVqvhf5EGJ8A/o.jpg", "is_closed": false, "url": "https://www.yelp.com/biz/mcdonalds-worcester-2?adjust_creative=asslzE1UV0XuKI953B1vtw&utm_campaign=yelp_api_v3&utm_medium=api_v3_business_search&utm_source=asslzE1UV0XuKI953B1vtw", "review_count": 10, "categories": [{"alias": "burgers", "title": "Burgers"}, {"alias": "hotdogs", "title": "Fast Food"}, {"alias": "coffee", "title": "Coffee & Tea"}], "rating": 2.5, "coordinates": {"latitude": 42.2447476, "longitude": -71.7589779}, "transactions": ["delivery"], "price": "$", "location": {"address1": "982 Grafton St", "address2": null, "address3": null, "city": "Worcester", "zip_code": "01604", "country": "US", "state": "MA", "display_address": ["982 Grafton St", "Worcester, MA 01604"]}, "phone": "+15087492931", "display_phone": "(508) 749-2931", "distance": 10105.649617663275}, {"id": "JK0JO8gLfzBqHDy5eWvAzg", "alias": "taco-bell-worcester-7", "name": "Taco Bell", "image_url": "https://s3-media3.fl.yelpcdn.com/bphoto/6jj5swcHxnnLE4nC9sESpQ/o.jpg", "is_closed": false, "url": "https://www.yelp.com/biz/taco-bell-worcester-7?adjust_creative=asslzE1UV0XuKI953B1vtw&utm_campaign=yelp_api_v3&utm_medium=api_v3_business_search&utm_source=asslzE1UV0XuKI953B1vtw", "review_count": 3, "categories": [{"alias": "tacos", "title": "Tacos"}, {"alias": "breakfast_brunch", "title": "Breakfast & Brunch"}], "rating": 1.5, "coordinates": {"latitude": 42.24976933, "longitude": -71.7626545}, "transactions": ["delivery"], "location": {"address1": "801 Grafton Street", "address2": "", "address3": null, "city": "Worcester", "zip_code": "01604", "country": "US", "state": "MA", "display_address": ["801 Grafton Street", "Worcester, MA 01604"]}, "phone": "+15087932084", "display_phone": "(508) 793-2084", "distance": 10729.711616564888}, {"id": "skDBp1-uDqXs_t-13OrUSw", "alias": "b-good-millbury", "name": "B.GOOD", "image_url": "https://s3-media2.fl.yelpcdn.com/bphoto/zzECPCWsdsypDeFyMjlRbg/o.jpg", "is_closed": false, "url": "https://www.yelp.com/biz/b-good-millbury?adjust_creative=asslzE1UV0XuKI953B1vtw&utm_campaign=yelp_api_v3&utm_medium=api_v3_business_search&utm_source=asslzE1UV0XuKI953B1vtw", "review_count": 17, "categories": [{"alias": "salad", "title": "Salad"}, {"alias": "sandwiches", "title": "Sandwiches"}, {"alias": "breakfast_brunch", "title": "Breakfast & Brunch"}], "rating": 2.5, "coordinates": {"latitude": 42.197062, "longitude": -71.775842}, "transactions": ["delivery", "pickup"], "location": {"address1": "70 Worcester-Providence TRPK.", "address2": "#619", "address3": null, "city": "Millbury", "zip_code": "01527", "country": "US", "state": "MA", "display_address": ["70 Worcester-Providence TRPK.", "#619", "Millbury, MA 01527"]}, "phone": "+15089175021", "display_phone": "(508) 917-5021", "distance": 8205.306179519122}]