[{"id": "jwLPIWGACP3mDVqh-mflQw", "alias": "the-blue-rock-shelburne-falls-3", "name": "The Blue Rock", "image_url": "https://s3-media4.fl.yelpcdn.com/bphoto/-WTcjD8LT2yr9p1hu191fw/o.jpg", "is_closed": false, "url": "https://www.yelp.com/biz/the-blue-rock-shelburne-falls-3?adjust_creative=ywY5UnLZrNrRl2b93Ruy_g&utm_campaign=yelp_api_v3&utm_medium=api_v3_business_search&utm_source=ywY5UnLZrNrRl2b93Ruy_g", "review_count": 45, "categories": [{"alias": "newamerican", "title": "American (New)"}, {"alias": "cocktailbars", "title": "Cocktail Bars"}, {"alias": "beerbar", "title": "Beer Bar"}], "rating": 4.5, "coordinates": {"latitude": 42.6031535, "longitude": -72.7412502}, "transactions": [], "price": "$$", "location": {"address1": "1 Ashfield St", "address2": null, "address3": "", "city": "Shelburne Falls", "zip_code": "01370", "country": "US", "state": "MA", "display_address": ["1 Ashfield St", "Shelburne Falls, MA 01370"]}, "phone": "+14136258133", "display_phone": "(413) 625-8133", "distance": 1019.431496538942}, {"id": "oLM42PUJliWpu1_UN-G1fQ", "alias": "hearty-eats-shelburne-falls", "name": "Hearty Eats", "image_url": "https://s3-media4.fl.yelpcdn.com/bphoto/wjyt8KlfCKutpxkYg6F70Q/o.jpg", "is_closed": false, "url": "https://www.yelp.com/biz/hearty-eats-shelburne-falls?adjust_creative=ywY5UnLZrNrRl2b93Ruy_g&utm_campaign=yelp_api_v3&utm_medium=api_v3_business_search&utm_source=ywY5UnLZrNrRl2b93Ruy_g", "review_count": 79, "categories": [{"alias": "fishnchips", "title": "Fish & Chips"}, {"alias": "noodles", "title": "Noodles"}, {"alias": "indpak", "title": "Indian"}], "rating": 4.5, "coordinates": {"latitude": 42.6036331, "longitude": -72.7393198}, "transactions": [], "price": "$$", "location": {"address1": "24 Bridge St", "address2": null, "address3": "", "city": "Shelburne Falls", "zip_code": "01370", "country": "US", "state": "MA", "display_address": ["24 Bridge St", "Shelburne Falls, MA 01370"]}, "phone": "+14136256460", "display_phone": "(413) 625-6460", "distance": 1026.495429938404}, {"id": "cjeDbBpMLrjHMIeqHwU_jg", "alias": "west-end-pub-shelburne-falls", "name": "West End Pub", "image_url": "https://s3-media4.fl.yelpcdn.com/bphoto/AAWFoSbAVa7VtXW6U7uLVQ/o.jpg", "is_closed": false, "url": "https://www.yelp.com/biz/west-end-pub-shelburne-falls?adjust_creative=ywY5UnLZrNrRl2b93Ruy_g&utm_campaign=yelp_api_v3&utm_medium=api_v3_business_search&utm_source=ywY5UnLZrNrRl2b93Ruy_g", "review_count": 101, "categories": [{"alias": "tradamerican", "title": "American (Traditional)"}, {"alias": "pubs", "title": "Pubs"}, {"alias": "burgers", "title": "Burgers"}], "rating": 4.0, "coordinates": {"latitude": 42.603919, "longitude": -72.7413603}, "transactions": [], "price": "$$", "location": {"address1": "16 State St", "address2": "", "address3": "", "city": "Shelburne Falls", "zip_code": "01370", "country": "US", "state": "MA", "display_address": ["16 State St", "Shelburne Falls, MA 01370"]}, "phone": "+14136256216", "display_phone": "(413) 625-6216", "distance": 1153.2830866005465}, {"id": "JIUMuy58yl_k85Y_Fig7LQ", "alias": "el-sotano-shelburne", "name": "El Sotano", "image_url": "https://s3-media2.fl.yelpcdn.com/bphoto/CRDJumiKXIQXUhF2PlMGlA/o.jpg", "is_closed": false, "url": "https://www.yelp.com/biz/el-sotano-shelburne?adjust_creative=ywY5UnLZrNrRl2b93Ruy_g&utm_campaign=yelp_api_v3&utm_medium=api_v3_business_search&utm_source=ywY5UnLZrNrRl2b93Ruy_g", "review_count": 25, "categories": [{"alias": "mexican", "title": "Mexican"}], "rating": 4.5, "coordinates": {"latitude": 42.603818, "longitude": -72.739733}, "transactions": [], "location": {"address1": "10 Bridge St", "address2": null, "address3": "", "city": "Shelburne", "zip_code": "01370", "country": "US", "state": "MA", "display_address": ["10 Bridge St", "Shelburne, MA 01370"]}, "phone": "+14134893754", "display_phone": "(413) 489-3754", "distance": 1064.7980035620856}, {"id": "6E4Wd60NQcqPCGYtiKvbWg", "alias": "gypsy-apple-bistro-shelburne-falls", "name": "Gypsy Apple Bistro", "image_url": "https://s3-media4.fl.yelpcdn.com/bphoto/KyaQbCFI5yX1AnN-9q-bIg/o.jpg", "is_closed": false, "url": "https://www.yelp.com/biz/gypsy-apple-bistro-shelburne-falls?adjust_creative=ywY5UnLZrNrRl2b93Ruy_g&utm_campaign=yelp_api_v3&utm_medium=api_v3_business_search&utm_source=ywY5UnLZrNrRl2b93Ruy_g", "review_count": 37, "categories": [{"alias": "french", "title": "French"}, {"alias": "bars", "title": "Bars"}], "rating": 4.5, "coordinates": {"latitude": 42.6034651, "longitude": -72.7377135}, "transactions": [], "price": "$$$", "location": {"address1": "65 Bridge St", "address2": "", "address3": "", "city": "Shelburne Falls", "zip_code": "01370", "country": "US", "state": "MA", "display_address": ["65 Bridge St", "Shelburne Falls, MA 01370"]}, "phone": "+14136256345", "display_phone": "(413) 625-6345", "distance": 961.4944721696245}, {"id": "WchQRtW_lbGEI8DLvLeUVw", "alias": "the-farm-table-bernardston", "name": "The Farm Table", "image_url": "https://s3-media4.fl.yelpcdn.com/bphoto/DGU-IEeKKTh1ByhQStXZuw/o.jpg", "is_closed": false, "url": "https://www.yelp.com/biz/the-farm-table-bernardston?adjust_creative=ywY5UnLZrNrRl2b93Ruy_g&utm_campaign=yelp_api_v3&utm_medium=api_v3_business_search&utm_source=ywY5UnLZrNrRl2b93Ruy_g", "review_count": 309, "categories": [{"alias": "newamerican", "title": "American (New)"}], "rating": 4.0, "coordinates": {"latitude": 42.658211, "longitude": -72.5619356}, "transactions": ["delivery", "restaurant_reservation"], "price": "$$", "location": {"address1": "219 South St", "address2": "", "address3": "", "city": "Bernardston", "zip_code": "01337", "country": "US", "state": "MA", "display_address": ["219 South St", "Bernardston, MA 01337"]}, "phone": "+14136485200", "display_phone": "(413) 648-5200", "distance": 15555.289692968681}, {"id": "cSqUvTVIVcf0SxF2OnzQ4A", "alias": "delicatesse-shelburne-falls", "name": "Delicatesse", "image_url": "https://s3-media3.fl.yelpcdn.com/bphoto/QwYRU6Kwi9XUtW7cU1TMyw/o.jpg", "is_closed": false, "url": "https://www.yelp.com/biz/delicatesse-shelburne-falls?adjust_creative=ywY5UnLZrNrRl2b93Ruy_g&utm_campaign=yelp_api_v3&utm_medium=api_v3_business_search&utm_source=ywY5UnLZrNrRl2b93Ruy_g", "review_count": 15, "categories": [{"alias": "delis", "title": "Delis"}, {"alias": "cafes", "title": "Cafes"}, {"alias": "bagels", "title": "Bagels"}], "rating": 5.0, "coordinates": {"latitude": 42.6037749, "longitude": -72.7402612}, "transactions": [], "location": {"address1": "8 Bridge St", "address2": "", "address3": null, "city": "Shelburne Falls", "zip_code": "01370", "country": "US", "state": "MA", "display_address": ["8 Bridge St", "Shelburne Falls, MA 01370"]}, "phone": "+14134893257", "display_phone": "(413) 489-3257", "distance": 1072.5025764493093}, {"id": "GrjITzOl6sPP8DSv1RWxnw", "alias": "baked-shelburne-falls", "name": "Baked", "image_url": "https://s3-media4.fl.yelpcdn.com/bphoto/d3lzR8hA5CWajBKGBPND2A/o.jpg", "is_closed": false, "url": "https://www.yelp.com/biz/baked-shelburne-falls?adjust_creative=ywY5UnLZrNrRl2b93Ruy_g&utm_campaign=yelp_api_v3&utm_medium=api_v3_business_search&utm_source=ywY5UnLZrNrRl2b93Ruy_g", "review_count": 42, "categories": [{"alias": "cafes", "title": "Cafes"}, {"alias": "breakfast_brunch", "title": "Breakfast & Brunch"}, {"alias": "bakeries", "title": "Bakeries"}], "rating": 4.0, "coordinates": {"latitude": 42.6032697149586, "longitude": -72.7398762962963}, "transactions": [], "price": "$", "location": {"address1": "4 Deerfield Ave", "address2": "", "address3": null, "city": "Shelburne Falls", "zip_code": "01370", "country": "US", "state": "MA", "display_address": ["4 Deerfield Ave", "Shelburne Falls, MA 01370"]}, "phone": "+14134893139", "display_phone": "(413) 489-3139", "distance": 1020.6547370617684}, {"id": "jRkRfmnAWeioG1YSB0-V6A", "alias": "the-alvah-stone-montague", "name": "The Alvah Stone", "image_url": "https://s3-media2.fl.yelpcdn.com/bphoto/WZarGmnHvPAsgoIF5mKRqw/o.jpg", "is_closed": false, "url": "https://www.yelp.com/biz/the-alvah-stone-montague?adjust_creative=ywY5UnLZrNrRl2b93Ruy_g&utm_campaign=yelp_api_v3&utm_medium=api_v3_business_search&utm_source=ywY5UnLZrNrRl2b93Ruy_g", "review_count": 195, "categories": [{"alias": "bars", "title": "Bars"}, {"alias": "tradamerican", "title": "American (Traditional)"}, {"alias": "newamerican", "title": "American (New)"}], "rating": 4.0, "coordinates": {"latitude": 42.537929, "longitude": -72.5372039}, "transactions": ["delivery", "restaurant_reservation"], "price": "$$", "location": {"address1": "440 Greenfield Rd", "address2": null, "address3": "", "city": "Montague", "zip_code": "01351", "country": "US", "state": "MA", "display_address": ["440 Greenfield Rd", "Montague, MA 01351"]}, "phone": "+14133675345", "display_phone": "(413) 367-5345", "distance": 17228.551738621776}, {"id": "1FDg-B7ddSPoZirUJXsdtQ", "alias": "the-ashfield-lake-house-ashfield", "name": "The Ashfield Lake House", "image_url": "https://s3-media4.fl.yelpcdn.com/bphoto/YK6BItbmmR7rbQZzniZojQ/o.jpg", "is_closed": false, "url": "https://www.yelp.com/biz/the-ashfield-lake-house-ashfield?adjust_creative=ywY5UnLZrNrRl2b93Ruy_g&utm_campaign=yelp_api_v3&utm_medium=api_v3_business_search&utm_source=ywY5UnLZrNrRl2b93Ruy_g", "review_count": 38, "categories": [{"alias": "bars", "title": "Bars"}, {"alias": "tradamerican", "title": "American (Traditional)"}, {"alias": "comfortfood", "title": "Comfort Food"}], "rating": 3.0, "coordinates": {"latitude": 42.53083, "longitude": -72.8026299}, "transactions": [], "price": "$$", "location": {"address1": "141 Buckland Rd", "address2": "", "address3": "", "city": "Ashfield", "zip_code": "01330", "country": "US", "state": "MA", "display_address": ["141 Buckland Rd", "Ashfield, MA 01330"]}, "phone": "+14136280158", "display_phone": "(413) 628-0158", "distance": 9088.77018386947}, {"id": "vuakpKxCBDz6kezGY2Os8Q", "alias": "hope-and-olive-greenfield", "name": "Hope & Olive", "image_url": "https://s3-media1.fl.yelpcdn.com/bphoto/JXgp6DSGLyNQUmPdvjgbDA/o.jpg", "is_closed": false, "url": "https://www.yelp.com/biz/hope-and-olive-greenfield?adjust_creative=ywY5UnLZrNrRl2b93Ruy_g&utm_campaign=yelp_api_v3&utm_medium=api_v3_business_search&utm_source=ywY5UnLZrNrRl2b93Ruy_g", "review_count": 261, "categories": [{"alias": "tradamerican", "title": "American (Traditional)"}, {"alias": "bars", "title": "Bars"}], "rating": 4.0, "coordinates": {"latitude": 42.5862655639648, "longitude": -72.5992050170898}, "transactions": ["delivery"], "price": "$$", "location": {"address1": "44 Hope St", "address2": "", "address3": "", "city": "Greenfield", "zip_code": "01301", "country": "US", "state": "MA", "display_address": ["44 Hope St", "Greenfield, MA 01301"]}, "phone": "+14137743150", "display_phone": "(413) 774-3150", "distance": 10946.027582382152}, {"id": "ExPrawZiMKFCtz9HV-Hw3Q", "alias": "the-peoples-pint-greenfield", "name": "The People's Pint", "image_url": "https://s3-media4.fl.yelpcdn.com/bphoto/tXW4H4plAEoPzXDNviVIGg/o.jpg", "is_closed": false, "url": "https://www.yelp.com/biz/the-peoples-pint-greenfield?adjust_creative=ywY5UnLZrNrRl2b93Ruy_g&utm_campaign=yelp_api_v3&utm_medium=api_v3_business_search&utm_source=ywY5UnLZrNrRl2b93Ruy_g", "review_count": 290, "categories": [{"alias": "tradamerican", "title": "American (Traditional)"}, {"alias": "breweries", "title": "Breweries"}], "rating": 4.0, "coordinates": {"latitude": 42.58858, "longitude": -72.60011}, "transactions": ["delivery"], "price": "$$", "location": {"address1": "24 Federal St", "address2": "", "address3": "", "city": "Greenfield", "zip_code": "01301", "country": "US", "state": "MA", "display_address": ["24 Federal St", "Greenfield, MA 01301"]}, "phone": "+14137730333", "display_phone": "(413) 773-0333", "distance": 10838.66747638027}, {"id": "0xEKvNlbiPjEpNXeX02LJA", "alias": "buckland-pizza-shelburne-falls", "name": "Buckland Pizza", "image_url": "https://s3-media2.fl.yelpcdn.com/bphoto/n1hVQ3vVJQjfRA_Nfzt3og/o.jpg", "is_closed": false, "url": "https://www.yelp.com/biz/buckland-pizza-shelburne-falls?adjust_creative=ywY5UnLZrNrRl2b93Ruy_g&utm_campaign=yelp_api_v3&utm_medium=api_v3_business_search&utm_source=ywY5UnLZrNrRl2b93Ruy_g", "review_count": 22, "categories": [{"alias": "pizza", "title": "Pizza"}], "rating": 3.5, "coordinates": {"latitude": 42.6038289562622, "longitude": -72.7414358539614}, "transactions": [], "price": "$$", "location": {"address1": "13 State St", "address2": "", "address3": "", "city": "Shelburne Falls", "zip_code": "01370", "country": "US", "state": "MA", "display_address": ["13 State St", "Shelburne Falls, MA 01370"]}, "phone": "+14136256342", "display_phone": "(413) 625-6342", "distance": 1147.108070665366}, {"id": "o9QX_uCqOVdwk3Gvy34Bng", "alias": "great-falls-harvest-turners-falls", "name": "Great Falls Harvest", "image_url": "https://s3-media4.fl.yelpcdn.com/bphoto/OkD_KkZ6Kve21zBRzA_kKg/o.jpg", "is_closed": false, "url": "https://www.yelp.com/biz/great-falls-harvest-turners-falls?adjust_creative=ywY5UnLZrNrRl2b93Ruy_g&utm_campaign=yelp_api_v3&utm_medium=api_v3_business_search&utm_source=ywY5UnLZrNrRl2b93Ruy_g", "review_count": 46, "categories": [{"alias": "diners", "title": "Diners"}, {"alias": "salad", "title": "Salad"}], "rating": 4.5, "coordinates": {"latitude": 42.6080433, "longitude": -72.5566357}, "transactions": [], "price": "$$", "location": {"address1": "50 3rd St", "address2": "", "address3": "", "city": "Turners Falls", "zip_code": "01376", "country": "US", "state": "MA", "display_address": ["50 3rd St", "Turners Falls, MA 01376"]}, "phone": "+14138630023", "display_phone": "(413) 863-0023", "distance": 14434.779252414372}, {"id": "vie_fCh-eUqGfKNiNVjFow", "alias": "foxtown-diner-shelburne-falls", "name": "Foxtown Diner", "image_url": "https://s3-media2.fl.yelpcdn.com/bphoto/6w_uOYWUsL-1xZUOZtd9BA/o.jpg", "is_closed": false, "url": "https://www.yelp.com/biz/foxtown-diner-shelburne-falls?adjust_creative=ywY5UnLZrNrRl2b93Ruy_g&utm_campaign=yelp_api_v3&utm_medium=api_v3_business_search&utm_source=ywY5UnLZrNrRl2b93Ruy_g", "review_count": 35, "categories": [{"alias": "sandwiches", "title": "Sandwiches"}, {"alias": "breakfast_brunch", "title": "Breakfast & Brunch"}, {"alias": "burgers", "title": "Burgers"}], "rating": 4.0, "coordinates": {"latitude": 42.603473, "longitude": -72.739337}, "transactions": [], "price": "$", "location": {"address1": "25 Bridge St", "address2": "", "address3": "", "city": "Shelburne Falls", "zip_code": "01370", "country": "US", "state": "MA", "display_address": ["25 Bridge St", "Shelburne Falls, MA 01370"]}, "phone": "+14136256606", "display_phone": "(413) 625-6606", "distance": 1006.7063749683833}, {"id": "f7RXJjnUe_mTm-B0wEOshw", "alias": "petes-seafood-restaurant-greenfield", "name": "Pete's Seafood Restaurant", "image_url": "https://s3-media4.fl.yelpcdn.com/bphoto/jxzmJc-NN4wG9QarQEQvHg/o.jpg", "is_closed": false, "url": "https://www.yelp.com/biz/petes-seafood-restaurant-greenfield?adjust_creative=ywY5UnLZrNrRl2b93Ruy_g&utm_campaign=yelp_api_v3&utm_medium=api_v3_business_search&utm_source=ywY5UnLZrNrRl2b93Ruy_g", "review_count": 35, "categories": [{"alias": "seafood", "title": "Seafood"}], "rating": 4.5, "coordinates": {"latitude": 42.5895936, "longitude": -72.600997}, "transactions": ["delivery"], "price": "$$", "location": {"address1": "54 School St", "address2": "", "address3": "", "city": "Greenfield", "zip_code": "01301", "country": "US", "state": "MA", "display_address": ["54 School St", "Greenfield, MA 01301"]}, "phone": "+14137722153", "display_phone": "(413) 772-2153", "distance": 10767.094230698098}, {"id": "2QTT7kY9qMp88GbkAi2kRQ", "alias": "terrazza-greenfield-2", "name": "Terrazza", "image_url": "https://s3-media4.fl.yelpcdn.com/bphoto/GJYRmIwN23NA33b_qnYcoQ/o.jpg", "is_closed": false, "url": "https://www.yelp.com/biz/terrazza-greenfield-2?adjust_creative=ywY5UnLZrNrRl2b93Ruy_g&utm_campaign=yelp_api_v3&utm_medium=api_v3_business_search&utm_source=ywY5UnLZrNrRl2b93Ruy_g", "review_count": 29, "categories": [{"alias": "italian", "title": "Italian"}, {"alias": "lounges", "title": "Lounges"}, {"alias": "eventplanning", "title": "Party & Event Planning"}], "rating": 4.5, "coordinates": {"latitude": 42.618689, "longitude": -72.595328}, "transactions": ["delivery", "pickup"], "price": "$$", "location": {"address1": "244 Country Club Rd", "address2": null, "address3": null, "city": "Greenfield", "zip_code": "01301", "country": "US", "state": "MA", "display_address": ["244 Country Club Rd", "Greenfield, MA 01301"]}, "phone": "+14137720970", "display_phone": "(413) 772-0970", "distance": 11484.897289639404}, {"id": "4qQyegUA1-1WFuY3MSmngw", "alias": "davenport-maple-farm-shelburne-falls", "name": "Davenport Maple Farm", "image_url": "https://s3-media3.fl.yelpcdn.com/bphoto/e-QMQdijvVHP6rbQDd4QAA/o.jpg", "is_closed": false, "url": "https://www.yelp.com/biz/davenport-maple-farm-shelburne-falls?adjust_creative=ywY5UnLZrNrRl2b93Ruy_g&utm_campaign=yelp_api_v3&utm_medium=api_v3_business_search&utm_source=ywY5UnLZrNrRl2b93Ruy_g", "review_count": 8, "categories": [{"alias": "breakfast_brunch", "title": "Breakfast & Brunch"}, {"alias": "waffles", "title": "Waffles"}], "rating": 3.5, "coordinates": {"latitude": 42.61168, "longitude": -72.70595}, "transactions": [], "price": "$$", "location": {"address1": "111 Tower Rd", "address2": null, "address3": null, "city": "Shelburne Falls", "zip_code": "01370", "country": "US", "state": "MA", "display_address": ["111 Tower Rd", "Shelburne Falls, MA 01370"]}, "phone": "+14136252866", "display_phone": "(413) 625-2866", "distance": 2401.549044949973}, {"id": "_9sO066L6e1kjQRf2jzd7g", "alias": "countrypie-pizza-company-ashfield", "name": "Countrypie Pizza Company", "image_url": "https://s3-media2.fl.yelpcdn.com/bphoto/YIZ24sof1VTPO1xtqCK6cg/o.jpg", "is_closed": false, "url": "https://www.yelp.com/biz/countrypie-pizza-company-ashfield?adjust_creative=ywY5UnLZrNrRl2b93Ruy_g&utm_campaign=yelp_api_v3&utm_medium=api_v3_business_search&utm_source=ywY5UnLZrNrRl2b93Ruy_g", "review_count": 30, "categories": [{"alias": "pizza", "title": "Pizza"}], "rating": 4.5, "coordinates": {"latitude": 42.526902, "longitude": -72.794253}, "transactions": [], "price": "$", "location": {"address1": "343 Main St", "address2": "", "address3": "", "city": "Ashfield", "zip_code": "01330", "country": "US", "state": "MA", "display_address": ["343 Main St", "Ashfield, MA 01330"]}, "phone": "+14136284488", "display_phone": "(413) 628-4488", "distance": 9208.35458945777}, {"id": "gntEo3k4A_B1BkdGnJI3Pw", "alias": "namaste-indian-nepalese-restaurant-greenfield", "name": "Namaste Indian/Nepalese Restaurant", "image_url": "https://s3-media4.fl.yelpcdn.com/bphoto/s1NNDn1n3dA345Qf_IDT9A/o.jpg", "is_closed": false, "url": "https://www.yelp.com/biz/namaste-indian-nepalese-restaurant-greenfield?adjust_creative=ywY5UnLZrNrRl2b93Ruy_g&utm_campaign=yelp_api_v3&utm_medium=api_v3_business_search&utm_source=ywY5UnLZrNrRl2b93Ruy_g", "review_count": 36, "categories": [{"alias": "indpak", "title": "Indian"}, {"alias": "himalayan", "title": "Himalayan/Nepalese"}], "rating": 4.0, "coordinates": {"latitude": 42.58832, "longitude": -72.60112}, "transactions": ["delivery", "pickup"], "price": "$$", "location": {"address1": "286 Main St", "address2": null, "address3": "", "city": "Greenfield", "zip_code": "01301", "country": "US", "state": "MA", "display_address": ["286 Main St", "Greenfield, MA 01301"]}, "phone": "+14133258232", "display_phone": "(413) 325-8232", "distance": 10762.436449903822}, {"id": "aqxqBtpWLmyEwWvgfLTxZA", "alias": "magpie-greenfield", "name": "Magpie", "image_url": "https://s3-media1.fl.yelpcdn.com/bphoto/L2HxqLlx7n0XbbsWFddCaQ/o.jpg", "is_closed": false, "url": "https://www.yelp.com/biz/magpie-greenfield?adjust_creative=ywY5UnLZrNrRl2b93Ruy_g&utm_campaign=yelp_api_v3&utm_medium=api_v3_business_search&utm_source=ywY5UnLZrNrRl2b93Ruy_g", "review_count": 99, "categories": [{"alias": "pizza", "title": "Pizza"}], "rating": 4.0, "coordinates": {"latitude": 42.5869828462601, "longitude": -72.6005423069}, "transactions": ["delivery"], "price": "$$", "location": {"address1": "21 Bank Row", "address2": "", "address3": "", "city": "Greenfield", "zip_code": "01301", "country": "US", "state": "MA", "display_address": ["21 Bank Row", "Greenfield, MA 01301"]}, "phone": "+14134753570", "display_phone": "(413) 475-3570", "distance": 10839.03122954069}, {"id": "SvMeNEEWcJw0w6lmjgxdew", "alias": "titos-taqueria-greenfield", "name": "Tito's Taqueria", "image_url": "https://s3-media3.fl.yelpcdn.com/bphoto/wZBeQpxZsgDEmwK5EswnXQ/o.jpg", "is_closed": false, "url": "https://www.yelp.com/biz/titos-taqueria-greenfield?adjust_creative=ywY5UnLZrNrRl2b93Ruy_g&utm_campaign=yelp_api_v3&utm_medium=api_v3_business_search&utm_source=ywY5UnLZrNrRl2b93Ruy_g", "review_count": 3, "categories": [{"alias": "foodstands", "title": "Food Stands"}, {"alias": "mexican", "title": "Mexican"}], "rating": 4.5, "coordinates": {"latitude": 42.5927892, "longitude": -72.5978838}, "transactions": ["delivery", "pickup"], "location": {"address1": "145 Federal St", "address2": null, "address3": "", "city": "Greenfield", "zip_code": "01301", "country": "US", "state": "MA", "display_address": ["145 Federal St", "Greenfield, MA 01301"]}, "phone": "", "display_phone": "", "distance": 11003.807806569317}, {"id": "bOvwjTfloZG0w4gqldRbxw", "alias": "the-rendezvous-turners-falls", "name": "The Rendezvous", "image_url": "https://s3-media1.fl.yelpcdn.com/bphoto/XHPigS2CPvkGi04kfh1tbQ/o.jpg", "is_closed": false, "url": "https://www.yelp.com/biz/the-rendezvous-turners-falls?adjust_creative=ywY5UnLZrNrRl2b93Ruy_g&utm_campaign=yelp_api_v3&utm_medium=api_v3_business_search&utm_source=ywY5UnLZrNrRl2b93Ruy_g", "review_count": 98, "categories": [{"alias": "newamerican", "title": "American (New)"}, {"alias": "musicvenues", "title": "Music Venues"}, {"alias": "burgers", "title": "Burgers"}], "rating": 4.0, "coordinates": {"latitude": 42.60748, "longitude": -72.55612}, "transactions": ["delivery", "pickup"], "price": "$$", "location": {"address1": "78 3rd St", "address2": "", "address3": "", "city": "Turners Falls", "zip_code": "01376", "country": "US", "state": "MA", "display_address": ["78 3rd St", "Turners Falls, MA 01376"]}, "phone": "+14138632866", "display_phone": "(413) 863-2866", "distance": 14470.010064637507}, {"id": "Pi1vuMna90sAsd9KUnI-kQ", "alias": "riffs-north-turners-falls", "name": "Riff's North", "image_url": "https://s3-media3.fl.yelpcdn.com/bphoto/-P1r6baoRAmWRz18K-pwvA/o.jpg", "is_closed": false, "url": "https://www.yelp.com/biz/riffs-north-turners-falls?adjust_creative=ywY5UnLZrNrRl2b93Ruy_g&utm_campaign=yelp_api_v3&utm_medium=api_v3_business_search&utm_source=ywY5UnLZrNrRl2b93Ruy_g", "review_count": 71, "categories": [{"alias": "burgers", "title": "Burgers"}, {"alias": "tradamerican", "title": "American (Traditional)"}, {"alias": "sandwiches", "title": "Sandwiches"}], "rating": 4.5, "coordinates": {"latitude": 42.6060869184616, "longitude": -72.5584889575839}, "transactions": ["delivery"], "price": "$$", "location": {"address1": "166 Ave A", "address2": "", "address3": "", "city": "Turners Falls", "zip_code": "01376", "country": "US", "state": "MA", "display_address": ["166 Ave A", "Turners Falls, MA 01376"]}, "phone": "+14138633700", "display_phone": "(413) 863-3700", "distance": 14265.2497205141}, {"id": "rSvNQylLO9N4UZxQ0yYnCQ", "alias": "shelburne-falls-coffee-roasters-shelburne-falls-2", "name": "Shelburne Falls Coffee Roasters", "image_url": "https://s3-media1.fl.yelpcdn.com/bphoto/M-wag8ZOGwBN2QvA3D9LyQ/o.jpg", "is_closed": false, "url": "https://www.yelp.com/biz/shelburne-falls-coffee-roasters-shelburne-falls-2?adjust_creative=ywY5UnLZrNrRl2b93Ruy_g&utm_campaign=yelp_api_v3&utm_medium=api_v3_business_search&utm_source=ywY5UnLZrNrRl2b93Ruy_g", "review_count": 34, "categories": [{"alias": "sandwiches", "title": "Sandwiches"}, {"alias": "coffeeroasteries", "title": "Coffee Roasteries"}, {"alias": "bagels", "title": "Bagels"}], "rating": 4.5, "coordinates": {"latitude": 42.610488, "longitude": -72.66992}, "transactions": [], "price": "$", "location": {"address1": "1207 Mohawk Trl", "address2": "", "address3": "", "city": "Shelburne Falls", "zip_code": "01370", "country": "US", "state": "MA", "display_address": ["1207 Mohawk Trl", "Shelburne Falls, MA 01370"]}, "phone": "+14136250116", "display_phone": "(413) 625-0116", "distance": 5313.402909862552}, {"id": "RjcmsCplUC_ZFvaJb2nfMA", "alias": "gianni-figs-ristorante-deerfield", "name": "Gianni Fig's Ristorante", "image_url": "https://s3-media1.fl.yelpcdn.com/bphoto/SWZ-jpqvOAfR3OM4KI_rLg/o.jpg", "is_closed": false, "url": "https://www.yelp.com/biz/gianni-figs-ristorante-deerfield?adjust_creative=ywY5UnLZrNrRl2b93Ruy_g&utm_campaign=yelp_api_v3&utm_medium=api_v3_business_search&utm_source=ywY5UnLZrNrRl2b93Ruy_g", "review_count": 30, "categories": [{"alias": "italian", "title": "Italian"}], "rating": 4.0, "coordinates": {"latitude": 42.4775047039286, "longitude": -72.609119691213}, "transactions": ["delivery"], "location": {"address1": "6 Elm St", "address2": "", "address3": null, "city": "Deerfield", "zip_code": "01373", "country": "US", "state": "MA", "display_address": ["6 Elm St", "Deerfield, MA 01373"]}, "phone": "+14133505940", "display_phone": "(413) 350-5940", "distance": 16595.409885101417}, {"id": "OQvVnrwhOvA69-X7jIAnPg", "alias": "manna-house-greenfield", "name": "Manna House", "image_url": "https://s3-media2.fl.yelpcdn.com/bphoto/micyK8VUFzhW9_BmqmVSSA/o.jpg", "is_closed": false, "url": "https://www.yelp.com/biz/manna-house-greenfield?adjust_creative=ywY5UnLZrNrRl2b93Ruy_g&utm_campaign=yelp_api_v3&utm_medium=api_v3_business_search&utm_source=ywY5UnLZrNrRl2b93Ruy_g", "review_count": 45, "categories": [{"alias": "korean", "title": "Korean"}], "rating": 4.0, "coordinates": {"latitude": 42.5870285, "longitude": -72.6003113}, "transactions": ["delivery"], "price": "$$", "location": {"address1": "27 Bank Row", "address2": null, "address3": null, "city": "Greenfield", "zip_code": "01301", "country": "US", "state": "MA", "display_address": ["27 Bank Row", "Greenfield, MA 01301"]}, "phone": "+14137745955", "display_phone": "(413) 774-5955", "distance": 10841.87477508467}, {"id": "ESGUgUn3t-v1O4K5crrl6w", "alias": "black-cow-burger-bar-turners-falls", "name": "Black Cow Burger Bar", "image_url": "https://s3-media3.fl.yelpcdn.com/bphoto/NrX9m8XL7VxDQ4UvZvAccw/o.jpg", "is_closed": false, "url": "https://www.yelp.com/biz/black-cow-burger-bar-turners-falls?adjust_creative=ywY5UnLZrNrRl2b93Ruy_g&utm_campaign=yelp_api_v3&utm_medium=api_v3_business_search&utm_source=ywY5UnLZrNrRl2b93Ruy_g", "review_count": 97, "categories": [{"alias": "newamerican", "title": "American (New)"}, {"alias": "burgers", "title": "Burgers"}, {"alias": "hotdog", "title": "Hot Dogs"}], "rating": 4.0, "coordinates": {"latitude": 42.60748, "longitude": -72.55704}, "transactions": ["delivery", "pickup"], "price": "$$", "location": {"address1": "125 Ave A", "address2": "", "address3": "", "city": "Turners Falls", "zip_code": "01376", "country": "US", "state": "MA", "display_address": ["125 Ave A", "Turners Falls, MA 01376"]}, "phone": "+14138635183", "display_phone": "(413) 863-5183", "distance": 14334.563171082651}, {"id": "wkIOjcec-3uGidfIXcOpJA", "alias": "elmers-store-restaurant-ashfield", "name": "Elmer's Store Restaurant", "image_url": "https://s3-media3.fl.yelpcdn.com/bphoto/2AgISV-Z2E7y_ISdmkzroA/o.jpg", "is_closed": false, "url": "https://www.yelp.com/biz/elmers-store-restaurant-ashfield?adjust_creative=ywY5UnLZrNrRl2b93Ruy_g&utm_campaign=yelp_api_v3&utm_medium=api_v3_business_search&utm_source=ywY5UnLZrNrRl2b93Ruy_g", "review_count": 45, "categories": [{"alias": "breakfast_brunch", "title": "Breakfast & Brunch"}, {"alias": "bars", "title": "Bars"}], "rating": 4.0, "coordinates": {"latitude": 42.5261756, "longitude": -72.7924932}, "transactions": [], "price": "$$", "location": {"address1": "396 Main St", "address2": null, "address3": "", "city": "Ashfield", "zip_code": "01330", "country": "US", "state": "MA", "display_address": ["396 Main St", "Ashfield, MA 01330"]}, "phone": "+14136284003", "display_phone": "(413) 628-4003", "distance": 9201.020405150812}, {"id": "EWCyLEMETdIUFOmwMSRxTQ", "alias": "mesa-verde-greenfield", "name": "Mesa Verde", "image_url": "https://s3-media4.fl.yelpcdn.com/bphoto/ok7I_ZBW8l4NdmeyyBtLBw/o.jpg", "is_closed": false, "url": "https://www.yelp.com/biz/mesa-verde-greenfield?adjust_creative=ywY5UnLZrNrRl2b93Ruy_g&utm_campaign=yelp_api_v3&utm_medium=api_v3_business_search&utm_source=ywY5UnLZrNrRl2b93Ruy_g", "review_count": 141, "categories": [{"alias": "mexican", "title": "Mexican"}], "rating": 4.0, "coordinates": {"latitude": 42.587334, "longitude": -72.602582}, "transactions": ["delivery"], "price": "$", "location": {"address1": "10 Fiske Ave", "address2": "", "address3": "", "city": "Greenfield", "zip_code": "01301", "country": "US", "state": "MA", "display_address": ["10 Fiske Ave", "Greenfield, MA 01301"]}, "phone": "+14137722531", "display_phone": "(413) 772-2531", "distance": 10656.2269085508}, {"id": "eolu_9FB74AaXHlgwYwQyw", "alias": "goulds-sugar-house-shelburne-falls", "name": "Gould's Sugar House", "image_url": "https://s3-media2.fl.yelpcdn.com/bphoto/hZVhRfCmNWWgCkjJf5VWBw/o.jpg", "is_closed": false, "url": "https://www.yelp.com/biz/goulds-sugar-house-shelburne-falls?adjust_creative=ywY5UnLZrNrRl2b93Ruy_g&utm_campaign=yelp_api_v3&utm_medium=api_v3_business_search&utm_source=ywY5UnLZrNrRl2b93Ruy_g", "review_count": 44, "categories": [{"alias": "gourmet", "title": "Specialty Food"}, {"alias": "breakfast_brunch", "title": "Breakfast & Brunch"}], "rating": 4.5, "coordinates": {"latitude": 42.584024, "longitude": -72.708754}, "transactions": [], "price": "$$", "location": {"address1": "570 Mohawk Trl", "address2": "", "address3": "", "city": "Shelburne Falls", "zip_code": "01370", "country": "US", "state": "MA", "display_address": ["570 Mohawk Trl", "Shelburne Falls, MA 01370"]}, "phone": "+14136256170", "display_phone": "(413) 625-6170", "distance": 2339.577396549821}, {"id": "ZrnKQkZYNw_otzzh6EIiHQ", "alias": "blue-heron-restaurant-sunderland", "name": "Blue Heron Restaurant", "image_url": "https://s3-media3.fl.yelpcdn.com/bphoto/IdK76wlrON2OqFado0LeKQ/o.jpg", "is_closed": false, "url": "https://www.yelp.com/biz/blue-heron-restaurant-sunderland?adjust_creative=ywY5UnLZrNrRl2b93Ruy_g&utm_campaign=yelp_api_v3&utm_medium=api_v3_business_search&utm_source=ywY5UnLZrNrRl2b93Ruy_g", "review_count": 116, "categories": [{"alias": "newamerican", "title": "American (New)"}], "rating": 4.0, "coordinates": {"latitude": 42.46719, "longitude": -72.57818}, "transactions": ["delivery"], "price": "$$$", "location": {"address1": "112 N Main St", "address2": "", "address3": "", "city": "Sunderland", "zip_code": "01375", "country": "US", "state": "MA", "display_address": ["112 N Main St", "Sunderland, MA 01375"]}, "phone": "+14136652102", "display_phone": "(413) 665-2102", "distance": 19074.50304637507}, {"id": "M-DCwXS6_O-rOVJAxr3ofw", "alias": "kobe-hibachi-sushi-and-bar-greenfield-2", "name": "Kobe Hibachi Sushi and Bar", "image_url": "https://s3-media1.fl.yelpcdn.com/bphoto/zBcLhfB-95e9l01Zykb7Cg/o.jpg", "is_closed": false, "url": "https://www.yelp.com/biz/kobe-hibachi-sushi-and-bar-greenfield-2?adjust_creative=ywY5UnLZrNrRl2b93Ruy_g&utm_campaign=yelp_api_v3&utm_medium=api_v3_business_search&utm_source=ywY5UnLZrNrRl2b93Ruy_g", "review_count": 54, "categories": [{"alias": "japanese", "title": "Japanese"}, {"alias": "sushi", "title": "Sushi Bars"}, {"alias": "cocktailbars", "title": "Cocktail Bars"}], "rating": 3.5, "coordinates": {"latitude": 42.5863135, "longitude": -72.6271816}, "transactions": ["pickup"], "price": "$$", "location": {"address1": "254 Mohawk Trl", "address2": null, "address3": "", "city": "Greenfield", "zip_code": "01301", "country": "US", "state": "MA", "display_address": ["254 Mohawk Trl", "Greenfield, MA 01301"]}, "phone": "+14137728888", "display_phone": "(413) 772-8888", "distance": 8684.654769070601}, {"id": "F60ZshsheJZSuxb3fpeFtw", "alias": "china-gourmet-greenfield-2", "name": "China Gourmet", "image_url": "https://s3-media2.fl.yelpcdn.com/bphoto/dX3zEIx-W2C6hWmklUr6hA/o.jpg", "is_closed": false, "url": "https://www.yelp.com/biz/china-gourmet-greenfield-2?adjust_creative=ywY5UnLZrNrRl2b93Ruy_g&utm_campaign=yelp_api_v3&utm_medium=api_v3_business_search&utm_source=ywY5UnLZrNrRl2b93Ruy_g", "review_count": 68, "categories": [{"alias": "chinese", "title": "Chinese"}, {"alias": "japanese", "title": "Japanese"}], "rating": 3.0, "coordinates": {"latitude": 42.5846366882324, "longitude": -72.6142959594727}, "transactions": ["delivery"], "price": "$$", "location": {"address1": "78 Mohawk Trl", "address2": null, "address3": "", "city": "Greenfield", "zip_code": "01301", "country": "US", "state": "MA", "display_address": ["78 Mohawk Trl", "Greenfield, MA 01301"]}, "phone": "+14137742299", "display_phone": "(413) 774-2299", "distance": 9734.46208263747}, {"id": "QG0drESFSFC-fICafjJbeA", "alias": "williams-sugar-house-deerfield", "name": "Williams Sugar House", "image_url": "https://s3-media1.fl.yelpcdn.com/bphoto/j_AOHIXm4lellRljT1Dmfg/o.jpg", "is_closed": false, "url": "https://www.yelp.com/biz/williams-sugar-house-deerfield?adjust_creative=ywY5UnLZrNrRl2b93Ruy_g&utm_campaign=yelp_api_v3&utm_medium=api_v3_business_search&utm_source=ywY5UnLZrNrRl2b93Ruy_g", "review_count": 7, "categories": [{"alias": "newamerican", "title": "American (New)"}], "rating": 4.0, "coordinates": {"latitude": 42.5378105789423, "longitude": -72.6030052453279}, "transactions": [], "price": "$$", "location": {"address1": "491 Greenfield Rd", "address2": "", "address3": "", "city": "Deerfield", "zip_code": "01342", "country": "US", "state": "MA", "display_address": ["491 Greenfield Rd", "Deerfield, MA 01342"]}, "phone": "+14137735186", "display_phone": "(413) 773-5186", "distance": 12344.474596506743}, {"id": "SAvy9WokbPywn-Q6bO9xaw", "alias": "thai-blue-ginger-greenfield", "name": "Thai Blue Ginger", "image_url": "https://s3-media2.fl.yelpcdn.com/bphoto/8OSPpAICVUhAW-ZcYhCo_w/o.jpg", "is_closed": false, "url": "https://www.yelp.com/biz/thai-blue-ginger-greenfield?adjust_creative=ywY5UnLZrNrRl2b93Ruy_g&utm_campaign=yelp_api_v3&utm_medium=api_v3_business_search&utm_source=ywY5UnLZrNrRl2b93Ruy_g", "review_count": 69, "categories": [{"alias": "thai", "title": "Thai"}], "rating": 4.0, "coordinates": {"latitude": 42.5881226929282, "longitude": -72.6008848324572}, "transactions": ["delivery", "pickup"], "price": "$$", "location": {"address1": "298 Main St", "address2": "", "address3": "", "city": "Greenfield", "zip_code": "01301", "country": "US", "state": "MA", "display_address": ["298 Main St", "Greenfield, MA 01301"]}, "phone": "+14137720921", "display_phone": "(413) 772-0921", "distance": 10788.452244864338}, {"id": "Kd7unePYbesshmVtrvTnMQ", "alias": "four-leaf-clover-bernardston", "name": "Four Leaf Clover", "image_url": "https://s3-media2.fl.yelpcdn.com/bphoto/GsADBXLF5s0nkpa7vjedeg/o.jpg", "is_closed": false, "url": "https://www.yelp.com/biz/four-leaf-clover-bernardston?adjust_creative=ywY5UnLZrNrRl2b93Ruy_g&utm_campaign=yelp_api_v3&utm_medium=api_v3_business_search&utm_source=ywY5UnLZrNrRl2b93Ruy_g", "review_count": 59, "categories": [{"alias": "tradamerican", "title": "American (Traditional)"}], "rating": 3.5, "coordinates": {"latitude": 42.6702041625977, "longitude": -72.5550842285156}, "transactions": [], "price": "$$", "location": {"address1": "19 South St", "address2": "", "address3": "", "city": "Bernardston", "zip_code": "01337", "country": "US", "state": "MA", "display_address": ["19 South St", "Bernardston, MA 01337"]}, "phone": "+14136489514", "display_phone": "(413) 648-9514", "distance": 16680.392584059544}, {"id": "VvAcjLH87MhtrZC67tPpww", "alias": "cold-river-cafe-and-restaurant-charlemont", "name": "Cold River Cafe & Restaurant", "image_url": "https://s3-media2.fl.yelpcdn.com/bphoto/PV_66NvbKtHue0PFwzD6Eg/o.jpg", "is_closed": false, "url": "https://www.yelp.com/biz/cold-river-cafe-and-restaurant-charlemont?adjust_creative=ywY5UnLZrNrRl2b93Ruy_g&utm_campaign=yelp_api_v3&utm_medium=api_v3_business_search&utm_source=ywY5UnLZrNrRl2b93Ruy_g", "review_count": 48, "categories": [{"alias": "breakfast_brunch", "title": "Breakfast & Brunch"}, {"alias": "cafes", "title": "Cafes"}, {"alias": "pizza", "title": "Pizza"}], "rating": 3.5, "coordinates": {"latitude": 42.62666, "longitude": -72.88171}, "transactions": [], "price": "$$", "location": {"address1": "31A Main St", "address2": "", "address3": "", "city": "Charlemont", "zip_code": "01339", "country": "US", "state": "MA", "display_address": ["31A Main St", "Charlemont, MA 01339"]}, "phone": "+14133390000", "display_phone": "(413) 339-0000", "distance": 12697.784506472264}, {"id": "bfNy4CK-UWtNIIfzVXeZ-A", "alias": "wolfies-restaurant-south-deerfield", "name": "Wolfie's Restaurant", "image_url": "https://s3-media2.fl.yelpcdn.com/bphoto/6mdshhOQiXEPBs8xUe9O7A/o.jpg", "is_closed": false, "url": "https://www.yelp.com/biz/wolfies-restaurant-south-deerfield?adjust_creative=ywY5UnLZrNrRl2b93Ruy_g&utm_campaign=yelp_api_v3&utm_medium=api_v3_business_search&utm_source=ywY5UnLZrNrRl2b93Ruy_g", "review_count": 92, "categories": [{"alias": "tradamerican", "title": "American (Traditional)"}, {"alias": "bars", "title": "Bars"}, {"alias": "chicken_wings", "title": "Chicken Wings"}], "rating": 3.5, "coordinates": {"latitude": 42.4768333435059, "longitude": -72.6083679199219}, "transactions": ["delivery"], "price": "$$", "location": {"address1": "52 S Main St", "address2": "", "address3": "", "city": "South Deerfield", "zip_code": "01373", "country": "US", "state": "MA", "display_address": ["52 S Main St", "South Deerfield, MA 01373"]}, "phone": "+14136657068", "display_phone": "(413) 665-7068", "distance": 16685.17886260946}, {"id": "I3UE0kzvpVOnfIGUYMzZyg", "alias": "the-lady-killigrew-cafe-montague", "name": "The Lady Killigrew Cafe", "image_url": "https://s3-media3.fl.yelpcdn.com/bphoto/3u0HBieTFTsTE-QN8Ng14w/o.jpg", "is_closed": false, "url": "https://www.yelp.com/biz/the-lady-killigrew-cafe-montague?adjust_creative=ywY5UnLZrNrRl2b93Ruy_g&utm_campaign=yelp_api_v3&utm_medium=api_v3_business_search&utm_source=ywY5UnLZrNrRl2b93Ruy_g", "review_count": 117, "categories": [{"alias": "coffee", "title": "Coffee & Tea"}, {"alias": "sandwiches", "title": "Sandwiches"}, {"alias": "desserts", "title": "Desserts"}], "rating": 4.5, "coordinates": {"latitude": 42.5377464294434, "longitude": -72.5371627807617}, "transactions": ["delivery"], "price": "$$", "location": {"address1": "440 Greenfield Rd", "address2": "", "address3": "", "city": "Montague", "zip_code": "01351", "country": "US", "state": "MA", "display_address": ["440 Greenfield Rd", "Montague, MA 01351"]}, "phone": "+14133679666", "display_phone": "(413) 367-9666", "distance": 17226.420827354923}, {"id": "owKxbDnhxlBpqhcfiBjGiA", "alias": "berkshire-pizzeria-charlemont", "name": "Berkshire Pizzeria", "image_url": "https://s3-media1.fl.yelpcdn.com/bphoto/devT5oL9Ji6IwzHm5rv5sA/o.jpg", "is_closed": false, "url": "https://www.yelp.com/biz/berkshire-pizzeria-charlemont?adjust_creative=ywY5UnLZrNrRl2b93Ruy_g&utm_campaign=yelp_api_v3&utm_medium=api_v3_business_search&utm_source=ywY5UnLZrNrRl2b93Ruy_g", "review_count": 36, "categories": [{"alias": "pizza", "title": "Pizza"}, {"alias": "breakfast_brunch", "title": "Breakfast & Brunch"}, {"alias": "wraps", "title": "Wraps"}], "rating": 4.0, "coordinates": {"latitude": 42.6270903, "longitude": -72.8787897}, "transactions": [], "price": "$", "location": {"address1": "72 Main St", "address2": "", "address3": "", "city": "Charlemont", "zip_code": "01339", "country": "US", "state": "MA", "display_address": ["72 Main St", "Charlemont, MA 01339"]}, "phone": "+14133375501", "display_phone": "(413) 337-5501", "distance": 12480.88879623558}, {"id": "Xw5Gz7kiqxN34K8vjslNAQ", "alias": "new-fortune-chinese-restaurant-greenfield", "name": "New Fortune Chinese Restaurant", "image_url": "https://s3-media2.fl.yelpcdn.com/bphoto/ftAnKqMowdiOo9CXaIgZAg/o.jpg", "is_closed": false, "url": "https://www.yelp.com/biz/new-fortune-chinese-restaurant-greenfield?adjust_creative=ywY5UnLZrNrRl2b93Ruy_g&utm_campaign=yelp_api_v3&utm_medium=api_v3_business_search&utm_source=ywY5UnLZrNrRl2b93Ruy_g", "review_count": 37, "categories": [{"alias": "chinese", "title": "Chinese"}, {"alias": "sushi", "title": "Sushi Bars"}, {"alias": "japanese", "title": "Japanese"}], "rating": 3.5, "coordinates": {"latitude": 42.587352, "longitude": -72.626241}, "transactions": ["delivery"], "price": "$$", "location": {"address1": "249 Mohawk Trl", "address2": "", "address3": "", "city": "Greenfield", "zip_code": "01301", "country": "US", "state": "MA", "display_address": ["249 Mohawk Trl", "Greenfield, MA 01301"]}, "phone": "+14137720838", "display_phone": "(413) 772-0838", "distance": 8730.384627859561}, {"id": "uzplqOLK7sx5gV3DYURn1Q", "alias": "goten-of-japan-sunderland", "name": "Goten of Japan", "image_url": "https://s3-media1.fl.yelpcdn.com/bphoto/cGjbWaxmcdOjijjzYz5Rsw/o.jpg", "is_closed": false, "url": "https://www.yelp.com/biz/goten-of-japan-sunderland?adjust_creative=ywY5UnLZrNrRl2b93Ruy_g&utm_campaign=yelp_api_v3&utm_medium=api_v3_business_search&utm_source=ywY5UnLZrNrRl2b93Ruy_g", "review_count": 105, "categories": [{"alias": "sushi", "title": "Sushi Bars"}, {"alias": "teppanyaki", "title": "Teppanyaki"}], "rating": 4.0, "coordinates": {"latitude": 42.45876, "longitude": -72.5722}, "transactions": ["delivery"], "price": "$$", "location": {"address1": "104 Old Amherst Rd", "address2": "", "address3": "", "city": "Sunderland", "zip_code": "01375", "country": "US", "state": "MA", "display_address": ["104 Old Amherst Rd", "Sunderland, MA 01375"]}, "phone": "+14136653628", "display_phone": "(413) 665-3628", "distance": 20133.313324575585}, {"id": "efnGUoB4SVkhsF9a2wjebg", "alias": "the-wagon-wheel-restaurant-gill", "name": "The Wagon Wheel Restaurant", "image_url": "https://s3-media1.fl.yelpcdn.com/bphoto/_ifEFpgX3i8RfdhHYMX1uQ/o.jpg", "is_closed": false, "url": "https://www.yelp.com/biz/the-wagon-wheel-restaurant-gill?adjust_creative=ywY5UnLZrNrRl2b93Ruy_g&utm_campaign=yelp_api_v3&utm_medium=api_v3_business_search&utm_source=ywY5UnLZrNrRl2b93Ruy_g", "review_count": 136, "categories": [{"alias": "burgers", "title": "Burgers"}, {"alias": "tradamerican", "title": "American (Traditional)"}], "rating": 4.0, "coordinates": {"latitude": 42.61201, "longitude": -72.54543}, "transactions": ["delivery"], "price": "$", "location": {"address1": "39 French King Hwy", "address2": "", "address3": "", "city": "Gill", "zip_code": "01354", "country": "US", "state": "MA", "display_address": ["39 French King Hwy", "Gill, MA 01354"]}, "phone": "+14138638210", "display_phone": "(413) 863-8210", "distance": 15379.708707745282}, {"id": "QBdFoCiVYe2ZTwmTH8nIdQ", "alias": "damn-yankees-bbq-south-deerfield", "name": "Damn Yankees BBQ", "image_url": "https://s3-media1.fl.yelpcdn.com/bphoto/E-hdAq7izmIS7zdo860Org/o.jpg", "is_closed": false, "url": "https://www.yelp.com/biz/damn-yankees-bbq-south-deerfield?adjust_creative=ywY5UnLZrNrRl2b93Ruy_g&utm_campaign=yelp_api_v3&utm_medium=api_v3_business_search&utm_source=ywY5UnLZrNrRl2b93Ruy_g", "review_count": 25, "categories": [{"alias": "bbq", "title": "Barbeque"}], "rating": 3.5, "coordinates": {"latitude": 42.477924, "longitude": -72.61121}, "transactions": [], "price": "$$", "location": {"address1": "20 Elm St", "address2": "", "address3": "", "city": "South Deerfield", "zip_code": "01373", "country": "US", "state": "MA", "display_address": ["20 Elm St", "South Deerfield, MA 01373"]}, "phone": "+14132729347", "display_phone": "(413) 272-9347", "distance": 16454.61664689502}, {"id": "l0NWu0BZldXF3jHhk9SDgQ", "alias": "el-greco-cafe-greenfield", "name": "El Greco Cafe", "image_url": "https://s3-media2.fl.yelpcdn.com/bphoto/FPblzw5Gsz41dTeeA7r32A/o.jpg", "is_closed": false, "url": "https://www.yelp.com/biz/el-greco-cafe-greenfield?adjust_creative=ywY5UnLZrNrRl2b93Ruy_g&utm_campaign=yelp_api_v3&utm_medium=api_v3_business_search&utm_source=ywY5UnLZrNrRl2b93Ruy_g", "review_count": 50, "categories": [{"alias": "greek", "title": "Greek"}, {"alias": "mediterranean", "title": "Mediterranean"}], "rating": 4.0, "coordinates": {"latitude": 42.587867, "longitude": -72.602179}, "transactions": ["delivery"], "price": "$", "location": {"address1": "233 Main St", "address2": "", "address3": "", "city": "Greenfield", "zip_code": "01301", "country": "US", "state": "MA", "display_address": ["233 Main St", "Greenfield, MA 01301"]}, "phone": "+14137742844", "display_phone": "(413) 774-2844", "distance": 10685.260056134168}, {"id": "k8vXS4BM-dzeV3xRu2w15Q", "alias": "champneys-restaurant-and-tavern-deerfield", "name": "Champney's Restaurant & Tavern", "image_url": "https://s3-media3.fl.yelpcdn.com/bphoto/5PJAiYN018fAejDnsPipVw/o.jpg", "is_closed": false, "url": "https://www.yelp.com/biz/champneys-restaurant-and-tavern-deerfield?adjust_creative=ywY5UnLZrNrRl2b93Ruy_g&utm_campaign=yelp_api_v3&utm_medium=api_v3_business_search&utm_source=ywY5UnLZrNrRl2b93Ruy_g", "review_count": 58, "categories": [{"alias": "beer_and_wine", "title": "Beer, Wine & Spirits"}, {"alias": "tradamerican", "title": "American (Traditional)"}, {"alias": "breakfast_brunch", "title": "Breakfast & Brunch"}], "rating": 3.5, "coordinates": {"latitude": 42.547022, "longitude": -72.604508}, "transactions": ["delivery"], "price": "$$", "location": {"address1": "81 Old Main St", "address2": "", "address3": "", "city": "Deerfield", "zip_code": "01342", "country": "US", "state": "MA", "display_address": ["81 Old Main St", "Deerfield, MA 01342"]}, "phone": "+14137723087", "display_phone": "(413) 772-3087", "distance": 11793.186500351057}, {"id": "W4sLmaC91ain7-EIW6rJhg", "alias": "99-restaurants-greenfield", "name": "99 Restaurants", "image_url": "https://s3-media1.fl.yelpcdn.com/bphoto/O1tqImdbBB0XmapA_c5vUQ/o.jpg", "is_closed": false, "url": "https://www.yelp.com/biz/99-restaurants-greenfield?adjust_creative=ywY5UnLZrNrRl2b93Ruy_g&utm_campaign=yelp_api_v3&utm_medium=api_v3_business_search&utm_source=ywY5UnLZrNrRl2b93Ruy_g", "review_count": 38, "categories": [{"alias": "pubs", "title": "Pubs"}, {"alias": "tradamerican", "title": "American (Traditional)"}], "rating": 4.0, "coordinates": {"latitude": 42.586313, "longitude": -72.623546}, "transactions": [], "price": "$$", "location": {"address1": "17 Colrain Rd", "address2": null, "address3": null, "city": "Greenfield", "zip_code": "01301", "country": "US", "state": "MA", "display_address": ["17 Colrain Rd", "Greenfield, MA 01301"]}, "phone": "+14137759997", "display_phone": "(413) 775-9997", "distance": 8962.9296798907}, {"id": "8x750RlduCSBUMZoZ8sJ8Q", "alias": "wild-roots-sunderland", "name": "Wild Roots", "image_url": "https://s3-media1.fl.yelpcdn.com/bphoto/9SsPB5uUmMUjJBzkOcp6yA/o.jpg", "is_closed": false, "url": "https://www.yelp.com/biz/wild-roots-sunderland?adjust_creative=ywY5UnLZrNrRl2b93Ruy_g&utm_campaign=yelp_api_v3&utm_medium=api_v3_business_search&utm_source=ywY5UnLZrNrRl2b93Ruy_g", "review_count": 26, "categories": [{"alias": "juicebars", "title": "Juice Bars & Smoothies"}, {"alias": "breakfast_brunch", "title": "Breakfast & Brunch"}, {"alias": "sandwiches", "title": "Sandwiches"}], "rating": 4.5, "coordinates": {"latitude": 42.46628, "longitude": -72.58093}, "transactions": ["delivery", "pickup"], "price": "$$", "location": {"address1": "11 Bridge St", "address2": null, "address3": "", "city": "Sunderland", "zip_code": "01375", "country": "US", "state": "MA", "display_address": ["11 Bridge St", "Sunderland, MA 01375"]}, "phone": "+14133505911", "display_phone": "(413) 350-5911", "distance": 19020.08357230849}, {"id": "52Valo93JOiqpVPScUWEBg", "alias": "the-upper-bend-turners-falls-2", "name": "The Upper Bend", "image_url": "https://s3-media1.fl.yelpcdn.com/bphoto/7nJl1Sy_PZ5n5aK8w1eWcw/o.jpg", "is_closed": false, "url": "https://www.yelp.com/biz/the-upper-bend-turners-falls-2?adjust_creative=ywY5UnLZrNrRl2b93Ruy_g&utm_campaign=yelp_api_v3&utm_medium=api_v3_business_search&utm_source=ywY5UnLZrNrRl2b93Ruy_g", "review_count": 7, "categories": [{"alias": "breakfast_brunch", "title": "Breakfast & Brunch"}, {"alias": "coffee", "title": "Coffee & Tea"}, {"alias": "sandwiches", "title": "Sandwiches"}], "rating": 4.5, "coordinates": {"latitude": 42.6079845, "longitude": -72.55725217}, "transactions": [], "location": {"address1": "112 Avenue A", "address2": null, "address3": "", "city": "Turners Falls", "zip_code": "01376", "country": "US", "state": "MA", "display_address": ["112 Avenue A", "Turners Falls, MA 01376"]}, "phone": "+14138635270", "display_phone": "(413) 863-5270", "distance": 14380.422854244736}, {"id": "wqQ-cLMbLmxzc_p4jjDSxw", "alias": "the-old-creamery-cummington-2", "name": "The Old Creamery", "image_url": "https://s3-media3.fl.yelpcdn.com/bphoto/suPv8fzXhQdsR8elaUVfzg/o.jpg", "is_closed": false, "url": "https://www.yelp.com/biz/the-old-creamery-cummington-2?adjust_creative=ywY5UnLZrNrRl2b93Ruy_g&utm_campaign=yelp_api_v3&utm_medium=api_v3_business_search&utm_source=ywY5UnLZrNrRl2b93Ruy_g", "review_count": 31, "categories": [{"alias": "grocery", "title": "Grocery"}, {"alias": "bakeries", "title": "Bakeries"}, {"alias": "sandwiches", "title": "Sandwiches"}], "rating": 4.5, "coordinates": {"latitude": 42.464115, "longitude": -72.90535}, "transactions": [], "price": "$$", "location": {"address1": "445 Berkshire Trl", "address2": "", "address3": "", "city": "Cummington", "zip_code": "01026", "country": "US", "state": "MA", "display_address": ["445 Berkshire Trl", "Cummington, MA 01026"]}, "phone": "+14136345560", "display_phone": "(413) 634-5560", "distance": 20403.956249653358}, {"id": "ZYW34OE1yuNuSaPgXbK98g", "alias": "hangar-greenfield-greenfield", "name": "Hangar - Greenfield", "image_url": "https://s3-media3.fl.yelpcdn.com/bphoto/LshdcwdmAZYSse8fbuOqqw/o.jpg", "is_closed": false, "url": "https://www.yelp.com/biz/hangar-greenfield-greenfield?adjust_creative=ywY5UnLZrNrRl2b93Ruy_g&utm_campaign=yelp_api_v3&utm_medium=api_v3_business_search&utm_source=ywY5UnLZrNrRl2b93Ruy_g", "review_count": 28, "categories": [{"alias": "chicken_wings", "title": "Chicken Wings"}, {"alias": "pubs", "title": "Pubs"}], "rating": 3.5, "coordinates": {"latitude": 42.5889892578125, "longitude": -72.5999526977539}, "transactions": ["delivery", "pickup"], "price": "$$", "location": {"address1": "30 Federal St", "address2": "", "address3": null, "city": "Greenfield", "zip_code": "01301", "country": "US", "state": "MA", "display_address": ["30 Federal St", "Greenfield, MA 01301"]}, "phone": "+14137739464", "display_phone": "(413) 773-9464", "distance": 10852.711537119823}, {"id": "_JUzxtxuvLxHiG_XJNLR0g", "alias": "hillside-pizza-bernardston", "name": "Hillside Pizza", "image_url": "https://s3-media1.fl.yelpcdn.com/bphoto/ArMiQNIjj8WPqrNp-qcYiw/o.jpg", "is_closed": false, "url": "https://www.yelp.com/biz/hillside-pizza-bernardston?adjust_creative=ywY5UnLZrNrRl2b93Ruy_g&utm_campaign=yelp_api_v3&utm_medium=api_v3_business_search&utm_source=ywY5UnLZrNrRl2b93Ruy_g", "review_count": 37, "categories": [{"alias": "pizza", "title": "Pizza"}], "rating": 4.5, "coordinates": {"latitude": 42.6702842712402, "longitude": -72.547119140625}, "transactions": [], "price": "$", "location": {"address1": "77 Church St", "address2": "", "address3": "", "city": "Bernardston", "zip_code": "01337", "country": "US", "state": "MA", "display_address": ["77 Church St", "Bernardston, MA 01337"]}, "phone": "+14136480500", "display_phone": "(413) 648-0500", "distance": 17249.284837182986}, {"id": "O-cuf9gqctm096VCcM79Lg", "alias": "conway-inn-conway", "name": "Conway Inn", "image_url": "https://s3-media2.fl.yelpcdn.com/bphoto/PkYRlRCqQCTdb2bqT10Y3A/o.jpg", "is_closed": false, "url": "https://www.yelp.com/biz/conway-inn-conway?adjust_creative=ywY5UnLZrNrRl2b93Ruy_g&utm_campaign=yelp_api_v3&utm_medium=api_v3_business_search&utm_source=ywY5UnLZrNrRl2b93Ruy_g", "review_count": 6, "categories": [{"alias": "bars", "title": "Bars"}, {"alias": "pizza", "title": "Pizza"}], "rating": 4.5, "coordinates": {"latitude": 42.5087199, "longitude": -72.69772}, "transactions": [], "price": "$", "location": {"address1": "43 Main", "address2": "", "address3": "", "city": "Conway", "zip_code": "01341", "country": "US", "state": "MA", "display_address": ["43 Main", "Conway, MA 01341"]}, "phone": "+14133694428", "display_phone": "(413) 369-4428", "distance": 10110.118639329605}, {"id": "Hz8ENDohZ-ZY2MooPz8-Eg", "alias": "spruce-corner-restaurant-goshen", "name": "Spruce Corner Restaurant", "image_url": "https://s3-media3.fl.yelpcdn.com/bphoto/Vf9B0rulKSpqtTS-E_lQrA/o.jpg", "is_closed": false, "url": "https://www.yelp.com/biz/spruce-corner-restaurant-goshen?adjust_creative=ywY5UnLZrNrRl2b93Ruy_g&utm_campaign=yelp_api_v3&utm_medium=api_v3_business_search&utm_source=ywY5UnLZrNrRl2b93Ruy_g", "review_count": 11, "categories": [{"alias": "tradamerican", "title": "American (Traditional)"}], "rating": 4.0, "coordinates": {"latitude": 42.45618, "longitude": -72.832747}, "transactions": [], "price": "$$", "location": {"address1": "188 Berkshire Trl W", "address2": "", "address3": "", "city": "Goshen", "zip_code": "01032", "country": "US", "state": "MA", "display_address": ["188 Berkshire Trl W", "Goshen, MA 01032"]}, "phone": "+14132683188", "display_phone": "(413) 268-3188", "distance": 17595.535869005067}, {"id": "kMygiwbWBt1mq_6iHHmu4A", "alias": "bonnie-bs-greenfield", "name": "Bonnie B's", "image_url": "https://s3-media3.fl.yelpcdn.com/bphoto/oX_Z6yc17Tq26UVSo4o4Ig/o.jpg", "is_closed": false, "url": "https://www.yelp.com/biz/bonnie-bs-greenfield?adjust_creative=ywY5UnLZrNrRl2b93Ruy_g&utm_campaign=yelp_api_v3&utm_medium=api_v3_business_search&utm_source=ywY5UnLZrNrRl2b93Ruy_g", "review_count": 19, "categories": [{"alias": "breakfast_brunch", "title": "Breakfast & Brunch"}, {"alias": "tradamerican", "title": "American (Traditional)"}], "rating": 4.5, "coordinates": {"latitude": 42.588116, "longitude": -72.602802}, "transactions": ["delivery", "pickup"], "location": {"address1": "204 Main St", "address2": "", "address3": null, "city": "Greenfield", "zip_code": "01301", "country": "US", "state": "MA", "display_address": ["204 Main St", "Greenfield, MA 01301"]}, "phone": "+14134753758", "display_phone": "(413) 475-3758", "distance": 10632.0634439333}, {"id": "6a3mUieRgCSGXCJ4lmzvFA", "alias": "ce-ces-chinese-restaurant-turners-falls", "name": "Ce Ce's Chinese Restaurant", "image_url": "https://s3-media2.fl.yelpcdn.com/bphoto/iKuaw65YUP_av-lB2p37kA/o.jpg", "is_closed": false, "url": "https://www.yelp.com/biz/ce-ces-chinese-restaurant-turners-falls?adjust_creative=ywY5UnLZrNrRl2b93Ruy_g&utm_campaign=yelp_api_v3&utm_medium=api_v3_business_search&utm_source=ywY5UnLZrNrRl2b93Ruy_g", "review_count": 10, "categories": [{"alias": "chinese", "title": "Chinese"}], "rating": 4.0, "coordinates": {"latitude": 42.6078868144459, "longitude": -72.55670151079}, "transactions": ["delivery"], "price": "$$", "location": {"address1": "53 Avenue A", "address2": "", "address3": "", "city": "Turners Falls", "zip_code": "01376", "country": "US", "state": "MA", "display_address": ["53 Avenue A", "Turners Falls, MA 01376"]}, "phone": "+14138638988", "display_phone": "(413) 863-8988", "distance": 14427.83134812636}, {"id": "sZQnBWW8IPZUA1IVRLWjPg", "alias": "taylors-tavern-greenfield", "name": "Taylor's Tavern", "image_url": "https://s3-media1.fl.yelpcdn.com/bphoto/m7ro5xz5NB5--a5tW-7QtA/o.jpg", "is_closed": false, "url": "https://www.yelp.com/biz/taylors-tavern-greenfield?adjust_creative=ywY5UnLZrNrRl2b93Ruy_g&utm_campaign=yelp_api_v3&utm_medium=api_v3_business_search&utm_source=ywY5UnLZrNrRl2b93Ruy_g", "review_count": 51, "categories": [{"alias": "tradamerican", "title": "American (Traditional)"}, {"alias": "burgers", "title": "Burgers"}, {"alias": "sandwiches", "title": "Sandwiches"}], "rating": 3.5, "coordinates": {"latitude": 42.588072, "longitude": -72.6022799}, "transactions": ["delivery"], "price": "$$", "location": {"address1": "238 Main St", "address2": "", "address3": "", "city": "Greenfield", "zip_code": "01301", "country": "US", "state": "MA", "display_address": ["238 Main St", "Greenfield, MA 01301"]}, "phone": "+14137738313", "display_phone": "(413) 773-8313", "distance": 10675.102759356027}, {"id": "DMv1r_XMkNj7G0n0X0bodA", "alias": "main-street-bar-and-grille-greenfield", "name": "Main Street Bar and Grille", "image_url": "https://s3-media1.fl.yelpcdn.com/bphoto/_y80dYCee_tMYms2n3dWWg/o.jpg", "is_closed": false, "url": "https://www.yelp.com/biz/main-street-bar-and-grille-greenfield?adjust_creative=ywY5UnLZrNrRl2b93Ruy_g&utm_campaign=yelp_api_v3&utm_medium=api_v3_business_search&utm_source=ywY5UnLZrNrRl2b93Ruy_g", "review_count": 7, "categories": [{"alias": "tradamerican", "title": "American (Traditional)"}, {"alias": "bars", "title": "Bars"}, {"alias": "burgers", "title": "Burgers"}], "rating": 3.5, "coordinates": {"latitude": 42.58773, "longitude": -72.60579}, "transactions": ["delivery"], "price": "$$", "location": {"address1": "94 Main St", "address2": "", "address3": "", "city": "Greenfield", "zip_code": "01301", "country": "US", "state": "MA", "display_address": ["94 Main St", "Greenfield, MA 01301"]}, "phone": "+14137746388", "display_phone": "(413) 774-6388", "distance": 10388.96763804273}, {"id": "z8ibbohpxOO6gaJHb0krUA", "alias": "bridgeside-grille-sunderland-3", "name": "BridgeSide Grille", "image_url": "https://s3-media1.fl.yelpcdn.com/bphoto/KqszBqT0JeFVOheneOgKVQ/o.jpg", "is_closed": false, "url": "https://www.yelp.com/biz/bridgeside-grille-sunderland-3?adjust_creative=ywY5UnLZrNrRl2b93Ruy_g&utm_campaign=yelp_api_v3&utm_medium=api_v3_business_search&utm_source=ywY5UnLZrNrRl2b93Ruy_g", "review_count": 52, "categories": [{"alias": "tradamerican", "title": "American (Traditional)"}], "rating": 3.0, "coordinates": {"latitude": 42.465655, "longitude": -72.57859}, "transactions": ["delivery", "pickup"], "price": "$$", "location": {"address1": "9 Amherst Rd", "address2": "", "address3": "", "city": "Sunderland", "zip_code": "01375", "country": "US", "state": "MA", "display_address": ["9 Amherst Rd", "Sunderland, MA 01375"]}, "phone": "+14133978101", "display_phone": "(413) 397-8101", "distance": 19177.415852300473}, {"id": "3p3pMwBPluQSEscxeqFa5g", "alias": "bittersweet-bakery-and-cafe-deerfield", "name": "Bittersweet Bakery & Cafe", "image_url": "https://s3-media2.fl.yelpcdn.com/bphoto/_2c3G5F_Kt0IvHqtfncUSg/o.jpg", "is_closed": false, "url": "https://www.yelp.com/biz/bittersweet-bakery-and-cafe-deerfield?adjust_creative=ywY5UnLZrNrRl2b93Ruy_g&utm_campaign=yelp_api_v3&utm_medium=api_v3_business_search&utm_source=ywY5UnLZrNrRl2b93Ruy_g", "review_count": 17, "categories": [{"alias": "cafes", "title": "Cafes"}, {"alias": "bakeries", "title": "Bakeries"}, {"alias": "coffee", "title": "Coffee & Tea"}], "rating": 4.0, "coordinates": {"latitude": 42.53364, "longitude": -72.60323}, "transactions": [], "location": {"address1": "470 Greenfield Rd", "address2": "", "address3": null, "city": "Deerfield", "zip_code": "01342", "country": "US", "state": "MA", "display_address": ["470 Greenfield Rd", "Deerfield, MA 01342"]}, "phone": "+14132235496", "display_phone": "(413) 223-5496", "distance": 12630.723487533938}, {"id": "FrJpcCrHNe0zdZCkw9IEyw", "alias": "hubies-tavern-montague", "name": "Hubie's Tavern", "image_url": "https://s3-media4.fl.yelpcdn.com/bphoto/3gWQzRgsBTzOX445tOvReA/o.jpg", "is_closed": false, "url": "https://www.yelp.com/biz/hubies-tavern-montague?adjust_creative=ywY5UnLZrNrRl2b93Ruy_g&utm_campaign=yelp_api_v3&utm_medium=api_v3_business_search&utm_source=ywY5UnLZrNrRl2b93Ruy_g", "review_count": 14, "categories": [{"alias": "diners", "title": "Diners"}, {"alias": "bars", "title": "Bars"}], "rating": 3.5, "coordinates": {"latitude": 42.6085548, "longitude": -72.5566254}, "transactions": [], "price": "$", "location": {"address1": "66 Ave A", "address2": "", "address3": "", "city": "Montague", "zip_code": "01376", "country": "US", "state": "MA", "display_address": ["66 Ave A", "Montague, MA 01376"]}, "phone": "+14138638938", "display_phone": "(413) 863-8938", "distance": 14432.439153333056}, {"id": "2ykfTFuQMBNreBEvDEkBGg", "alias": "robertos-pizzeria-greenfield", "name": "Roberto's Pizzeria", "image_url": "https://s3-media4.fl.yelpcdn.com/bphoto/RC3SdRAazT2BstJZNw67yw/o.jpg", "is_closed": false, "url": "https://www.yelp.com/biz/robertos-pizzeria-greenfield?adjust_creative=ywY5UnLZrNrRl2b93Ruy_g&utm_campaign=yelp_api_v3&utm_medium=api_v3_business_search&utm_source=ywY5UnLZrNrRl2b93Ruy_g", "review_count": 14, "categories": [{"alias": "pizza", "title": "Pizza"}], "rating": 4.5, "coordinates": {"latitude": 42.59002, "longitude": -72.59941}, "transactions": ["delivery"], "price": "$", "location": {"address1": "80 Federal St", "address2": "", "address3": "", "city": "Greenfield", "zip_code": "01301", "country": "US", "state": "MA", "display_address": ["80 Federal St", "Greenfield, MA 01301"]}, "phone": "+14137750155", "display_phone": "(413) 775-0155", "distance": 10905.287732285344}, {"id": "pSPnC1hcf-CO-uMQJF0NQQ", "alias": "bba-deli-market-south-deerfield", "name": "BBA Deli Market", "image_url": "https://s3-media3.fl.yelpcdn.com/bphoto/G0HZIKIZczmS5vnYNRPpdw/o.jpg", "is_closed": false, "url": "https://www.yelp.com/biz/bba-deli-market-south-deerfield?adjust_creative=ywY5UnLZrNrRl2b93Ruy_g&utm_campaign=yelp_api_v3&utm_medium=api_v3_business_search&utm_source=ywY5UnLZrNrRl2b93Ruy_g", "review_count": 21, "categories": [{"alias": "delis", "title": "Delis"}, {"alias": "polish", "title": "Polish"}, {"alias": "gourmet", "title": "Specialty Food"}], "rating": 4.5, "coordinates": {"latitude": 42.472156, "longitude": -72.608634}, "transactions": ["delivery"], "price": "$", "location": {"address1": "39 Thayer St", "address2": "", "address3": "", "city": "South Deerfield", "zip_code": "01373", "country": "US", "state": "MA", "display_address": ["39 Thayer St", "South Deerfield, MA 01373"]}, "phone": "+14136659171", "display_phone": "(413) 665-9171", "distance": 17057.521962884624}, {"id": "YTfiTaawGtWf9CX5a64UNQ", "alias": "ciesluks-market-south-deerfield", "name": "Ciesluk's Market", "image_url": "https://s3-media4.fl.yelpcdn.com/bphoto/kMtgDkcjeQBIp-1SVychMw/o.jpg", "is_closed": false, "url": "https://www.yelp.com/biz/ciesluks-market-south-deerfield?adjust_creative=ywY5UnLZrNrRl2b93Ruy_g&utm_campaign=yelp_api_v3&utm_medium=api_v3_business_search&utm_source=ywY5UnLZrNrRl2b93Ruy_g", "review_count": 5, "categories": [{"alias": "grocery", "title": "Grocery"}, {"alias": "bakeries", "title": "Bakeries"}, {"alias": "delis", "title": "Delis"}], "rating": 4.5, "coordinates": {"latitude": 42.47767, "longitude": -72.60843}, "transactions": [], "location": {"address1": "55C N Main St", "address2": null, "address3": "", "city": "South Deerfield", "zip_code": "01373", "country": "US", "state": "MA", "display_address": ["55C N Main St", "South Deerfield, MA 01373"]}, "phone": "+14133973574", "display_phone": "(413) 397-3574", "distance": 16627.827660170115}, {"id": "2jbnnI5522q_T0pl-MuJXA", "alias": "bueno-y-sano-south-deerfield", "name": "Bueno Y Sano", "image_url": "https://s3-media1.fl.yelpcdn.com/bphoto/LGK_mCBWcVAPyyIenMDuBw/o.jpg", "is_closed": false, "url": "https://www.yelp.com/biz/bueno-y-sano-south-deerfield?adjust_creative=ywY5UnLZrNrRl2b93Ruy_g&utm_campaign=yelp_api_v3&utm_medium=api_v3_business_search&utm_source=ywY5UnLZrNrRl2b93Ruy_g", "review_count": 2, "categories": [{"alias": "mexican", "title": "Mexican"}], "rating": 5.0, "coordinates": {"latitude": 42.477567, "longitude": -72.608631}, "transactions": [], "location": {"address1": "3 Elm Streeet", "address2": null, "address3": "", "city": "South Deerfield", "zip_code": "01373", "country": "US", "state": "MA", "display_address": ["3 Elm Streeet", "South Deerfield, MA 01373"]}, "phone": "+14136654241", "display_phone": "(413) 665-4241", "distance": 16614.283771113714}, {"id": "TdZplOy0Nm7kMNpnEgo_kA", "alias": "dimos-restaurant-sunderland", "name": "Dimo's Restaurant", "image_url": "", "is_closed": false, "url": "https://www.yelp.com/biz/dimos-restaurant-sunderland?adjust_creative=ywY5UnLZrNrRl2b93Ruy_g&utm_campaign=yelp_api_v3&utm_medium=api_v3_business_search&utm_source=ywY5UnLZrNrRl2b93Ruy_g", "review_count": 11, "categories": [{"alias": "tradamerican", "title": "American (Traditional)"}], "rating": 3.0, "coordinates": {"latitude": 42.467481, "longitude": -72.578504}, "transactions": [], "price": "$$", "location": {"address1": "118 N Main St", "address2": "", "address3": "", "city": "Sunderland", "zip_code": "01375", "country": "US", "state": "MA", "display_address": ["118 N Main St", "Sunderland, MA 01375"]}, "phone": "+14136654444", "display_phone": "(413) 665-4444", "distance": 19051.263392463963}, {"id": "6Our5yg2Ihzg4qrwbOuwEQ", "alias": "hattapons-thai-kitchen-greenfield", "name": "Hattapon's Thai Kitchen", "image_url": "https://s3-media1.fl.yelpcdn.com/bphoto/OpC4EP9sMq0DlHgDHmrxyA/o.jpg", "is_closed": false, "url": "https://www.yelp.com/biz/hattapons-thai-kitchen-greenfield?adjust_creative=ywY5UnLZrNrRl2b93Ruy_g&utm_campaign=yelp_api_v3&utm_medium=api_v3_business_search&utm_source=ywY5UnLZrNrRl2b93Ruy_g", "review_count": 34, "categories": [{"alias": "thai", "title": "Thai"}], "rating": 3.5, "coordinates": {"latitude": 42.587759, "longitude": -72.601574}, "transactions": ["delivery"], "price": "$", "location": {"address1": "265 Main St", "address2": "", "address3": "", "city": "Greenfield", "zip_code": "01301", "country": "US", "state": "MA", "display_address": ["265 Main St", "Greenfield, MA 01301"]}, "phone": "+14137745304", "display_phone": "(413) 774-5304", "distance": 10740.642518741199}, {"id": "gCdtxabLxonlb7CtJK-Z-w", "alias": "d-angelo-greenfield-2", "name": "D'Angelo", "image_url": "https://s3-media2.fl.yelpcdn.com/bphoto/HHatphW_HpX1SDsDCrngDw/o.jpg", "is_closed": false, "url": "https://www.yelp.com/biz/d-angelo-greenfield-2?adjust_creative=ywY5UnLZrNrRl2b93Ruy_g&utm_campaign=yelp_api_v3&utm_medium=api_v3_business_search&utm_source=ywY5UnLZrNrRl2b93Ruy_g", "review_count": 10, "categories": [{"alias": "sandwiches", "title": "Sandwiches"}], "rating": 4.0, "coordinates": {"latitude": 42.5848445086586, "longitude": -72.6141382441874}, "transactions": [], "price": "$$", "location": {"address1": "68 Mohawk Trl", "address2": "", "address3": "", "city": "Greenfield", "zip_code": "01301", "country": "US", "state": "MA", "display_address": ["68 Mohawk Trl", "Greenfield, MA 01301"]}, "phone": "+14137742106", "display_phone": "(413) 774-2106", "distance": 9747.479325427888}, {"id": "X_gLEwRckCC3wGGVIGhvuQ", "alias": "crazy-horse-lounge-charlemont", "name": "crazy horse lounge", "image_url": "https://s3-media2.fl.yelpcdn.com/bphoto/sh9BCRP3oQ9exZUdvJRQsw/o.jpg", "is_closed": false, "url": "https://www.yelp.com/biz/crazy-horse-lounge-charlemont?adjust_creative=ywY5UnLZrNrRl2b93Ruy_g&utm_campaign=yelp_api_v3&utm_medium=api_v3_business_search&utm_source=ywY5UnLZrNrRl2b93Ruy_g", "review_count": 1, "categories": [{"alias": "salad", "title": "Salad"}, {"alias": "cafes", "title": "Cafes"}], "rating": 3.0, "coordinates": {"latitude": 42.6225341098203, "longitude": -72.8777315857901}, "transactions": [], "location": {"address1": "66 S River Rd", "address2": "", "address3": "", "city": "Charlemont", "zip_code": "01339", "country": "US", "state": "MA", "display_address": ["66 S River Rd", "Charlemont, MA 01339"]}, "phone": "+14133396617", "display_phone": "(413) 339-6617", "distance": 12266.574237795234}, {"id": "zKiHmDHXaZVVYVe4Qm1nTg", "alias": "hillside-pizza-south-deerfield", "name": "Hillside Pizza", "image_url": "https://s3-media3.fl.yelpcdn.com/bphoto/qkuJnc_RVLnY4uz3HXBbcg/o.jpg", "is_closed": false, "url": "https://www.yelp.com/biz/hillside-pizza-south-deerfield?adjust_creative=ywY5UnLZrNrRl2b93Ruy_g&utm_campaign=yelp_api_v3&utm_medium=api_v3_business_search&utm_source=ywY5UnLZrNrRl2b93Ruy_g", "review_count": 23, "categories": [{"alias": "pizza", "title": "Pizza"}], "rating": 4.5, "coordinates": {"latitude": 42.50779, "longitude": -72.606161}, "transactions": ["delivery"], "price": "$$", "location": {"address1": "265 Greenfield Rd", "address2": "", "address3": "", "city": "South Deerfield", "zip_code": "01373", "country": "US", "state": "MA", "display_address": ["265 Greenfield Rd", "South Deerfield, MA 01373"]}, "phone": "+14136655533", "display_phone": "(413) 665-5533", "distance": 14244.05087679502}, {"id": "uvI_sThbGPccd-NHZRBnQg", "alias": "bei-jing-house-greenfield", "name": "Bei Jing House", "image_url": "https://s3-media2.fl.yelpcdn.com/bphoto/8ORL1RDkXxxEgLrcS0ps9Q/o.jpg", "is_closed": false, "url": "https://www.yelp.com/biz/bei-jing-house-greenfield?adjust_creative=ywY5UnLZrNrRl2b93Ruy_g&utm_campaign=yelp_api_v3&utm_medium=api_v3_business_search&utm_source=ywY5UnLZrNrRl2b93Ruy_g", "review_count": 18, "categories": [{"alias": "chinese", "title": "Chinese"}], "rating": 3.0, "coordinates": {"latitude": 42.58685, "longitude": -72.60736}, "transactions": ["delivery"], "price": "$", "location": {"address1": "45 Main St", "address2": "", "address3": "", "city": "Greenfield", "zip_code": "01301", "country": "US", "state": "MA", "display_address": ["45 Main St", "Greenfield, MA 01301"]}, "phone": "+14137737885", "display_phone": "(413) 773-7885", "distance": 10277.733725181644}, {"id": "b-LHyJufYxVTDZZYgsC5zg", "alias": "applebees-grill-bar-greenfield-2", "name": "Applebee's Grill + Bar", "image_url": "https://s3-media3.fl.yelpcdn.com/bphoto/uspV9fyAGPPDasqqxw9JuQ/o.jpg", "is_closed": false, "url": "https://www.yelp.com/biz/applebees-grill-bar-greenfield-2?adjust_creative=ywY5UnLZrNrRl2b93Ruy_g&utm_campaign=yelp_api_v3&utm_medium=api_v3_business_search&utm_source=ywY5UnLZrNrRl2b93Ruy_g", "review_count": 31, "categories": [{"alias": "tradamerican", "title": "American (Traditional)"}, {"alias": "sportsbars", "title": "Sports Bars"}, {"alias": "burgers", "title": "Burgers"}], "rating": 3.5, "coordinates": {"latitude": 42.585115, "longitude": -72.618677}, "transactions": [], "price": "$$", "location": {"address1": "141 Mohawk Trl", "address2": "", "address3": "", "city": "Greenfield", "zip_code": "01301", "country": "US", "state": "MA", "display_address": ["141 Mohawk Trl", "Greenfield, MA 01301"]}, "phone": "+14137720079", "display_phone": "(413) 772-0079", "distance": 9375.116845041955}, {"id": "lNVB5KVLp9rGBOchtlPewQ", "alias": "village-pizza-shop-greenfield", "name": "Village Pizza Shop", "image_url": "https://s3-media4.fl.yelpcdn.com/bphoto/Y-OXKHBaMYwMyxx7hz5VLg/o.jpg", "is_closed": false, "url": "https://www.yelp.com/biz/village-pizza-shop-greenfield?adjust_creative=ywY5UnLZrNrRl2b93Ruy_g&utm_campaign=yelp_api_v3&utm_medium=api_v3_business_search&utm_source=ywY5UnLZrNrRl2b93Ruy_g", "review_count": 55, "categories": [{"alias": "pizza", "title": "Pizza"}], "rating": 4.0, "coordinates": {"latitude": 42.586783, "longitude": -72.600916}, "transactions": ["delivery"], "price": "$$", "location": {"address1": "42 Bank Row St", "address2": "", "address3": "", "city": "Greenfield", "zip_code": "01301", "country": "US", "state": "MA", "display_address": ["42 Bank Row St", "Greenfield, MA 01301"]}, "phone": "+14137726209", "display_phone": "(413) 772-6209", "distance": 10799.163852895155}, {"id": "dDA3YpteWaTXQ63z6REGeg", "alias": "the-wok-deerfield", "name": "The Wok", "image_url": "https://s3-media1.fl.yelpcdn.com/bphoto/vbZOmgKk-TYSndB9Oa5tQw/o.jpg", "is_closed": false, "url": "https://www.yelp.com/biz/the-wok-deerfield?adjust_creative=ywY5UnLZrNrRl2b93Ruy_g&utm_campaign=yelp_api_v3&utm_medium=api_v3_business_search&utm_source=ywY5UnLZrNrRl2b93Ruy_g", "review_count": 22, "categories": [{"alias": "chinese", "title": "Chinese"}, {"alias": "seafood", "title": "Seafood"}, {"alias": "soup", "title": "Soup"}], "rating": 3.0, "coordinates": {"latitude": 42.56664, "longitude": -72.593}, "transactions": ["delivery"], "price": "$$", "location": {"address1": "723 Greenfield Rd", "address2": "", "address3": "", "city": "Deerfield", "zip_code": "01342", "country": "US", "state": "MA", "display_address": ["723 Greenfield Rd", "Deerfield, MA 01342"]}, "phone": "+14137743606", "display_phone": "(413) 774-3606", "distance": 11870.76829280798}, {"id": "e8ZEjMpyR0yUdEdBdlYiJQ", "alias": "new-golden-china-restaurant-south-deerfield", "name": "New Golden China Restaurant", "image_url": "https://s3-media3.fl.yelpcdn.com/bphoto/8wVKYBzZqtc0BHauql8UvA/o.jpg", "is_closed": false, "url": "https://www.yelp.com/biz/new-golden-china-restaurant-south-deerfield?adjust_creative=ywY5UnLZrNrRl2b93Ruy_g&utm_campaign=yelp_api_v3&utm_medium=api_v3_business_search&utm_source=ywY5UnLZrNrRl2b93Ruy_g", "review_count": 17, "categories": [{"alias": "chinese", "title": "Chinese"}], "rating": 3.5, "coordinates": {"latitude": 42.4765968322754, "longitude": -72.6094131469727}, "transactions": ["delivery"], "price": "$$", "location": {"address1": "45 S Main St", "address2": "", "address3": "", "city": "South Deerfield", "zip_code": "01373", "country": "US", "state": "MA", "display_address": ["45 S Main St", "South Deerfield, MA 01373"]}, "phone": "+14136653365", "display_phone": "(413) 665-3365", "distance": 16661.086644566883}, {"id": "oh2hgHxtHrGCkzGHqK4quA", "alias": "goodies-restaurant-greenfield", "name": "Goodies Restaurant", "image_url": "https://s3-media3.fl.yelpcdn.com/bphoto/-bwBadmNTAtzswYG2Hh3Ig/o.jpg", "is_closed": false, "url": "https://www.yelp.com/biz/goodies-restaurant-greenfield?adjust_creative=ywY5UnLZrNrRl2b93Ruy_g&utm_campaign=yelp_api_v3&utm_medium=api_v3_business_search&utm_source=ywY5UnLZrNrRl2b93Ruy_g", "review_count": 31, "categories": [{"alias": "pizza", "title": "Pizza"}, {"alias": "italian", "title": "Italian"}], "rating": 3.0, "coordinates": {"latitude": 42.5986328125, "longitude": -72.596435546875}, "transactions": ["delivery"], "price": "$$", "location": {"address1": "256 Federal St", "address2": "", "address3": "", "city": "Greenfield", "zip_code": "01301", "country": "US", "state": "MA", "display_address": ["256 Federal St", "Greenfield, MA 01301"]}, "phone": "+14137722586", "display_phone": "(413) 772-2586", "distance": 11124.375595387011}, {"id": "5kNSVF1ZIFz1yu9U4r2bzw", "alias": "bakers-country-store-conway", "name": "Bakers Country Store", "image_url": "", "is_closed": false, "url": "https://www.yelp.com/biz/bakers-country-store-conway?adjust_creative=ywY5UnLZrNrRl2b93Ruy_g&utm_campaign=yelp_api_v3&utm_medium=api_v3_business_search&utm_source=ywY5UnLZrNrRl2b93Ruy_g", "review_count": 1, "categories": [{"alias": "breakfast_brunch", "title": "Breakfast & Brunch"}], "rating": 1.0, "coordinates": {"latitude": 42.50851, "longitude": -72.701994}, "transactions": [], "location": {"address1": "101 River St", "address2": "", "address3": "", "city": "Conway", "zip_code": "01341", "country": "US", "state": "MA", "display_address": ["101 River St", "Conway, MA 01341"]}, "phone": "+14133694936", "display_phone": "(413) 369-4936", "distance": 10040.426960720026}, {"id": "dEp2L6B4tFTHtK4NxWd83w", "alias": "turners-falls-pizza-house-turners-falls", "name": "Turners Falls Pizza House", "image_url": "https://s3-media2.fl.yelpcdn.com/bphoto/_xhngASvQO04GYK_oUGkMw/o.jpg", "is_closed": false, "url": "https://www.yelp.com/biz/turners-falls-pizza-house-turners-falls?adjust_creative=ywY5UnLZrNrRl2b93Ruy_g&utm_campaign=yelp_api_v3&utm_medium=api_v3_business_search&utm_source=ywY5UnLZrNrRl2b93Ruy_g", "review_count": 31, "categories": [{"alias": "pizza", "title": "Pizza"}, {"alias": "salad", "title": "Salad"}], "rating": 4.0, "coordinates": {"latitude": 42.60762, "longitude": -72.5569}, "transactions": ["delivery"], "price": "$", "location": {"address1": "119 Avenue A", "address2": "", "address3": "", "city": "Turners Falls", "zip_code": "01376", "country": "US", "state": "MA", "display_address": ["119 Avenue A", "Turners Falls, MA 01376"]}, "phone": "+14138638000", "display_phone": "(413) 863-8000", "distance": 14388.106540111223}, {"id": "epqJjZou4WhvNHm3YI0yaw", "alias": "doves-nest-restaurant-sunderland", "name": "Dove's Nest Restaurant", "image_url": "https://s3-media2.fl.yelpcdn.com/bphoto/lZaim-3fpRBkNFOC81btZQ/o.jpg", "is_closed": false, "url": "https://www.yelp.com/biz/doves-nest-restaurant-sunderland?adjust_creative=ywY5UnLZrNrRl2b93Ruy_g&utm_campaign=yelp_api_v3&utm_medium=api_v3_business_search&utm_source=ywY5UnLZrNrRl2b93Ruy_g", "review_count": 24, "categories": [{"alias": "diners", "title": "Diners"}, {"alias": "breakfast_brunch", "title": "Breakfast & Brunch"}], "rating": 4.0, "coordinates": {"latitude": 42.4512326907386, "longitude": -72.5632996993883}, "transactions": [], "price": "$", "location": {"address1": "285 Amherst Rd", "address2": "", "address3": "", "city": "Sunderland", "zip_code": "01375", "country": "US", "state": "MA", "display_address": ["285 Amherst Rd", "Sunderland, MA 01375"]}, "phone": "+14136657969", "display_phone": "(413) 665-7969", "distance": 21233.19335407737}, {"id": "CI0drVFkwHgp5QMbS_NIcw", "alias": "shelburne-falls-coffee-roasters-greenfield", "name": "Shelburne Falls Coffee Roasters", "image_url": "https://s3-media3.fl.yelpcdn.com/bphoto/CqKHLzvK1qUoxC-SsqPv4A/o.jpg", "is_closed": false, "url": "https://www.yelp.com/biz/shelburne-falls-coffee-roasters-greenfield?adjust_creative=ywY5UnLZrNrRl2b93Ruy_g&utm_campaign=yelp_api_v3&utm_medium=api_v3_business_search&utm_source=ywY5UnLZrNrRl2b93Ruy_g", "review_count": 51, "categories": [{"alias": "coffee", "title": "Coffee & Tea"}, {"alias": "bagels", "title": "Bagels"}, {"alias": "sandwiches", "title": "Sandwiches"}], "rating": 3.5, "coordinates": {"latitude": 42.59049, "longitude": -72.5992799}, "transactions": ["delivery"], "price": "$$", "location": {"address1": "100 Federal St", "address2": "", "address3": "", "city": "Greenfield", "zip_code": "01301", "country": "US", "state": "MA", "display_address": ["100 Federal St", "Greenfield, MA 01301"]}, "phone": "+14137738028", "display_phone": "(413) 773-8028", "distance": 10909.733013469217}, {"id": "B9mlcSelTLSmYp3UQlMCxw", "alias": "holiday-pizza-south-deerfield", "name": "Holiday Pizza", "image_url": "https://s3-media2.fl.yelpcdn.com/bphoto/5UGIRfPb-Pw3YWCxfalkfw/o.jpg", "is_closed": false, "url": "https://www.yelp.com/biz/holiday-pizza-south-deerfield?adjust_creative=ywY5UnLZrNrRl2b93Ruy_g&utm_campaign=yelp_api_v3&utm_medium=api_v3_business_search&utm_source=ywY5UnLZrNrRl2b93Ruy_g", "review_count": 33, "categories": [{"alias": "pizza", "title": "Pizza"}, {"alias": "mediterranean", "title": "Mediterranean"}, {"alias": "italian", "title": "Italian"}], "rating": 4.5, "coordinates": {"latitude": 42.4771728515625, "longitude": -72.609130859375}, "transactions": ["delivery"], "price": "$", "location": {"address1": "3 Elm St", "address2": "Ste A", "address3": "", "city": "South Deerfield", "zip_code": "01373", "country": "US", "state": "MA", "display_address": ["3 Elm St", "Ste A", "South Deerfield, MA 01373"]}, "phone": "+14136658195", "display_phone": "(413) 665-8195", "distance": 16624.2937866567}, {"id": "cI-D75PC7akLsPQSrvYX2w", "alias": "deerfield-lunch-box-deerfield", "name": "Deerfield Lunch Box", "image_url": "https://s3-media4.fl.yelpcdn.com/bphoto/46kxxAh53yd4ygbpPSY7jQ/o.jpg", "is_closed": false, "url": "https://www.yelp.com/biz/deerfield-lunch-box-deerfield?adjust_creative=ywY5UnLZrNrRl2b93Ruy_g&utm_campaign=yelp_api_v3&utm_medium=api_v3_business_search&utm_source=ywY5UnLZrNrRl2b93Ruy_g", "review_count": 1, "categories": [{"alias": "hotdog", "title": "Hot Dogs"}, {"alias": "foodstands", "title": "Food Stands"}, {"alias": "burgers", "title": "Burgers"}], "rating": 2.0, "coordinates": {"latitude": 42.547239, "longitude": -72.605898}, "transactions": [], "location": {"address1": "79 Old Main St", "address2": "", "address3": "Historic Deerfield", "city": "Deerfield", "zip_code": "01342", "country": "US", "state": "MA", "display_address": ["79 Old Main St", "Historic Deerfield", "Deerfield, MA 01342"]}, "phone": "+14137757171", "display_phone": "(413) 775-7171", "distance": 11681.114105475775}, {"id": "h33tLUMqn4OoS_WWpryfOQ", "alias": "whately-diner-whately-2", "name": "Whately Diner", "image_url": "https://s3-media4.fl.yelpcdn.com/bphoto/DBvU4Xihx_181DNp9oyR8w/o.jpg", "is_closed": false, "url": "https://www.yelp.com/biz/whately-diner-whately-2?adjust_creative=ywY5UnLZrNrRl2b93Ruy_g&utm_campaign=yelp_api_v3&utm_medium=api_v3_business_search&utm_source=ywY5UnLZrNrRl2b93Ruy_g", "review_count": 102, "categories": [{"alias": "diners", "title": "Diners"}, {"alias": "tradamerican", "title": "American (Traditional)"}], "rating": 3.0, "coordinates": {"latitude": 42.4640578, "longitude": -72.618024}, "transactions": ["delivery"], "price": "$$", "location": {"address1": "372 State Rd", "address2": "", "address3": "", "city": "Whately", "zip_code": "01093", "country": "US", "state": "MA", "display_address": ["372 State Rd", "Whately, MA 01093"]}, "phone": "+14136653696", "display_phone": "(413) 665-3696", "distance": 17403.520758070124}, {"id": "QzmmXJvK8cw7-BICO_gigQ", "alias": "shady-glen-turners-falls", "name": "Shady Glen", "image_url": "https://s3-media1.fl.yelpcdn.com/bphoto/WDilrIiLQWIs6l8y7XQbdA/o.jpg", "is_closed": false, "url": "https://www.yelp.com/biz/shady-glen-turners-falls?adjust_creative=ywY5UnLZrNrRl2b93Ruy_g&utm_campaign=yelp_api_v3&utm_medium=api_v3_business_search&utm_source=ywY5UnLZrNrRl2b93Ruy_g", "review_count": 35, "categories": [{"alias": "diners", "title": "Diners"}, {"alias": "breakfast_brunch", "title": "Breakfast & Brunch"}, {"alias": "tradamerican", "title": "American (Traditional)"}], "rating": 4.0, "coordinates": {"latitude": 42.6091117858887, "longitude": -72.5553665161133}, "transactions": ["delivery"], "price": "$", "location": {"address1": "7 Ave A", "address2": "", "address3": "", "city": "Turners Falls", "zip_code": "01376", "country": "US", "state": "MA", "display_address": ["7 Ave A", "Turners Falls, MA 01376"]}, "phone": "+14138639636", "display_phone": "(413) 863-9636", "distance": 14547.144139835256}, {"id": "NZHMfENo3z9WKmlntJzoQA", "alias": "primo-restaurant-and-pizzeria-south-deerfield", "name": "Primo Restaurant and Pizzeria", "image_url": "https://s3-media2.fl.yelpcdn.com/bphoto/6IziWJ7o2qxR7as40bhJ2Q/o.jpg", "is_closed": false, "url": "https://www.yelp.com/biz/primo-restaurant-and-pizzeria-south-deerfield?adjust_creative=ywY5UnLZrNrRl2b93Ruy_g&utm_campaign=yelp_api_v3&utm_medium=api_v3_business_search&utm_source=ywY5UnLZrNrRl2b93Ruy_g", "review_count": 32, "categories": [{"alias": "pizza", "title": "Pizza"}, {"alias": "italian", "title": "Italian"}, {"alias": "burgers", "title": "Burgers"}], "rating": 2.5, "coordinates": {"latitude": 42.47667, "longitude": -72.60749}, "transactions": ["delivery"], "price": "$", "location": {"address1": "4 Sugarloaf St", "address2": "", "address3": "", "city": "South Deerfield", "zip_code": "01373", "country": "US", "state": "MA", "display_address": ["4 Sugarloaf St", "South Deerfield, MA 01373"]}, "phone": "+14136653300", "display_phone": "(413) 665-3300", "distance": 16696.910254489652}, {"id": "viFpmTD5zT19tizBXRrKFw", "alias": "antonios-pizza-shop-greenfield", "name": "Antonio's Pizza Shop", "image_url": "https://s3-media2.fl.yelpcdn.com/bphoto/VuMGXTShN9oxzIHMdXZ7kg/o.jpg", "is_closed": false, "url": "https://www.yelp.com/biz/antonios-pizza-shop-greenfield?adjust_creative=ywY5UnLZrNrRl2b93Ruy_g&utm_campaign=yelp_api_v3&utm_medium=api_v3_business_search&utm_source=ywY5UnLZrNrRl2b93Ruy_g", "review_count": 20, "categories": [{"alias": "pizza", "title": "Pizza"}, {"alias": "italian", "title": "Italian"}, {"alias": "sandwiches", "title": "Sandwiches"}], "rating": 3.5, "coordinates": {"latitude": 42.5876694, "longitude": -72.6027374}, "transactions": ["delivery"], "price": "$", "location": {"address1": "201 Main St", "address2": "", "address3": "", "city": "Greenfield", "zip_code": "01301", "country": "US", "state": "MA", "display_address": ["201 Main St", "Greenfield, MA 01301"]}, "phone": "+14137737517", "display_phone": "(413) 773-7517", "distance": 10639.65174434607}, {"id": "HQstHLLH3MCV-VIvkEJ8Zw", "alias": "athens-pizza-greenfield", "name": "Athens Pizza", "image_url": "https://s3-media1.fl.yelpcdn.com/bphoto/Ui-xwzsHZrIndLoKz8KLHA/o.jpg", "is_closed": false, "url": "https://www.yelp.com/biz/athens-pizza-greenfield?adjust_creative=ywY5UnLZrNrRl2b93Ruy_g&utm_campaign=yelp_api_v3&utm_medium=api_v3_business_search&utm_source=ywY5UnLZrNrRl2b93Ruy_g", "review_count": 18, "categories": [{"alias": "pizza", "title": "Pizza"}], "rating": 2.5, "coordinates": {"latitude": 42.5869255065918, "longitude": -72.6082229614258}, "transactions": ["delivery"], "price": "$$", "location": {"address1": "25 Main St", "address2": "", "address3": "", "city": "Greenfield", "zip_code": "01301", "country": "US", "state": "MA", "display_address": ["25 Main St", "Greenfield, MA 01301"]}, "phone": "+14137743722", "display_phone": "(413) 774-3722", "distance": 10198.810676528812}, {"id": "HdpJ9-YxNriWZa03RS4VyQ", "alias": "antonios-ii-pizza-and-grinders-bernardston", "name": "Antonio's II Pizza & Grinders", "image_url": "https://s3-media3.fl.yelpcdn.com/bphoto/sJhlchuDAMEkHVBnTS_l7w/o.jpg", "is_closed": false, "url": "https://www.yelp.com/biz/antonios-ii-pizza-and-grinders-bernardston?adjust_creative=ywY5UnLZrNrRl2b93Ruy_g&utm_campaign=yelp_api_v3&utm_medium=api_v3_business_search&utm_source=ywY5UnLZrNrRl2b93Ruy_g", "review_count": 21, "categories": [{"alias": "pizza", "title": "Pizza"}, {"alias": "salad", "title": "Salad"}], "rating": 3.0, "coordinates": {"latitude": 42.671588, "longitude": -72.5545055}, "transactions": [], "price": "$", "location": {"address1": "1 S St", "address2": null, "address3": null, "city": "Bernardston", "zip_code": "01337", "country": "US", "state": "MA", "display_address": ["1 S St", "Bernardston, MA 01337"]}, "phone": "+14136489800", "display_phone": "(413) 648-9800", "distance": 16793.38647808734}, {"id": "YZvXTxzycSpl0thbZbA62Q", "alias": "frontier-pizza-place-sunderland", "name": "Frontier Pizza Place", "image_url": "https://s3-media2.fl.yelpcdn.com/bphoto/bRpCBgRHsJrY_hojQ5VK7A/o.jpg", "is_closed": false, "url": "https://www.yelp.com/biz/frontier-pizza-place-sunderland?adjust_creative=ywY5UnLZrNrRl2b93Ruy_g&utm_campaign=yelp_api_v3&utm_medium=api_v3_business_search&utm_source=ywY5UnLZrNrRl2b93Ruy_g", "review_count": 30, "categories": [{"alias": "pizza", "title": "Pizza"}], "rating": 3.0, "coordinates": {"latitude": 42.450953, "longitude": -72.562729}, "transactions": ["delivery"], "price": "$$", "location": {"address1": "283 Amherst Rd", "address2": "Rte 116", "address3": "", "city": "Sunderland", "zip_code": "01375", "country": "US", "state": "MA", "display_address": ["283 Amherst Rd", "Rte 116", "Sunderland, MA 01375"]}, "phone": "+14136657066", "display_phone": "(413) 665-7066", "distance": 21287.293677106652}, {"id": "-cTZN8UAmWz98p492Y_OMw", "alias": "friendlys-greenfield-2", "name": "Friendly's", "image_url": "https://s3-media3.fl.yelpcdn.com/bphoto/R8N4TORIBSgbhC1_DRsLZg/o.jpg", "is_closed": false, "url": "https://www.yelp.com/biz/friendlys-greenfield-2?adjust_creative=ywY5UnLZrNrRl2b93Ruy_g&utm_campaign=yelp_api_v3&utm_medium=api_v3_business_search&utm_source=ywY5UnLZrNrRl2b93Ruy_g", "review_count": 54, "categories": [{"alias": "icecream", "title": "Ice Cream & Frozen Yogurt"}, {"alias": "tradamerican", "title": "American (Traditional)"}, {"alias": "burgers", "title": "Burgers"}], "rating": 2.0, "coordinates": {"latitude": 42.5852699, "longitude": -72.6235962}, "transactions": [], "price": "$$", "location": {"address1": "200 Mohawk Trl", "address2": null, "address3": null, "city": "Greenfield", "zip_code": "01301", "country": "US", "state": "MA", "display_address": ["200 Mohawk Trl", "Greenfield, MA 01301"]}, "phone": "+14137745435", "display_phone": "(413) 774-5435", "distance": 8974.032120120819}, {"id": "JNqJUAR9is7ejRYW2c01FA", "alias": "sofias-pizza-greenfield", "name": "Sofia's Pizza", "image_url": "https://s3-media1.fl.yelpcdn.com/bphoto/ZP6DJjR_fmH9uZMJVOJvhQ/o.jpg", "is_closed": false, "url": "https://www.yelp.com/biz/sofias-pizza-greenfield?adjust_creative=ywY5UnLZrNrRl2b93Ruy_g&utm_campaign=yelp_api_v3&utm_medium=api_v3_business_search&utm_source=ywY5UnLZrNrRl2b93Ruy_g", "review_count": 31, "categories": [{"alias": "pizza", "title": "Pizza"}], "rating": 3.5, "coordinates": {"latitude": 42.5969467, "longitude": -72.5971298}, "transactions": ["delivery"], "price": "$$", "location": {"address1": "228 Federal St", "address2": "", "address3": "", "city": "Greenfield", "zip_code": "01301", "country": "US", "state": "MA", "display_address": ["228 Federal St", "Greenfield, MA 01301"]}, "phone": "+14137749900", "display_phone": "(413) 774-9900", "distance": 11051.428814484228}, {"id": "Bg_8P9_cODuGHbbHA3U8VQ", "alias": "sugarloaf-frostie-sunderland", "name": "Sugarloaf Frostie", "image_url": "https://s3-media2.fl.yelpcdn.com/bphoto/rqdpJK2QJOhKcxkGlbAiZQ/o.jpg", "is_closed": false, "url": "https://www.yelp.com/biz/sugarloaf-frostie-sunderland?adjust_creative=ywY5UnLZrNrRl2b93Ruy_g&utm_campaign=yelp_api_v3&utm_medium=api_v3_business_search&utm_source=ywY5UnLZrNrRl2b93Ruy_g", "review_count": 23, "categories": [{"alias": "foodstands", "title": "Food Stands"}], "rating": 3.5, "coordinates": {"latitude": 42.464494, "longitude": -72.574273}, "transactions": [], "price": "$", "location": {"address1": "116 Amherst Rd", "address2": "", "address3": "", "city": "Sunderland", "zip_code": "01375", "country": "US", "state": "MA", "display_address": ["116 Amherst Rd", "Sunderland, MA 01375"]}, "phone": "+14136657585", "display_phone": "(413) 665-7585", "distance": 19529.914053767217}, {"id": "VRA3aRN2BEb6O9rVEQ3gOg", "alias": "le-petit-cafe-greenfield", "name": "Le Petit Cafe", "image_url": "https://s3-media2.fl.yelpcdn.com/bphoto/MpWCzx2bkUihqHBPnIog_w/o.jpg", "is_closed": false, "url": "https://www.yelp.com/biz/le-petit-cafe-greenfield?adjust_creative=ywY5UnLZrNrRl2b93Ruy_g&utm_campaign=yelp_api_v3&utm_medium=api_v3_business_search&utm_source=ywY5UnLZrNrRl2b93Ruy_g", "review_count": 4, "categories": [{"alias": "cafes", "title": "Cafes"}, {"alias": "breakfast_brunch", "title": "Breakfast & Brunch"}], "rating": 4.0, "coordinates": {"latitude": 42.5876774, "longitude": -72.5981727}, "transactions": [], "price": "$", "location": {"address1": "426 Main St", "address2": null, "address3": null, "city": "Greenfield", "zip_code": "01301", "country": "US", "state": "MA", "display_address": ["426 Main St", "Greenfield, MA 01301"]}, "phone": "+14137687190", "display_phone": "(413) 768-7190", "distance": 11004.193561754671}, {"id": "mlDZf-GdNIaW5ToE3AR9CA", "alias": "subway-greenfield-20", "name": "Subway", "image_url": "https://s3-media2.fl.yelpcdn.com/bphoto/J25dG23zDO2UgNa3-tc9fw/o.jpg", "is_closed": false, "url": "https://www.yelp.com/biz/subway-greenfield-20?adjust_creative=ywY5UnLZrNrRl2b93Ruy_g&utm_campaign=yelp_api_v3&utm_medium=api_v3_business_search&utm_source=ywY5UnLZrNrRl2b93Ruy_g", "review_count": 3, "categories": [{"alias": "sandwiches", "title": "Sandwiches"}], "rating": 2.0, "coordinates": {"latitude": 42.5873648, "longitude": -72.626196}, "transactions": [], "price": "$", "location": {"address1": "251 Mohawk Trail", "address2": "", "address3": "Greenfield Plz S C", "city": "Greenfield", "zip_code": "01301", "country": "US", "state": "MA", "display_address": ["251 Mohawk Trail", "Greenfield Plz S C", "Greenfield, MA 01301"]}, "phone": "+14137743636", "display_phone": "(413) 774-3636", "distance": 8733.888172804443}, {"id": "5rkJ61I9GICBsEp2__7fXQ", "alias": "wings-over-greenfield-greenfield", "name": "Wings Over Greenfield", "image_url": "https://s3-media2.fl.yelpcdn.com/bphoto/Bmik4JsNWr2mPR6p0xu4aQ/o.jpg", "is_closed": false, "url": "https://www.yelp.com/biz/wings-over-greenfield-greenfield?adjust_creative=ywY5UnLZrNrRl2b93Ruy_g&utm_campaign=yelp_api_v3&utm_medium=api_v3_business_search&utm_source=ywY5UnLZrNrRl2b93Ruy_g", "review_count": 12, "categories": [{"alias": "chicken_wings", "title": "Chicken Wings"}, {"alias": "hotdogs", "title": "Fast Food"}, {"alias": "sandwiches", "title": "Sandwiches"}], "rating": 3.5, "coordinates": {"latitude": 42.5889892578125, "longitude": -72.5999526977539}, "transactions": [], "price": "$", "location": {"address1": "30 Federal St", "address2": "", "address3": null, "city": "Greenfield", "zip_code": "01301", "country": "US", "state": "MA", "display_address": ["30 Federal St", "Greenfield, MA 01301"]}, "phone": "+14137739464", "display_phone": "(413) 773-9464", "distance": 10852.711537119823}, {"id": "VcKnHfkBxXSqPd_a1TJa2Q", "alias": "kfc-greenfield-4", "name": "KFC", "image_url": "https://s3-media4.fl.yelpcdn.com/bphoto/zRrjKWbYcRMZx7xjAgBC5g/o.jpg", "is_closed": false, "url": "https://www.yelp.com/biz/kfc-greenfield-4?adjust_creative=ywY5UnLZrNrRl2b93Ruy_g&utm_campaign=yelp_api_v3&utm_medium=api_v3_business_search&utm_source=ywY5UnLZrNrRl2b93Ruy_g", "review_count": 6, "categories": [{"alias": "hotdogs", "title": "Fast Food"}, {"alias": "chicken_wings", "title": "Chicken Wings"}, {"alias": "chickenshop", "title": "Chicken Shop"}], "rating": 1.5, "coordinates": {"latitude": 42.5857303098406, "longitude": -72.626232}, "transactions": ["delivery", "pickup"], "price": "$", "location": {"address1": "242 Mohawk Trl", "address2": null, "address3": null, "city": "Greenfield", "zip_code": "01301", "country": "US", "state": "MA", "display_address": ["242 Mohawk Trl", "Greenfield, MA 01301"]}, "phone": "+14137747869", "display_phone": "(413) 774-7869", "distance": 8752.955952934832}, {"id": "OOTU0zYwg5QVhTB_1MFjBQ", "alias": "dennys-pantry-greenfield", "name": "Denny's Pantry", "image_url": "https://s3-media3.fl.yelpcdn.com/bphoto/aJ4KdrwNtjBdKr75LY9dng/o.jpg", "is_closed": false, "url": "https://www.yelp.com/biz/dennys-pantry-greenfield?adjust_creative=ywY5UnLZrNrRl2b93Ruy_g&utm_campaign=yelp_api_v3&utm_medium=api_v3_business_search&utm_source=ywY5UnLZrNrRl2b93Ruy_g", "review_count": 36, "categories": [{"alias": "tradamerican", "title": "American (Traditional)"}, {"alias": "breakfast_brunch", "title": "Breakfast & Brunch"}], "rating": 3.5, "coordinates": {"latitude": 42.60826, "longitude": -72.58705}, "transactions": [], "price": "$", "location": {"address1": "469 Bernardston Rd", "address2": "", "address3": "", "city": "Greenfield", "zip_code": "01301", "country": "US", "state": "MA", "display_address": ["469 Bernardston Rd", "Greenfield, MA 01301"]}, "phone": "+14137733345", "display_phone": "(413) 773-3345", "distance": 11946.262585441118}, {"id": "c2gucBE9DwnLOr9_Xk754A", "alias": "brads-place-greenfield", "name": "Brad's Place", "image_url": "https://s3-media2.fl.yelpcdn.com/bphoto/UniO9JMw-de02Xqojnx28g/o.jpg", "is_closed": false, "url": "https://www.yelp.com/biz/brads-place-greenfield?adjust_creative=ywY5UnLZrNrRl2b93Ruy_g&utm_campaign=yelp_api_v3&utm_medium=api_v3_business_search&utm_source=ywY5UnLZrNrRl2b93Ruy_g", "review_count": 27, "categories": [{"alias": "newamerican", "title": "American (New)"}, {"alias": "breakfast_brunch", "title": "Breakfast & Brunch"}], "rating": 3.5, "coordinates": {"latitude": 42.5876259014004, "longitude": -72.5999116420645}, "transactions": ["delivery", "pickup"], "price": "$", "location": {"address1": "353 Main St", "address2": "", "address3": "", "city": "Greenfield", "zip_code": "01301", "country": "US", "state": "MA", "display_address": ["353 Main St", "Greenfield, MA 01301"]}, "phone": "+14137738460", "display_phone": "(413) 773-8460", "distance": 10872.498662857277}, {"id": "_bXSHicL1fVAG-RhwxJYPQ", "alias": "subway-south-deerfield-3", "name": "Subway", "image_url": "https://s3-media3.fl.yelpcdn.com/bphoto/X8kbX68KBbQAXsBH5t-8rw/o.jpg", "is_closed": false, "url": "https://www.yelp.com/biz/subway-south-deerfield-3?adjust_creative=ywY5UnLZrNrRl2b93Ruy_g&utm_campaign=yelp_api_v3&utm_medium=api_v3_business_search&utm_source=ywY5UnLZrNrRl2b93Ruy_g", "review_count": 2, "categories": [{"alias": "sandwiches", "title": "Sandwiches"}], "rating": 3.0, "coordinates": {"latitude": 42.4708609610147, "longitude": -72.6158315565979}, "transactions": [], "price": "$", "location": {"address1": "1 Greenfield Rd", "address2": null, "address3": null, "city": "South Deerfield", "zip_code": "01373", "country": "US", "state": "MA", "display_address": ["1 Greenfield Rd", "South Deerfield, MA 01373"]}, "phone": "+14136659830", "display_phone": "(413) 665-9830", "distance": 16871.29554196995}, {"id": "9gUZ2bgnsPRtihya9yvzVg", "alias": "taco-bell-greenfield", "name": "Taco Bell", "image_url": "https://s3-media1.fl.yelpcdn.com/bphoto/ogHV-spWv4efdk7MthVOLw/o.jpg", "is_closed": false, "url": "https://www.yelp.com/biz/taco-bell-greenfield?adjust_creative=ywY5UnLZrNrRl2b93Ruy_g&utm_campaign=yelp_api_v3&utm_medium=api_v3_business_search&utm_source=ywY5UnLZrNrRl2b93Ruy_g", "review_count": 14, "categories": [{"alias": "hotdogs", "title": "Fast Food"}, {"alias": "tacos", "title": "Tacos"}], "rating": 1.0, "coordinates": {"latitude": 42.586462, "longitude": -72.627696}, "transactions": [], "price": "$", "location": {"address1": "242 Mohawk Trail", "address2": "", "address3": "", "city": "Greenfield", "zip_code": "01301", "country": "US", "state": "MA", "display_address": ["242 Mohawk Trail", "Greenfield, MA 01301"]}, "phone": "+14137747869", "display_phone": "(413) 774-7869", "distance": 8623.703182528448}, {"id": "7IOS0bILt7y2-6eiiXxJRg", "alias": "mcdonalds-greenfield", "name": "McDonald's", "image_url": "https://s3-media4.fl.yelpcdn.com/bphoto/RUa3FiH2Cx7jHuH740Rw8Q/o.jpg", "is_closed": false, "url": "https://www.yelp.com/biz/mcdonalds-greenfield?adjust_creative=ywY5UnLZrNrRl2b93Ruy_g&utm_campaign=yelp_api_v3&utm_medium=api_v3_business_search&utm_source=ywY5UnLZrNrRl2b93Ruy_g", "review_count": 19, "categories": [{"alias": "hotdogs", "title": "Fast Food"}, {"alias": "burgers", "title": "Burgers"}, {"alias": "coffee", "title": "Coffee & Tea"}], "rating": 2.5, "coordinates": {"latitude": 42.5854669, "longitude": -72.6247290475385}, "transactions": [], "price": "$", "location": {"address1": "208 Mohawk Trl", "address2": "", "address3": "", "city": "Greenfield", "zip_code": "01301", "country": "US", "state": "MA", "display_address": ["208 Mohawk Trl", "Greenfield, MA 01301"]}, "phone": "+14137745311", "display_phone": "(413) 774-5311", "distance": 8878.790750900387}, {"id": "BEFXrXW9BIo96TA4yOlanA", "alias": "subway-greenfield-29", "name": "Subway", "image_url": "https://s3-media3.fl.yelpcdn.com/bphoto/KhBvbd8eR5pSD5juuoh8Gw/o.jpg", "is_closed": false, "url": "https://www.yelp.com/biz/subway-greenfield-29?adjust_creative=ywY5UnLZrNrRl2b93Ruy_g&utm_campaign=yelp_api_v3&utm_medium=api_v3_business_search&utm_source=ywY5UnLZrNrRl2b93Ruy_g", "review_count": 7, "categories": [{"alias": "sandwiches", "title": "Sandwiches"}], "rating": 3.5, "coordinates": {"latitude": 42.6023944623179, "longitude": -72.592163430718}, "transactions": [], "price": "$", "location": {"address1": "343 Federal St", "address2": "", "address3": "", "city": "Greenfield", "zip_code": "01301", "country": "US", "state": "MA", "display_address": ["343 Federal St", "Greenfield, MA 01301"]}, "phone": "+14137745999", "display_phone": "(413) 774-5999", "distance": 11487.266335503045}, {"id": "9f8jUaPQOlu8Q-3W_t61fg", "alias": "subway-turners-falls-3", "name": "Subway", "image_url": "https://s3-media4.fl.yelpcdn.com/bphoto/BQKiqilNmE7skga-CDDUOg/o.jpg", "is_closed": false, "url": "https://www.yelp.com/biz/subway-turners-falls-3?adjust_creative=ywY5UnLZrNrRl2b93Ruy_g&utm_campaign=yelp_api_v3&utm_medium=api_v3_business_search&utm_source=ywY5UnLZrNrRl2b93Ruy_g", "review_count": 3, "categories": [{"alias": "sandwiches", "title": "Sandwiches"}], "rating": 3.5, "coordinates": {"latitude": 42.6085179, "longitude": -72.5561029998867}, "transactions": [], "price": "$", "location": {"address1": "57 Avenue A", "address2": "", "address3": "", "city": "Turners Falls", "zip_code": "01376", "country": "US", "state": "MA", "display_address": ["57 Avenue A", "Turners Falls, MA 01376"]}, "phone": "+14138632363", "display_phone": "(413) 863-2363", "distance": 14483.10861349536}, {"id": "NypGgpHGkW_VrZwYlcf7ag", "alias": "subway-sunderland-9", "name": "Subway", "image_url": "https://s3-media1.fl.yelpcdn.com/bphoto/nWFOwe3ieLFVGShR7NazoA/o.jpg", "is_closed": false, "url": "https://www.yelp.com/biz/subway-sunderland-9?adjust_creative=ywY5UnLZrNrRl2b93Ruy_g&utm_campaign=yelp_api_v3&utm_medium=api_v3_business_search&utm_source=ywY5UnLZrNrRl2b93Ruy_g", "review_count": 1, "categories": [{"alias": "sandwiches", "title": "Sandwiches"}], "rating": 4.0, "coordinates": {"latitude": 42.4507409061699, "longitude": -72.5608282907318}, "transactions": [], "price": "$", "location": {"address1": "5C Clark Mountain Rd", "address2": null, "address3": "", "city": "Sunderland", "zip_code": "01375", "country": "US", "state": "MA", "display_address": ["5C Clark Mountain Rd", "Sunderland, MA 01375"]}, "phone": "+14136650900", "display_phone": "(413) 665-0900", "distance": 21407.07214194622}, {"id": "lGTaMLtrvNzg8kJqm93KTA", "alias": "mcdonalds-greenfield-5", "name": "McDonald's", "image_url": "https://s3-media4.fl.yelpcdn.com/bphoto/k0TRfvZBOqKHdWPr7vZsnA/o.jpg", "is_closed": false, "url": "https://www.yelp.com/biz/mcdonalds-greenfield-5?adjust_creative=ywY5UnLZrNrRl2b93Ruy_g&utm_campaign=yelp_api_v3&utm_medium=api_v3_business_search&utm_source=ywY5UnLZrNrRl2b93Ruy_g", "review_count": 9, "categories": [{"alias": "hotdogs", "title": "Fast Food"}, {"alias": "burgers", "title": "Burgers"}, {"alias": "coffee", "title": "Coffee & Tea"}], "rating": 2.0, "coordinates": {"latitude": 42.5998173687393, "longitude": -72.5944671034812}, "transactions": [], "price": "$", "location": {"address1": "285 Federal St", "address2": "", "address3": "", "city": "Greenfield", "zip_code": "01301", "country": "US", "state": "MA", "display_address": ["285 Federal St", "Greenfield, MA 01301"]}, "phone": "+14137743618", "display_phone": "(413) 774-3618", "distance": 11284.938156204375}, {"id": "4Zzu0W5N2O6-ATv7vOMnog", "alias": "wendys-greenfield-2", "name": "Wendy's", "image_url": "https://s3-media1.fl.yelpcdn.com/bphoto/VjepJeSj81EQxIrHcl7H_A/o.jpg", "is_closed": false, "url": "https://www.yelp.com/biz/wendys-greenfield-2?adjust_creative=ywY5UnLZrNrRl2b93Ruy_g&utm_campaign=yelp_api_v3&utm_medium=api_v3_business_search&utm_source=ywY5UnLZrNrRl2b93Ruy_g", "review_count": 16, "categories": [{"alias": "hotdogs", "title": "Fast Food"}, {"alias": "burgers", "title": "Burgers"}], "rating": 2.0, "coordinates": {"latitude": 42.592495, "longitude": -72.598592}, "transactions": ["delivery"], "price": "$", "location": {"address1": "138 Federal Street", "address2": "", "address3": "", "city": "Greenfield", "zip_code": "01301", "country": "US", "state": "MA", "display_address": ["138 Federal Street", "Greenfield, MA 01301"]}, "phone": "+14137745201", "display_phone": "(413) 774-5201", "distance": 10946.294659559866}, {"id": "0pFLeP_Xjxhf2dM-5Orw4w", "alias": "subway-sunderland-4", "name": "Subway", "image_url": "", "is_closed": false, "url": "https://www.yelp.com/biz/subway-sunderland-4?adjust_creative=ywY5UnLZrNrRl2b93Ruy_g&utm_campaign=yelp_api_v3&utm_medium=api_v3_business_search&utm_source=ywY5UnLZrNrRl2b93Ruy_g", "review_count": 2, "categories": [{"alias": "sandwiches", "title": "Sandwiches"}, {"alias": "hotdogs", "title": "Fast Food"}], "rating": 3.5, "coordinates": {"latitude": 42.464704, "longitude": -72.5758}, "transactions": [], "price": "$", "location": {"address1": "45 Amherst Rd", "address2": "", "address3": "", "city": "Sunderland", "zip_code": "01375", "country": "US", "state": "MA", "display_address": ["45 Amherst Rd", "Sunderland, MA 01375"]}, "phone": "+14136650900", "display_phone": "(413) 665-0900", "distance": 19431.927099274573}, {"id": "lAHlJinahtGJQkd25QJrRw", "alias": "dominos-pizza-greenfield-4", "name": "Domino's Pizza", "image_url": "https://s3-media3.fl.yelpcdn.com/bphoto/ZFcc_blzn6KVp9PDfMX_0Q/o.jpg", "is_closed": false, "url": "https://www.yelp.com/biz/dominos-pizza-greenfield-4?adjust_creative=ywY5UnLZrNrRl2b93Ruy_g&utm_campaign=yelp_api_v3&utm_medium=api_v3_business_search&utm_source=ywY5UnLZrNrRl2b93Ruy_g", "review_count": 10, "categories": [{"alias": "pizza", "title": "Pizza"}, {"alias": "chicken_wings", "title": "Chicken Wings"}, {"alias": "sandwiches", "title": "Sandwiches"}], "rating": 1.5, "coordinates": {"latitude": 42.603973, "longitude": -72.591673}, "transactions": [], "price": "$", "location": {"address1": "368 Federal St", "address2": "", "address3": "", "city": "Greenfield", "zip_code": "01301", "country": "US", "state": "MA", "display_address": ["368 Federal St", "Greenfield, MA 01301"]}, "phone": "+14137747291", "display_phone": "(413) 774-7291", "distance": 11539.320185562005}, {"id": "qqA8YX58xnmEXLyanHfdUg", "alias": "stufd-food-truck-brooklyn", "name": "Stuf'd Food Truck", "image_url": "https://s3-media2.fl.yelpcdn.com/bphoto/_Wn0i-tLIOFinw8BPAqxPA/o.jpg", "is_closed": false, "url": "https://www.yelp.com/biz/stufd-food-truck-brooklyn?adjust_creative=ywY5UnLZrNrRl2b93Ruy_g&utm_campaign=yelp_api_v3&utm_medium=api_v3_business_search&utm_source=ywY5UnLZrNrRl2b93Ruy_g", "review_count": 4, "categories": [{"alias": "sandwiches", "title": "Sandwiches"}, {"alias": "foodtrucks", "title": "Food Trucks"}], "rating": 4.0, "coordinates": {"latitude": 40.7124539, "longitude": -73.9287374}, "transactions": [], "location": {"address1": "178 Varick Ave", "address2": "", "address3": null, "city": "Brooklyn", "zip_code": "11237", "country": "US", "state": "NY", "display_address": ["178 Varick Ave", "Brooklyn, NY 11237"]}, "phone": "+18457091808", "display_phone": "(845) 709-1808", "distance": 231828.6437525168}]