[{"id": "4pJVWgu0AtGC_0Fu4jclQg", "alias": "grafton-grill-north-grafton", "name": "Grafton Grill", "image_url": "https://s3-media1.fl.yelpcdn.com/bphoto/_KBeFq-_-abFny2KY3SnxQ/o.jpg", "is_closed": false, "url": "https://www.yelp.com/biz/grafton-grill-north-grafton?adjust_creative=ywY5UnLZrNrRl2b93Ruy_g&utm_campaign=yelp_api_v3&utm_medium=api_v3_business_search&utm_source=ywY5UnLZrNrRl2b93Ruy_g", "review_count": 122, "categories": [{"alias": "bars", "title": "Bars"}, {"alias": "salad", "title": "Salad"}, {"alias": "newamerican", "title": "American (New)"}], "rating": 4.0, "coordinates": {"latitude": 42.2303, "longitude": -71.70862}, "transactions": ["pickup", "delivery"], "price": "$$", "location": {"address1": "10 Bridge St", "address2": null, "address3": null, "city": "North Grafton", "zip_code": "01536", "country": "US", "state": "MA", "display_address": ["10 Bridge St", "North Grafton, MA 01536"]}, "phone": "+15088390333", "display_phone": "(508) 839-0333", "distance": 3724.056370130756}, {"id": "jd9Qez3S2Lt9xSx5ic53yw", "alias": "hunters-grille-and-tap-at-the-grafton-inn-grafton", "name": "Hunter's Grille And Tap at The Grafton Inn", "image_url": "https://s3-media1.fl.yelpcdn.com/bphoto/r_5WLQZSnoxnaeFQ-2aHUg/o.jpg", "is_closed": false, "url": "https://www.yelp.com/biz/hunters-grille-and-tap-at-the-grafton-inn-grafton?adjust_creative=ywY5UnLZrNrRl2b93Ruy_g&utm_campaign=yelp_api_v3&utm_medium=api_v3_business_search&utm_source=ywY5UnLZrNrRl2b93Ruy_g", "review_count": 104, "categories": [{"alias": "hotels", "title": "Hotels"}, {"alias": "bars", "title": "Bars"}, {"alias": "tradamerican", "title": "American (Traditional)"}], "rating": 3.5, "coordinates": {"latitude": 42.2064933776855, "longitude": -71.684440612793}, "transactions": ["delivery"], "price": "$$", "location": {"address1": "25 Grafton Common", "address2": "", "address3": "", "city": "Grafton", "zip_code": "01519", "country": "US", "state": "MA", "display_address": ["25 Grafton Common", "Grafton, MA 01519"]}, "phone": "+15088395931", "display_phone": "(508) 839-5931", "distance": 420.5639018753507}, {"id": "-2RuJhj3BfHICxo-u8g4PA", "alias": "red-rock-grill-and-bar-upton-2", "name": "Red Rock Grill & Bar", "image_url": "https://s3-media3.fl.yelpcdn.com/bphoto/v5K-qqQlctWMu_QarUyj-g/o.jpg", "is_closed": false, "url": "https://www.yelp.com/biz/red-rock-grill-and-bar-upton-2?adjust_creative=ywY5UnLZrNrRl2b93Ruy_g&utm_campaign=yelp_api_v3&utm_medium=api_v3_business_search&utm_source=ywY5UnLZrNrRl2b93Ruy_g", "review_count": 294, "categories": [{"alias": "tradamerican", "title": "American (Traditional)"}, {"alias": "cocktailbars", "title": "Cocktail Bars"}], "rating": 4.0, "coordinates": {"latitude": 42.1790776, "longitude": -71.6399448}, "transactions": ["delivery"], "price": "$$", "location": {"address1": "66 W Main St", "address2": "", "address3": "", "city": "Upton", "zip_code": "01568", "country": "US", "state": "MA", "display_address": ["66 W Main St", "Upton, MA 01568"]}, "phone": "+15085290500", "display_phone": "(508) 529-0500", "distance": 4396.810525967151}, {"id": "5CU7BIMLyHRGSSq10cLekw", "alias": "john-henry-tavern-grafton", "name": "John Henry Tavern", "image_url": "https://s3-media1.fl.yelpcdn.com/bphoto/wfGb_PFepT6cg5NvDCk3aA/o.jpg", "is_closed": false, "url": "https://www.yelp.com/biz/john-henry-tavern-grafton?adjust_creative=ywY5UnLZrNrRl2b93Ruy_g&utm_campaign=yelp_api_v3&utm_medium=api_v3_business_search&utm_source=ywY5UnLZrNrRl2b93Ruy_g", "review_count": 15, "categories": [{"alias": "pubs", "title": "Pubs"}, {"alias": "newamerican", "title": "American (New)"}], "rating": 3.5, "coordinates": {"latitude": 42.1947606, "longitude": -71.6800296}, "transactions": [], "price": "$$", "location": {"address1": "42 Magill Dr", "address2": null, "address3": null, "city": "Grafton", "zip_code": "01519", "country": "US", "state": "MA", "display_address": ["42 Magill Dr", "Grafton, MA 01519"]}, "phone": "+15088391945", "display_phone": "(508) 839-1945", "distance": 944.6029700317345}, {"id": "bpFnJ6jqbDEzvCfW-vyRTg", "alias": "brickstone-kitchen-sutton", "name": "Brickstone Kitchen", "image_url": "https://s3-media2.fl.yelpcdn.com/bphoto/YqIX8MJIbzt7V-kFshZUYw/o.jpg", "is_closed": false, "url": "https://www.yelp.com/biz/brickstone-kitchen-sutton?adjust_creative=ywY5UnLZrNrRl2b93Ruy_g&utm_campaign=yelp_api_v3&utm_medium=api_v3_business_search&utm_source=ywY5UnLZrNrRl2b93Ruy_g", "review_count": 46, "categories": [{"alias": "pizza", "title": "Pizza"}, {"alias": "italian", "title": "Italian"}, {"alias": "seafood", "title": "Seafood"}], "rating": 4.0, "coordinates": {"latitude": 42.1568126349271, "longitude": -71.729104667902}, "transactions": ["delivery"], "location": {"address1": "4 Worcester-Providence Tpke", "address2": "", "address3": null, "city": "Sutton", "zip_code": "01590", "country": "US", "state": "MA", "display_address": ["4 Worcester-Providence Tpke", "Sutton, MA 01590"]}, "phone": "+15088658650", "display_phone": "(508) 865-8650", "distance": 6426.79715916173}, {"id": "Ta5QtusuYzGR1OnzKOL0hw", "alias": "cancuns-family-mexican-restaurant-north-grafton", "name": "Cancun's Family Mexican Restaurant", "image_url": "https://s3-media2.fl.yelpcdn.com/bphoto/wgVrOqoLiKVCAlNVSJjB9Q/o.jpg", "is_closed": false, "url": "https://www.yelp.com/biz/cancuns-family-mexican-restaurant-north-grafton?adjust_creative=ywY5UnLZrNrRl2b93Ruy_g&utm_campaign=yelp_api_v3&utm_medium=api_v3_business_search&utm_source=ywY5UnLZrNrRl2b93Ruy_g", "review_count": 150, "categories": [{"alias": "mexican", "title": "Mexican"}], "rating": 4.0, "coordinates": {"latitude": 42.21551, "longitude": -71.693}, "transactions": ["delivery"], "price": "$$", "location": {"address1": "75 Worcester St", "address2": "", "address3": "", "city": "North Grafton", "zip_code": "01536", "country": "US", "state": "MA", "display_address": ["75 Worcester St", "North Grafton, MA 01536"]}, "phone": "+15088398800", "display_phone": "(508) 839-8800", "distance": 1643.3093694564964}, {"id": "XWFGvjlEoNMzrbH43-A4cA", "alias": "civic-kitchen-and-drink-westborough", "name": "Civic Kitchen & Drink", "image_url": "https://s3-media4.fl.yelpcdn.com/bphoto/UXF4UZFCnf0hQ-2FaUbkwA/o.jpg", "is_closed": false, "url": "https://www.yelp.com/biz/civic-kitchen-and-drink-westborough?adjust_creative=ywY5UnLZrNrRl2b93Ruy_g&utm_campaign=yelp_api_v3&utm_medium=api_v3_business_search&utm_source=ywY5UnLZrNrRl2b93Ruy_g", "review_count": 171, "categories": [{"alias": "gastropubs", "title": "Gastropubs"}, {"alias": "comfortfood", "title": "Comfort Food"}, {"alias": "newamerican", "title": "American (New)"}], "rating": 4.0, "coordinates": {"latitude": 42.264092, "longitude": -71.623966}, "transactions": ["delivery"], "price": "$$", "location": {"address1": "121 W Main St", "address2": "", "address3": "", "city": "Westborough", "zip_code": "01581", "country": "US", "state": "MA", "display_address": ["121 W Main St", "Westborough, MA 01581"]}, "phone": "+15083295179", "display_phone": "(508) 329-5179", "distance": 8314.957791168574}, {"id": "UvlxXIaBSdZMbn4IMSc92g", "alias": "118-main-street-kitchen-and-spirits-upton", "name": "118 Main Street Kitchen & Spirits", "image_url": "https://s3-media3.fl.yelpcdn.com/bphoto/HbssHaMexb34Dk7WbOH_KA/o.jpg", "is_closed": false, "url": "https://www.yelp.com/biz/118-main-street-kitchen-and-spirits-upton?adjust_creative=ywY5UnLZrNrRl2b93Ruy_g&utm_campaign=yelp_api_v3&utm_medium=api_v3_business_search&utm_source=ywY5UnLZrNrRl2b93Ruy_g", "review_count": 29, "categories": [{"alias": "newamerican", "title": "American (New)"}], "rating": 3.5, "coordinates": {"latitude": 42.1696108481808, "longitude": -71.6204329580069}, "transactions": [], "location": {"address1": "118 Main St", "address2": "", "address3": null, "city": "Upton", "zip_code": "01568", "country": "US", "state": "MA", "display_address": ["118 Main St", "Upton, MA 01568"]}, "phone": "+15086031304", "display_phone": "(508) 603-1304", "distance": 6315.08963341008}, {"id": "8c0rDX-WTozOevJaJTybnQ", "alias": "reunion-tap-and-table-grafton", "name": "Reunion Tap & Table", "image_url": "https://s3-media3.fl.yelpcdn.com/bphoto/_R_k-2yV9MvA94bRhp6_oQ/o.jpg", "is_closed": false, "url": "https://www.yelp.com/biz/reunion-tap-and-table-grafton?adjust_creative=ywY5UnLZrNrRl2b93Ruy_g&utm_campaign=yelp_api_v3&utm_medium=api_v3_business_search&utm_source=ywY5UnLZrNrRl2b93Ruy_g", "review_count": 119, "categories": [{"alias": "tradamerican", "title": "American (Traditional)"}, {"alias": "breakfast_brunch", "title": "Breakfast & Brunch"}, {"alias": "coffee", "title": "Coffee & Tea"}], "rating": 3.5, "coordinates": {"latitude": 42.2304699, "longitude": -71.71721}, "transactions": ["pickup", "delivery"], "price": "$$", "location": {"address1": "198 Worcester St", "address2": null, "address3": "", "city": "Grafton", "zip_code": "01536", "country": "US", "state": "MA", "display_address": ["198 Worcester St", "Grafton, MA 01536"]}, "phone": "+17742935501", "display_phone": "(774) 293-5501", "distance": 4184.796527699396}, {"id": "1_NXWM7QOA1dbc5266T7og", "alias": "bushel-n-peck-grafton", "name": "Bushel 'N Peck", "image_url": "https://s3-media2.fl.yelpcdn.com/bphoto/PMN3poj1DYJvP6n0OFbddA/o.jpg", "is_closed": false, "url": "https://www.yelp.com/biz/bushel-n-peck-grafton?adjust_creative=ywY5UnLZrNrRl2b93Ruy_g&utm_campaign=yelp_api_v3&utm_medium=api_v3_business_search&utm_source=ywY5UnLZrNrRl2b93Ruy_g", "review_count": 78, "categories": [{"alias": "breakfast_brunch", "title": "Breakfast & Brunch"}, {"alias": "delis", "title": "Delis"}], "rating": 4.0, "coordinates": {"latitude": 42.207954, "longitude": -71.685357}, "transactions": ["pickup", "delivery"], "price": "$", "location": {"address1": "8 Worcester St", "address2": "", "address3": "", "city": "Grafton", "zip_code": "01519", "country": "US", "state": "MA", "display_address": ["8 Worcester St", "Grafton, MA 01519"]}, "phone": "+15088393005", "display_phone": "(508) 839-3005", "distance": 595.7413428212922}, {"id": "7Hmd7L0KvWfOZFEkCLQB9A", "alias": "pub-122-grafton", "name": "Pub 122", "image_url": "https://s3-media3.fl.yelpcdn.com/bphoto/25_-CWMsbv1hpQZoNgnAvw/o.jpg", "is_closed": false, "url": "https://www.yelp.com/biz/pub-122-grafton?adjust_creative=ywY5UnLZrNrRl2b93Ruy_g&utm_campaign=yelp_api_v3&utm_medium=api_v3_business_search&utm_source=ywY5UnLZrNrRl2b93Ruy_g", "review_count": 25, "categories": [{"alias": "breakfast_brunch", "title": "Breakfast & Brunch"}, {"alias": "pubs", "title": "Pubs"}, {"alias": "indpak", "title": "Indian"}], "rating": 4.5, "coordinates": {"latitude": 42.22848, "longitude": -71.7208799}, "transactions": ["delivery"], "location": {"address1": "215 Worcester St", "address2": "", "address3": null, "city": "Grafton", "zip_code": "01536", "country": "US", "state": "MA", "display_address": ["215 Worcester St", "Grafton, MA 01536"]}, "phone": "+17742935004", "display_phone": "(774) 293-5004", "distance": 4241.358991736032}, {"id": "TiH7xURLrMjN950go7xb0g", "alias": "post-office-pub-restaurant-north-grafton", "name": "Post Office Pub Restaurant", "image_url": "https://s3-media3.fl.yelpcdn.com/bphoto/VGCI4wJZb2MPqMbHFcwkdg/o.jpg", "is_closed": false, "url": "https://www.yelp.com/biz/post-office-pub-restaurant-north-grafton?adjust_creative=ywY5UnLZrNrRl2b93Ruy_g&utm_campaign=yelp_api_v3&utm_medium=api_v3_business_search&utm_source=ywY5UnLZrNrRl2b93Ruy_g", "review_count": 145, "categories": [{"alias": "tradamerican", "title": "American (Traditional)"}, {"alias": "pubs", "title": "Pubs"}], "rating": 3.0, "coordinates": {"latitude": 42.2323549, "longitude": -71.7076399}, "transactions": ["delivery"], "price": "$$", "location": {"address1": "1 Ray St", "address2": "", "address3": "", "city": "North Grafton", "zip_code": "01536", "country": "US", "state": "MA", "display_address": ["1 Ray St", "North Grafton, MA 01536"]}, "phone": "+15088396106", "display_phone": "(508) 839-6106", "distance": 3877.9881034209493}, {"id": "1-oKoaZsSam5SBgnUjpD4Q", "alias": "the-coop-millbury", "name": "The Coop", "image_url": "https://s3-media2.fl.yelpcdn.com/bphoto/Rn1ruBbcxc5T0fX5edgQsQ/o.jpg", "is_closed": false, "url": "https://www.yelp.com/biz/the-coop-millbury?adjust_creative=ywY5UnLZrNrRl2b93Ruy_g&utm_campaign=yelp_api_v3&utm_medium=api_v3_business_search&utm_source=ywY5UnLZrNrRl2b93Ruy_g", "review_count": 147, "categories": [{"alias": "chicken_wings", "title": "Chicken Wings"}, {"alias": "bbq", "title": "Barbeque"}, {"alias": "sandwiches", "title": "Sandwiches"}], "rating": 4.5, "coordinates": {"latitude": 42.1912, "longitude": -71.76148}, "transactions": ["pickup", "delivery"], "price": "$$", "location": {"address1": "110 Elm St", "address2": "", "address3": null, "city": "Millbury", "zip_code": "01527", "country": "US", "state": "MA", "display_address": ["110 Elm St", "Millbury, MA 01527"]}, "phone": "+15088653100", "display_phone": "(508) 865-3100", "distance": 6647.705162726815}, {"id": "xAwY8gxKTXVYNCTOZ0Y4Tw", "alias": "wongs-restaurant-grafton", "name": "Wong's Restaurant", "image_url": "https://s3-media3.fl.yelpcdn.com/bphoto/VT9qyvlQ1UoUZeNNru3CBQ/o.jpg", "is_closed": false, "url": "https://www.yelp.com/biz/wongs-restaurant-grafton?adjust_creative=ywY5UnLZrNrRl2b93Ruy_g&utm_campaign=yelp_api_v3&utm_medium=api_v3_business_search&utm_source=ywY5UnLZrNrRl2b93Ruy_g", "review_count": 47, "categories": [{"alias": "chinese", "title": "Chinese"}], "rating": 3.0, "coordinates": {"latitude": 42.2058906555176, "longitude": -71.6769561767578}, "transactions": [], "price": "$$", "location": {"address1": "62 Upton St", "address2": "", "address3": "", "city": "Grafton", "zip_code": "01519", "country": "US", "state": "MA", "display_address": ["62 Upton St", "Grafton, MA 01519"]}, "phone": "+15088393020", "display_phone": "(508) 839-3020", "distance": 550.1655455026289}, {"id": "SwMdUO6saMvaX65aSfZtjA", "alias": "pearl-caf\u00e9-north-grafton-2", "name": "Pearl Caf\u00e9", "image_url": "https://s3-media2.fl.yelpcdn.com/bphoto/0idFBJUlTbWfaGXkRGc3zw/o.jpg", "is_closed": false, "url": "https://www.yelp.com/biz/pearl-caf%C3%A9-north-grafton-2?adjust_creative=ywY5UnLZrNrRl2b93Ruy_g&utm_campaign=yelp_api_v3&utm_medium=api_v3_business_search&utm_source=ywY5UnLZrNrRl2b93Ruy_g", "review_count": 36, "categories": [{"alias": "chinese", "title": "Chinese"}], "rating": 4.0, "coordinates": {"latitude": 42.230309, "longitude": -71.717443}, "transactions": ["delivery"], "price": "$$", "location": {"address1": "198 Worcester St", "address2": "Ste 4", "address3": "", "city": "North Grafton", "zip_code": "01536", "country": "US", "state": "MA", "display_address": ["198 Worcester St", "Ste 4", "North Grafton, MA 01536"]}, "phone": "+15088393899", "display_phone": "(508) 839-3899", "distance": 4185.239284319822}, {"id": "koht0BcHc5G52iI_8glWOg", "alias": "kai-mook-millbury", "name": "Kai Mook", "image_url": "https://s3-media3.fl.yelpcdn.com/bphoto/5qr3qCpQRnjebfUX86PH5A/o.jpg", "is_closed": false, "url": "https://www.yelp.com/biz/kai-mook-millbury?adjust_creative=ywY5UnLZrNrRl2b93Ruy_g&utm_campaign=yelp_api_v3&utm_medium=api_v3_business_search&utm_source=ywY5UnLZrNrRl2b93Ruy_g", "review_count": 61, "categories": [{"alias": "thai", "title": "Thai"}, {"alias": "salad", "title": "Salad"}, {"alias": "coffee", "title": "Coffee & Tea"}], "rating": 4.5, "coordinates": {"latitude": 42.1939832, "longitude": -71.7592259}, "transactions": ["delivery"], "location": {"address1": "3 Howe Ave", "address2": "", "address3": null, "city": "Millbury", "zip_code": "01527", "country": "US", "state": "MA", "display_address": ["3 Howe Ave", "Millbury, MA 01527"]}, "phone": "+15088659656", "display_phone": "(508) 865-9656", "distance": 6419.736776522946}, {"id": "y_KJIHT4KktvfS5EPJVGbg", "alias": "110-grill-millbury", "name": "110 Grill", "image_url": "https://s3-media2.fl.yelpcdn.com/bphoto/PXwXjrb5dg8WcHeGFjgvVQ/o.jpg", "is_closed": false, "url": "https://www.yelp.com/biz/110-grill-millbury?adjust_creative=ywY5UnLZrNrRl2b93Ruy_g&utm_campaign=yelp_api_v3&utm_medium=api_v3_business_search&utm_source=ywY5UnLZrNrRl2b93Ruy_g", "review_count": 28, "categories": [{"alias": "newamerican", "title": "American (New)"}, {"alias": "tradamerican", "title": "American (Traditional)"}, {"alias": "cocktailbars", "title": "Cocktail Bars"}], "rating": 3.5, "coordinates": {"latitude": 42.199302, "longitude": -71.778872}, "transactions": ["delivery"], "location": {"address1": "70 Worcester-Providence Tpk", "address2": null, "address3": "", "city": "Millbury", "zip_code": "01527", "country": "US", "state": "MA", "display_address": ["70 Worcester-Providence Tpk", "Millbury, MA 01527"]}, "phone": "+15088658110", "display_phone": "(508) 865-8110", "distance": 7961.158757017343}, {"id": "85l7501xBza5ggvD24IZ1A", "alias": "stephanies-daily-grind-north-grafton", "name": "Stephanie's Daily Grind", "image_url": "https://s3-media4.fl.yelpcdn.com/bphoto/2h4p2yUBfk4_CO93KbGVoQ/o.jpg", "is_closed": false, "url": "https://www.yelp.com/biz/stephanies-daily-grind-north-grafton?adjust_creative=ywY5UnLZrNrRl2b93Ruy_g&utm_campaign=yelp_api_v3&utm_medium=api_v3_business_search&utm_source=ywY5UnLZrNrRl2b93Ruy_g", "review_count": 26, "categories": [{"alias": "coffee", "title": "Coffee & Tea"}, {"alias": "bagels", "title": "Bagels"}, {"alias": "sandwiches", "title": "Sandwiches"}], "rating": 4.0, "coordinates": {"latitude": 42.21614, "longitude": -71.6939}, "transactions": [], "price": "$$", "location": {"address1": "79 Worcester St", "address2": null, "address3": "", "city": "North Grafton", "zip_code": "01536", "country": "US", "state": "MA", "display_address": ["79 Worcester St", "North Grafton, MA 01536"]}, "phone": "+17742935133", "display_phone": "(774) 293-5133", "distance": 1737.8475947100926}, {"id": "J3ZFLSq0XYy1Rt04T69KzA", "alias": "arturos-ristorante-westborough", "name": "Arturo's Ristorante", "image_url": "https://s3-media3.fl.yelpcdn.com/bphoto/QAYtC6qxCOoMvAHqhIT80A/o.jpg", "is_closed": false, "url": "https://www.yelp.com/biz/arturos-ristorante-westborough?adjust_creative=ywY5UnLZrNrRl2b93Ruy_g&utm_campaign=yelp_api_v3&utm_medium=api_v3_business_search&utm_source=ywY5UnLZrNrRl2b93Ruy_g", "review_count": 294, "categories": [{"alias": "italian", "title": "Italian"}, {"alias": "pizza", "title": "Pizza"}], "rating": 4.0, "coordinates": {"latitude": 42.2737533, "longitude": -71.610715}, "transactions": ["pickup", "delivery"], "price": "$$", "location": {"address1": "54 E Main St", "address2": "", "address3": "", "city": "Westborough", "zip_code": "01581", "country": "US", "state": "MA", "display_address": ["54 E Main St", "Westborough, MA 01581"]}, "phone": "+15083661881", "display_phone": "(508) 366-1881", "distance": 9849.96636044122}, {"id": "rSlFDw1AY6uFm21a3sL8rA", "alias": "westborough-korean-restaurant-westborough", "name": "Westborough Korean Restaurant", "image_url": "https://s3-media2.fl.yelpcdn.com/bphoto/HMKArzTZzvuQRElWYCzxTQ/o.jpg", "is_closed": false, "url": "https://www.yelp.com/biz/westborough-korean-restaurant-westborough?adjust_creative=ywY5UnLZrNrRl2b93Ruy_g&utm_campaign=yelp_api_v3&utm_medium=api_v3_business_search&utm_source=ywY5UnLZrNrRl2b93Ruy_g", "review_count": 252, "categories": [{"alias": "korean", "title": "Korean"}], "rating": 4.0, "coordinates": {"latitude": 42.27012, "longitude": -71.61252}, "transactions": ["delivery"], "price": "$$", "location": {"address1": "7 E Main St", "address2": "", "address3": "", "city": "Westborough", "zip_code": "01581", "country": "US", "state": "MA", "display_address": ["7 E Main St", "Westborough, MA 01581"]}, "phone": "+15083668898", "display_phone": "(508) 366-8898", "distance": 9415.361910289397}, {"id": "v6ADECUR5cucfdmoFP4m0A", "alias": "calabria-restaurant-millbury", "name": "Calabria Restaurant", "image_url": "https://s3-media4.fl.yelpcdn.com/bphoto/_mKUanhabuacpF7yDZLFuw/o.jpg", "is_closed": false, "url": "https://www.yelp.com/biz/calabria-restaurant-millbury?adjust_creative=ywY5UnLZrNrRl2b93Ruy_g&utm_campaign=yelp_api_v3&utm_medium=api_v3_business_search&utm_source=ywY5UnLZrNrRl2b93Ruy_g", "review_count": 70, "categories": [{"alias": "italian", "title": "Italian"}], "rating": 3.5, "coordinates": {"latitude": 42.1909141540527, "longitude": -71.7600479125977}, "transactions": ["pickup", "delivery"], "price": "$$", "location": {"address1": "7 S Main St", "address2": "", "address3": "", "city": "Millbury", "zip_code": "01527", "country": "US", "state": "MA", "display_address": ["7 S Main St", "Millbury, MA 01527"]}, "phone": "+15085819700", "display_phone": "(508) 581-9700", "distance": 6549.717566319442}, {"id": "YUFNnGh6NkABt09ODjwELQ", "alias": "pho-sure-shrewsbury", "name": "Pho Sure", "image_url": "https://s3-media1.fl.yelpcdn.com/bphoto/ih9m_xTyrPtdYe7Q7lw2tQ/o.jpg", "is_closed": false, "url": "https://www.yelp.com/biz/pho-sure-shrewsbury?adjust_creative=ywY5UnLZrNrRl2b93Ruy_g&utm_campaign=yelp_api_v3&utm_medium=api_v3_business_search&utm_source=ywY5UnLZrNrRl2b93Ruy_g", "review_count": 347, "categories": [{"alias": "vietnamese", "title": "Vietnamese"}], "rating": 4.0, "coordinates": {"latitude": 42.2745209, "longitude": -71.7499655}, "transactions": ["delivery"], "price": "$$", "location": {"address1": "100 Boston Turnpike", "address2": "", "address3": "", "city": "Shrewsbury", "zip_code": "01545", "country": "US", "state": "MA", "display_address": ["100 Boston Turnpike", "Shrewsbury, MA 01545"]}, "phone": "+15084253314", "display_phone": "(508) 425-3314", "distance": 9641.19117651554}, {"id": "YCVM0wIYS2hqGGsH0gTcbg", "alias": "janets-hilltop-lounge-and-restaurant-south-grafton", "name": "Janet's Hilltop Lounge & Restaurant", "image_url": "https://s3-media3.fl.yelpcdn.com/bphoto/o0oLzr3wcKimYSPL8DNx8g/o.jpg", "is_closed": false, "url": "https://www.yelp.com/biz/janets-hilltop-lounge-and-restaurant-south-grafton?adjust_creative=ywY5UnLZrNrRl2b93Ruy_g&utm_campaign=yelp_api_v3&utm_medium=api_v3_business_search&utm_source=ywY5UnLZrNrRl2b93Ruy_g", "review_count": 18, "categories": [{"alias": "tradamerican", "title": "American (Traditional)"}, {"alias": "seafood", "title": "Seafood"}, {"alias": "sandwiches", "title": "Sandwiches"}], "rating": 3.0, "coordinates": {"latitude": 42.1660899, "longitude": -71.68197}, "transactions": [], "price": "$$", "location": {"address1": "59 Maple Ave", "address2": "", "address3": "", "city": "South Grafton", "zip_code": "01560", "country": "US", "state": "MA", "display_address": ["59 Maple Ave", "South Grafton, MA 01560"]}, "phone": "+15088396838", "display_phone": "(508) 839-6838", "distance": 4118.904349311167}, {"id": "3q-51EjvvBWJHTQTVRtEgg", "alias": "sawa-hibachi-steakhouse-and-sushi-shrewsbury", "name": "Sawa Hibachi Steakhouse and Sushi", "image_url": "https://s3-media2.fl.yelpcdn.com/bphoto/HLsNywL_i2ic2Fzp6oWBRA/o.jpg", "is_closed": false, "url": "https://www.yelp.com/biz/sawa-hibachi-steakhouse-and-sushi-shrewsbury?adjust_creative=ywY5UnLZrNrRl2b93Ruy_g&utm_campaign=yelp_api_v3&utm_medium=api_v3_business_search&utm_source=ywY5UnLZrNrRl2b93Ruy_g", "review_count": 155, "categories": [{"alias": "sushi", "title": "Sushi Bars"}, {"alias": "japanese", "title": "Japanese"}, {"alias": "asianfusion", "title": "Asian Fusion"}], "rating": 4.0, "coordinates": {"latitude": 42.2770856953573, "longitude": -71.7182542301691}, "transactions": ["pickup", "delivery"], "price": "$$", "location": {"address1": "551 Boston Tpke", "address2": "", "address3": "", "city": "Shrewsbury", "zip_code": "01545", "country": "US", "state": "MA", "display_address": ["551 Boston Tpke", "Shrewsbury, MA 01545"]}, "phone": "+15088455000", "display_phone": "(508) 845-5000", "distance": 8743.678299388976}, {"id": "KN5GgO_Zyzw8LbrqdPL8VQ", "alias": "burtons-grill-and-bar-of-shrewsbury-shrewsbury-2", "name": "Burtons Grill & Bar of Shrewsbury", "image_url": "https://s3-media2.fl.yelpcdn.com/bphoto/aKG_zGR4pWvtSRRgMfiIQw/o.jpg", "is_closed": false, "url": "https://www.yelp.com/biz/burtons-grill-and-bar-of-shrewsbury-shrewsbury-2?adjust_creative=ywY5UnLZrNrRl2b93Ruy_g&utm_campaign=yelp_api_v3&utm_medium=api_v3_business_search&utm_source=ywY5UnLZrNrRl2b93Ruy_g", "review_count": 133, "categories": [{"alias": "newamerican", "title": "American (New)"}, {"alias": "seafood", "title": "Seafood"}], "rating": 4.0, "coordinates": {"latitude": 42.276613, "longitude": -71.747697}, "transactions": ["pickup", "delivery"], "price": "$$$", "location": {"address1": "193 Boston Turnpike", "address2": "Ste 4110", "address3": null, "city": "Shrewsbury", "zip_code": "01545", "country": "US", "state": "MA", "display_address": ["193 Boston Turnpike", "Ste 4110", "Shrewsbury, MA 01545"]}, "phone": "+15089257774", "display_phone": "(508) 925-7774", "distance": 9787.192761866938}, {"id": "3qgoXgbkhjxck2YEwuxKmw", "alias": "sapporo-korean-barbecue-and-sushi-westborough-2", "name": "Sapporo Korean Barbecue & Sushi", "image_url": "https://s3-media2.fl.yelpcdn.com/bphoto/xTpm-4TbE0baxSYJwyqasA/o.jpg", "is_closed": false, "url": "https://www.yelp.com/biz/sapporo-korean-barbecue-and-sushi-westborough-2?adjust_creative=ywY5UnLZrNrRl2b93Ruy_g&utm_campaign=yelp_api_v3&utm_medium=api_v3_business_search&utm_source=ywY5UnLZrNrRl2b93Ruy_g", "review_count": 279, "categories": [{"alias": "sushi", "title": "Sushi Bars"}, {"alias": "korean", "title": "Korean"}, {"alias": "buffets", "title": "Buffets"}], "rating": 4.0, "coordinates": {"latitude": 42.273349, "longitude": -71.611755}, "transactions": ["pickup", "delivery"], "price": "$$", "location": {"address1": "50 E Main St", "address2": "", "address3": "", "city": "Westborough", "zip_code": "01581", "country": "US", "state": "MA", "display_address": ["50 E Main St", "Westborough, MA 01581"]}, "phone": "+15088981880", "display_phone": "(508) 898-1880", "distance": 9738.402349769587}, {"id": "geQa_WAOTDDol9hk76AI3Q", "alias": "king-jade-ii-restaurant-north-grafton", "name": "King Jade II Restaurant", "image_url": "https://s3-media1.fl.yelpcdn.com/bphoto/9y2G-kJE8vgq0T5LCdhC0w/o.jpg", "is_closed": false, "url": "https://www.yelp.com/biz/king-jade-ii-restaurant-north-grafton?adjust_creative=ywY5UnLZrNrRl2b93Ruy_g&utm_campaign=yelp_api_v3&utm_medium=api_v3_business_search&utm_source=ywY5UnLZrNrRl2b93Ruy_g", "review_count": 18, "categories": [{"alias": "chinese", "title": "Chinese"}], "rating": 3.0, "coordinates": {"latitude": 42.21637, "longitude": -71.69347}, "transactions": ["pickup", "delivery"], "location": {"address1": "78 Worcester St", "address2": "Ste 3", "address3": "", "city": "North Grafton", "zip_code": "01536", "country": "US", "state": "MA", "display_address": ["78 Worcester St", "Ste 3", "North Grafton, MA 01536"]}, "phone": "+15088398868", "display_phone": "(508) 839-8868", "distance": 1655.4423971653116}, {"id": "cpYEQmnv9Oe4HlGKrMaYwA", "alias": "village-knoll-variety-millbury-2", "name": "Village Knoll Variety", "image_url": "https://s3-media1.fl.yelpcdn.com/bphoto/u8sTxenraDhTe72ulpYC0w/o.jpg", "is_closed": false, "url": "https://www.yelp.com/biz/village-knoll-variety-millbury-2?adjust_creative=ywY5UnLZrNrRl2b93Ruy_g&utm_campaign=yelp_api_v3&utm_medium=api_v3_business_search&utm_source=ywY5UnLZrNrRl2b93Ruy_g", "review_count": 1, "categories": [{"alias": "grocery", "title": "Grocery"}, {"alias": "delis", "title": "Delis"}, {"alias": "beerbar", "title": "Beer Bar"}], "rating": 5.0, "coordinates": {"latitude": 42.1795768737793, "longitude": -71.7710723876953}, "transactions": [], "price": "$", "location": {"address1": "107 W Main St", "address2": "", "address3": "", "city": "Millbury", "zip_code": "01527", "country": "US", "state": "MA", "display_address": ["107 W Main St", "Millbury, MA 01527"]}, "phone": "+15088659290", "display_phone": "(508) 865-9290", "distance": 7770.994050959021}, {"id": "7sI_gztxypc5xRrXMC0TNQ", "alias": "sake-hana-asian-cuisine-and-sushi-bar-westborough", "name": "Sake Hana Asian Cuisine and Sushi Bar", "image_url": "https://s3-media1.fl.yelpcdn.com/bphoto/L_vqo6uFJRj8p3WjHiZUbQ/o.jpg", "is_closed": false, "url": "https://www.yelp.com/biz/sake-hana-asian-cuisine-and-sushi-bar-westborough?adjust_creative=ywY5UnLZrNrRl2b93Ruy_g&utm_campaign=yelp_api_v3&utm_medium=api_v3_business_search&utm_source=ywY5UnLZrNrRl2b93Ruy_g", "review_count": 146, "categories": [{"alias": "sushi", "title": "Sushi Bars"}, {"alias": "asianfusion", "title": "Asian Fusion"}, {"alias": "japanese", "title": "Japanese"}], "rating": 4.5, "coordinates": {"latitude": 42.2684215754271, "longitude": -71.6125217825174}, "transactions": ["delivery"], "price": "$$", "location": {"address1": "21 South St", "address2": null, "address3": "", "city": "Westborough", "zip_code": "01581", "country": "US", "state": "MA", "display_address": ["21 South St", "Westborough, MA 01581"]}, "phone": "+15088989262", "display_phone": "(508) 898-9262", "distance": 9269.633466447078}, {"id": "zR7WIqWDpeuMeCtf5obXpA", "alias": "new-fancy-house-of-pizza-south-grafton", "name": "New Fancy House of Pizza", "image_url": "https://s3-media2.fl.yelpcdn.com/bphoto/_q9VbnDl0dq-x6qxs4Is-A/o.jpg", "is_closed": false, "url": "https://www.yelp.com/biz/new-fancy-house-of-pizza-south-grafton?adjust_creative=ywY5UnLZrNrRl2b93Ruy_g&utm_campaign=yelp_api_v3&utm_medium=api_v3_business_search&utm_source=ywY5UnLZrNrRl2b93Ruy_g", "review_count": 14, "categories": [{"alias": "pizza", "title": "Pizza"}], "rating": 3.5, "coordinates": {"latitude": 42.176514, "longitude": -71.681079}, "transactions": [], "price": "$", "location": {"address1": "3 Main St", "address2": "", "address3": "", "city": "South Grafton", "zip_code": "01560", "country": "US", "state": "MA", "display_address": ["3 Main St", "South Grafton, MA 01560"]}, "phone": "+15088396488", "display_phone": "(508) 839-6488", "distance": 2951.960231845046}, {"id": "52II4wX0Ycps02PuMusHaA", "alias": "thai-and-i-shrewsbury", "name": "Thai and I", "image_url": "https://s3-media2.fl.yelpcdn.com/bphoto/bMZAT6t8pY0LYYcpAfpp3A/o.jpg", "is_closed": false, "url": "https://www.yelp.com/biz/thai-and-i-shrewsbury?adjust_creative=ywY5UnLZrNrRl2b93Ruy_g&utm_campaign=yelp_api_v3&utm_medium=api_v3_business_search&utm_source=ywY5UnLZrNrRl2b93Ruy_g", "review_count": 41, "categories": [{"alias": "thai", "title": "Thai"}], "rating": 4.0, "coordinates": {"latitude": 42.27599, "longitude": -71.69716}, "transactions": ["delivery"], "location": {"address1": "274 South St", "address2": null, "address3": "", "city": "Shrewsbury", "zip_code": "01545", "country": "US", "state": "MA", "display_address": ["274 South St", "Shrewsbury, MA 01545"]}, "phone": "+15087624814", "display_phone": "(508) 762-4814", "distance": 8208.516644720024}, {"id": "mlJs-ZS8Icj6BgKYwDItVQ", "alias": "tavolino-italian-gourmet-westborough", "name": "Tavolino Italian Gourmet", "image_url": "https://s3-media2.fl.yelpcdn.com/bphoto/GDrORtsTA7C8NXKnwdmFvQ/o.jpg", "is_closed": false, "url": "https://www.yelp.com/biz/tavolino-italian-gourmet-westborough?adjust_creative=ywY5UnLZrNrRl2b93Ruy_g&utm_campaign=yelp_api_v3&utm_medium=api_v3_business_search&utm_source=ywY5UnLZrNrRl2b93Ruy_g", "review_count": 176, "categories": [{"alias": "italian", "title": "Italian"}, {"alias": "pizza", "title": "Pizza"}], "rating": 3.5, "coordinates": {"latitude": 42.271649425911, "longitude": -71.609869706986}, "transactions": [], "price": "$$", "location": {"address1": "33 E Main St", "address2": "", "address3": "", "city": "Westborough", "zip_code": "01581", "country": "US", "state": "MA", "display_address": ["33 E Main St", "Westborough, MA 01581"]}, "phone": "+15083668600", "display_phone": "(508) 366-8600", "distance": 9682.360557637445}, {"id": "pC4c8-itjNt_cfMQZtV1rA", "alias": "lakeside-bar-and-grille-shrewsbury", "name": "Lakeside Bar & Grille", "image_url": "https://s3-media2.fl.yelpcdn.com/bphoto/qHzDn_fLaOMOQPCa-_WxCg/o.jpg", "is_closed": false, "url": "https://www.yelp.com/biz/lakeside-bar-and-grille-shrewsbury?adjust_creative=ywY5UnLZrNrRl2b93Ruy_g&utm_campaign=yelp_api_v3&utm_medium=api_v3_business_search&utm_source=ywY5UnLZrNrRl2b93Ruy_g", "review_count": 119, "categories": [{"alias": "bars", "title": "Bars"}, {"alias": "tradamerican", "title": "American (Traditional)"}], "rating": 4.0, "coordinates": {"latitude": 42.274916, "longitude": -71.7499861}, "transactions": ["delivery"], "price": "$$", "location": {"address1": "97 Boston Tpke", "address2": "", "address3": "", "city": "Shrewsbury", "zip_code": "01545", "country": "US", "state": "MA", "display_address": ["97 Boston Tpke", "Shrewsbury, MA 01545"]}, "phone": "+15084253543", "display_phone": "(508) 425-3543", "distance": 9796.529116182282}, {"id": "vFfkdVSe5tk6SfSuhZzMXQ", "alias": "wheelock-inn-millbury", "name": "Wheelock Inn", "image_url": "https://s3-media3.fl.yelpcdn.com/bphoto/weM1CbftXp44m1DNqf9_BA/o.jpg", "is_closed": false, "url": "https://www.yelp.com/biz/wheelock-inn-millbury?adjust_creative=ywY5UnLZrNrRl2b93Ruy_g&utm_campaign=yelp_api_v3&utm_medium=api_v3_business_search&utm_source=ywY5UnLZrNrRl2b93Ruy_g", "review_count": 17, "categories": [{"alias": "pubs", "title": "Pubs"}, {"alias": "seafood", "title": "Seafood"}], "rating": 3.5, "coordinates": {"latitude": 42.2209358215332, "longitude": -71.7490081787109}, "transactions": [], "price": "$$", "location": {"address1": "82 Wheelock Ave", "address2": null, "address3": null, "city": "Millbury", "zip_code": "01527", "country": "US", "state": "MA", "display_address": ["82 Wheelock Ave", "Millbury, MA 01527"]}, "phone": "+15087913477", "display_phone": "(508) 791-3477", "distance": 5853.402352957118}, {"id": "XHImRp-8AO-YsDlPFnxxMQ", "alias": "scales-seafood-and-more-millbury", "name": "Scales Seafood & More", "image_url": "https://s3-media4.fl.yelpcdn.com/bphoto/MZDjxJY5EDh9Yvk2hpXTjw/o.jpg", "is_closed": false, "url": "https://www.yelp.com/biz/scales-seafood-and-more-millbury?adjust_creative=ywY5UnLZrNrRl2b93Ruy_g&utm_campaign=yelp_api_v3&utm_medium=api_v3_business_search&utm_source=ywY5UnLZrNrRl2b93Ruy_g", "review_count": 86, "categories": [{"alias": "seafood", "title": "Seafood"}, {"alias": "icecream", "title": "Ice Cream & Frozen Yogurt"}], "rating": 3.5, "coordinates": {"latitude": 42.1917381, "longitude": -71.7659683}, "transactions": ["delivery"], "price": "$$", "location": {"address1": "45 River St", "address2": "", "address3": "", "city": "Millbury", "zip_code": "01527", "country": "US", "state": "MA", "display_address": ["45 River St", "Millbury, MA 01527"]}, "phone": "+15088653377", "display_phone": "(508) 865-3377", "distance": 6994.721526929528}, {"id": "iJElT3HOb92f9es9key_bg", "alias": "thai-place-shrewsbury-2", "name": "Thai Place", "image_url": "https://s3-media3.fl.yelpcdn.com/bphoto/muJBS33SEMbNmsUf7R0A5A/o.jpg", "is_closed": false, "url": "https://www.yelp.com/biz/thai-place-shrewsbury-2?adjust_creative=ywY5UnLZrNrRl2b93Ruy_g&utm_campaign=yelp_api_v3&utm_medium=api_v3_business_search&utm_source=ywY5UnLZrNrRl2b93Ruy_g", "review_count": 142, "categories": [{"alias": "thai", "title": "Thai"}], "rating": 3.5, "coordinates": {"latitude": 42.2737204419266, "longitude": -71.7530332714445}, "transactions": ["delivery"], "price": "$$", "location": {"address1": "50 Boston Tpke Rd", "address2": "", "address3": "", "city": "Shrewsbury", "zip_code": "01545", "country": "US", "state": "MA", "display_address": ["50 Boston Tpke Rd", "Shrewsbury, MA 01545"]}, "phone": "+15084253595", "display_phone": "(508) 425-3595", "distance": 9775.123485632796}, {"id": "PX19YGSJ_-0wV5-iCnRSnA", "alias": "basil-n-spice-thai-cuisine-worcester", "name": "Basil n' Spice Thai Cuisine", "image_url": "https://s3-media3.fl.yelpcdn.com/bphoto/Afl4fEUk2nZTyQCWsvJGZg/o.jpg", "is_closed": false, "url": "https://www.yelp.com/biz/basil-n-spice-thai-cuisine-worcester?adjust_creative=ywY5UnLZrNrRl2b93Ruy_g&utm_campaign=yelp_api_v3&utm_medium=api_v3_business_search&utm_source=ywY5UnLZrNrRl2b93Ruy_g", "review_count": 173, "categories": [{"alias": "thai", "title": "Thai"}], "rating": 4.0, "coordinates": {"latitude": 42.26851, "longitude": -71.7796}, "transactions": ["pickup", "delivery"], "price": "$$", "location": {"address1": "299 Shrewsbury St", "address2": null, "address3": "", "city": "Worcester", "zip_code": "01604", "country": "US", "state": "MA", "display_address": ["299 Shrewsbury St", "Worcester, MA 01604"]}, "phone": "+17743179986", "display_phone": "(774) 317-9986", "distance": 10802.050871443005}, {"id": "Iy8JrkRw5g98oZFKyJ1Ubg", "alias": "feng-asian-bistro-millbury-2", "name": "Feng Asian Bistro", "image_url": "https://s3-media1.fl.yelpcdn.com/bphoto/bwCn-Qap-Vus6c_nxcuaNg/o.jpg", "is_closed": false, "url": "https://www.yelp.com/biz/feng-asian-bistro-millbury-2?adjust_creative=ywY5UnLZrNrRl2b93Ruy_g&utm_campaign=yelp_api_v3&utm_medium=api_v3_business_search&utm_source=ywY5UnLZrNrRl2b93Ruy_g", "review_count": 164, "categories": [{"alias": "sushi", "title": "Sushi Bars"}, {"alias": "asianfusion", "title": "Asian Fusion"}, {"alias": "japanese", "title": "Japanese"}], "rating": 3.5, "coordinates": {"latitude": 42.1996124, "longitude": -71.7780874}, "transactions": ["delivery"], "price": "$$", "location": {"address1": "70 Worcester-Providence Tpke", "address2": "", "address3": "", "city": "Millbury", "zip_code": "01527", "country": "US", "state": "MA", "display_address": ["70 Worcester-Providence Tpke", "Millbury, MA 01527"]}, "phone": "+15088654400", "display_phone": "(508) 865-4400", "distance": 7894.840715647882}, {"id": "3UqkId1nM7MM_Cs74gqDqg", "alias": "stonefire-pizza-napoletana-westborough", "name": "Stonefire Pizza Napoletana", "image_url": "https://s3-media2.fl.yelpcdn.com/bphoto/YW8cENcnJ0KqUQCOXIhvBQ/o.jpg", "is_closed": false, "url": "https://www.yelp.com/biz/stonefire-pizza-napoletana-westborough?adjust_creative=ywY5UnLZrNrRl2b93Ruy_g&utm_campaign=yelp_api_v3&utm_medium=api_v3_business_search&utm_source=ywY5UnLZrNrRl2b93Ruy_g", "review_count": 5, "categories": [{"alias": "foodtrucks", "title": "Food Trucks"}, {"alias": "pizza", "title": "Pizza"}, {"alias": "catering", "title": "Caterers"}], "rating": 4.5, "coordinates": {"latitude": 42.273392, "longitude": -71.610059}, "transactions": ["delivery"], "location": {"address1": "45 E Main St", "address2": null, "address3": "", "city": "Westborough", "zip_code": "01581", "country": "US", "state": "MA", "display_address": ["45 E Main St", "Westborough, MA 01581"]}, "phone": "+15084391609", "display_phone": "(508) 439-1609", "distance": 9838.395415472494}, {"id": "qoZy-Vt2rRHOG32p-Hr0yA", "alias": "breakfast-at-stephanies-upton", "name": "Breakfast At Stephanie's", "image_url": "https://s3-media1.fl.yelpcdn.com/bphoto/rtx-zf0B0YqUZPS7wEUCnA/o.jpg", "is_closed": false, "url": "https://www.yelp.com/biz/breakfast-at-stephanies-upton?adjust_creative=ywY5UnLZrNrRl2b93Ruy_g&utm_campaign=yelp_api_v3&utm_medium=api_v3_business_search&utm_source=ywY5UnLZrNrRl2b93Ruy_g", "review_count": 177, "categories": [{"alias": "breakfast_brunch", "title": "Breakfast & Brunch"}], "rating": 4.0, "coordinates": {"latitude": 42.169584, "longitude": -71.625271}, "transactions": [], "price": "$", "location": {"address1": "3 Farm St", "address2": null, "address3": "", "city": "Upton", "zip_code": "01568", "country": "US", "state": "MA", "display_address": ["3 Farm St", "Upton, MA 01568"]}, "phone": "+15086031668", "display_phone": "(508) 603-1668", "distance": 5999.49833388968}, {"id": "XIR1_GVjl2M2P9uit2kxpA", "alias": "jade-garden-upton", "name": "Jade Garden", "image_url": "https://s3-media4.fl.yelpcdn.com/bphoto/WriBZG7PoJaEpyko39SlEw/o.jpg", "is_closed": false, "url": "https://www.yelp.com/biz/jade-garden-upton?adjust_creative=ywY5UnLZrNrRl2b93Ruy_g&utm_campaign=yelp_api_v3&utm_medium=api_v3_business_search&utm_source=ywY5UnLZrNrRl2b93Ruy_g", "review_count": 40, "categories": [{"alias": "chinese", "title": "Chinese"}], "rating": 4.0, "coordinates": {"latitude": 42.170270275884, "longitude": -71.619636916253}, "transactions": [], "price": "$$", "location": {"address1": "113 Main St", "address2": "", "address3": "", "city": "Upton", "zip_code": "01568", "country": "US", "state": "MA", "display_address": ["113 Main St", "Upton, MA 01568"]}, "phone": "+15085296288", "display_phone": "(508) 529-6288", "distance": 6325.604012293801}, {"id": "gxyRCJ0mh5zvOmkVU1oBEQ", "alias": "central-house-westborough", "name": "Central House", "image_url": "https://s3-media3.fl.yelpcdn.com/bphoto/N_PRPC5AJDZJodCz-rgjpg/o.jpg", "is_closed": false, "url": "https://www.yelp.com/biz/central-house-westborough?adjust_creative=ywY5UnLZrNrRl2b93Ruy_g&utm_campaign=yelp_api_v3&utm_medium=api_v3_business_search&utm_source=ywY5UnLZrNrRl2b93Ruy_g", "review_count": 41, "categories": [{"alias": "pubs", "title": "Pubs"}, {"alias": "tradamerican", "title": "American (Traditional)"}, {"alias": "sandwiches", "title": "Sandwiches"}], "rating": 4.0, "coordinates": {"latitude": 42.2679, "longitude": -71.61199}, "transactions": ["delivery"], "price": "$$", "location": {"address1": "44 South St", "address2": "", "address3": "", "city": "Westborough", "zip_code": "01581", "country": "US", "state": "MA", "display_address": ["44 South St", "Westborough, MA 01581"]}, "phone": "+15083662088", "display_phone": "(508) 366-2088", "distance": 9243.907978062265}, {"id": "Eg70YXtv_hi79RLNthWHBQ", "alias": "yummy-steakhouse-worcester-2", "name": "Yummy Steakhouse", "image_url": "https://s3-media2.fl.yelpcdn.com/bphoto/x5ELXgdm4v6zVxzvVZcfew/o.jpg", "is_closed": false, "url": "https://www.yelp.com/biz/yummy-steakhouse-worcester-2?adjust_creative=ywY5UnLZrNrRl2b93Ruy_g&utm_campaign=yelp_api_v3&utm_medium=api_v3_business_search&utm_source=ywY5UnLZrNrRl2b93Ruy_g", "review_count": 93, "categories": [{"alias": "sushi", "title": "Sushi Bars"}, {"alias": "teppanyaki", "title": "Teppanyaki"}, {"alias": "asianfusion", "title": "Asian Fusion"}], "rating": 4.0, "coordinates": {"latitude": 42.2415852959508, "longitude": -71.7539578290557}, "transactions": ["pickup", "delivery"], "price": "$$", "location": {"address1": "1121 Grafton St", "address2": "", "address3": "", "city": "Worcester", "zip_code": "01604", "country": "US", "state": "MA", "display_address": ["1121 Grafton St", "Worcester, MA 01604"]}, "phone": "+15087521668", "display_phone": "(508) 752-1668", "distance": 7286.598623542672}, {"id": "chh9P1k7sZu3PupNSQI59A", "alias": "golden-wok-worcester", "name": "Golden Wok", "image_url": "https://s3-media2.fl.yelpcdn.com/bphoto/JXTBQ6wommRl3ykbMlggww/o.jpg", "is_closed": false, "url": "https://www.yelp.com/biz/golden-wok-worcester?adjust_creative=ywY5UnLZrNrRl2b93Ruy_g&utm_campaign=yelp_api_v3&utm_medium=api_v3_business_search&utm_source=ywY5UnLZrNrRl2b93Ruy_g", "review_count": 75, "categories": [{"alias": "chinese", "title": "Chinese"}], "rating": 4.0, "coordinates": {"latitude": 42.24703, "longitude": -71.76129}, "transactions": ["delivery"], "price": "$", "location": {"address1": "894 Grafton St", "address2": "", "address3": "", "city": "Worcester", "zip_code": "01604", "country": "US", "state": "MA", "display_address": ["894 Grafton St", "Worcester, MA 01604"]}, "phone": "+15087911288", "display_phone": "(508) 791-1288", "distance": 8149.551163864646}, {"id": "cukAZTeDgTDGAC2Pa6ka4Q", "alias": "la-cucina-italiana-worcester", "name": "La Cucina Italiana", "image_url": "https://s3-media4.fl.yelpcdn.com/bphoto/bE5Z51q7bdEIGY3X4EkNnw/o.jpg", "is_closed": false, "url": "https://www.yelp.com/biz/la-cucina-italiana-worcester?adjust_creative=ywY5UnLZrNrRl2b93Ruy_g&utm_campaign=yelp_api_v3&utm_medium=api_v3_business_search&utm_source=ywY5UnLZrNrRl2b93Ruy_g", "review_count": 99, "categories": [{"alias": "italian", "title": "Italian"}], "rating": 4.0, "coordinates": {"latitude": 42.2569694519043, "longitude": -71.7695465087891}, "transactions": ["delivery"], "price": "$$", "location": {"address1": "294 Hamilton St", "address2": null, "address3": "", "city": "Worcester", "zip_code": "01604", "country": "US", "state": "MA", "display_address": ["294 Hamilton St", "Worcester, MA 01604"]}, "phone": "+15087973354", "display_phone": "(508) 797-3354", "distance": 9350.864032863676}, {"id": "Mn9r2hFj3T6dgqSAbfUJ2Q", "alias": "tavern-in-the-square-shrewsbury", "name": "Tavern in the Square", "image_url": "https://s3-media4.fl.yelpcdn.com/bphoto/9olVsxiC6h_lPJf5MKETkQ/o.jpg", "is_closed": false, "url": "https://www.yelp.com/biz/tavern-in-the-square-shrewsbury?adjust_creative=ywY5UnLZrNrRl2b93Ruy_g&utm_campaign=yelp_api_v3&utm_medium=api_v3_business_search&utm_source=ywY5UnLZrNrRl2b93Ruy_g", "review_count": 130, "categories": [{"alias": "newamerican", "title": "American (New)"}, {"alias": "sportsbars", "title": "Sports Bars"}, {"alias": "cocktailbars", "title": "Cocktail Bars"}], "rating": 3.0, "coordinates": {"latitude": 42.27549, "longitude": -71.74532}, "transactions": ["delivery"], "price": "$$", "location": {"address1": "193 Boston Turnpike", "address2": "Ste 6120", "address3": null, "city": "Shrewsbury", "zip_code": "01545", "country": "US", "state": "MA", "display_address": ["193 Boston Turnpike", "Ste 6120", "Shrewsbury, MA 01545"]}, "phone": "+15087555240", "display_phone": "(508) 755-5240", "distance": 9690.975856628635}, {"id": "rFB4PAQQzik_IcT9Tr_48A", "alias": "jimmys-tavern-and-grill-shrewsbury", "name": "Jimmy's Tavern & Grill", "image_url": "https://s3-media4.fl.yelpcdn.com/bphoto/vY4EMVPKPtEtTKQkTsJ2jA/o.jpg", "is_closed": false, "url": "https://www.yelp.com/biz/jimmys-tavern-and-grill-shrewsbury?adjust_creative=ywY5UnLZrNrRl2b93Ruy_g&utm_campaign=yelp_api_v3&utm_medium=api_v3_business_search&utm_source=ywY5UnLZrNrRl2b93Ruy_g", "review_count": 213, "categories": [{"alias": "newamerican", "title": "American (New)"}, {"alias": "steak", "title": "Steakhouses"}], "rating": 4.0, "coordinates": {"latitude": 42.274019, "longitude": -71.754021}, "transactions": ["delivery"], "price": "$$", "location": {"address1": "50 Boston Tpke", "address2": "", "address3": "", "city": "Shrewsbury", "zip_code": "01545", "country": "US", "state": "MA", "display_address": ["50 Boston Tpke", "Shrewsbury, MA 01545"]}, "phone": "+15087939625", "display_phone": "(508) 793-9625", "distance": 9850.296094608577}, {"id": "c5P5Y-dCmBAO3FhSU8NTvw", "alias": "borgatti-bar-shrewsbury-2", "name": "Borgatti Bar", "image_url": "https://s3-media2.fl.yelpcdn.com/bphoto/J7JDRXUOs-Q1Jk7PBTp_Gg/o.jpg", "is_closed": false, "url": "https://www.yelp.com/biz/borgatti-bar-shrewsbury-2?adjust_creative=ywY5UnLZrNrRl2b93Ruy_g&utm_campaign=yelp_api_v3&utm_medium=api_v3_business_search&utm_source=ywY5UnLZrNrRl2b93Ruy_g", "review_count": 15, "categories": [{"alias": "bars", "title": "Bars"}, {"alias": "salad", "title": "Salad"}, {"alias": "sandwiches", "title": "Sandwiches"}], "rating": 4.5, "coordinates": {"latitude": 42.27549, "longitude": -71.74532}, "transactions": ["delivery"], "price": "$$", "location": {"address1": "193 Boston Turnpike", "address2": "", "address3": null, "city": "Shrewsbury", "zip_code": "01545", "country": "US", "state": "MA", "display_address": ["193 Boston Turnpike", "Shrewsbury, MA 01545"]}, "phone": "+15087495520", "display_phone": "(508) 749-5520", "distance": 9690.975856628635}, {"id": "YUwdbJ1K8CeE68L5G6Fsfg", "alias": "grafton-pizza-north-grafton", "name": "Grafton Pizza", "image_url": "https://s3-media2.fl.yelpcdn.com/bphoto/9W6SaFbdrVlGN8_uTg4jAA/o.jpg", "is_closed": false, "url": "https://www.yelp.com/biz/grafton-pizza-north-grafton?adjust_creative=ywY5UnLZrNrRl2b93Ruy_g&utm_campaign=yelp_api_v3&utm_medium=api_v3_business_search&utm_source=ywY5UnLZrNrRl2b93Ruy_g", "review_count": 26, "categories": [{"alias": "pizza", "title": "Pizza"}], "rating": 3.0, "coordinates": {"latitude": 42.22999, "longitude": -71.71824}, "transactions": ["delivery"], "price": "$", "location": {"address1": "204 Worcester St", "address2": "", "address3": "", "city": "North Grafton", "zip_code": "01536", "country": "US", "state": "MA", "display_address": ["204 Worcester St", "North Grafton, MA 01536"]}, "phone": "+15088395382", "display_phone": "(508) 839-5382", "distance": 4207.541381246132}, {"id": "9-kFmIc7OSmnNhYQb9vLiA", "alias": "scoops-n-bites-westborough", "name": "Scoops N Bites", "image_url": "https://s3-media4.fl.yelpcdn.com/bphoto/5OGutB2dzcyERsFqitbHTw/o.jpg", "is_closed": false, "url": "https://www.yelp.com/biz/scoops-n-bites-westborough?adjust_creative=ywY5UnLZrNrRl2b93Ruy_g&utm_campaign=yelp_api_v3&utm_medium=api_v3_business_search&utm_source=ywY5UnLZrNrRl2b93Ruy_g", "review_count": 19, "categories": [{"alias": "icecream", "title": "Ice Cream & Frozen Yogurt"}, {"alias": "vegan", "title": "Vegan"}, {"alias": "vegetarian", "title": "Vegetarian"}], "rating": 4.5, "coordinates": {"latitude": 42.274599, "longitude": -71.608747}, "transactions": [], "price": "$$", "location": {"address1": "57 E Main St", "address2": "Ste 129", "address3": "", "city": "Westborough", "zip_code": "01581", "country": "US", "state": "MA", "display_address": ["57 E Main St", "Ste 129", "Westborough, MA 01581"]}, "phone": "+15087401908", "display_phone": "(508) 740-1908", "distance": 9998.354323510894}, {"id": "e7QvzUKpLZW-h3jJwatgYg", "alias": "tonys-sutton-pizza-restaurant-sutton", "name": "Tony's Sutton Pizza Restaurant", "image_url": "https://s3-media3.fl.yelpcdn.com/bphoto/-zdll-u8teHV7LaMn0MdNQ/o.jpg", "is_closed": false, "url": "https://www.yelp.com/biz/tonys-sutton-pizza-restaurant-sutton?adjust_creative=ywY5UnLZrNrRl2b93Ruy_g&utm_campaign=yelp_api_v3&utm_medium=api_v3_business_search&utm_source=ywY5UnLZrNrRl2b93Ruy_g", "review_count": 94, "categories": [{"alias": "pizza", "title": "Pizza"}], "rating": 3.5, "coordinates": {"latitude": 42.16156, "longitude": -71.73985}, "transactions": ["delivery"], "price": "$", "location": {"address1": "146 Worcester Providence Tpke", "address2": "", "address3": "", "city": "Sutton", "zip_code": "01590", "country": "US", "state": "MA", "display_address": ["146 Worcester Providence Tpke", "Sutton, MA 01590"]}, "phone": "+15088659544", "display_phone": "(508) 865-9544", "distance": 6610.192252299442}, {"id": "7xzkPc7Va3HVtIbNdd4qJA", "alias": "chef-of-india-shrewsbury", "name": "Chef of India", "image_url": "", "is_closed": false, "url": "https://www.yelp.com/biz/chef-of-india-shrewsbury?adjust_creative=ywY5UnLZrNrRl2b93Ruy_g&utm_campaign=yelp_api_v3&utm_medium=api_v3_business_search&utm_source=ywY5UnLZrNrRl2b93Ruy_g", "review_count": 2, "categories": [{"alias": "indpak", "title": "Indian"}], "rating": 4.5, "coordinates": {"latitude": 42.2749176, "longitude": -71.7499847}, "transactions": [], "location": {"address1": "97 Boston Tpke", "address2": "", "address3": "", "city": "Shrewsbury", "zip_code": "01545", "country": "US", "state": "MA", "display_address": ["97 Boston Tpke", "Shrewsbury, MA 01545"]}, "phone": "+15087939888", "display_phone": "(508) 793-9888", "distance": 9796.529116182282}, {"id": "0_bwAGApwJbMwPnY3SsKhQ", "alias": "lakeview-house-of-pizza-grafton", "name": "Lakeview House of Pizza", "image_url": "https://s3-media2.fl.yelpcdn.com/bphoto/RteXlojtWBgl12-kDFNKBg/o.jpg", "is_closed": false, "url": "https://www.yelp.com/biz/lakeview-house-of-pizza-grafton?adjust_creative=ywY5UnLZrNrRl2b93Ruy_g&utm_campaign=yelp_api_v3&utm_medium=api_v3_business_search&utm_source=ywY5UnLZrNrRl2b93Ruy_g", "review_count": 19, "categories": [{"alias": "pizza", "title": "Pizza"}, {"alias": "sandwiches", "title": "Sandwiches"}], "rating": 3.0, "coordinates": {"latitude": 42.2162991, "longitude": -71.69336}, "transactions": [], "price": "$", "location": {"address1": "78 Worcester St", "address2": "", "address3": "", "city": "Grafton", "zip_code": "01536", "country": "US", "state": "MA", "display_address": ["78 Worcester St", "Grafton, MA 01536"]}, "phone": "+15088397040", "display_phone": "(508) 839-7040", "distance": 1726.885079141891}, {"id": "QmQmG6gxwUoISY8XUSRXXA", "alias": "longhorn-steakhouse-curbside-to-go-available-millbury", "name": "LongHorn Steakhouse - Curbside To Go Available", "image_url": "https://s3-media2.fl.yelpcdn.com/bphoto/eAjCZ1tv-Wk782wWFAS-aw/o.jpg", "is_closed": false, "url": "https://www.yelp.com/biz/longhorn-steakhouse-curbside-to-go-available-millbury?adjust_creative=ywY5UnLZrNrRl2b93Ruy_g&utm_campaign=yelp_api_v3&utm_medium=api_v3_business_search&utm_source=ywY5UnLZrNrRl2b93Ruy_g", "review_count": 97, "categories": [{"alias": "steak", "title": "Steakhouses"}, {"alias": "tradamerican", "title": "American (Traditional)"}, {"alias": "bbq", "title": "Barbeque"}], "rating": 3.5, "coordinates": {"latitude": 42.19654, "longitude": -71.776194}, "transactions": [], "price": "$$", "location": {"address1": "70 Worcester Providence Tpke", "address2": "Ste 635", "address3": "", "city": "Millbury", "zip_code": "01527", "country": "US", "state": "MA", "display_address": ["70 Worcester Providence Tpke", "Ste 635", "Millbury, MA 01527"]}, "phone": "+15088652202", "display_phone": "(508) 865-2202", "distance": 7763.771092945222}, {"id": "mZgplWy0UBkpNP8zPykLvw", "alias": "cheesy-street-grill-westborough-2", "name": "Cheesy Street Grill", "image_url": "https://s3-media2.fl.yelpcdn.com/bphoto/nMSYE1fWfJM0DmH6XS8kIA/o.jpg", "is_closed": false, "url": "https://www.yelp.com/biz/cheesy-street-grill-westborough-2?adjust_creative=ywY5UnLZrNrRl2b93Ruy_g&utm_campaign=yelp_api_v3&utm_medium=api_v3_business_search&utm_source=ywY5UnLZrNrRl2b93Ruy_g", "review_count": 26, "categories": [{"alias": "tradamerican", "title": "American (Traditional)"}, {"alias": "comfortfood", "title": "Comfort Food"}, {"alias": "foodtrucks", "title": "Food Trucks"}], "rating": 4.5, "coordinates": {"latitude": 42.245423076891, "longitude": -71.5919565052796}, "transactions": ["pickup", "delivery"], "price": "$", "location": {"address1": "I-90 Westbound", "address2": null, "address3": "", "city": "Westborough", "zip_code": "01580", "country": "US", "state": "MA", "display_address": ["I-90 Westbound", "Westborough, MA 01580"]}, "phone": "+18609302472", "display_phone": "(860) 930-2472", "distance": 8807.963319817725}, {"id": "E5MwIwYX-bJnslhVMPko3w", "alias": "el-basha-worcester-3", "name": "El-Basha", "image_url": "https://s3-media2.fl.yelpcdn.com/bphoto/qneF4usVxIbcGtlsETq1jg/o.jpg", "is_closed": false, "url": "https://www.yelp.com/biz/el-basha-worcester-3?adjust_creative=ywY5UnLZrNrRl2b93Ruy_g&utm_campaign=yelp_api_v3&utm_medium=api_v3_business_search&utm_source=ywY5UnLZrNrRl2b93Ruy_g", "review_count": 84, "categories": [{"alias": "mideastern", "title": "Middle Eastern"}], "rating": 3.5, "coordinates": {"latitude": 42.2738456726074, "longitude": -71.7593383789062}, "transactions": ["pickup", "delivery"], "price": "$$", "location": {"address1": "424 Belmont St", "address2": "", "address3": "", "city": "Worcester", "zip_code": "01604", "country": "US", "state": "MA", "display_address": ["424 Belmont St", "Worcester, MA 01604"]}, "phone": "+15087970884", "display_phone": "(508) 797-0884", "distance": 10103.532431816571}, {"id": "Dz1wxr6nAPh6zjjhYDCufA", "alias": "napoli-italian-deli-and-catering-shrewsbury", "name": "Napoli Italian Deli and Catering", "image_url": "https://s3-media1.fl.yelpcdn.com/bphoto/wXGQspZnv38_KhaEsqNXNQ/o.jpg", "is_closed": false, "url": "https://www.yelp.com/biz/napoli-italian-deli-and-catering-shrewsbury?adjust_creative=ywY5UnLZrNrRl2b93Ruy_g&utm_campaign=yelp_api_v3&utm_medium=api_v3_business_search&utm_source=ywY5UnLZrNrRl2b93Ruy_g", "review_count": 99, "categories": [{"alias": "italian", "title": "Italian"}, {"alias": "delis", "title": "Delis"}], "rating": 4.5, "coordinates": {"latitude": 42.2691116333008, "longitude": -71.7503204345703}, "transactions": ["delivery"], "price": "$", "location": {"address1": "79 S Quinsigamond Ave", "address2": "", "address3": "", "city": "Shrewsbury", "zip_code": "01545", "country": "US", "state": "MA", "display_address": ["79 S Quinsigamond Ave", "Shrewsbury, MA 01545"]}, "phone": "+15087987999", "display_phone": "(508) 798-7999", "distance": 9231.363037739364}, {"id": "dH0jwnYkhXIBiUlv0qBgdw", "alias": "pepperoni-express-north-grafton", "name": "Pepperoni Express", "image_url": "https://s3-media3.fl.yelpcdn.com/bphoto/FjNjvCZywOYos8a0NBmHOA/o.jpg", "is_closed": false, "url": "https://www.yelp.com/biz/pepperoni-express-north-grafton?adjust_creative=ywY5UnLZrNrRl2b93Ruy_g&utm_campaign=yelp_api_v3&utm_medium=api_v3_business_search&utm_source=ywY5UnLZrNrRl2b93Ruy_g", "review_count": 48, "categories": [{"alias": "pizza", "title": "Pizza"}, {"alias": "breakfast_brunch", "title": "Breakfast & Brunch"}, {"alias": "sandwiches", "title": "Sandwiches"}], "rating": 2.5, "coordinates": {"latitude": 42.218674, "longitude": -71.696302}, "transactions": ["pickup", "delivery"], "price": "$", "location": {"address1": "92 Worcester St", "address2": "", "address3": "", "city": "North Grafton", "zip_code": "01536", "country": "US", "state": "MA", "display_address": ["92 Worcester St", "North Grafton, MA 01536"]}, "phone": "+15088396040", "display_phone": "(508) 839-6040", "distance": 2079.9207087897043}, {"id": "8wLoNgSZlHqy5xA9LT1OFQ", "alias": "terra-brasilis-restaurant-worcester-worcester-3", "name": "Terra Brasilis Restaurant - Worcester", "image_url": "https://s3-media2.fl.yelpcdn.com/bphoto/ND92T4DFIpUM6R-njXam8Q/o.jpg", "is_closed": false, "url": "https://www.yelp.com/biz/terra-brasilis-restaurant-worcester-worcester-3?adjust_creative=ywY5UnLZrNrRl2b93Ruy_g&utm_campaign=yelp_api_v3&utm_medium=api_v3_business_search&utm_source=ywY5UnLZrNrRl2b93Ruy_g", "review_count": 40, "categories": [{"alias": "brazilian", "title": "Brazilian"}], "rating": 3.5, "coordinates": {"latitude": 42.2733497619629, "longitude": -71.771614074707}, "transactions": ["delivery"], "price": "$$", "location": {"address1": "480 Shrewsbury St", "address2": null, "address3": "", "city": "Worcester", "zip_code": "01604", "country": "US", "state": "MA", "display_address": ["480 Shrewsbury St", "Worcester, MA 01604"]}, "phone": "+15087520390", "display_phone": "(508) 752-0390", "distance": 10757.098420179482}, {"id": "NQbJmclFHKspq9yRzMsFrQ", "alias": "udupi-shrewsbury", "name": "Udupi", "image_url": "https://s3-media2.fl.yelpcdn.com/bphoto/p_ocM7JLbdMo68GOXV-ROw/o.jpg", "is_closed": false, "url": "https://www.yelp.com/biz/udupi-shrewsbury?adjust_creative=ywY5UnLZrNrRl2b93Ruy_g&utm_campaign=yelp_api_v3&utm_medium=api_v3_business_search&utm_source=ywY5UnLZrNrRl2b93Ruy_g", "review_count": 159, "categories": [{"alias": "indpak", "title": "Indian"}, {"alias": "vegetarian", "title": "Vegetarian"}], "rating": 4.0, "coordinates": {"latitude": 42.27677, "longitude": -71.73772}, "transactions": ["pickup", "delivery"], "price": "$$", "location": {"address1": "378 Maple Ave", "address2": "", "address3": "", "city": "Shrewsbury", "zip_code": "01545", "country": "US", "state": "MA", "display_address": ["378 Maple Ave", "Shrewsbury, MA 01545"]}, "phone": "+15084595099", "display_phone": "(508) 459-5099", "distance": 9404.07856871194}, {"id": "54Y0hYNZjo8YAyy-lLZu8Q", "alias": "grill-352-and-kabab-worcester", "name": "Grill 352 & Kabab", "image_url": "https://s3-media2.fl.yelpcdn.com/bphoto/w5sMsdEiC9fcNA3TVtkfUA/o.jpg", "is_closed": false, "url": "https://www.yelp.com/biz/grill-352-and-kabab-worcester?adjust_creative=ywY5UnLZrNrRl2b93Ruy_g&utm_campaign=yelp_api_v3&utm_medium=api_v3_business_search&utm_source=ywY5UnLZrNrRl2b93Ruy_g", "review_count": 48, "categories": [{"alias": "halal", "title": "Halal"}, {"alias": "burgers", "title": "Burgers"}, {"alias": "kebab", "title": "Kebab"}], "rating": 4.5, "coordinates": {"latitude": 42.270306, "longitude": -71.777461}, "transactions": ["pickup", "delivery"], "location": {"address1": "352 Shrewsbury St", "address2": "", "address3": null, "city": "Worcester", "zip_code": "01604", "country": "US", "state": "MA", "display_address": ["352 Shrewsbury St", "Worcester, MA 01604"]}, "phone": "+17744207225", "display_phone": "(774) 420-7225", "distance": 10825.003320163003}, {"id": "GQ0UJEXwrIE5SbdlF4u1VA", "alias": "a-and-d-pizza-millbury", "name": "A & D Pizza", "image_url": "https://s3-media1.fl.yelpcdn.com/bphoto/4SH6_S7m8Kn-vZc9q_1yEQ/o.jpg", "is_closed": false, "url": "https://www.yelp.com/biz/a-and-d-pizza-millbury?adjust_creative=ywY5UnLZrNrRl2b93Ruy_g&utm_campaign=yelp_api_v3&utm_medium=api_v3_business_search&utm_source=ywY5UnLZrNrRl2b93Ruy_g", "review_count": 53, "categories": [{"alias": "pizza", "title": "Pizza"}], "rating": 3.5, "coordinates": {"latitude": 42.19191, "longitude": -71.7591}, "transactions": ["delivery"], "price": "$", "location": {"address1": "60 Elm St", "address2": "", "address3": "", "city": "Millbury", "zip_code": "01527", "country": "US", "state": "MA", "display_address": ["60 Elm St", "Millbury, MA 01527"]}, "phone": "+15088659013", "display_phone": "(508) 865-9013", "distance": 6446.932644090352}, {"id": "2KWSr0hkr4l2B7BupwkRrA", "alias": "vintage-grille-worcester", "name": "Vintage Grille", "image_url": "https://s3-media2.fl.yelpcdn.com/bphoto/uanqaKnqTzb-NV0amF4xwg/o.jpg", "is_closed": false, "url": "https://www.yelp.com/biz/vintage-grille-worcester?adjust_creative=ywY5UnLZrNrRl2b93Ruy_g&utm_campaign=yelp_api_v3&utm_medium=api_v3_business_search&utm_source=ywY5UnLZrNrRl2b93Ruy_g", "review_count": 122, "categories": [{"alias": "newamerican", "title": "American (New)"}], "rating": 4.0, "coordinates": {"latitude": 42.270153, "longitude": -71.778084}, "transactions": ["pickup", "delivery"], "price": "$$", "location": {"address1": "346 Shrewsbury St", "address2": "", "address3": "", "city": "Worcester", "zip_code": "01604", "country": "US", "state": "MA", "display_address": ["346 Shrewsbury St", "Worcester, MA 01604"]}, "phone": "+15087520558", "display_phone": "(508) 752-0558", "distance": 10850.64216769145}, {"id": "_NytxfQXYGy5CxUk4iGa4A", "alias": "puffins-restaurant-millbury", "name": "Puffin's Restaurant", "image_url": "https://s3-media2.fl.yelpcdn.com/bphoto/kQ_QNZUuynVAa5ieDkdo0A/o.jpg", "is_closed": false, "url": "https://www.yelp.com/biz/puffins-restaurant-millbury?adjust_creative=ywY5UnLZrNrRl2b93Ruy_g&utm_campaign=yelp_api_v3&utm_medium=api_v3_business_search&utm_source=ywY5UnLZrNrRl2b93Ruy_g", "review_count": 71, "categories": [{"alias": "newamerican", "title": "American (New)"}, {"alias": "tradamerican", "title": "American (Traditional)"}, {"alias": "breakfast_brunch", "title": "Breakfast & Brunch"}], "rating": 3.5, "coordinates": {"latitude": 42.1967981188078, "longitude": -71.7637552700717}, "transactions": ["delivery"], "price": "$", "location": {"address1": "95 Main St", "address2": "", "address3": "", "city": "Millbury", "zip_code": "01527", "country": "US", "state": "MA", "display_address": ["95 Main St", "Millbury, MA 01527"]}, "phone": "+15088652252", "display_phone": "(508) 865-2252", "distance": 6741.283111959669}, {"id": "6lxOXvPQ08cFSOEq7R-5sA", "alias": "imperial-buffet-shrewsbury", "name": "Imperial Buffet", "image_url": "https://s3-media2.fl.yelpcdn.com/bphoto/tc1MRIt9PAIfkEFBu80JyA/o.jpg", "is_closed": false, "url": "https://www.yelp.com/biz/imperial-buffet-shrewsbury?adjust_creative=ywY5UnLZrNrRl2b93Ruy_g&utm_campaign=yelp_api_v3&utm_medium=api_v3_business_search&utm_source=ywY5UnLZrNrRl2b93Ruy_g", "review_count": 106, "categories": [{"alias": "buffets", "title": "Buffets"}], "rating": 3.0, "coordinates": {"latitude": 42.2765389, "longitude": -71.7367022}, "transactions": [], "price": "$$", "location": {"address1": "380 Maple Ave", "address2": "", "address3": "", "city": "Shrewsbury", "zip_code": "01545", "country": "US", "state": "MA", "display_address": ["380 Maple Ave", "Shrewsbury, MA 01545"]}, "phone": "+15088908889", "display_phone": "(508) 890-8889", "distance": 9401.259420006254}, {"id": "-kl0vmV9dwkjQPrrrQAKJw", "alias": "99-restaurants-worcester", "name": "99 Restaurants", "image_url": "https://s3-media1.fl.yelpcdn.com/bphoto/GdBatGfERDiuCwKDtaXNXQ/o.jpg", "is_closed": false, "url": "https://www.yelp.com/biz/99-restaurants-worcester?adjust_creative=ywY5UnLZrNrRl2b93Ruy_g&utm_campaign=yelp_api_v3&utm_medium=api_v3_business_search&utm_source=ywY5UnLZrNrRl2b93Ruy_g", "review_count": 40, "categories": [{"alias": "tradamerican", "title": "American (Traditional)"}, {"alias": "pubs", "title": "Pubs"}], "rating": 3.5, "coordinates": {"latitude": 42.240062713623, "longitude": -71.7461776733398}, "transactions": [], "price": "$$", "location": {"address1": "50 SW Cutoff", "address2": "", "address3": "Rt 20", "city": "Worcester", "zip_code": "01604", "country": "US", "state": "MA", "display_address": ["50 SW Cutoff", "Rt 20", "Worcester, MA 01604"]}, "phone": "+15083633999", "display_phone": "(508) 363-3999", "distance": 6673.08403554725}, {"id": "wbdbh7Unhi8Fvpaqoba7rg", "alias": "paesano-pizzeria-worcester", "name": "Paesano Pizzeria", "image_url": "https://s3-media4.fl.yelpcdn.com/bphoto/rJCbxHbmBdH4__PjHkPiLQ/o.jpg", "is_closed": false, "url": "https://www.yelp.com/biz/paesano-pizzeria-worcester?adjust_creative=ywY5UnLZrNrRl2b93Ruy_g&utm_campaign=yelp_api_v3&utm_medium=api_v3_business_search&utm_source=ywY5UnLZrNrRl2b93Ruy_g", "review_count": 74, "categories": [{"alias": "pizza", "title": "Pizza"}, {"alias": "italian", "title": "Italian"}], "rating": 3.5, "coordinates": {"latitude": 42.2419231687621, "longitude": -71.7543145988212}, "transactions": ["delivery"], "price": "$$", "location": {"address1": "1121 Grafton St", "address2": "", "address3": "", "city": "Worcester", "zip_code": "01604", "country": "US", "state": "MA", "display_address": ["1121 Grafton St", "Worcester, MA 01604"]}, "phone": "+15087911121", "display_phone": "(508) 791-1121", "distance": 7332.445090325389}, {"id": "yUpyijVBZMRq5-RAK_hSWg", "alias": "flying-rhino-cafe-and-watering-hole-worcester-2", "name": "Flying Rhino Cafe & Watering Hole", "image_url": "https://s3-media1.fl.yelpcdn.com/bphoto/T2eVFACG277dNmpR_zk6pA/o.jpg", "is_closed": false, "url": "https://www.yelp.com/biz/flying-rhino-cafe-and-watering-hole-worcester-2?adjust_creative=ywY5UnLZrNrRl2b93Ruy_g&utm_campaign=yelp_api_v3&utm_medium=api_v3_business_search&utm_source=ywY5UnLZrNrRl2b93Ruy_g", "review_count": 314, "categories": [{"alias": "newamerican", "title": "American (New)"}], "rating": 3.5, "coordinates": {"latitude": 42.26841, "longitude": -71.78125}, "transactions": ["pickup", "delivery"], "price": "$$", "location": {"address1": "278 Shrewsbury St", "address2": "", "address3": "", "city": "Worcester", "zip_code": "01604", "country": "US", "state": "MA", "display_address": ["278 Shrewsbury St", "Worcester, MA 01604"]}, "phone": "+15087571450", "display_phone": "(508) 757-1450", "distance": 10911.653218411375}, {"id": "XZBRXtlw1IO3SFsPS5N7rg", "alias": "rose-garden-restaurant-and-pub-upton", "name": "Rose Garden Restaurant & Pub", "image_url": "https://s3-media4.fl.yelpcdn.com/bphoto/wx4Pm_Ld9z6PpRBERV6xEw/o.jpg", "is_closed": false, "url": "https://www.yelp.com/biz/rose-garden-restaurant-and-pub-upton?adjust_creative=ywY5UnLZrNrRl2b93Ruy_g&utm_campaign=yelp_api_v3&utm_medium=api_v3_business_search&utm_source=ywY5UnLZrNrRl2b93Ruy_g", "review_count": 35, "categories": [{"alias": "tradamerican", "title": "American (Traditional)"}, {"alias": "pizza", "title": "Pizza"}, {"alias": "pubs", "title": "Pubs"}], "rating": 3.0, "coordinates": {"latitude": 42.174087, "longitude": -71.60017}, "transactions": [], "price": "$$", "location": {"address1": "16 Milford St", "address2": "", "address3": "", "city": "Upton", "zip_code": "01568", "country": "US", "state": "MA", "display_address": ["16 Milford St", "Upton, MA 01568"]}, "phone": "+15085297776", "display_phone": "(508) 529-7776", "distance": 7493.53701797385}, {"id": "FS1KJ2daQpZV797hnobOZA", "alias": "red-robin-gourmet-burgers-and-brews-millbury", "name": "Red Robin Gourmet Burgers and Brews", "image_url": "https://s3-media2.fl.yelpcdn.com/bphoto/RfVwG6nOKC57LHGnIk6msQ/o.jpg", "is_closed": false, "url": "https://www.yelp.com/biz/red-robin-gourmet-burgers-and-brews-millbury?adjust_creative=ywY5UnLZrNrRl2b93Ruy_g&utm_campaign=yelp_api_v3&utm_medium=api_v3_business_search&utm_source=ywY5UnLZrNrRl2b93Ruy_g", "review_count": 147, "categories": [{"alias": "burgers", "title": "Burgers"}, {"alias": "tradamerican", "title": "American (Traditional)"}], "rating": 3.0, "coordinates": {"latitude": 42.199245, "longitude": -71.77723}, "transactions": ["delivery"], "price": "$$", "location": {"address1": "70 Worcester Providence Turnpike", "address2": "Ste 500", "address3": "", "city": "Millbury", "zip_code": "01527", "country": "US", "state": "MA", "display_address": ["70 Worcester Providence Turnpike", "Ste 500", "Millbury, MA 01527"]}, "phone": "+15085819200", "display_phone": "(508) 581-9200", "distance": 7826.441580476361}, {"id": "BPbJF_7TGoaOvzZ4ftszwg", "alias": "subway-grafton-13", "name": "Subway", "image_url": "https://s3-media2.fl.yelpcdn.com/bphoto/0XrdnWwrGzwKG1qOEorqqw/o.jpg", "is_closed": false, "url": "https://www.yelp.com/biz/subway-grafton-13?adjust_creative=ywY5UnLZrNrRl2b93Ruy_g&utm_campaign=yelp_api_v3&utm_medium=api_v3_business_search&utm_source=ywY5UnLZrNrRl2b93Ruy_g", "review_count": 6, "categories": [{"alias": "sandwiches", "title": "Sandwiches"}], "rating": 2.5, "coordinates": {"latitude": 42.2195680749257, "longitude": -71.6957899067459}, "transactions": [], "price": "$", "location": {"address1": "100 Worcester St", "address2": "Spc 70", "address3": "Country Plaza Shopping Center", "city": "Grafton", "zip_code": "01519", "country": "US", "state": "MA", "display_address": ["100 Worcester St", "Spc 70", "Country Plaza Shopping Center", "Grafton, MA 01519"]}, "phone": "+15088399595", "display_phone": "(508) 839-9595", "distance": 2141.4113418544794}, {"id": "K9RpZpwuXdImLIgdcBwWNw", "alias": "pizza-chef-millbury", "name": "Pizza Chef", "image_url": "https://s3-media3.fl.yelpcdn.com/bphoto/rBuZiaLKDovFBynMKfdxRw/o.jpg", "is_closed": false, "url": "https://www.yelp.com/biz/pizza-chef-millbury?adjust_creative=ywY5UnLZrNrRl2b93Ruy_g&utm_campaign=yelp_api_v3&utm_medium=api_v3_business_search&utm_source=ywY5UnLZrNrRl2b93Ruy_g", "review_count": 53, "categories": [{"alias": "pizza", "title": "Pizza"}], "rating": 3.5, "coordinates": {"latitude": 42.19249, "longitude": -71.7607}, "transactions": ["delivery"], "price": "$", "location": {"address1": "32 N Main St", "address2": "", "address3": "", "city": "Millbury", "zip_code": "01527", "country": "US", "state": "MA", "display_address": ["32 N Main St", "Millbury, MA 01527"]}, "phone": "+15088653700", "display_phone": "(508) 865-3700", "distance": 6556.4540958777325}, {"id": "SyQ4DPupQi-E4xmPosrnuA", "alias": "accra-girls-worcester", "name": "Accra Girls", "image_url": "https://s3-media2.fl.yelpcdn.com/bphoto/osDA5vV49R8urtDA2XEFdQ/o.jpg", "is_closed": false, "url": "https://www.yelp.com/biz/accra-girls-worcester?adjust_creative=ywY5UnLZrNrRl2b93Ruy_g&utm_campaign=yelp_api_v3&utm_medium=api_v3_business_search&utm_source=ywY5UnLZrNrRl2b93Ruy_g", "review_count": 15, "categories": [{"alias": "african", "title": "African"}], "rating": 4.5, "coordinates": {"latitude": 42.2361675817755, "longitude": -71.751917861402}, "transactions": ["delivery"], "price": "$$", "location": {"address1": "1280 Grafton St", "address2": "", "address3": null, "city": "Worcester", "zip_code": "01604", "country": "US", "state": "MA", "display_address": ["1280 Grafton St", "Worcester, MA 01604"]}, "phone": "+15084590054", "display_phone": "(508) 459-0054", "distance": 6808.000369194318}, {"id": "BO8QCbDc8Mj9UjJkIOqAtg", "alias": "tgi-fridays-millbury", "name": "TGI Fridays", "image_url": "https://s3-media4.fl.yelpcdn.com/bphoto/bxKc2uPziDHZ93UO2vTRTg/o.jpg", "is_closed": false, "url": "https://www.yelp.com/biz/tgi-fridays-millbury?adjust_creative=ywY5UnLZrNrRl2b93Ruy_g&utm_campaign=yelp_api_v3&utm_medium=api_v3_business_search&utm_source=ywY5UnLZrNrRl2b93Ruy_g", "review_count": 90, "categories": [{"alias": "tradamerican", "title": "American (Traditional)"}], "rating": 2.0, "coordinates": {"latitude": 42.196692, "longitude": -71.776864}, "transactions": ["delivery"], "price": "$$", "location": {"address1": "70 Worcester Providence Turnpike", "address2": "", "address3": "", "city": "Millbury", "zip_code": "01527", "country": "US", "state": "MA", "display_address": ["70 Worcester Providence Turnpike", "Millbury, MA 01527"]}, "phone": "+15088659189", "display_phone": "(508) 865-9189", "distance": 7817.1578351012495}, {"id": "ohOO5lO-XOZMCyY89oYZEQ", "alias": "osaka-shrewsbury", "name": "Osaka", "image_url": "https://s3-media4.fl.yelpcdn.com/bphoto/P78C6qiK4vaDVP8FiEjWGA/o.jpg", "is_closed": false, "url": "https://www.yelp.com/biz/osaka-shrewsbury?adjust_creative=ywY5UnLZrNrRl2b93Ruy_g&utm_campaign=yelp_api_v3&utm_medium=api_v3_business_search&utm_source=ywY5UnLZrNrRl2b93Ruy_g", "review_count": 88, "categories": [{"alias": "sushi", "title": "Sushi Bars"}, {"alias": "japanese", "title": "Japanese"}, {"alias": "steak", "title": "Steakhouses"}], "rating": 3.5, "coordinates": {"latitude": 42.2734226421971, "longitude": -71.75334659161}, "transactions": ["delivery"], "price": "$$", "location": {"address1": "20 Boston Tpke", "address2": "", "address3": "", "city": "Shrewsbury", "zip_code": "01545", "country": "US", "state": "MA", "display_address": ["20 Boston Tpke", "Shrewsbury, MA 01545"]}, "phone": "+15087531144", "display_phone": "(508) 753-1144", "distance": 9763.958868509664}, {"id": "GHHCcQzHFyhkx8wxxE8fcQ", "alias": "foodworks-worcester", "name": "Foodworks", "image_url": "https://s3-media4.fl.yelpcdn.com/bphoto/q70qkr1kQHUPBJRTdLAn7Q/o.jpg", "is_closed": false, "url": "https://www.yelp.com/biz/foodworks-worcester?adjust_creative=ywY5UnLZrNrRl2b93Ruy_g&utm_campaign=yelp_api_v3&utm_medium=api_v3_business_search&utm_source=ywY5UnLZrNrRl2b93Ruy_g", "review_count": 22, "categories": [{"alias": "chinese", "title": "Chinese"}], "rating": 2.0, "coordinates": {"latitude": 42.2386474609375, "longitude": -71.7469635009766}, "transactions": ["pickup", "delivery"], "price": "$$", "location": {"address1": "50 SW Cutoff", "address2": "", "address3": "", "city": "Worcester", "zip_code": "01604", "country": "US", "state": "MA", "display_address": ["50 SW Cutoff", "Worcester, MA 01604"]}, "phone": "+15087520938", "display_phone": "(508) 752-0938", "distance": 6629.135148972284}, {"id": "kGw5X28Vri1TTW6c7y8EkQ", "alias": "edgemere-diner-shrewsbury-2", "name": "Edgemere Diner", "image_url": "https://s3-media3.fl.yelpcdn.com/bphoto/ms_RfJ5yfG5adCCEFy3diQ/o.jpg", "is_closed": false, "url": "https://www.yelp.com/biz/edgemere-diner-shrewsbury-2?adjust_creative=ywY5UnLZrNrRl2b93Ruy_g&utm_campaign=yelp_api_v3&utm_medium=api_v3_business_search&utm_source=ywY5UnLZrNrRl2b93Ruy_g", "review_count": 99, "categories": [{"alias": "breakfast_brunch", "title": "Breakfast & Brunch"}, {"alias": "diners", "title": "Diners"}], "rating": 4.5, "coordinates": {"latitude": 42.245, "longitude": -71.73779}, "transactions": [], "price": "$", "location": {"address1": "51 Hartfod Tpke", "address2": "", "address3": "", "city": "Shrewsbury", "zip_code": "01545", "country": "US", "state": "MA", "display_address": ["51 Hartfod Tpke", "Shrewsbury, MA 01545"]}, "phone": "", "display_phone": "", "distance": 6531.57735301949}, {"id": "vu-szz0P9TgIAilcm1ePEQ", "alias": "sachi-japanese-steak-house-and-sushi-bar-westborough-2", "name": "Sachi Japanese Steak House And Sushi Bar", "image_url": "https://s3-media4.fl.yelpcdn.com/bphoto/aBImhj8rfnWxxaXiz4f6cw/o.jpg", "is_closed": false, "url": "https://www.yelp.com/biz/sachi-japanese-steak-house-and-sushi-bar-westborough-2?adjust_creative=ywY5UnLZrNrRl2b93Ruy_g&utm_campaign=yelp_api_v3&utm_medium=api_v3_business_search&utm_source=ywY5UnLZrNrRl2b93Ruy_g", "review_count": 123, "categories": [{"alias": "japanese", "title": "Japanese"}, {"alias": "sushi", "title": "Sushi Bars"}, {"alias": "steak", "title": "Steakhouses"}], "rating": 3.5, "coordinates": {"latitude": 42.2705401191243, "longitude": -71.6100522137685}, "transactions": ["pickup", "delivery"], "price": "$$", "location": {"address1": "200 Union St", "address2": "", "address3": "", "city": "Westborough", "zip_code": "01581", "country": "US", "state": "MA", "display_address": ["200 Union St", "Westborough, MA 01581"]}, "phone": "+15083667771", "display_phone": "(508) 366-7771", "distance": 9576.212382125943}, {"id": "1lcHFlGAHaphQeAUvjCaIA", "alias": "chiodas-trattoria-worcester", "name": "Chiodas Trattoria", "image_url": "https://s3-media3.fl.yelpcdn.com/bphoto/8hKIQo6vpfJjuz2dnVsytw/o.jpg", "is_closed": false, "url": "https://www.yelp.com/biz/chiodas-trattoria-worcester?adjust_creative=ywY5UnLZrNrRl2b93Ruy_g&utm_campaign=yelp_api_v3&utm_medium=api_v3_business_search&utm_source=ywY5UnLZrNrRl2b93Ruy_g", "review_count": 81, "categories": [{"alias": "italian", "title": "Italian"}, {"alias": "wine_bars", "title": "Wine Bars"}, {"alias": "steak", "title": "Steakhouses"}], "rating": 4.0, "coordinates": {"latitude": 42.26732, "longitude": -71.77629}, "transactions": ["delivery"], "price": "$$", "location": {"address1": "631 Franklin St", "address2": null, "address3": null, "city": "Worcester", "zip_code": "01604", "country": "US", "state": "MA", "display_address": ["631 Franklin St", "Worcester, MA 01604"]}, "phone": "+15084596035", "display_phone": "(508) 459-6035", "distance": 10508.830828434184}, {"id": "hgz4rWdd_f47iiOyzaw5dw", "alias": "mexicali-cantina-and-grill-worcester", "name": "Mexicali Cantina and Grill", "image_url": "https://s3-media1.fl.yelpcdn.com/bphoto/sxgD9nPkxXKqzbRI7O_dQg/o.jpg", "is_closed": false, "url": "https://www.yelp.com/biz/mexicali-cantina-and-grill-worcester?adjust_creative=ywY5UnLZrNrRl2b93Ruy_g&utm_campaign=yelp_api_v3&utm_medium=api_v3_business_search&utm_source=ywY5UnLZrNrRl2b93Ruy_g", "review_count": 42, "categories": [{"alias": "mexican", "title": "Mexican"}], "rating": 4.0, "coordinates": {"latitude": 42.2665880138635, "longitude": -71.7832846194506}, "transactions": ["pickup", "delivery"], "price": "$$", "location": {"address1": "225 Shrewsbury St", "address2": "", "address3": null, "city": "Worcester", "zip_code": "01604", "country": "US", "state": "MA", "display_address": ["225 Shrewsbury St", "Worcester, MA 01604"]}, "phone": "+15089268811", "display_phone": "(508) 926-8811", "distance": 10904.679255332743}, {"id": "4tJndq_LK-kfYaxLNYfEKg", "alias": "belsitos-deli-worcester-2", "name": "Belsito's Deli", "image_url": "https://s3-media1.fl.yelpcdn.com/bphoto/Bsx2ck9n1RXT6PcRTnE-3A/o.jpg", "is_closed": false, "url": "https://www.yelp.com/biz/belsitos-deli-worcester-2?adjust_creative=ywY5UnLZrNrRl2b93Ruy_g&utm_campaign=yelp_api_v3&utm_medium=api_v3_business_search&utm_source=ywY5UnLZrNrRl2b93Ruy_g", "review_count": 49, "categories": [{"alias": "delis", "title": "Delis"}, {"alias": "sandwiches", "title": "Sandwiches"}, {"alias": "italian", "title": "Italian"}], "rating": 4.5, "coordinates": {"latitude": 42.27003, "longitude": -71.7714}, "transactions": ["delivery"], "price": "$", "location": {"address1": "305 Plantation St", "address2": "", "address3": "", "city": "Worcester", "zip_code": "01604", "country": "US", "state": "MA", "display_address": ["305 Plantation St", "Worcester, MA 01604"]}, "phone": "+15087563850", "display_phone": "(508) 756-3850", "distance": 10441.424735292716}, {"id": "mJnOua0hVBJ2eeu1mErJQg", "alias": "peking-garden-sutton", "name": "Peking Garden", "image_url": "https://s3-media3.fl.yelpcdn.com/bphoto/B3kYDKwKjArzXk5a09_7cQ/o.jpg", "is_closed": false, "url": "https://www.yelp.com/biz/peking-garden-sutton?adjust_creative=ywY5UnLZrNrRl2b93Ruy_g&utm_campaign=yelp_api_v3&utm_medium=api_v3_business_search&utm_source=ywY5UnLZrNrRl2b93Ruy_g", "review_count": 26, "categories": [{"alias": "chinese", "title": "Chinese"}], "rating": 2.5, "coordinates": {"latitude": 42.1745342, "longitude": -71.7223978}, "transactions": ["delivery"], "price": "$", "location": {"address1": "3 Boston Rd", "address2": "", "address3": "", "city": "Sutton", "zip_code": "01590", "country": "US", "state": "MA", "display_address": ["3 Boston Rd", "Sutton, MA 01590"]}, "phone": "+15088650507", "display_phone": "(508) 865-0507", "distance": 4576.615307317787}, {"id": "BFMzw26z2VWg2cQ5StmDVQ", "alias": "loving-hut-worcester", "name": "Loving Hut", "image_url": "https://s3-media2.fl.yelpcdn.com/bphoto/pV1nq9A5hdu4tSa_Wd3y9Q/o.jpg", "is_closed": false, "url": "https://www.yelp.com/biz/loving-hut-worcester?adjust_creative=ywY5UnLZrNrRl2b93Ruy_g&utm_campaign=yelp_api_v3&utm_medium=api_v3_business_search&utm_source=ywY5UnLZrNrRl2b93Ruy_g", "review_count": 138, "categories": [{"alias": "chinese", "title": "Chinese"}, {"alias": "vegetarian", "title": "Vegetarian"}, {"alias": "buffets", "title": "Buffets"}], "rating": 4.0, "coordinates": {"latitude": 42.2558503, "longitude": -71.7819251}, "transactions": ["delivery"], "price": "$", "location": {"address1": "56 Hamilton St", "address2": "", "address3": "", "city": "Worcester", "zip_code": "01604", "country": "US", "state": "MA", "display_address": ["56 Hamilton St", "Worcester, MA 01604"]}, "phone": "+15088311322", "display_phone": "(508) 831-1322", "distance": 10087.493173126615}, {"id": "E6ZC9hPwUvQCb785QZfEZQ", "alias": "bollywood-grill-shrewsbury", "name": "Bollywood Grill", "image_url": "https://s3-media2.fl.yelpcdn.com/bphoto/VrQMHM_x_LpMYqL9jKQHYg/o.jpg", "is_closed": false, "url": "https://www.yelp.com/biz/bollywood-grill-shrewsbury?adjust_creative=ywY5UnLZrNrRl2b93Ruy_g&utm_campaign=yelp_api_v3&utm_medium=api_v3_business_search&utm_source=ywY5UnLZrNrRl2b93Ruy_g", "review_count": 129, "categories": [{"alias": "indpak", "title": "Indian"}], "rating": 3.0, "coordinates": {"latitude": 42.2747684863095, "longitude": -71.7513227462769}, "transactions": ["delivery"], "price": "$$", "location": {"address1": "97 Boston Tpke", "address2": "", "address3": "", "city": "Shrewsbury", "zip_code": "01545", "country": "US", "state": "MA", "display_address": ["97 Boston Tpke", "Shrewsbury, MA 01545"]}, "phone": "+15087939888", "display_phone": "(508) 793-9888", "distance": 9786.628535855087}, {"id": "sVix8SlTNS7qlb6fLmWthw", "alias": "bushel-n-peck-westborough", "name": "Bushel 'N Peck", "image_url": "https://s3-media1.fl.yelpcdn.com/bphoto/J9hSRNyhUAzCBOCwU0VADA/o.jpg", "is_closed": false, "url": "https://www.yelp.com/biz/bushel-n-peck-westborough?adjust_creative=ywY5UnLZrNrRl2b93Ruy_g&utm_campaign=yelp_api_v3&utm_medium=api_v3_business_search&utm_source=ywY5UnLZrNrRl2b93Ruy_g", "review_count": 7, "categories": [{"alias": "sandwiches", "title": "Sandwiches"}, {"alias": "salad", "title": "Salad"}], "rating": 2.5, "coordinates": {"latitude": 42.27487, "longitude": -71.61039}, "transactions": ["pickup", "delivery"], "location": {"address1": "72 E Main St", "address2": "", "address3": null, "city": "Westborough", "zip_code": "01581", "country": "US", "state": "MA", "display_address": ["72 E Main St", "Westborough, MA 01581"]}, "phone": "+15086169729", "display_phone": "(508) 616-9729", "distance": 9941.497099756894}, {"id": "fWmuVCmsxSmInOz01W-3pw", "alias": "hooters-shrewsbury", "name": "Hooters", "image_url": "https://s3-media1.fl.yelpcdn.com/bphoto/TfkzFGzPGK5crtNqs2V7KA/o.jpg", "is_closed": false, "url": "https://www.yelp.com/biz/hooters-shrewsbury?adjust_creative=ywY5UnLZrNrRl2b93Ruy_g&utm_campaign=yelp_api_v3&utm_medium=api_v3_business_search&utm_source=ywY5UnLZrNrRl2b93Ruy_g", "review_count": 70, "categories": [{"alias": "newamerican", "title": "American (New)"}, {"alias": "sportsbars", "title": "Sports Bars"}, {"alias": "chicken_wings", "title": "Chicken Wings"}], "rating": 2.5, "coordinates": {"latitude": 42.2761214243562, "longitude": -71.7381874071001}, "transactions": ["pickup", "delivery"], "price": "$$", "location": {"address1": "291 Boston Tpke", "address2": "", "address3": "", "city": "Shrewsbury", "zip_code": "01545", "country": "US", "state": "MA", "display_address": ["291 Boston Tpke", "Shrewsbury, MA 01545"]}, "phone": "+15087558700", "display_phone": "(508) 755-8700", "distance": 9332.185012021037}, {"id": "XdeyMRfbE4h-xd3nqqvKew", "alias": "chumlees-shrewsbury", "name": "Chumlee's", "image_url": "https://s3-media2.fl.yelpcdn.com/bphoto/f8AYg8iE3WDFkqKcfAjbWg/o.jpg", "is_closed": false, "url": "https://www.yelp.com/biz/chumlees-shrewsbury?adjust_creative=ywY5UnLZrNrRl2b93Ruy_g&utm_campaign=yelp_api_v3&utm_medium=api_v3_business_search&utm_source=ywY5UnLZrNrRl2b93Ruy_g", "review_count": 32, "categories": [{"alias": "chinese", "title": "Chinese"}], "rating": 3.5, "coordinates": {"latitude": 42.2742513, "longitude": -71.7526993}, "transactions": ["delivery"], "price": "$$", "location": {"address1": "50 Boston Tpke", "address2": "", "address3": "", "city": "Shrewsbury", "zip_code": "01545", "country": "US", "state": "MA", "display_address": ["50 Boston Tpke", "Shrewsbury, MA 01545"]}, "phone": "+15087982220", "display_phone": "(508) 798-2220", "distance": 9516.699278527018}, {"id": "QJ1P90Wkg9rz_FY-vOvDDA", "alias": "five-guys-sutton", "name": "Five Guys", "image_url": "https://s3-media1.fl.yelpcdn.com/bphoto/esJE7I_65f5J9coJWGr3TQ/o.jpg", "is_closed": false, "url": "https://www.yelp.com/biz/five-guys-sutton?adjust_creative=ywY5UnLZrNrRl2b93Ruy_g&utm_campaign=yelp_api_v3&utm_medium=api_v3_business_search&utm_source=ywY5UnLZrNrRl2b93Ruy_g", "review_count": 17, "categories": [{"alias": "hotdogs", "title": "Fast Food"}, {"alias": "burgers", "title": "Burgers"}], "rating": 3.0, "coordinates": {"latitude": 42.1597387, "longitude": -71.7348844}, "transactions": ["delivery"], "price": "$", "location": {"address1": "26 Galaxy Pass", "address2": "", "address3": "", "city": "Sutton", "zip_code": "01590", "country": "US", "state": "MA", "display_address": ["26 Galaxy Pass", "Sutton, MA 01590"]}, "phone": "+15089178555", "display_phone": "(508) 917-8555", "distance": 6477.406118959387}, {"id": "zqHlcGdYzpFjdywqzx5Yfg", "alias": "foley-and-son-fish-and-chip-worcester", "name": "Foley & Son Fish & Chip", "image_url": "https://s3-media2.fl.yelpcdn.com/bphoto/K12VINhqBCrgXodzgiNmUA/o.jpg", "is_closed": false, "url": "https://www.yelp.com/biz/foley-and-son-fish-and-chip-worcester?adjust_creative=ywY5UnLZrNrRl2b93Ruy_g&utm_campaign=yelp_api_v3&utm_medium=api_v3_business_search&utm_source=ywY5UnLZrNrRl2b93Ruy_g", "review_count": 8, "categories": [{"alias": "seafood", "title": "Seafood"}], "rating": 3.5, "coordinates": {"latitude": 42.26739, "longitude": -71.77297}, "transactions": ["delivery"], "location": {"address1": "274 Plantation St", "address2": "", "address3": "", "city": "Worcester", "zip_code": "01604", "country": "US", "state": "MA", "display_address": ["274 Plantation St", "Worcester, MA 01604"]}, "phone": "+15087566492", "display_phone": "(508) 756-6492", "distance": 10333.889201105205}, {"id": "2YDv6ATuncjf_jP1645a6A", "alias": "schultzys-place-sutton", "name": "Schultzy's Place", "image_url": "https://s3-media4.fl.yelpcdn.com/bphoto/9hKQT4UdlS1uDj9Pj4UHWA/o.jpg", "is_closed": false, "url": "https://www.yelp.com/biz/schultzys-place-sutton?adjust_creative=ywY5UnLZrNrRl2b93Ruy_g&utm_campaign=yelp_api_v3&utm_medium=api_v3_business_search&utm_source=ywY5UnLZrNrRl2b93Ruy_g", "review_count": 55, "categories": [{"alias": "cafes", "title": "Cafes"}, {"alias": "breakfast_brunch", "title": "Breakfast & Brunch"}], "rating": 4.0, "coordinates": {"latitude": 42.1746019273996, "longitude": -71.7225104570389}, "transactions": ["delivery"], "price": "$", "location": {"address1": "3 Boston Rd", "address2": "", "address3": "", "city": "Sutton", "zip_code": "01590", "country": "US", "state": "MA", "display_address": ["3 Boston Rd", "Sutton, MA 01590"]}, "phone": "+15088656777", "display_phone": "(508) 865-6777", "distance": 4579.309935824863}, {"id": "w7nK16af2rt_kO2HUBcM0g", "alias": "uno-pizzeria-and-grill-millbury", "name": "Uno Pizzeria & Grill", "image_url": "https://s3-media4.fl.yelpcdn.com/bphoto/NfuIL8h-5oh6IMcIYleLzQ/o.jpg", "is_closed": false, "url": "https://www.yelp.com/biz/uno-pizzeria-and-grill-millbury?adjust_creative=ywY5UnLZrNrRl2b93Ruy_g&utm_campaign=yelp_api_v3&utm_medium=api_v3_business_search&utm_source=ywY5UnLZrNrRl2b93Ruy_g", "review_count": 59, "categories": [{"alias": "pizza", "title": "Pizza"}, {"alias": "gluten_free", "title": "Gluten-Free"}, {"alias": "tradamerican", "title": "American (Traditional)"}], "rating": 2.5, "coordinates": {"latitude": 42.196621526919, "longitude": -71.7780169148893}, "transactions": ["pickup", "delivery"], "price": "$$", "location": {"address1": "70 Worcester Providence Hwy", "address2": "Ste 441", "address3": "", "city": "Millbury", "zip_code": "01527", "country": "US", "state": "MA", "display_address": ["70 Worcester Providence Hwy", "Ste 441", "Millbury, MA 01527"]}, "phone": "+15085817866", "display_phone": "(508) 581-7866", "distance": 7912.4513705381205}, {"id": "TV08q26LqKcCV43TDadC2Q", "alias": "sabatini-ristorante-and-pizzeria-westborough", "name": "Sabatini Ristorante & Pizzeria", "image_url": "https://s3-media3.fl.yelpcdn.com/bphoto/kp7KvnxXKKAy0cCFGRQFdw/o.jpg", "is_closed": false, "url": "https://www.yelp.com/biz/sabatini-ristorante-and-pizzeria-westborough?adjust_creative=ywY5UnLZrNrRl2b93Ruy_g&utm_campaign=yelp_api_v3&utm_medium=api_v3_business_search&utm_source=ywY5UnLZrNrRl2b93Ruy_g", "review_count": 53, "categories": [{"alias": "pizza", "title": "Pizza"}], "rating": 3.5, "coordinates": {"latitude": 42.26842, "longitude": -71.613043}, "transactions": ["delivery"], "price": "$$", "location": {"address1": "33 South St", "address2": "", "address3": "", "city": "Westborough", "zip_code": "01581", "country": "US", "state": "MA", "display_address": ["33 South St", "Westborough, MA 01581"]}, "phone": "+15083667112", "display_phone": "(508) 366-7112", "distance": 9238.670142491726}, {"id": "LR9vzh5pFbwzWilgLLlUqg", "alias": "main-street-pizza-upton-4", "name": "Main Street Pizza", "image_url": "https://s3-media3.fl.yelpcdn.com/bphoto/DuQ277xziAjtWL7xyja-Yw/o.jpg", "is_closed": false, "url": "https://www.yelp.com/biz/main-street-pizza-upton-4?adjust_creative=ywY5UnLZrNrRl2b93Ruy_g&utm_campaign=yelp_api_v3&utm_medium=api_v3_business_search&utm_source=ywY5UnLZrNrRl2b93Ruy_g", "review_count": 13, "categories": [{"alias": "pizza", "title": "Pizza"}, {"alias": "sandwiches", "title": "Sandwiches"}], "rating": 3.5, "coordinates": {"latitude": 42.1699035456888, "longitude": -71.6192603775148}, "transactions": [], "price": "$", "location": {"address1": "113 Main St", "address2": "", "address3": "", "city": "Upton", "zip_code": "01568", "country": "US", "state": "MA", "display_address": ["113 Main St", "Upton, MA 01568"]}, "phone": "+15085293500", "display_phone": "(508) 529-3500", "distance": 6374.49711282338}, {"id": "-LxvI8IAf5SqlfUZ2d1QZw", "alias": "chatters-bar-and-grill-providence", "name": "Chatters Bar & Grill", "image_url": "", "is_closed": false, "url": "https://www.yelp.com/biz/chatters-bar-and-grill-providence?adjust_creative=ywY5UnLZrNrRl2b93Ruy_g&utm_campaign=yelp_api_v3&utm_medium=api_v3_business_search&utm_source=ywY5UnLZrNrRl2b93Ruy_g", "review_count": 2, "categories": [{"alias": "newamerican", "title": "American (New)"}], "rating": 3.0, "coordinates": {"latitude": 42.199911, "longitude": -71.778245}, "transactions": [], "location": {"address1": "1 Providence Pl", "address2": "", "address3": "Providence Place Mall", "city": "Providence", "zip_code": "02908", "country": "US", "state": "RI", "display_address": ["1 Providence Pl", "Providence Place Mall", "Providence, RI 02908"]}, "phone": "", "display_phone": "", "distance": 7906.239640199105}, {"id": "Gdz5FnjKH2AKXfwjlGHe4Q", "alias": "buffalo-wild-wings-shrewsbury", "name": "Buffalo Wild Wings", "image_url": "https://s3-media3.fl.yelpcdn.com/bphoto/upu-skyO9MduLBwuGJVHag/o.jpg", "is_closed": false, "url": "https://www.yelp.com/biz/buffalo-wild-wings-shrewsbury?adjust_creative=ywY5UnLZrNrRl2b93Ruy_g&utm_campaign=yelp_api_v3&utm_medium=api_v3_business_search&utm_source=ywY5UnLZrNrRl2b93Ruy_g", "review_count": 235, "categories": [{"alias": "tradamerican", "title": "American (Traditional)"}, {"alias": "chicken_wings", "title": "Chicken Wings"}, {"alias": "sportsbars", "title": "Sports Bars"}], "rating": 2.0, "coordinates": {"latitude": 42.275995, "longitude": -71.7202761769295}, "transactions": ["delivery"], "price": "$$", "location": {"address1": "476 Boston Tpke", "address2": "", "address3": "", "city": "Shrewsbury", "zip_code": "01545", "country": "US", "state": "MA", "display_address": ["476 Boston Tpke", "Shrewsbury, MA 01545"]}, "phone": "+15088452999", "display_phone": "(508) 845-2999", "distance": 8688.046682501907}, {"id": "jf6viIHbIRnXqVItB3unuA", "alias": "wexford-house-restaurant-worcester", "name": "Wexford House Restaurant", "image_url": "https://s3-media1.fl.yelpcdn.com/bphoto/AMCIFQH-ZPOKqY0FrzimYQ/o.jpg", "is_closed": false, "url": "https://www.yelp.com/biz/wexford-house-restaurant-worcester?adjust_creative=ywY5UnLZrNrRl2b93Ruy_g&utm_campaign=yelp_api_v3&utm_medium=api_v3_business_search&utm_source=ywY5UnLZrNrRl2b93Ruy_g", "review_count": 38, "categories": [{"alias": "tradamerican", "title": "American (Traditional)"}, {"alias": "mideastern", "title": "Middle Eastern"}], "rating": 3.5, "coordinates": {"latitude": 42.273459, "longitude": -71.7698268}, "transactions": ["delivery"], "price": "$$", "location": {"address1": "503 Shrewsbury St", "address2": "", "address3": "", "city": "Worcester", "zip_code": "01604", "country": "US", "state": "MA", "display_address": ["503 Shrewsbury St", "Worcester, MA 01604"]}, "phone": "+15087578982", "display_phone": "(508) 757-8982", "distance": 10634.670142628564}, {"id": "Bg2x3OtgVw--dvChJD5smg", "alias": "pearl-cafe-ii-millbury", "name": "Pearl Cafe II", "image_url": "https://s3-media4.fl.yelpcdn.com/bphoto/bERAQAvSKTGKjHOSAKexUw/o.jpg", "is_closed": false, "url": "https://www.yelp.com/biz/pearl-cafe-ii-millbury?adjust_creative=ywY5UnLZrNrRl2b93Ruy_g&utm_campaign=yelp_api_v3&utm_medium=api_v3_business_search&utm_source=ywY5UnLZrNrRl2b93Ruy_g", "review_count": 22, "categories": [{"alias": "chinese", "title": "Chinese"}], "rating": 3.5, "coordinates": {"latitude": 42.1913030767059, "longitude": -71.7608588563859}, "transactions": ["delivery"], "price": "$$", "location": {"address1": "92 Elm St", "address2": null, "address3": null, "city": "Millbury", "zip_code": "01527", "country": "US", "state": "MA", "display_address": ["92 Elm St", "Millbury, MA 01527"]}, "phone": "+15085818886", "display_phone": "(508) 581-8886", "distance": 6597.936224557102}, {"id": "RW8bWlLLvS8zgKXnGXaiZw", "alias": "funky-murphys-worcester", "name": "Funky Murphy's", "image_url": "https://s3-media4.fl.yelpcdn.com/bphoto/4KB7RwAPSUqcue9BHrN4fQ/o.jpg", "is_closed": false, "url": "https://www.yelp.com/biz/funky-murphys-worcester?adjust_creative=ywY5UnLZrNrRl2b93Ruy_g&utm_campaign=yelp_api_v3&utm_medium=api_v3_business_search&utm_source=ywY5UnLZrNrRl2b93Ruy_g", "review_count": 131, "categories": [{"alias": "newamerican", "title": "American (New)"}, {"alias": "irish", "title": "Irish"}, {"alias": "irish_pubs", "title": "Irish Pub"}], "rating": 2.5, "coordinates": {"latitude": 42.2685381, "longitude": -71.7800175}, "transactions": ["delivery"], "price": "$$", "location": {"address1": "305 Shrewsbury St", "address2": "", "address3": "", "city": "Worcester", "zip_code": "01604", "country": "US", "state": "MA", "display_address": ["305 Shrewsbury St", "Worcester, MA 01604"]}, "phone": "+15087532995", "display_phone": "(508) 753-2995", "distance": 10830.076757082148}, {"id": "UAsEW-fPrVXMgZSXTkfLYg", "alias": "jims-pizza-and-restaurant-sutton", "name": "Jim's Pizza & Restaurant", "image_url": "https://s3-media2.fl.yelpcdn.com/bphoto/UbbwGYWXed_WacIzdu-xjg/o.jpg", "is_closed": false, "url": "https://www.yelp.com/biz/jims-pizza-and-restaurant-sutton?adjust_creative=ywY5UnLZrNrRl2b93Ruy_g&utm_campaign=yelp_api_v3&utm_medium=api_v3_business_search&utm_source=ywY5UnLZrNrRl2b93Ruy_g", "review_count": 18, "categories": [{"alias": "pizza", "title": "Pizza"}, {"alias": "salad", "title": "Salad"}, {"alias": "italian", "title": "Italian"}], "rating": 2.5, "coordinates": {"latitude": 42.1745342, "longitude": -71.7223978}, "transactions": ["delivery"], "price": "$", "location": {"address1": "3 Boston Rd", "address2": "", "address3": "", "city": "Sutton", "zip_code": "01590", "country": "US", "state": "MA", "display_address": ["3 Boston Rd", "Sutton, MA 01590"]}, "phone": "+15088650517", "display_phone": "(508) 865-0517", "distance": 4576.615307317787}, {"id": "8y4fIR8jZ9tddmKcpRY6BQ", "alias": "applebees-grill-bar-millbury", "name": "Applebee's Grill + Bar", "image_url": "https://s3-media1.fl.yelpcdn.com/bphoto/5rwINwRdnBgf3omLWggwrg/o.jpg", "is_closed": false, "url": "https://www.yelp.com/biz/applebees-grill-bar-millbury?adjust_creative=ywY5UnLZrNrRl2b93Ruy_g&utm_campaign=yelp_api_v3&utm_medium=api_v3_business_search&utm_source=ywY5UnLZrNrRl2b93Ruy_g", "review_count": 46, "categories": [{"alias": "tradamerican", "title": "American (Traditional)"}, {"alias": "burgers", "title": "Burgers"}, {"alias": "sportsbars", "title": "Sports Bars"}], "rating": 2.5, "coordinates": {"latitude": 42.1973, "longitude": -71.778}, "transactions": ["delivery"], "price": "$$", "location": {"address1": "70 Worcester Providence Turnpike", "address2": "", "address3": "", "city": "Millbury", "zip_code": "01527", "country": "US", "state": "MA", "display_address": ["70 Worcester Providence Turnpike", "Millbury, MA 01527"]}, "phone": "+15085819270", "display_phone": "(508) 581-9270", "distance": 7904.531551307103}, {"id": "tjlicZu4gyvNcA9S0aB7TA", "alias": "salgabom-snacks-worcester", "name": "Salgabom Snacks", "image_url": "https://s3-media2.fl.yelpcdn.com/bphoto/cXaLdzAyaTLqtIgkNZAujA/o.jpg", "is_closed": false, "url": "https://www.yelp.com/biz/salgabom-snacks-worcester?adjust_creative=ywY5UnLZrNrRl2b93Ruy_g&utm_campaign=yelp_api_v3&utm_medium=api_v3_business_search&utm_source=ywY5UnLZrNrRl2b93Ruy_g", "review_count": 28, "categories": [{"alias": "brazilian", "title": "Brazilian"}, {"alias": "desserts", "title": "Desserts"}, {"alias": "hotdogs", "title": "Fast Food"}], "rating": 4.5, "coordinates": {"latitude": 42.2706546896159, "longitude": -71.7772084102035}, "transactions": ["delivery", "pickup"], "location": {"address1": "358 Shrewsbury St", "address2": "", "address3": null, "city": "Worcester", "zip_code": "01604", "country": "US", "state": "MA", "display_address": ["358 Shrewsbury St", "Worcester, MA 01604"]}, "phone": "+15089268640", "display_phone": "(508) 926-8640", "distance": 10836.80526369627}, {"id": "Qn6ajuuNh7N_pgntxY80ug", "alias": "foodworks-millbury", "name": "Foodworks", "image_url": "https://s3-media2.fl.yelpcdn.com/bphoto/-ZKHYtClFXyg6ORBwvD3_A/o.jpg", "is_closed": false, "url": "https://www.yelp.com/biz/foodworks-millbury?adjust_creative=ywY5UnLZrNrRl2b93Ruy_g&utm_campaign=yelp_api_v3&utm_medium=api_v3_business_search&utm_source=ywY5UnLZrNrRl2b93Ruy_g", "review_count": 16, "categories": [{"alias": "chinese", "title": "Chinese"}], "rating": 3.5, "coordinates": {"latitude": 42.1912, "longitude": -71.76148}, "transactions": ["delivery", "pickup"], "price": "$$", "location": {"address1": "110 Elm St", "address2": "", "address3": "", "city": "Millbury", "zip_code": "01527", "country": "US", "state": "MA", "display_address": ["110 Elm St", "Millbury, MA 01527"]}, "phone": "+15088651707", "display_phone": "(508) 865-1707", "distance": 6647.955431836579}, {"id": "V71eTvu1qZ9URFZxDkpH0Q", "alias": "chipotle-mexican-grill-shrewsbury", "name": "Chipotle Mexican Grill", "image_url": "https://s3-media4.fl.yelpcdn.com/bphoto/WbH2HjRHIJVrMKPnpfrXIA/o.jpg", "is_closed": false, "url": "https://www.yelp.com/biz/chipotle-mexican-grill-shrewsbury?adjust_creative=ywY5UnLZrNrRl2b93Ruy_g&utm_campaign=yelp_api_v3&utm_medium=api_v3_business_search&utm_source=ywY5UnLZrNrRl2b93Ruy_g", "review_count": 78, "categories": [{"alias": "mexican", "title": "Mexican"}, {"alias": "hotdogs", "title": "Fast Food"}], "rating": 3.0, "coordinates": {"latitude": 42.27544, "longitude": -71.749755}, "transactions": ["delivery"], "price": "$", "location": {"address1": "97 Boston Tpke", "address2": null, "address3": null, "city": "Shrewsbury", "zip_code": "01545", "country": "US", "state": "MA", "display_address": ["97 Boston Tpke", "Shrewsbury, MA 01545"]}, "phone": "+15087521726", "display_phone": "(508) 752-1726", "distance": 9773.688624351405}, {"id": "nFhhGXWbvkjsIqaqL8E7gQ", "alias": "cranberries-restaurant-worcester", "name": "Cranberries Restaurant", "image_url": "https://s3-media2.fl.yelpcdn.com/bphoto/sxttQHTwRugeollch1fFIg/o.jpg", "is_closed": false, "url": "https://www.yelp.com/biz/cranberries-restaurant-worcester?adjust_creative=ywY5UnLZrNrRl2b93Ruy_g&utm_campaign=yelp_api_v3&utm_medium=api_v3_business_search&utm_source=ywY5UnLZrNrRl2b93Ruy_g", "review_count": 6, "categories": [{"alias": "catering", "title": "Caterers"}, {"alias": "diners", "title": "Diners"}], "rating": 4.0, "coordinates": {"latitude": 42.24608, "longitude": -71.77345}, "transactions": ["delivery"], "price": "$$", "location": {"address1": "142 Massasoit Rd", "address2": "", "address3": "", "city": "Worcester", "zip_code": "01604", "country": "US", "state": "MA", "display_address": ["142 Massasoit Rd", "Worcester, MA 01604"]}, "phone": "+15087537885", "display_phone": "(508) 753-7885", "distance": 8890.422440848059}, {"id": "4I5Vj-CiIFpINWaKtLCBBQ", "alias": "panera-bread-millbury-5", "name": "Panera Bread", "image_url": "https://s3-media4.fl.yelpcdn.com/bphoto/4EyRhuqiDri7XUKCummf-Q/o.jpg", "is_closed": false, "url": "https://www.yelp.com/biz/panera-bread-millbury-5?adjust_creative=ywY5UnLZrNrRl2b93Ruy_g&utm_campaign=yelp_api_v3&utm_medium=api_v3_business_search&utm_source=ywY5UnLZrNrRl2b93Ruy_g", "review_count": 62, "categories": [{"alias": "sandwiches", "title": "Sandwiches"}, {"alias": "salad", "title": "Salad"}, {"alias": "soup", "title": "Soup"}], "rating": 3.0, "coordinates": {"latitude": 42.1974657, "longitude": -71.775797}, "transactions": ["delivery"], "price": "$$", "location": {"address1": "70 Worcester-providence Tpke", "address2": "Ste 605", "address3": "", "city": "Millbury", "zip_code": "01527", "country": "US", "state": "MA", "display_address": ["70 Worcester-providence Tpke", "Ste 605", "Millbury, MA 01527"]}, "phone": "+15088656756", "display_phone": "(508) 865-6756", "distance": 7722.156626372108}, {"id": "R9_918LFsnhNIQr2kj8Haw", "alias": "willikers-tex-mex-and-bbq-shrewsbury", "name": "Willikers Tex-Mex & BBQ", "image_url": "https://s3-media3.fl.yelpcdn.com/bphoto/ZnfuijLilny79yFtGIpyIg/o.jpg", "is_closed": false, "url": "https://www.yelp.com/biz/willikers-tex-mex-and-bbq-shrewsbury?adjust_creative=ywY5UnLZrNrRl2b93Ruy_g&utm_campaign=yelp_api_v3&utm_medium=api_v3_business_search&utm_source=ywY5UnLZrNrRl2b93Ruy_g", "review_count": 21, "categories": [{"alias": "bbq", "title": "Barbeque"}, {"alias": "tex-mex", "title": "Tex-Mex"}, {"alias": "mexican", "title": "Mexican"}], "rating": 2.5, "coordinates": {"latitude": 42.2780791, "longitude": -71.6745192}, "transactions": ["delivery"], "price": "$$", "location": {"address1": "896 Hartford Tpke", "address2": "", "address3": "", "city": "Shrewsbury", "zip_code": "01545", "country": "US", "state": "MA", "display_address": ["896 Hartford Tpke", "Shrewsbury, MA 01545"]}, "phone": "+15088421352", "display_phone": "(508) 842-1352", "distance": 8305.803422176914}, {"id": "dklhYC-uGNfK1bnldlA7zg", "alias": "dinos-ristorante-italiano-worcester", "name": "Dino's Ristorante Italiano", "image_url": "https://s3-media1.fl.yelpcdn.com/bphoto/V8RsQqF1qFgOSZ7ePZVUMw/o.jpg", "is_closed": false, "url": "https://www.yelp.com/biz/dinos-ristorante-italiano-worcester?adjust_creative=ywY5UnLZrNrRl2b93Ruy_g&utm_campaign=yelp_api_v3&utm_medium=api_v3_business_search&utm_source=ywY5UnLZrNrRl2b93Ruy_g", "review_count": 141, "categories": [{"alias": "pizza", "title": "Pizza"}, {"alias": "italian", "title": "Italian"}], "rating": 3.5, "coordinates": {"latitude": 42.2644402, "longitude": -71.7762805}, "transactions": ["delivery"], "price": "$$", "location": {"address1": "13 Lord St", "address2": "", "address3": "", "city": "Worcester", "zip_code": "01604", "country": "US", "state": "MA", "display_address": ["13 Lord St", "Worcester, MA 01604"]}, "phone": "+15087539978", "display_phone": "(508) 753-9978", "distance": 10357.828323216516}, {"id": "Dp7GTK6by1mZQoQzCggAbg", "alias": "lees-bakery-worcester", "name": "Lee's Bakery", "image_url": "https://s3-media3.fl.yelpcdn.com/bphoto/ZuKzFhqoq-Senq1jVacN4A/o.jpg", "is_closed": false, "url": "https://www.yelp.com/biz/lees-bakery-worcester?adjust_creative=ywY5UnLZrNrRl2b93Ruy_g&utm_campaign=yelp_api_v3&utm_medium=api_v3_business_search&utm_source=ywY5UnLZrNrRl2b93Ruy_g", "review_count": 2, "categories": [{"alias": "bakeries", "title": "Bakeries"}, {"alias": "sandwiches", "title": "Sandwiches"}, {"alias": "mediterranean", "title": "Mediterranean"}], "rating": 5.0, "coordinates": {"latitude": 42.25586, "longitude": -71.77969}, "transactions": ["delivery"], "location": {"address1": "98 Hamilton St", "address2": "", "address3": "", "city": "Worcester", "zip_code": "01604", "country": "US", "state": "MA", "display_address": ["98 Hamilton St", "Worcester, MA 01604"]}, "phone": "+15087557014", "display_phone": "(508) 755-7014", "distance": 9946.96416740104}, {"id": "KEQR4sg9mgAyvacCwrUN6Q", "alias": "tomato-pie-worcester", "name": "Tomato Pie", "image_url": "https://s3-media4.fl.yelpcdn.com/bphoto/FUCh1YApoC1JO4rhwpwJGw/o.jpg", "is_closed": false, "url": "https://www.yelp.com/biz/tomato-pie-worcester?adjust_creative=ywY5UnLZrNrRl2b93Ruy_g&utm_campaign=yelp_api_v3&utm_medium=api_v3_business_search&utm_source=ywY5UnLZrNrRl2b93Ruy_g", "review_count": 45, "categories": [{"alias": "pizza", "title": "Pizza"}, {"alias": "italian", "title": "Italian"}, {"alias": "sandwiches", "title": "Sandwiches"}], "rating": 4.0, "coordinates": {"latitude": 42.2736238348283, "longitude": -71.7620887979865}, "transactions": ["delivery", "pickup"], "price": "$$", "location": {"address1": "394 Belmont St", "address2": "", "address3": "", "city": "Worcester", "zip_code": "01604", "country": "US", "state": "MA", "display_address": ["394 Belmont St", "Worcester, MA 01604"]}, "phone": "+15087557001", "display_phone": "(508) 755-7001", "distance": 10228.148566828566}, {"id": "0m38Id683zepkLR5L7in0g", "alias": "brodys-diner-shrewsbury", "name": "Brody's Diner", "image_url": "https://s3-media2.fl.yelpcdn.com/bphoto/Dm85Fod8YQW8ZqSei1DEIg/o.jpg", "is_closed": false, "url": "https://www.yelp.com/biz/brodys-diner-shrewsbury?adjust_creative=ywY5UnLZrNrRl2b93Ruy_g&utm_campaign=yelp_api_v3&utm_medium=api_v3_business_search&utm_source=ywY5UnLZrNrRl2b93Ruy_g", "review_count": 99, "categories": [{"alias": "breakfast_brunch", "title": "Breakfast & Brunch"}], "rating": 3.5, "coordinates": {"latitude": 42.2493589417396, "longitude": -71.7150464432286}, "transactions": [], "price": "$", "location": {"address1": "308 Hartford Tpke", "address2": "", "address3": "", "city": "Shrewsbury", "zip_code": "01545", "country": "US", "state": "MA", "display_address": ["308 Hartford Tpke", "Shrewsbury, MA 01545"]}, "phone": "+15087544400", "display_phone": "(508) 754-4400", "distance": 5807.504134771609}, {"id": "_U-jUg4C9zDCE1-kz3zKLw", "alias": "rosalinas-kitchen-worcester", "name": "Rosalina's Kitchen", "image_url": "https://s3-media3.fl.yelpcdn.com/bphoto/VNzPHEdY8v7RFDvWqll__w/o.jpg", "is_closed": false, "url": "https://www.yelp.com/biz/rosalinas-kitchen-worcester?adjust_creative=ywY5UnLZrNrRl2b93Ruy_g&utm_campaign=yelp_api_v3&utm_medium=api_v3_business_search&utm_source=ywY5UnLZrNrRl2b93Ruy_g", "review_count": 99, "categories": [{"alias": "italian", "title": "Italian"}], "rating": 3.0, "coordinates": {"latitude": 42.2561858, "longitude": -71.780752}, "transactions": ["delivery", "pickup"], "price": "$$", "location": {"address1": "83 Hamilton St", "address2": "", "address3": "", "city": "Worcester", "zip_code": "01604", "country": "US", "state": "MA", "display_address": ["83 Hamilton St", "Worcester, MA 01604"]}, "phone": "+15089268887", "display_phone": "(508) 926-8887", "distance": 10024.409350395765}, {"id": "Nf0_draTFjwE-4euU-Nomw", "alias": "hisa-japanese-cuisine-westborough-2", "name": "Hisa Japanese Cuisine", "image_url": "", "is_closed": false, "url": "https://www.yelp.com/biz/hisa-japanese-cuisine-westborough-2?adjust_creative=ywY5UnLZrNrRl2b93Ruy_g&utm_campaign=yelp_api_v3&utm_medium=api_v3_business_search&utm_source=ywY5UnLZrNrRl2b93Ruy_g", "review_count": 1, "categories": [{"alias": "japanese", "title": "Japanese"}], "rating": 5.0, "coordinates": {"latitude": 42.268735, "longitude": -71.6126497}, "transactions": ["delivery"], "location": {"address1": "21 South St", "address2": "", "address3": "", "city": "Westborough", "zip_code": "01581", "country": "US", "state": "MA", "display_address": ["21 South St", "Westborough, MA 01581"]}, "phone": "+15088989262", "display_phone": "(508) 898-9262", "distance": 9286.207791910376}, {"id": "BjrZn7s4gjqGBiHxf8WjzA", "alias": "family-kitchen-worcester", "name": "Family Kitchen", "image_url": "", "is_closed": false, "url": "https://www.yelp.com/biz/family-kitchen-worcester?adjust_creative=ywY5UnLZrNrRl2b93Ruy_g&utm_campaign=yelp_api_v3&utm_medium=api_v3_business_search&utm_source=ywY5UnLZrNrRl2b93Ruy_g", "review_count": 1, "categories": [{"alias": "restaurants", "title": "Restaurants"}], "rating": 4.0, "coordinates": {"latitude": 42.25632, "longitude": -71.7818}, "transactions": [], "price": "$$", "location": {"address1": "63 Hamilton St", "address2": "", "address3": "", "city": "Worcester", "zip_code": "01604", "country": "US", "state": "MA", "display_address": ["63 Hamilton St", "Worcester, MA 01604"]}, "phone": "+15087992611", "display_phone": "(508) 799-2611", "distance": 10101.235039625679}, {"id": "Wo5DI_-7XHu53bKCH9Ps9Q", "alias": "feng-shui-millbury", "name": "Feng Shui", "image_url": "https://s3-media3.fl.yelpcdn.com/bphoto/ihFxfcBFwgKIhW7Ph8mkHQ/o.jpg", "is_closed": false, "url": "https://www.yelp.com/biz/feng-shui-millbury?adjust_creative=ywY5UnLZrNrRl2b93Ruy_g&utm_campaign=yelp_api_v3&utm_medium=api_v3_business_search&utm_source=ywY5UnLZrNrRl2b93Ruy_g", "review_count": 4, "categories": [{"alias": "japanese", "title": "Japanese"}], "rating": 3.5, "coordinates": {"latitude": 42.18923, "longitude": -71.76219}, "transactions": [], "location": {"address1": "Blacksone Valley Plz", "address2": "", "address3": "", "city": "Millbury", "zip_code": "01527", "country": "US", "state": "MA", "display_address": ["Blacksone Valley Plz", "Millbury, MA 01527"]}, "phone": "", "display_phone": "", "distance": 7766.354244489176}, {"id": "d7xvA4Y0PNbanoGaWpdjQw", "alias": "northbridge-house-of-pizza-northbridge", "name": "Northbridge House of Pizza", "image_url": "https://s3-media1.fl.yelpcdn.com/bphoto/GfY2772blRFfs9eihosV7A/o.jpg", "is_closed": false, "url": "https://www.yelp.com/biz/northbridge-house-of-pizza-northbridge?adjust_creative=ywY5UnLZrNrRl2b93Ruy_g&utm_campaign=yelp_api_v3&utm_medium=api_v3_business_search&utm_source=ywY5UnLZrNrRl2b93Ruy_g", "review_count": 14, "categories": [{"alias": "pizza", "title": "Pizza"}], "rating": 3.0, "coordinates": {"latitude": 42.1516011, "longitude": -71.6500793}, "transactions": ["delivery"], "price": "$", "location": {"address1": "2225 Providence Rd", "address2": "", "address3": "", "city": "Northbridge", "zip_code": "01534", "country": "US", "state": "MA", "display_address": ["2225 Providence Rd", "Northbridge, MA 01534"]}, "phone": "+15082343936", "display_phone": "(508) 234-3936", "distance": 6302.399860220668}, {"id": "7Z9r9OlpdwavUQ1D_iAU4w", "alias": "weepin-willies-shrewsbury", "name": "Weepin' Willies", "image_url": "https://s3-media1.fl.yelpcdn.com/bphoto/h_BrKaSzG4GFFNNM7LIQgA/o.jpg", "is_closed": false, "url": "https://www.yelp.com/biz/weepin-willies-shrewsbury?adjust_creative=ywY5UnLZrNrRl2b93Ruy_g&utm_campaign=yelp_api_v3&utm_medium=api_v3_business_search&utm_source=ywY5UnLZrNrRl2b93Ruy_g", "review_count": 11, "categories": [{"alias": "delis", "title": "Delis"}, {"alias": "grocery", "title": "Grocery"}, {"alias": "catering", "title": "Caterers"}], "rating": 3.5, "coordinates": {"latitude": 42.2747329, "longitude": -71.7477426}, "transactions": [], "price": "$", "location": {"address1": "160 Boston Tpke", "address2": null, "address3": null, "city": "Shrewsbury", "zip_code": "01545", "country": "US", "state": "MA", "display_address": ["160 Boston Tpke", "Shrewsbury, MA 01545"]}, "phone": "+15087979455", "display_phone": "(508) 797-9455", "distance": 9581.885882988658}, {"id": "ddzAuPilT9X5UCNlIfjt1w", "alias": "bauhinia-shrewsbury", "name": "Bauhinia", "image_url": "https://s3-media3.fl.yelpcdn.com/bphoto/vf2IAAHQ8uHw1zuvOrM7dg/o.jpg", "is_closed": false, "url": "https://www.yelp.com/biz/bauhinia-shrewsbury?adjust_creative=ywY5UnLZrNrRl2b93Ruy_g&utm_campaign=yelp_api_v3&utm_medium=api_v3_business_search&utm_source=ywY5UnLZrNrRl2b93Ruy_g", "review_count": 81, "categories": [{"alias": "japanese", "title": "Japanese"}, {"alias": "chinese", "title": "Chinese"}], "rating": 2.5, "coordinates": {"latitude": 42.27839, "longitude": -71.7110299}, "transactions": ["delivery", "pickup"], "price": "$$", "location": {"address1": "271 Grafton St", "address2": "", "address3": "", "city": "Shrewsbury", "zip_code": "01545", "country": "US", "state": "MA", "display_address": ["271 Grafton St", "Shrewsbury, MA 01545"]}, "phone": "+15088420880", "display_phone": "(508) 842-0880", "distance": 8678.429994670616}, {"id": "lbOlVVcYZUcQ2PFCRMlYzg", "alias": "kenichi-bistro-worcester", "name": "Kenichi  Bistro", "image_url": "https://s3-media2.fl.yelpcdn.com/bphoto/RgoCcP3U49TJEKRtoDFmGA/o.jpg", "is_closed": false, "url": "https://www.yelp.com/biz/kenichi-bistro-worcester?adjust_creative=ywY5UnLZrNrRl2b93Ruy_g&utm_campaign=yelp_api_v3&utm_medium=api_v3_business_search&utm_source=ywY5UnLZrNrRl2b93Ruy_g", "review_count": 80, "categories": [{"alias": "asianfusion", "title": "Asian Fusion"}, {"alias": "sushi", "title": "Sushi Bars"}, {"alias": "japanese", "title": "Japanese"}], "rating": 3.5, "coordinates": {"latitude": 42.268082, "longitude": -71.781697}, "transactions": ["delivery", "pickup"], "price": "$$", "location": {"address1": "270 Shrewsbury St", "address2": "", "address3": "", "city": "Worcester", "zip_code": "01604", "country": "US", "state": "MA", "display_address": ["270 Shrewsbury St", "Worcester, MA 01604"]}, "phone": "+15089268622", "display_phone": "(508) 926-8622", "distance": 10914.637986835207}, {"id": "zJQ7BnmoEfBokr-wHDz2-Q", "alias": "cafe-noir-shrewsbury", "name": "Cafe Noir", "image_url": "https://s3-media2.fl.yelpcdn.com/bphoto/l1t8c4ov2tnaAz6vrm5ywA/o.jpg", "is_closed": false, "url": "https://www.yelp.com/biz/cafe-noir-shrewsbury?adjust_creative=ywY5UnLZrNrRl2b93Ruy_g&utm_campaign=yelp_api_v3&utm_medium=api_v3_business_search&utm_source=ywY5UnLZrNrRl2b93Ruy_g", "review_count": 48, "categories": [{"alias": "coffee", "title": "Coffee & Tea"}, {"alias": "cafes", "title": "Cafes"}], "rating": 3.5, "coordinates": {"latitude": 42.27554, "longitude": -71.7117899}, "transactions": [], "price": "$", "location": {"address1": "307 Grafton St", "address2": "", "address3": "", "city": "Shrewsbury", "zip_code": "01545", "country": "US", "state": "MA", "display_address": ["307 Grafton St", "Shrewsbury, MA 01545"]}, "phone": "+15088423709", "display_phone": "(508) 842-3709", "distance": 8413.582381673765}, {"id": "-YpXG9qxxy7XflnLxCL9Xw", "alias": "moes-hot-dog-truck-worcester", "name": "Moe's Hot Dog Truck", "image_url": "https://s3-media3.fl.yelpcdn.com/bphoto/sMpAm2Gno1Gu-Qpc1cTnCA/o.jpg", "is_closed": false, "url": "https://www.yelp.com/biz/moes-hot-dog-truck-worcester?adjust_creative=ywY5UnLZrNrRl2b93Ruy_g&utm_campaign=yelp_api_v3&utm_medium=api_v3_business_search&utm_source=ywY5UnLZrNrRl2b93Ruy_g", "review_count": 5, "categories": [{"alias": "hotdog", "title": "Hot Dogs"}, {"alias": "foodtrucks", "title": "Food Trucks"}], "rating": 4.0, "coordinates": {"latitude": 42.2441520690918, "longitude": -71.7570037841797}, "transactions": [], "price": "$", "location": {"address1": "1015 Grafton St", "address2": "", "address3": "", "city": "Worcester", "zip_code": "01604", "country": "US", "state": "MA", "display_address": ["1015 Grafton St", "Worcester, MA 01604"]}, "phone": "+15087697114", "display_phone": "(508) 769-7114", "distance": 7657.613410460765}, {"id": "d2ukUJ8zLXX_FbuApzal2g", "alias": "umass-memorial-dining-worcester", "name": "UMass Memorial Dining", "image_url": "https://s3-media3.fl.yelpcdn.com/bphoto/LkIzB0JDQ7EEeYxP5C_f0w/o.jpg", "is_closed": false, "url": "https://www.yelp.com/biz/umass-memorial-dining-worcester?adjust_creative=ywY5UnLZrNrRl2b93Ruy_g&utm_campaign=yelp_api_v3&utm_medium=api_v3_business_search&utm_source=ywY5UnLZrNrRl2b93Ruy_g", "review_count": 1, "categories": [{"alias": "cafeteria", "title": "Cafeteria"}], "rating": 1.0, "coordinates": {"latitude": 42.2717865, "longitude": -71.758953}, "transactions": [], "location": {"address1": "55 Lake Ave N", "address2": "", "address3": "", "city": "Worcester", "zip_code": "01655", "country": "US", "state": "MA", "display_address": ["55 Lake Ave N", "Worcester, MA 01655"]}, "phone": "", "display_phone": "", "distance": 9906.084297526146}, {"id": "n24g6pIyB4K9xJTUerphhw", "alias": "qdoba-mexican-eats-millbury", "name": "QDOBA Mexican Eats", "image_url": "https://s3-media3.fl.yelpcdn.com/bphoto/j2QJ4Bqx7tZN3WQiBUvtPA/o.jpg", "is_closed": false, "url": "https://www.yelp.com/biz/qdoba-mexican-eats-millbury?adjust_creative=ywY5UnLZrNrRl2b93Ruy_g&utm_campaign=yelp_api_v3&utm_medium=api_v3_business_search&utm_source=ywY5UnLZrNrRl2b93Ruy_g", "review_count": 56, "categories": [{"alias": "mexican", "title": "Mexican"}, {"alias": "hotdogs", "title": "Fast Food"}], "rating": 2.5, "coordinates": {"latitude": 42.1994342177244, "longitude": -71.7783325910568}, "transactions": [], "price": "$", "location": {"address1": "70 Worcester Providence Tpke", "address2": "Ste 425", "address3": "", "city": "Millbury", "zip_code": "01527", "country": "US", "state": "MA", "display_address": ["70 Worcester Providence Tpke", "Ste 425", "Millbury, MA 01527"]}, "phone": "+15088650500", "display_phone": "(508) 865-0500", "distance": 7916.014225363559}, {"id": "iI6u7GfkG2KNZxGREiGyyw", "alias": "papa-ginos-pizzeria-worcester-4", "name": "Papa Gino's Pizzeria", "image_url": "https://s3-media1.fl.yelpcdn.com/bphoto/alB7uSUYnCG1ApHWATVjZQ/o.jpg", "is_closed": false, "url": "https://www.yelp.com/biz/papa-ginos-pizzeria-worcester-4?adjust_creative=ywY5UnLZrNrRl2b93Ruy_g&utm_campaign=yelp_api_v3&utm_medium=api_v3_business_search&utm_source=ywY5UnLZrNrRl2b93Ruy_g", "review_count": 15, "categories": [{"alias": "pizza", "title": "Pizza"}], "rating": 2.5, "coordinates": {"latitude": 42.24757, "longitude": -71.76097}, "transactions": ["delivery"], "price": "$$", "location": {"address1": "915 Grafton St", "address2": "", "address3": "", "city": "Worcester", "zip_code": "01604", "country": "US", "state": "MA", "display_address": ["915 Grafton St", "Worcester, MA 01604"]}, "phone": "+15087929313", "display_phone": "(508) 792-9313", "distance": 8054.999574866465}, {"id": "eIyGJlFia-RA0hGdR0w9aw", "alias": "westboro-house-of-pizza-and-pub-westborough", "name": "Westboro House of Pizza & Pub", "image_url": "https://s3-media3.fl.yelpcdn.com/bphoto/Pz1SFaTau6zDHCFRWUMjFA/o.jpg", "is_closed": false, "url": "https://www.yelp.com/biz/westboro-house-of-pizza-and-pub-westborough?adjust_creative=ywY5UnLZrNrRl2b93Ruy_g&utm_campaign=yelp_api_v3&utm_medium=api_v3_business_search&utm_source=ywY5UnLZrNrRl2b93Ruy_g", "review_count": 77, "categories": [{"alias": "pizza", "title": "Pizza"}, {"alias": "pubs", "title": "Pubs"}], "rating": 3.5, "coordinates": {"latitude": 42.27151, "longitude": -71.6122199}, "transactions": ["delivery"], "price": "$", "location": {"address1": "36 E Main St", "address2": "", "address3": "", "city": "Westborough", "zip_code": "01581", "country": "US", "state": "MA", "display_address": ["36 E Main St", "Westborough, MA 01581"]}, "phone": "+15083661500", "display_phone": "(508) 366-1500", "distance": 9539.557943340686}, {"id": "fmdsCtm1Pnlc2H3wCnyPeA", "alias": "teds-montana-grill-westborough-westborough", "name": "Ted's Montana Grill - Westborough", "image_url": "https://s3-media1.fl.yelpcdn.com/bphoto/DYUJNZ-50un1P8-tW3LaFQ/o.jpg", "is_closed": false, "url": "https://www.yelp.com/biz/teds-montana-grill-westborough-westborough?adjust_creative=ywY5UnLZrNrRl2b93Ruy_g&utm_campaign=yelp_api_v3&utm_medium=api_v3_business_search&utm_source=ywY5UnLZrNrRl2b93Ruy_g", "review_count": 228, "categories": [{"alias": "tradamerican", "title": "American (Traditional)"}, {"alias": "steak", "title": "Steakhouses"}, {"alias": "burgers", "title": "Burgers"}], "rating": 3.5, "coordinates": {"latitude": 42.271112, "longitude": -71.61034}, "transactions": ["delivery"], "price": "$$", "location": {"address1": "400 Union St", "address2": "Ste A104", "address3": "", "city": "Westborough", "zip_code": "01581", "country": "US", "state": "MA", "display_address": ["400 Union St", "Ste A104", "Westborough, MA 01581"]}, "phone": "+15083665050", "display_phone": "(508) 366-5050", "distance": 9611.456468641076}, {"id": "mO_PBWmn3wj_2Pmo597KPw", "alias": "upton-house-of-pizza-upton", "name": "Upton House of Pizza", "image_url": "https://s3-media1.fl.yelpcdn.com/bphoto/gEcRlZ00HVOkXSlVoiOJ5g/o.jpg", "is_closed": false, "url": "https://www.yelp.com/biz/upton-house-of-pizza-upton?adjust_creative=ywY5UnLZrNrRl2b93Ruy_g&utm_campaign=yelp_api_v3&utm_medium=api_v3_business_search&utm_source=ywY5UnLZrNrRl2b93Ruy_g", "review_count": 15, "categories": [{"alias": "pizza", "title": "Pizza"}, {"alias": "italian", "title": "Italian"}], "rating": 3.0, "coordinates": {"latitude": 42.17436, "longitude": -71.602354}, "transactions": [], "price": "$$", "location": {"address1": "6 Milford St", "address2": "", "address3": "", "city": "Upton", "zip_code": "01568", "country": "US", "state": "MA", "display_address": ["6 Milford St", "Upton, MA 01568"]}, "phone": "+15085296666", "display_phone": "(508) 529-6666", "distance": 7323.846703282265}, {"id": "MbUZnF2En0dzHdlW9dUkZQ", "alias": "d-angelo-sandwich-shop-worcester", "name": "D'angelo Sandwich Shop", "image_url": "https://s3-media3.fl.yelpcdn.com/bphoto/uwN-aa641qtEUUwr443N2w/o.jpg", "is_closed": false, "url": "https://www.yelp.com/biz/d-angelo-sandwich-shop-worcester?adjust_creative=ywY5UnLZrNrRl2b93Ruy_g&utm_campaign=yelp_api_v3&utm_medium=api_v3_business_search&utm_source=ywY5UnLZrNrRl2b93Ruy_g", "review_count": 3, "categories": [{"alias": "sandwiches", "title": "Sandwiches"}], "rating": 2.5, "coordinates": {"latitude": 42.2258983846513, "longitude": -71.7619562889805}, "transactions": ["delivery"], "price": "$", "location": {"address1": "540 Massasoit Rd", "address2": "", "address3": "", "city": "Worcester", "zip_code": "01604", "country": "US", "state": "MA", "display_address": ["540 Massasoit Rd", "Worcester, MA 01604"]}, "phone": "+15083633791", "display_phone": "(508) 363-3791", "distance": 7080.321852065693}, {"id": "41YaIRCIUfkO0fK5bEBcHA", "alias": "regatta-deli-worcester", "name": "Regatta Deli", "image_url": "https://s3-media2.fl.yelpcdn.com/bphoto/dovYwWxMmNDYNPktKnbepg/o.jpg", "is_closed": false, "url": "https://www.yelp.com/biz/regatta-deli-worcester?adjust_creative=ywY5UnLZrNrRl2b93Ruy_g&utm_campaign=yelp_api_v3&utm_medium=api_v3_business_search&utm_source=ywY5UnLZrNrRl2b93Ruy_g", "review_count": 112, "categories": [{"alias": "delis", "title": "Delis"}, {"alias": "sandwiches", "title": "Sandwiches"}], "rating": 3.5, "coordinates": {"latitude": 42.2727760444204, "longitude": -71.7593839177412}, "transactions": ["delivery"], "price": "$", "location": {"address1": "28 Lake Ave", "address2": "", "address3": "", "city": "Worcester", "zip_code": "01604", "country": "US", "state": "MA", "display_address": ["28 Lake Ave", "Worcester, MA 01604"]}, "phone": "+15087566916", "display_phone": "(508) 756-6916", "distance": 10013.586409411142}, {"id": "283extjO6R0SSAUhA280Tg", "alias": "chuck-e-cheese-worcester", "name": "Chuck E. Cheese", "image_url": "https://s3-media1.fl.yelpcdn.com/bphoto/PEgWgl7E1UZEyHmDiNFWqA/o.jpg", "is_closed": false, "url": "https://www.yelp.com/biz/chuck-e-cheese-worcester?adjust_creative=ywY5UnLZrNrRl2b93Ruy_g&utm_campaign=yelp_api_v3&utm_medium=api_v3_business_search&utm_source=ywY5UnLZrNrRl2b93Ruy_g", "review_count": 14, "categories": [{"alias": "pizza", "title": "Pizza"}, {"alias": "arcades", "title": "Arcades"}, {"alias": "kids_activities", "title": "Kids Activities"}], "rating": 3.5, "coordinates": {"latitude": 42.2387847900391, "longitude": -71.7470855712891}, "transactions": ["delivery", "pickup"], "price": "$$", "location": {"address1": "50 SW Cutoff", "address2": "", "address3": "", "city": "Worcester", "zip_code": "01604", "country": "US", "state": "MA", "display_address": ["50 SW Cutoff", "Worcester, MA 01604"]}, "phone": "+15087545151", "display_phone": "(508) 754-5151", "distance": 6646.31099710838}, {"id": "2MEtTQGjVu58ksu0y0dsRw", "alias": "south-street-diner-westborough", "name": "South Street Diner", "image_url": "https://s3-media4.fl.yelpcdn.com/bphoto/uIFzaGyCrsTQNmv-CFmfpg/o.jpg", "is_closed": false, "url": "https://www.yelp.com/biz/south-street-diner-westborough?adjust_creative=ywY5UnLZrNrRl2b93Ruy_g&utm_campaign=yelp_api_v3&utm_medium=api_v3_business_search&utm_source=ywY5UnLZrNrRl2b93Ruy_g", "review_count": 115, "categories": [{"alias": "diners", "title": "Diners"}], "rating": 3.5, "coordinates": {"latitude": 42.2685813217699, "longitude": -71.612313169029}, "transactions": ["delivery"], "price": "$", "location": {"address1": "38 South St", "address2": "", "address3": "", "city": "Westborough", "zip_code": "01581", "country": "US", "state": "MA", "display_address": ["38 South St", "Westborough, MA 01581"]}, "phone": "+15088700101", "display_phone": "(508) 870-0101", "distance": 9289.95592004118}, {"id": "jBoRG-SfpOwAzxwT3hTlRw", "alias": "palmas-bakery-worcester", "name": "Palma's Bakery", "image_url": "https://s3-media2.fl.yelpcdn.com/bphoto/k3DKweTgC3YQigs_cjWd9A/o.jpg", "is_closed": false, "url": "https://www.yelp.com/biz/palmas-bakery-worcester?adjust_creative=ywY5UnLZrNrRl2b93Ruy_g&utm_campaign=yelp_api_v3&utm_medium=api_v3_business_search&utm_source=ywY5UnLZrNrRl2b93Ruy_g", "review_count": 38, "categories": [{"alias": "delis", "title": "Delis"}, {"alias": "sandwiches", "title": "Sandwiches"}, {"alias": "desserts", "title": "Desserts"}], "rating": 4.5, "coordinates": {"latitude": 42.250432, "longitude": -71.781405}, "transactions": ["delivery"], "price": "$", "location": {"address1": "3 Rice Sq", "address2": "Ste B", "address3": "", "city": "Worcester", "zip_code": "01604", "country": "US", "state": "MA", "display_address": ["3 Rice Sq", "Ste B", "Worcester, MA 01604"]}, "phone": "+15087989942", "display_phone": "(508) 798-9942", "distance": 9707.510565029637}, {"id": "OiYLVLWKGpFMDuo0rBqs5Q", "alias": "dairy-queen-westborough", "name": "Dairy Queen", "image_url": "https://s3-media3.fl.yelpcdn.com/bphoto/mhL9coq8XYMb4QXFny_Wsg/o.jpg", "is_closed": false, "url": "https://www.yelp.com/biz/dairy-queen-westborough?adjust_creative=ywY5UnLZrNrRl2b93Ruy_g&utm_campaign=yelp_api_v3&utm_medium=api_v3_business_search&utm_source=ywY5UnLZrNrRl2b93Ruy_g", "review_count": 9, "categories": [{"alias": "icecream", "title": "Ice Cream & Frozen Yogurt"}, {"alias": "hotdogs", "title": "Fast Food"}], "rating": 4.0, "coordinates": {"latitude": 42.270282, "longitude": -71.614257}, "transactions": ["delivery", "pickup"], "price": "$", "location": {"address1": "18 Summer St", "address2": "", "address3": "", "city": "Westborough", "zip_code": "01581", "country": "US", "state": "MA", "display_address": ["18 Summer St", "Westborough, MA 01581"]}, "phone": "+15083665900", "display_phone": "(508) 366-5900", "distance": 9343.15400300668}, {"id": "cUyJVeNRs5w9iiMVoxxhZg", "alias": "dairy-queen-grill-and-chill-worcester-2", "name": "Dairy Queen Grill & Chill", "image_url": "https://s3-media3.fl.yelpcdn.com/bphoto/Xq58kHJVVFCIua7qSEf6Xw/o.jpg", "is_closed": false, "url": "https://www.yelp.com/biz/dairy-queen-grill-and-chill-worcester-2?adjust_creative=ywY5UnLZrNrRl2b93Ruy_g&utm_campaign=yelp_api_v3&utm_medium=api_v3_business_search&utm_source=ywY5UnLZrNrRl2b93Ruy_g", "review_count": 11, "categories": [{"alias": "burgers", "title": "Burgers"}, {"alias": "icecream", "title": "Ice Cream & Frozen Yogurt"}, {"alias": "hotdogs", "title": "Fast Food"}], "rating": 2.5, "coordinates": {"latitude": 42.251062, "longitude": -71.769129}, "transactions": [], "location": {"address1": "721 Grafton St", "address2": "", "address3": null, "city": "Worcester", "zip_code": "01604", "country": "US", "state": "MA", "display_address": ["721 Grafton St", "Worcester, MA 01604"]}, "phone": "+15084590799", "display_phone": "(508) 459-0799", "distance": 8916.991447661272}, {"id": "tLzLfdTeOT1GARbhRlxFYQ", "alias": "mcdonalds-worcester-2", "name": "McDonald's", "image_url": "https://s3-media2.fl.yelpcdn.com/bphoto/59llkF7CvSjVqvhf5EGJ8A/o.jpg", "is_closed": false, "url": "https://www.yelp.com/biz/mcdonalds-worcester-2?adjust_creative=ywY5UnLZrNrRl2b93Ruy_g&utm_campaign=yelp_api_v3&utm_medium=api_v3_business_search&utm_source=ywY5UnLZrNrRl2b93Ruy_g", "review_count": 10, "categories": [{"alias": "burgers", "title": "Burgers"}, {"alias": "hotdogs", "title": "Fast Food"}, {"alias": "coffee", "title": "Coffee & Tea"}], "rating": 2.5, "coordinates": {"latitude": 42.2447476, "longitude": -71.7589779}, "transactions": ["delivery"], "price": "$", "location": {"address1": "982 Grafton St", "address2": null, "address3": null, "city": "Worcester", "zip_code": "01604", "country": "US", "state": "MA", "display_address": ["982 Grafton St", "Worcester, MA 01604"]}, "phone": "+15087492931", "display_phone": "(508) 749-2931", "distance": 7827.684732839068}, {"id": "CZTMHxo0xjDAupJNDg0rPQ", "alias": "cafe-reyes-worcester", "name": "Cafe Reyes", "image_url": "https://s3-media3.fl.yelpcdn.com/bphoto/s1umKwGVVmGiuvtGz7-7AA/o.jpg", "is_closed": false, "url": "https://www.yelp.com/biz/cafe-reyes-worcester?adjust_creative=ywY5UnLZrNrRl2b93Ruy_g&utm_campaign=yelp_api_v3&utm_medium=api_v3_business_search&utm_source=ywY5UnLZrNrRl2b93Ruy_g", "review_count": 147, "categories": [{"alias": "cuban", "title": "Cuban"}, {"alias": "breakfast_brunch", "title": "Breakfast & Brunch"}], "rating": 4.5, "coordinates": {"latitude": 42.2716484069824, "longitude": -71.7737426757812}, "transactions": ["delivery"], "price": "$", "location": {"address1": "421 Shrewsbury St", "address2": null, "address3": "", "city": "Worcester", "zip_code": "01604", "country": "US", "state": "MA", "display_address": ["421 Shrewsbury St", "Worcester, MA 01604"]}, "phone": "+15087629900", "display_phone": "(508) 762-9900", "distance": 10712.240517172373}, {"id": "sjPaDyaWR6WH5KKy4WdlWQ", "alias": "golden-pizza-on-grafton-worcester", "name": "Golden Pizza on Grafton", "image_url": "https://s3-media3.fl.yelpcdn.com/bphoto/uuQc9FgyZn93AjcmXifLmg/o.jpg", "is_closed": false, "url": "https://www.yelp.com/biz/golden-pizza-on-grafton-worcester?adjust_creative=ywY5UnLZrNrRl2b93Ruy_g&utm_campaign=yelp_api_v3&utm_medium=api_v3_business_search&utm_source=ywY5UnLZrNrRl2b93Ruy_g", "review_count": 27, "categories": [{"alias": "pizza", "title": "Pizza"}, {"alias": "italian", "title": "Italian"}, {"alias": "chicken_wings", "title": "Chicken Wings"}], "rating": 2.5, "coordinates": {"latitude": 42.24105, "longitude": -71.75352}, "transactions": ["delivery"], "price": "$", "location": {"address1": "1137 Grafton St", "address2": null, "address3": "", "city": "Worcester", "zip_code": "01604", "country": "US", "state": "MA", "display_address": ["1137 Grafton St", "Worcester, MA 01604"]}, "phone": "+15087701533", "display_phone": "(508) 770-1533", "distance": 7225.075288515542}, {"id": "IN86XjGGchWUAtfU_oAkjg", "alias": "three-gorges-three-westborough", "name": "Three Gorges Three", "image_url": "https://s3-media3.fl.yelpcdn.com/bphoto/FLy0Tj9NaNpeRLo1dY36yA/o.jpg", "is_closed": false, "url": "https://www.yelp.com/biz/three-gorges-three-westborough?adjust_creative=ywY5UnLZrNrRl2b93Ruy_g&utm_campaign=yelp_api_v3&utm_medium=api_v3_business_search&utm_source=ywY5UnLZrNrRl2b93Ruy_g", "review_count": 62, "categories": [{"alias": "chinese", "title": "Chinese"}], "rating": 2.5, "coordinates": {"latitude": 42.269225740549, "longitude": -71.613812333383}, "transactions": [], "price": "$", "location": {"address1": "30 Lyman St", "address2": "", "address3": "", "city": "Westborough", "zip_code": "01581", "country": "US", "state": "MA", "display_address": ["30 Lyman St", "Westborough, MA 01581"]}, "phone": "+15086160888", "display_phone": "(508) 616-0888", "distance": 9270.583035182612}, {"id": "QSl_T04IHyHAKKQs576rjA", "alias": "the-bistro-westborough", "name": "The Bistro", "image_url": "https://s3-media1.fl.yelpcdn.com/bphoto/VFdnxe3rRPPk6Vprv0Cs1g/o.jpg", "is_closed": false, "url": "https://www.yelp.com/biz/the-bistro-westborough?adjust_creative=ywY5UnLZrNrRl2b93Ruy_g&utm_campaign=yelp_api_v3&utm_medium=api_v3_business_search&utm_source=ywY5UnLZrNrRl2b93Ruy_g", "review_count": 80, "categories": [{"alias": "bakeries", "title": "Bakeries"}, {"alias": "breakfast_brunch", "title": "Breakfast & Brunch"}, {"alias": "sandwiches", "title": "Sandwiches"}], "rating": 4.0, "coordinates": {"latitude": 42.2747553518827, "longitude": -71.6094758188019}, "transactions": ["delivery"], "price": "$$", "location": {"address1": "57 E Main St", "address2": "", "address3": "", "city": "Westborough", "zip_code": "01581", "country": "US", "state": "MA", "display_address": ["57 E Main St", "Westborough, MA 01581"]}, "phone": "+15088363889", "display_phone": "(508) 836-3889", "distance": 9975.984176893126}, {"id": "93eOxBXMifRuy3O4eEs60g", "alias": "the-bean-counter-chestnut-hill", "name": "The Bean Counter", "image_url": "https://s3-media4.fl.yelpcdn.com/bphoto/9lQkwPJO4pTrH2YTw5cbZA/o.jpg", "is_closed": false, "url": "https://www.yelp.com/biz/the-bean-counter-chestnut-hill?adjust_creative=ywY5UnLZrNrRl2b93Ruy_g&utm_campaign=yelp_api_v3&utm_medium=api_v3_business_search&utm_source=ywY5UnLZrNrRl2b93Ruy_g", "review_count": 2, "categories": [{"alias": "coffee", "title": "Coffee & Tea"}, {"alias": "sandwiches", "title": "Sandwiches"}], "rating": 5.0, "coordinates": {"latitude": 42.275332, "longitude": -71.738257}, "transactions": [], "location": {"address1": "140 Commonwealth Ave", "address2": null, "address3": "Fulton Hall", "city": "Chestnut Hill", "zip_code": "02467", "country": "US", "state": "MA", "display_address": ["140 Commonwealth Ave", "Fulton Hall", "Chestnut Hill, MA 02467"]}, "phone": "", "display_phone": "", "distance": 9258.749917903231}, {"id": "zp3lZG7KwaQCiBg-fVP6vA", "alias": "sonoma-worcester", "name": "Sonoma", "image_url": "https://s3-media3.fl.yelpcdn.com/bphoto/xGNsR_-LuTG6wzs6HgtJ7w/o.jpg", "is_closed": false, "url": "https://www.yelp.com/biz/sonoma-worcester?adjust_creative=ywY5UnLZrNrRl2b93Ruy_g&utm_campaign=yelp_api_v3&utm_medium=api_v3_business_search&utm_source=ywY5UnLZrNrRl2b93Ruy_g", "review_count": 87, "categories": [{"alias": "newamerican", "title": "American (New)"}, {"alias": "salad", "title": "Salad"}, {"alias": "soup", "title": "Soup"}], "rating": 3.5, "coordinates": {"latitude": 42.27503, "longitude": -71.76789}, "transactions": ["delivery"], "price": "$$$", "location": {"address1": "363 Plantation St", "address2": "", "address3": "", "city": "Worcester", "zip_code": "01605", "country": "US", "state": "MA", "display_address": ["363 Plantation St", "Worcester, MA 01605"]}, "phone": "+15087542000", "display_phone": "(508) 754-2000", "distance": 10664.307105770138}, {"id": "71xSFqzI2i02_IaVHXRifQ", "alias": "moes-southwest-grill-shrewsbury", "name": "Moe's Southwest Grill", "image_url": "https://s3-media1.fl.yelpcdn.com/bphoto/LHo3v4qe_6LM2TTkFjmKJw/o.jpg", "is_closed": false, "url": "https://www.yelp.com/biz/moes-southwest-grill-shrewsbury?adjust_creative=ywY5UnLZrNrRl2b93Ruy_g&utm_campaign=yelp_api_v3&utm_medium=api_v3_business_search&utm_source=ywY5UnLZrNrRl2b93Ruy_g", "review_count": 102, "categories": [{"alias": "tex-mex", "title": "Tex-Mex"}, {"alias": "mexican", "title": "Mexican"}], "rating": 2.5, "coordinates": {"latitude": 42.2746633633951, "longitude": -71.7520033134919}, "transactions": ["delivery", "pickup"], "price": "$", "location": {"address1": "61 Boston Turnpike Rd", "address2": "", "address3": "", "city": "Shrewsbury", "zip_code": "01545", "country": "US", "state": "MA", "display_address": ["61 Boston Turnpike Rd", "Shrewsbury, MA 01545"]}, "phone": "+15087976637", "display_phone": "(508) 797-6637", "distance": 9809.751965511823}, {"id": "DXIMT2Sn2tNsFHYulUtJlQ", "alias": "five-guys-shrewsbury", "name": "Five Guys", "image_url": "https://s3-media2.fl.yelpcdn.com/bphoto/hJJpHadov16PzM_tMmGN7w/o.jpg", "is_closed": false, "url": "https://www.yelp.com/biz/five-guys-shrewsbury?adjust_creative=ywY5UnLZrNrRl2b93Ruy_g&utm_campaign=yelp_api_v3&utm_medium=api_v3_business_search&utm_source=ywY5UnLZrNrRl2b93Ruy_g", "review_count": 47, "categories": [{"alias": "burgers", "title": "Burgers"}, {"alias": "hotdogs", "title": "Fast Food"}], "rating": 3.5, "coordinates": {"latitude": 42.274032, "longitude": -71.752691}, "transactions": ["delivery"], "price": "$", "location": {"address1": "20-7 Boston Tpke", "address2": "", "address3": "", "city": "Shrewsbury", "zip_code": "01545", "country": "US", "state": "MA", "display_address": ["20-7 Boston Tpke", "Shrewsbury, MA 01545"]}, "phone": "+15084253185", "display_phone": "(508) 425-3185", "distance": 9786.277997622943}, {"id": "PXZfUBp1RbdWMAsxO1CpFg", "alias": "dees-place-shrewsbury", "name": "Dee's Place", "image_url": "", "is_closed": false, "url": "https://www.yelp.com/biz/dees-place-shrewsbury?adjust_creative=ywY5UnLZrNrRl2b93Ruy_g&utm_campaign=yelp_api_v3&utm_medium=api_v3_business_search&utm_source=ywY5UnLZrNrRl2b93Ruy_g", "review_count": 2, "categories": [{"alias": "tradamerican", "title": "American (Traditional)"}], "rating": 3.0, "coordinates": {"latitude": 42.24339, "longitude": -71.73992}, "transactions": [], "price": "$", "location": {"address1": "1 Pineland Ave", "address2": "", "address3": "", "city": "Shrewsbury", "zip_code": "01545", "country": "US", "state": "MA", "display_address": ["1 Pineland Ave", "Shrewsbury, MA 01545"]}, "phone": "+17742610068", "display_phone": "(774) 261-0068", "distance": 6534.550919664944}, {"id": "zP_GtOKu5Cyt1LL9Siz2NA", "alias": "pepperoni-express-shrewsbury", "name": "Pepperoni Express", "image_url": "https://s3-media1.fl.yelpcdn.com/bphoto/PYnfQM6O3JK3Kjf392P7-w/o.jpg", "is_closed": false, "url": "https://www.yelp.com/biz/pepperoni-express-shrewsbury?adjust_creative=ywY5UnLZrNrRl2b93Ruy_g&utm_campaign=yelp_api_v3&utm_medium=api_v3_business_search&utm_source=ywY5UnLZrNrRl2b93Ruy_g", "review_count": 48, "categories": [{"alias": "italian", "title": "Italian"}, {"alias": "pizza", "title": "Pizza"}, {"alias": "salad", "title": "Salad"}], "rating": 3.0, "coordinates": {"latitude": 42.275711, "longitude": -71.732986}, "transactions": ["delivery"], "price": "$$", "location": {"address1": "344 Boston Tpke", "address2": null, "address3": null, "city": "Shrewsbury", "zip_code": "01545", "country": "US", "state": "MA", "display_address": ["344 Boston Tpke", "Shrewsbury, MA 01545"]}, "phone": "+15088422200", "display_phone": "(508) 842-2200", "distance": 9082.102608027117}, {"id": "yJ-usB6KarZDJeoSleEmkg", "alias": "panera-bread-shrewsbury", "name": "Panera Bread", "image_url": "https://s3-media1.fl.yelpcdn.com/bphoto/2yMNIN8CVMbLnipBbPtq6g/o.jpg", "is_closed": false, "url": "https://www.yelp.com/biz/panera-bread-shrewsbury?adjust_creative=ywY5UnLZrNrRl2b93Ruy_g&utm_campaign=yelp_api_v3&utm_medium=api_v3_business_search&utm_source=ywY5UnLZrNrRl2b93Ruy_g", "review_count": 36, "categories": [{"alias": "sandwiches", "title": "Sandwiches"}, {"alias": "soup", "title": "Soup"}, {"alias": "salad", "title": "Salad"}], "rating": 2.5, "coordinates": {"latitude": 42.27312, "longitude": -71.753175}, "transactions": ["delivery"], "price": "$$", "location": {"address1": "50 Boston Tpke", "address2": "", "address3": "", "city": "Shrewsbury", "zip_code": "01545", "country": "US", "state": "MA", "display_address": ["50 Boston Tpke", "Shrewsbury, MA 01545"]}, "phone": "+15087989949", "display_phone": "(508) 798-9949", "distance": 9728.557608946452}, {"id": "LjcD7neDAEFUVyVagxcKNQ", "alias": "k-ps-breakfast-and-lunch-sutton", "name": "K P's Breakfast & Lunch", "image_url": "https://s3-media3.fl.yelpcdn.com/bphoto/NNwyO-lmP6bsxi7RH1J75A/o.jpg", "is_closed": false, "url": "https://www.yelp.com/biz/k-ps-breakfast-and-lunch-sutton?adjust_creative=ywY5UnLZrNrRl2b93Ruy_g&utm_campaign=yelp_api_v3&utm_medium=api_v3_business_search&utm_source=ywY5UnLZrNrRl2b93Ruy_g", "review_count": 21, "categories": [{"alias": "breakfast_brunch", "title": "Breakfast & Brunch"}], "rating": 3.0, "coordinates": {"latitude": 42.17544, "longitude": -71.721}, "transactions": ["delivery"], "price": "$", "location": {"address1": "10 Providence Rd", "address2": "", "address3": "", "city": "Sutton", "zip_code": "01590", "country": "US", "state": "MA", "display_address": ["10 Providence Rd", "Sutton, MA 01590"]}, "phone": "+15088651328", "display_phone": "(508) 865-1328", "distance": 4433.751055876697}, {"id": "1zVn_08Ruu5obfnjdhTL3g", "alias": "wholly-cannoli-worcester", "name": "Wholly Cannoli", "image_url": "https://s3-media2.fl.yelpcdn.com/bphoto/ThfNi-Glp6WLBli5A-qa2g/o.jpg", "is_closed": false, "url": "https://www.yelp.com/biz/wholly-cannoli-worcester?adjust_creative=ywY5UnLZrNrRl2b93Ruy_g&utm_campaign=yelp_api_v3&utm_medium=api_v3_business_search&utm_source=ywY5UnLZrNrRl2b93Ruy_g", "review_count": 182, "categories": [{"alias": "bakeries", "title": "Bakeries"}, {"alias": "pizza", "title": "Pizza"}, {"alias": "sandwiches", "title": "Sandwiches"}], "rating": 3.5, "coordinates": {"latitude": 42.2506724, "longitude": -71.780637}, "transactions": ["delivery"], "price": "$", "location": {"address1": "490 Grafton St", "address2": "", "address3": "", "city": "Worcester", "zip_code": "01604", "country": "US", "state": "MA", "display_address": ["490 Grafton St", "Worcester, MA 01604"]}, "phone": "+15087530224", "display_phone": "(508) 753-0224", "distance": 9637.424094691474}, {"id": "_1RppTOyfzmn3YuPMxUQJg", "alias": "little-caesars-pizza-worcester-2", "name": "Little Caesar's Pizza", "image_url": "https://s3-media3.fl.yelpcdn.com/bphoto/mSIby3-2rj-6AFB7_St5Ew/o.jpg", "is_closed": false, "url": "https://www.yelp.com/biz/little-caesars-pizza-worcester-2?adjust_creative=ywY5UnLZrNrRl2b93Ruy_g&utm_campaign=yelp_api_v3&utm_medium=api_v3_business_search&utm_source=ywY5UnLZrNrRl2b93Ruy_g", "review_count": 10, "categories": [{"alias": "pizza", "title": "Pizza"}], "rating": 3.5, "coordinates": {"latitude": 42.2715797424316, "longitude": -71.7753219604492}, "transactions": [], "price": "$", "location": {"address1": "386 Shrewsbury St", "address2": "", "address3": "", "city": "Worcester", "zip_code": "01604", "country": "US", "state": "MA", "display_address": ["386 Shrewsbury St", "Worcester, MA 01604"]}, "phone": "+15087567600", "display_phone": "(508) 756-7600", "distance": 10806.638084043534}, {"id": "pyIYvq5X_pUzaqSjCrb9HA", "alias": "dellovos-kitchen-worcester", "name": "Dell'Ovo's Kitchen", "image_url": "https://s3-media2.fl.yelpcdn.com/bphoto/kVIdWuwIPJD_enqC-JQHeA/o.jpg", "is_closed": false, "url": "https://www.yelp.com/biz/dellovos-kitchen-worcester?adjust_creative=ywY5UnLZrNrRl2b93Ruy_g&utm_campaign=yelp_api_v3&utm_medium=api_v3_business_search&utm_source=ywY5UnLZrNrRl2b93Ruy_g", "review_count": 8, "categories": [{"alias": "italian", "title": "Italian"}, {"alias": "breakfast_brunch", "title": "Breakfast & Brunch"}, {"alias": "sandwiches", "title": "Sandwiches"}], "rating": 4.0, "coordinates": {"latitude": 42.26747, "longitude": -71.78185}, "transactions": ["delivery", "pickup"], "price": "$", "location": {"address1": "257 Shrewsbury St", "address2": "", "address3": "", "city": "Worcester", "zip_code": "01604", "country": "US", "state": "MA", "display_address": ["257 Shrewsbury St", "Worcester, MA 01604"]}, "phone": "+15087911899", "display_phone": "(508) 791-1899", "distance": 10881.129512960139}, {"id": "bP0Hm4lSIdRJ9pvnclcstQ", "alias": "albert-sherman-center-cafeteria-worcester", "name": "Albert Sherman Center cafeteria", "image_url": "", "is_closed": false, "url": "https://www.yelp.com/biz/albert-sherman-center-cafeteria-worcester?adjust_creative=ywY5UnLZrNrRl2b93Ruy_g&utm_campaign=yelp_api_v3&utm_medium=api_v3_business_search&utm_source=ywY5UnLZrNrRl2b93Ruy_g", "review_count": 1, "categories": [{"alias": "cafes", "title": "Cafes"}], "rating": 1.0, "coordinates": {"latitude": 42.278506, "longitude": -71.764029}, "transactions": [], "location": {"address1": "55 Lake Ave N", "address2": "", "address3": "", "city": "Worcester", "zip_code": "01655", "country": "US", "state": "MA", "display_address": ["55 Lake Ave N", "Worcester, MA 01655"]}, "phone": "+15088560045", "display_phone": "(508) 856-0045", "distance": 10749.202976703249}, {"id": "mv53qsgzCvSSlBN22TgT_A", "alias": "christinas-cafe-westborough", "name": "Christina's Cafe", "image_url": "https://s3-media3.fl.yelpcdn.com/bphoto/g3uy1ggZJ3Tzh4Sn4K91yw/o.jpg", "is_closed": false, "url": "https://www.yelp.com/biz/christinas-cafe-westborough?adjust_creative=ywY5UnLZrNrRl2b93Ruy_g&utm_campaign=yelp_api_v3&utm_medium=api_v3_business_search&utm_source=ywY5UnLZrNrRl2b93Ruy_g", "review_count": 79, "categories": [{"alias": "breakfast_brunch", "title": "Breakfast & Brunch"}], "rating": 3.5, "coordinates": {"latitude": 42.268896, "longitude": -71.612176}, "transactions": ["pickup"], "price": "$", "location": {"address1": "22 S St", "address2": "", "address3": "", "city": "Westborough", "zip_code": "01581", "country": "US", "state": "MA", "display_address": ["22 S St", "Westborough, MA 01581"]}, "phone": "+15083667713", "display_phone": "(508) 366-7713", "distance": 9324.399050693859}, {"id": "Zas8TMCpp7ug1pblxkenCw", "alias": "georges-pizza-ii-worcester", "name": "George's Pizza II", "image_url": "https://s3-media1.fl.yelpcdn.com/bphoto/YU0Z_FGvSGM85V8hXc1HCg/o.jpg", "is_closed": false, "url": "https://www.yelp.com/biz/georges-pizza-ii-worcester?adjust_creative=ywY5UnLZrNrRl2b93Ruy_g&utm_campaign=yelp_api_v3&utm_medium=api_v3_business_search&utm_source=ywY5UnLZrNrRl2b93Ruy_g", "review_count": 23, "categories": [{"alias": "pizza", "title": "Pizza"}], "rating": 3.5, "coordinates": {"latitude": 42.2711886222603, "longitude": -71.7585775141643}, "transactions": ["delivery"], "price": "$$", "location": {"address1": "70 Lake Ave", "address2": "", "address3": "", "city": "Worcester", "zip_code": "01604", "country": "US", "state": "MA", "display_address": ["70 Lake Ave", "Worcester, MA 01604"]}, "phone": "+15087994999", "display_phone": "(508) 799-4999", "distance": 9861.06707089556}, {"id": "hxNK6ypf2_Hj3InaF5-Mzg", "alias": "pizza-hut-millbury", "name": "Pizza Hut", "image_url": "https://s3-media4.fl.yelpcdn.com/bphoto/gDwuOsVCEQF-yrBU3aV55A/o.jpg", "is_closed": false, "url": "https://www.yelp.com/biz/pizza-hut-millbury?adjust_creative=ywY5UnLZrNrRl2b93Ruy_g&utm_campaign=yelp_api_v3&utm_medium=api_v3_business_search&utm_source=ywY5UnLZrNrRl2b93Ruy_g", "review_count": 1, "categories": [{"alias": "hotdogs", "title": "Fast Food"}, {"alias": "pizza", "title": "Pizza"}], "rating": 3.0, "coordinates": {"latitude": 42.19705, "longitude": -71.77707}, "transactions": [], "price": "$", "location": {"address1": "70 Worcester Providence Tpke", "address2": "Ste 100", "address3": "", "city": "Millbury", "zip_code": "01527", "country": "US", "state": "MA", "display_address": ["70 Worcester Providence Tpke", "Ste 100", "Millbury, MA 01527"]}, "phone": "", "display_phone": "", "distance": 7799.175204088329}, {"id": "Lc98ITuscjX9vtcZjPUAUw", "alias": "honey-dew-donuts-shrewsbury", "name": "Honey Dew Donuts", "image_url": "", "is_closed": false, "url": "https://www.yelp.com/biz/honey-dew-donuts-shrewsbury?adjust_creative=ywY5UnLZrNrRl2b93Ruy_g&utm_campaign=yelp_api_v3&utm_medium=api_v3_business_search&utm_source=ywY5UnLZrNrRl2b93Ruy_g", "review_count": 4, "categories": [{"alias": "coffee", "title": "Coffee & Tea"}, {"alias": "donuts", "title": "Donuts"}, {"alias": "sandwiches", "title": "Sandwiches"}], "rating": 4.5, "coordinates": {"latitude": 42.2618982709089, "longitude": -71.6948739811778}, "transactions": ["delivery", "pickup"], "price": "$", "location": {"address1": "604 Hartford Turnpike", "address2": "", "address3": "", "city": "Shrewsbury", "zip_code": "01545", "country": "US", "state": "MA", "display_address": ["604 Hartford Turnpike", "Shrewsbury, MA 01545"]}, "phone": "", "display_phone": "", "distance": 6621.111438237017}, {"id": "nrcJ1eEXDiCrznoIk8R8Kg", "alias": "peruchos-pizza-worcester", "name": "Peruchos Pizza", "image_url": "https://s3-media4.fl.yelpcdn.com/bphoto/GVWcS1IARMLP6Kk7MitQYQ/o.jpg", "is_closed": false, "url": "https://www.yelp.com/biz/peruchos-pizza-worcester?adjust_creative=ywY5UnLZrNrRl2b93Ruy_g&utm_campaign=yelp_api_v3&utm_medium=api_v3_business_search&utm_source=ywY5UnLZrNrRl2b93Ruy_g", "review_count": 27, "categories": [{"alias": "pizza", "title": "Pizza"}], "rating": 3.0, "coordinates": {"latitude": 42.2361298, "longitude": -71.7520218}, "transactions": ["delivery", "pickup"], "price": "$", "location": {"address1": "1280 Grafton St", "address2": null, "address3": null, "city": "Worcester", "zip_code": "01604", "country": "US", "state": "MA", "display_address": ["1280 Grafton St", "Worcester, MA 01604"]}, "phone": "+15087679800", "display_phone": "(508) 767-9800", "distance": 6810.292036889904}, {"id": "MFEFDPW631qBI5VKawiH0Q", "alias": "papa-johns-pizza-worcester", "name": "Papa John's Pizza", "image_url": "https://s3-media2.fl.yelpcdn.com/bphoto/0BQNN4k8Ir-w3aITJtk99Q/o.jpg", "is_closed": false, "url": "https://www.yelp.com/biz/papa-johns-pizza-worcester?adjust_creative=ywY5UnLZrNrRl2b93Ruy_g&utm_campaign=yelp_api_v3&utm_medium=api_v3_business_search&utm_source=ywY5UnLZrNrRl2b93Ruy_g", "review_count": 13, "categories": [{"alias": "pizza", "title": "Pizza"}], "rating": 3.0, "coordinates": {"latitude": 42.250789, "longitude": -71.769996}, "transactions": [], "price": "$", "location": {"address1": "691 Grafton St", "address2": null, "address3": "", "city": "Worcester", "zip_code": "01604", "country": "US", "state": "MA", "display_address": ["691 Grafton St", "Worcester, MA 01604"]}, "phone": "+15087545200", "display_phone": "(508) 754-5200", "distance": 8955.500854892427}, {"id": "kRm4cerW0s50f94WOSEpig", "alias": "burger-king-worcester", "name": "Burger King", "image_url": "https://s3-media1.fl.yelpcdn.com/bphoto/chnbJR4gqFoKKaIC77HuRg/o.jpg", "is_closed": false, "url": "https://www.yelp.com/biz/burger-king-worcester?adjust_creative=ywY5UnLZrNrRl2b93Ruy_g&utm_campaign=yelp_api_v3&utm_medium=api_v3_business_search&utm_source=ywY5UnLZrNrRl2b93Ruy_g", "review_count": 11, "categories": [{"alias": "burgers", "title": "Burgers"}, {"alias": "hotdogs", "title": "Fast Food"}], "rating": 2.0, "coordinates": {"latitude": 42.248341, "longitude": -71.761499}, "transactions": ["delivery"], "price": "$", "location": {"address1": "865 Grafton Street", "address2": "", "address3": "", "city": "Worcester", "zip_code": "01604", "country": "US", "state": "MA", "display_address": ["865 Grafton Street", "Worcester, MA 01604"]}, "phone": "", "display_phone": "", "distance": 8238.992256999483}, {"id": "c-oMhwyZegl4EMiT3ltdhg", "alias": "dominos-pizza-worcester-6", "name": "Domino's Pizza", "image_url": "", "is_closed": false, "url": "https://www.yelp.com/biz/dominos-pizza-worcester-6?adjust_creative=ywY5UnLZrNrRl2b93Ruy_g&utm_campaign=yelp_api_v3&utm_medium=api_v3_business_search&utm_source=ywY5UnLZrNrRl2b93Ruy_g", "review_count": 16, "categories": [{"alias": "pizza", "title": "Pizza"}, {"alias": "chicken_wings", "title": "Chicken Wings"}, {"alias": "sandwiches", "title": "Sandwiches"}], "rating": 1.5, "coordinates": {"latitude": 42.2340584, "longitude": -71.7460022}, "transactions": [], "price": "$", "location": {"address1": "1413 Grafton St", "address2": null, "address3": null, "city": "Worcester", "zip_code": "01604", "country": "US", "state": "MA", "display_address": ["1413 Grafton St", "Worcester, MA 01604"]}, "phone": "+15087971122", "display_phone": "(508) 797-1122", "distance": 6278.120376496882}, {"id": "y-joNYs_GLCQG9VrGstyaQ", "alias": "burger-king-shrewsbury", "name": "Burger King", "image_url": "https://s3-media4.fl.yelpcdn.com/bphoto/_WvWdpv0_zUnoLur_jrMnA/o.jpg", "is_closed": false, "url": "https://www.yelp.com/biz/burger-king-shrewsbury?adjust_creative=ywY5UnLZrNrRl2b93Ruy_g&utm_campaign=yelp_api_v3&utm_medium=api_v3_business_search&utm_source=ywY5UnLZrNrRl2b93Ruy_g", "review_count": 11, "categories": [{"alias": "burgers", "title": "Burgers"}, {"alias": "hotdogs", "title": "Fast Food"}], "rating": 3.0, "coordinates": {"latitude": 42.2749, "longitude": -71.7528}, "transactions": ["delivery"], "price": "$", "location": {"address1": "53 Boston Turnpike", "address2": "", "address3": "", "city": "Shrewsbury", "zip_code": "01545", "country": "US", "state": "MA", "display_address": ["53 Boston Turnpike", "Shrewsbury, MA 01545"]}, "phone": "", "display_phone": "", "distance": 9864.188701635052}, {"id": "0WndBFxhsvDE1ItBAyub9Q", "alias": "friendlys-worcester-3", "name": "Friendly's", "image_url": "https://s3-media2.fl.yelpcdn.com/bphoto/C41zWDck5zVDo9e4bNCyHg/o.jpg", "is_closed": false, "url": "https://www.yelp.com/biz/friendlys-worcester-3?adjust_creative=ywY5UnLZrNrRl2b93Ruy_g&utm_campaign=yelp_api_v3&utm_medium=api_v3_business_search&utm_source=ywY5UnLZrNrRl2b93Ruy_g", "review_count": 60, "categories": [{"alias": "icecream", "title": "Ice Cream & Frozen Yogurt"}, {"alias": "tradamerican", "title": "American (Traditional)"}, {"alias": "burgers", "title": "Burgers"}], "rating": 2.0, "coordinates": {"latitude": 42.2452659606934, "longitude": -71.7595367431641}, "transactions": ["delivery"], "price": "$", "location": {"address1": "966 Grafton St", "address2": null, "address3": null, "city": "Worcester", "zip_code": "01604", "country": "US", "state": "MA", "display_address": ["966 Grafton St", "Worcester, MA 01604"]}, "phone": "+15087983298", "display_phone": "(508) 798-3298", "distance": 7898.586610325984}, {"id": "axv_06yzBE5jxcULKffRLw", "alias": "nicks-golden-pizza-and-more-shrewsbury", "name": "Nicks Golden Pizza and More", "image_url": "https://s3-media1.fl.yelpcdn.com/bphoto/tlggTlU_1ML0PqZMxmfaXQ/o.jpg", "is_closed": false, "url": "https://www.yelp.com/biz/nicks-golden-pizza-and-more-shrewsbury?adjust_creative=ywY5UnLZrNrRl2b93Ruy_g&utm_campaign=yelp_api_v3&utm_medium=api_v3_business_search&utm_source=ywY5UnLZrNrRl2b93Ruy_g", "review_count": 22, "categories": [{"alias": "pizza", "title": "Pizza"}], "rating": 3.5, "coordinates": {"latitude": 42.27839, "longitude": -71.7110299}, "transactions": ["pickup"], "price": "$", "location": {"address1": "271 Grafton St", "address2": "", "address3": "", "city": "Shrewsbury", "zip_code": "01545", "country": "US", "state": "MA", "display_address": ["271 Grafton St", "Shrewsbury, MA 01545"]}, "phone": "+15088427774", "display_phone": "(508) 842-7774", "distance": 8677.445646872426}, {"id": "7fxWuuKzN4VulIB422BBhw", "alias": "subway-worcester-40", "name": "Subway", "image_url": "https://s3-media2.fl.yelpcdn.com/bphoto/NbtUjNvXjuhAsGLZeFpGwg/o.jpg", "is_closed": false, "url": "https://www.yelp.com/biz/subway-worcester-40?adjust_creative=ywY5UnLZrNrRl2b93Ruy_g&utm_campaign=yelp_api_v3&utm_medium=api_v3_business_search&utm_source=ywY5UnLZrNrRl2b93Ruy_g", "review_count": 5, "categories": [{"alias": "sandwiches", "title": "Sandwiches"}], "rating": 2.0, "coordinates": {"latitude": 42.2481696958574, "longitude": -71.7595938661466}, "transactions": ["delivery", "pickup"], "price": "$", "location": {"address1": "897 Grafton St", "address2": null, "address3": null, "city": "Worcester", "zip_code": "01604", "country": "US", "state": "MA", "display_address": ["897 Grafton St", "Worcester, MA 01604"]}, "phone": "+15087912525", "display_phone": "(508) 791-2525", "distance": 8098.394152742853}, {"id": "5hm2YXNlxPW_YDwFdQUhOw", "alias": "nikos-pizza-house-worcester", "name": "Niko's Pizza House", "image_url": "https://s3-media3.fl.yelpcdn.com/bphoto/529KcF9EJeWwsYTzkNu0Jw/o.jpg", "is_closed": false, "url": "https://www.yelp.com/biz/nikos-pizza-house-worcester?adjust_creative=ywY5UnLZrNrRl2b93Ruy_g&utm_campaign=yelp_api_v3&utm_medium=api_v3_business_search&utm_source=ywY5UnLZrNrRl2b93Ruy_g", "review_count": 20, "categories": [{"alias": "pizza", "title": "Pizza"}], "rating": 3.0, "coordinates": {"latitude": 42.2506251, "longitude": -71.7662788}, "transactions": ["delivery"], "price": "$", "location": {"address1": "752 Grafton St", "address2": "", "address3": "", "city": "Worcester", "zip_code": "01604", "country": "US", "state": "MA", "display_address": ["752 Grafton St", "Worcester, MA 01604"]}, "phone": "+15087520333", "display_phone": "(508) 752-0333", "distance": 8675.255632769971}, {"id": "CKep5oHZ83MU4i2j7NmJSg", "alias": "subway-shrewsbury-11", "name": "Subway", "image_url": "https://s3-media1.fl.yelpcdn.com/bphoto/HaMN3QdNbpxuF1HJok7veg/o.jpg", "is_closed": false, "url": "https://www.yelp.com/biz/subway-shrewsbury-11?adjust_creative=ywY5UnLZrNrRl2b93Ruy_g&utm_campaign=yelp_api_v3&utm_medium=api_v3_business_search&utm_source=ywY5UnLZrNrRl2b93Ruy_g", "review_count": 6, "categories": [{"alias": "sandwiches", "title": "Sandwiches"}], "rating": 2.5, "coordinates": {"latitude": 42.2760283, "longitude": -71.7368239914017}, "transactions": ["delivery", "pickup"], "price": "$", "location": {"address1": "373 Maple Ave", "address2": "", "address3": "", "city": "Shrewsbury", "zip_code": "01545", "country": "US", "state": "MA", "display_address": ["373 Maple Ave", "Shrewsbury, MA 01545"]}, "phone": "+15087999090", "display_phone": "(508) 799-9090", "distance": 9268.360393699488}, {"id": "mk9diaP7yIdSjpiHkxYWfQ", "alias": "j-and-j-pizza-express-worcester-2", "name": "J&J Pizza Express", "image_url": "https://s3-media2.fl.yelpcdn.com/bphoto/1uaiaWNAmRS2JeYFrT8znA/o.jpg", "is_closed": false, "url": "https://www.yelp.com/biz/j-and-j-pizza-express-worcester-2?adjust_creative=ywY5UnLZrNrRl2b93Ruy_g&utm_campaign=yelp_api_v3&utm_medium=api_v3_business_search&utm_source=ywY5UnLZrNrRl2b93Ruy_g", "review_count": 36, "categories": [{"alias": "pizza", "title": "Pizza"}, {"alias": "diners", "title": "Diners"}, {"alias": "seafood", "title": "Seafood"}], "rating": 2.5, "coordinates": {"latitude": 42.250717, "longitude": -71.781068}, "transactions": ["delivery", "pickup"], "price": "$$", "location": {"address1": "3 Rice Sq", "address2": null, "address3": null, "city": "Worcester", "zip_code": "01604", "country": "US", "state": "MA", "display_address": ["3 Rice Sq", "Worcester, MA 01604"]}, "phone": "+15087970003", "display_phone": "(508) 797-0003", "distance": 9701.462300719499}, {"id": "JK0JO8gLfzBqHDy5eWvAzg", "alias": "taco-bell-worcester-7", "name": "Taco Bell", "image_url": "https://s3-media3.fl.yelpcdn.com/bphoto/6jj5swcHxnnLE4nC9sESpQ/o.jpg", "is_closed": false, "url": "https://www.yelp.com/biz/taco-bell-worcester-7?adjust_creative=ywY5UnLZrNrRl2b93Ruy_g&utm_campaign=yelp_api_v3&utm_medium=api_v3_business_search&utm_source=ywY5UnLZrNrRl2b93Ruy_g", "review_count": 3, "categories": [{"alias": "tacos", "title": "Tacos"}, {"alias": "breakfast_brunch", "title": "Breakfast & Brunch"}], "rating": 1.5, "coordinates": {"latitude": 42.24976933, "longitude": -71.7626545}, "transactions": ["delivery"], "location": {"address1": "801 Grafton Street", "address2": "", "address3": null, "city": "Worcester", "zip_code": "01604", "country": "US", "state": "MA", "display_address": ["801 Grafton Street", "Worcester, MA 01604"]}, "phone": "+15087932084", "display_phone": "(508) 793-2084", "distance": 8406.372649863199}, {"id": "YEBQE8EmWJo4lo4pbRBlEg", "alias": "papa-ginos-pizzeria-shrewsbury", "name": "Papa Gino's Pizzeria", "image_url": "https://s3-media4.fl.yelpcdn.com/bphoto/aUTshl1BYH3sXOHptwYSzQ/o.jpg", "is_closed": false, "url": "https://www.yelp.com/biz/papa-ginos-pizzeria-shrewsbury?adjust_creative=ywY5UnLZrNrRl2b93Ruy_g&utm_campaign=yelp_api_v3&utm_medium=api_v3_business_search&utm_source=ywY5UnLZrNrRl2b93Ruy_g", "review_count": 21, "categories": [{"alias": "pizza", "title": "Pizza"}], "rating": 3.0, "coordinates": {"latitude": 42.273547, "longitude": -71.752454}, "transactions": ["delivery"], "price": "$", "location": {"address1": "20 Boston Turnpike Rd", "address2": null, "address3": null, "city": "Shrewsbury", "zip_code": "01545", "country": "US", "state": "MA", "display_address": ["20 Boston Turnpike Rd", "Shrewsbury, MA 01545"]}, "phone": "+15084595397", "display_phone": "(508) 459-5397", "distance": 9731.283495638369}, {"id": "JsmswcSEGfV9ojl3VikZ3A", "alias": "friendlys-north-grafton", "name": "Friendly's", "image_url": "", "is_closed": false, "url": "https://www.yelp.com/biz/friendlys-north-grafton?adjust_creative=ywY5UnLZrNrRl2b93Ruy_g&utm_campaign=yelp_api_v3&utm_medium=api_v3_business_search&utm_source=ywY5UnLZrNrRl2b93Ruy_g", "review_count": 1, "categories": [{"alias": "icecream", "title": "Ice Cream & Frozen Yogurt"}, {"alias": "tradamerican", "title": "American (Traditional)"}], "rating": 1.0, "coordinates": {"latitude": 42.2285790754836, "longitude": -71.6598703536723}, "transactions": [], "location": {"address1": "96 Turnpike Rd", "address2": "", "address3": "", "city": "North Grafton", "zip_code": "01536", "country": "US", "state": "MA", "display_address": ["96 Turnpike Rd", "North Grafton, MA 01536"]}, "phone": "+15083668339", "display_phone": "(508) 366-8339", "distance": 9659.189553427177}, {"id": "yWvEr3Hd2flKaB7-Qdr9vw", "alias": "d-angelo-westboro", "name": "D'angelo", "image_url": "https://s3-media3.fl.yelpcdn.com/bphoto/W1Pi-nt6TebD804Zr4-CrA/o.jpg", "is_closed": false, "url": "https://www.yelp.com/biz/d-angelo-westboro?adjust_creative=ywY5UnLZrNrRl2b93Ruy_g&utm_campaign=yelp_api_v3&utm_medium=api_v3_business_search&utm_source=ywY5UnLZrNrRl2b93Ruy_g", "review_count": 3, "categories": [{"alias": "hotdogs", "title": "Fast Food"}, {"alias": "sandwiches", "title": "Sandwiches"}], "rating": 2.5, "coordinates": {"latitude": 42.2452725, "longitude": -71.59211483}, "transactions": [], "price": "$", "location": {"address1": "11 Massachusetts Tpke West", "address2": "", "address3": "", "city": "Westboro", "zip_code": "01581", "country": "US", "state": "MA", "display_address": ["11 Massachusetts Tpke West", "Westboro, MA 01581"]}, "phone": "+15083668792", "display_phone": "(508) 366-8792", "distance": 8554.784964399289}, {"id": "BuCb_TGSGbd9R0a85zdF9A", "alias": "subway-millbury-6", "name": "Subway", "image_url": "https://s3-media2.fl.yelpcdn.com/bphoto/K1uuyBJXDL6Juxcwheeb2w/o.jpg", "is_closed": false, "url": "https://www.yelp.com/biz/subway-millbury-6?adjust_creative=ywY5UnLZrNrRl2b93Ruy_g&utm_campaign=yelp_api_v3&utm_medium=api_v3_business_search&utm_source=ywY5UnLZrNrRl2b93Ruy_g", "review_count": 3, "categories": [{"alias": "sandwiches", "title": "Sandwiches"}], "rating": 2.0, "coordinates": {"latitude": 42.193081, "longitude": -71.7565703027612}, "transactions": ["delivery", "pickup"], "price": "$", "location": {"address1": "41 Canal St", "address2": "", "address3": "", "city": "Millbury", "zip_code": "01527", "country": "US", "state": "MA", "display_address": ["41 Canal St", "Millbury, MA 01527"]}, "phone": "+15088657866", "display_phone": "(508) 865-7866", "distance": 6213.595873710082}, {"id": "3AtxCc_n7s67a_tkAOOftw", "alias": "boston-market-westborough", "name": "Boston Market", "image_url": "https://s3-media2.fl.yelpcdn.com/bphoto/ah-g4KNeoSEC5KkyfBQjeQ/o.jpg", "is_closed": false, "url": "https://www.yelp.com/biz/boston-market-westborough?adjust_creative=ywY5UnLZrNrRl2b93Ruy_g&utm_campaign=yelp_api_v3&utm_medium=api_v3_business_search&utm_source=ywY5UnLZrNrRl2b93Ruy_g", "review_count": 9, "categories": [{"alias": "comfortfood", "title": "Comfort Food"}, {"alias": "tradamerican", "title": "American (Traditional)"}, {"alias": "sandwiches", "title": "Sandwiches"}], "rating": 3.0, "coordinates": {"latitude": 42.23584, "longitude": -71.60431}, "transactions": [], "price": "$", "location": {"address1": "Mass Turnpike Westbound I-90 Milepost 10", "address2": "Service Area 6A", "address3": "", "city": "Westborough", "zip_code": "01581", "country": "US", "state": "MA", "display_address": ["Mass Turnpike Westbound I-90 Milepost 10", "Service Area 6A", "Westborough, MA 01581"]}, "phone": "+15088709969", "display_phone": "(508) 870-9969", "distance": 8768.810991491828}, {"id": "pqPb6PQ9hgSe8KVS_GdWfw", "alias": "rotary-pizza-and-grille-westborough", "name": "Rotary Pizza & Grille", "image_url": "https://s3-media1.fl.yelpcdn.com/bphoto/CJfR_UtFQOv_3iPr1zjkEQ/o.jpg", "is_closed": false, "url": "https://www.yelp.com/biz/rotary-pizza-and-grille-westborough?adjust_creative=ywY5UnLZrNrRl2b93Ruy_g&utm_campaign=yelp_api_v3&utm_medium=api_v3_business_search&utm_source=ywY5UnLZrNrRl2b93Ruy_g", "review_count": 43, "categories": [{"alias": "pizza", "title": "Pizza"}], "rating": 3.0, "coordinates": {"latitude": 42.2693583369255, "longitude": -71.6134122759104}, "transactions": ["delivery", "pickup"], "price": "$", "location": {"address1": "1 W Main St", "address2": "", "address3": "", "city": "Westborough", "zip_code": "01581", "country": "US", "state": "MA", "display_address": ["1 W Main St", "Westborough, MA 01581"]}, "phone": "+15083899300", "display_phone": "(508) 389-9300", "distance": 9338.692672996216}, {"id": "y9UQvrXxbM9SvxjwgA5sog", "alias": "panera-bread-westborough", "name": "Panera Bread", "image_url": "https://s3-media4.fl.yelpcdn.com/bphoto/XBnL2PA1dstRLHZV1_79Yg/o.jpg", "is_closed": false, "url": "https://www.yelp.com/biz/panera-bread-westborough?adjust_creative=ywY5UnLZrNrRl2b93Ruy_g&utm_campaign=yelp_api_v3&utm_medium=api_v3_business_search&utm_source=ywY5UnLZrNrRl2b93Ruy_g", "review_count": 37, "categories": [{"alias": "sandwiches", "title": "Sandwiches"}, {"alias": "salad", "title": "Salad"}, {"alias": "soup", "title": "Soup"}], "rating": 3.0, "coordinates": {"latitude": 42.270862, "longitude": -71.60936}, "transactions": ["delivery"], "price": "$$", "location": {"address1": "600 Union St", "address2": null, "address3": null, "city": "Westborough", "zip_code": "01581", "country": "US", "state": "MA", "display_address": ["600 Union St", "Westborough, MA 01581"]}, "phone": "+15088983400", "display_phone": "(508) 898-3400", "distance": 9639.688681225649}, {"id": "KlFMZewUOb9DWbPUpxe0TA", "alias": "kfc-shrewsbury-6", "name": "KFC", "image_url": "https://s3-media3.fl.yelpcdn.com/bphoto/RCT-dmhAgsvV5x4iF8HcYA/o.jpg", "is_closed": false, "url": "https://www.yelp.com/biz/kfc-shrewsbury-6?adjust_creative=ywY5UnLZrNrRl2b93Ruy_g&utm_campaign=yelp_api_v3&utm_medium=api_v3_business_search&utm_source=ywY5UnLZrNrRl2b93Ruy_g", "review_count": 27, "categories": [{"alias": "hotdogs", "title": "Fast Food"}, {"alias": "chicken_wings", "title": "Chicken Wings"}, {"alias": "chickenshop", "title": "Chicken Shop"}], "rating": 1.5, "coordinates": {"latitude": 42.2736455, "longitude": -71.7509443098044}, "transactions": ["delivery", "pickup"], "price": "$", "location": {"address1": "21 S Quinsigamond Ave", "address2": "", "address3": "", "city": "Shrewsbury", "zip_code": "01545", "country": "US", "state": "MA", "display_address": ["21 S Quinsigamond Ave", "Shrewsbury, MA 01545"]}, "phone": "+15087552543", "display_phone": "(508) 755-2543", "distance": 9666.988581427717}, {"id": "Zz-FsiI0WURj88kX5g5sog", "alias": "subway-worcester-30", "name": "Subway", "image_url": "https://s3-media4.fl.yelpcdn.com/bphoto/T9vyIAy9XXzxwDmxeMvNUw/o.jpg", "is_closed": false, "url": "https://www.yelp.com/biz/subway-worcester-30?adjust_creative=ywY5UnLZrNrRl2b93Ruy_g&utm_campaign=yelp_api_v3&utm_medium=api_v3_business_search&utm_source=ywY5UnLZrNrRl2b93Ruy_g", "review_count": 3, "categories": [{"alias": "sandwiches", "title": "Sandwiches"}], "rating": 3.5, "coordinates": {"latitude": 42.2681468030351, "longitude": -71.7807027939842}, "transactions": ["delivery", "pickup"], "price": "$", "location": {"address1": "281 Shrewsbury St", "address2": null, "address3": null, "city": "Worcester", "zip_code": "01604", "country": "US", "state": "MA", "display_address": ["281 Shrewsbury St", "Worcester, MA 01604"]}, "phone": "+15087561968", "display_phone": "(508) 756-1968", "distance": 10858.240156767946}, {"id": "6LuvRj3ZBA4O70J7B795oQ", "alias": "dragon-chef-worcester", "name": "Dragon Chef", "image_url": "https://s3-media4.fl.yelpcdn.com/bphoto/Cbz5YwhIjzbHgn8xpZf2AQ/o.jpg", "is_closed": false, "url": "https://www.yelp.com/biz/dragon-chef-worcester?adjust_creative=ywY5UnLZrNrRl2b93Ruy_g&utm_campaign=yelp_api_v3&utm_medium=api_v3_business_search&utm_source=ywY5UnLZrNrRl2b93Ruy_g", "review_count": 12, "categories": [{"alias": "chinese", "title": "Chinese"}], "rating": 3.0, "coordinates": {"latitude": 42.25145, "longitude": -71.78223}, "transactions": ["delivery", "pickup"], "price": "$", "location": {"address1": "456 Grafton St", "address2": "", "address3": "", "city": "Worcester", "zip_code": "01604", "country": "US", "state": "MA", "display_address": ["456 Grafton St", "Worcester, MA 01604"]}, "phone": "+15087538888", "display_phone": "(508) 753-8888", "distance": 9831.4559285172}, {"id": "wxSDgFw8MYkshM85gap66g", "alias": "dominos-pizza-westborough", "name": "Domino's Pizza", "image_url": "https://s3-media2.fl.yelpcdn.com/bphoto/RTuk-nMMV_EXxtUxoYHTAw/o.jpg", "is_closed": false, "url": "https://www.yelp.com/biz/dominos-pizza-westborough?adjust_creative=ywY5UnLZrNrRl2b93Ruy_g&utm_campaign=yelp_api_v3&utm_medium=api_v3_business_search&utm_source=ywY5UnLZrNrRl2b93Ruy_g", "review_count": 1, "categories": [{"alias": "pizza", "title": "Pizza"}], "rating": 1.0, "coordinates": {"latitude": 42.2751320285999, "longitude": -71.7424547079038}, "transactions": [], "price": "$", "location": {"address1": "246 Boston-Turnpike Rd", "address2": "", "address3": "Shrewsbury", "city": "Westborough", "zip_code": "01581", "country": "US", "state": "MA", "display_address": ["246 Boston-Turnpike Rd", "Shrewsbury", "Westborough, MA 01581"]}, "phone": "", "display_phone": "", "distance": 9416.345696271988}, {"id": "Aa4TKhk78O3CPj_WvsNwyA", "alias": "ihop-shrewsbury-3", "name": "IHOP", "image_url": "https://s3-media3.fl.yelpcdn.com/bphoto/-hnno_cFHEiDMDPTG0d2_g/o.jpg", "is_closed": false, "url": "https://www.yelp.com/biz/ihop-shrewsbury-3?adjust_creative=ywY5UnLZrNrRl2b93Ruy_g&utm_campaign=yelp_api_v3&utm_medium=api_v3_business_search&utm_source=ywY5UnLZrNrRl2b93Ruy_g", "review_count": 55, "categories": [{"alias": "breakfast_brunch", "title": "Breakfast & Brunch"}, {"alias": "tradamerican", "title": "American (Traditional)"}, {"alias": "burgers", "title": "Burgers"}], "rating": 3.0, "coordinates": {"latitude": 42.27402, "longitude": -71.75148}, "transactions": ["delivery", "pickup"], "price": "$$", "location": {"address1": "70 Boston Turnpike", "address2": "", "address3": "", "city": "Shrewsbury", "zip_code": "01545", "country": "US", "state": "MA", "display_address": ["70 Boston Turnpike", "Shrewsbury, MA 01545"]}, "phone": "+15087919328", "display_phone": "(508) 791-9328", "distance": 9726.544354976753}, {"id": "cQLpDi_oX2IbdVTNII4OtQ", "alias": "dominos-pizza-shrewsbury-4", "name": "Domino's Pizza", "image_url": "https://s3-media1.fl.yelpcdn.com/bphoto/YlnI85m-1ia8cA4rJan8ig/o.jpg", "is_closed": false, "url": "https://www.yelp.com/biz/dominos-pizza-shrewsbury-4?adjust_creative=ywY5UnLZrNrRl2b93Ruy_g&utm_campaign=yelp_api_v3&utm_medium=api_v3_business_search&utm_source=ywY5UnLZrNrRl2b93Ruy_g", "review_count": 24, "categories": [{"alias": "pizza", "title": "Pizza"}, {"alias": "chicken_wings", "title": "Chicken Wings"}, {"alias": "sandwiches", "title": "Sandwiches"}], "rating": 2.0, "coordinates": {"latitude": 42.2748599, "longitude": -71.74213}, "transactions": [], "price": "$", "location": {"address1": "246 Boston Tpke", "address2": "", "address3": "", "city": "Shrewsbury", "zip_code": "01545", "country": "US", "state": "MA", "display_address": ["246 Boston Tpke", "Shrewsbury, MA 01545"]}, "phone": "+15088428200", "display_phone": "(508) 842-8200", "distance": 9376.572604876983}, {"id": "VpyzgbWtrzhE2cgjNSkZEA", "alias": "mcdonalds-worcester-10", "name": "McDonald's", "image_url": "https://s3-media3.fl.yelpcdn.com/bphoto/lHB6doc5hcPPiJZwwX6o7A/o.jpg", "is_closed": false, "url": "https://www.yelp.com/biz/mcdonalds-worcester-10?adjust_creative=ywY5UnLZrNrRl2b93Ruy_g&utm_campaign=yelp_api_v3&utm_medium=api_v3_business_search&utm_source=ywY5UnLZrNrRl2b93Ruy_g", "review_count": 15, "categories": [{"alias": "coffee", "title": "Coffee & Tea"}, {"alias": "burgers", "title": "Burgers"}, {"alias": "hotdogs", "title": "Fast Food"}], "rating": 1.5, "coordinates": {"latitude": 42.272623054016, "longitude": -71.7709565162659}, "transactions": ["delivery"], "price": "$", "location": {"address1": "465 Shrewsbury St", "address2": null, "address3": null, "city": "Worcester", "zip_code": "01604", "country": "US", "state": "MA", "display_address": ["465 Shrewsbury St", "Worcester, MA 01604"]}, "phone": "+15087579996", "display_phone": "(508) 757-9996", "distance": 10630.084589683578}, {"id": "skDBp1-uDqXs_t-13OrUSw", "alias": "b-good-millbury", "name": "B.GOOD", "image_url": "https://s3-media2.fl.yelpcdn.com/bphoto/zzECPCWsdsypDeFyMjlRbg/o.jpg", "is_closed": false, "url": "https://www.yelp.com/biz/b-good-millbury?adjust_creative=ywY5UnLZrNrRl2b93Ruy_g&utm_campaign=yelp_api_v3&utm_medium=api_v3_business_search&utm_source=ywY5UnLZrNrRl2b93Ruy_g", "review_count": 17, "categories": [{"alias": "salad", "title": "Salad"}, {"alias": "sandwiches", "title": "Sandwiches"}, {"alias": "breakfast_brunch", "title": "Breakfast & Brunch"}], "rating": 2.5, "coordinates": {"latitude": 42.197062, "longitude": -71.775842}, "transactions": ["delivery", "pickup"], "location": {"address1": "70 Worcester-Providence TRPK.", "address2": "#619", "address3": null, "city": "Millbury", "zip_code": "01527", "country": "US", "state": "MA", "display_address": ["70 Worcester-Providence TRPK.", "#619", "Millbury, MA 01527"]}, "phone": "+15089175021", "display_phone": "(508) 917-5021", "distance": 7729.631705939771}, {"id": "bSCvG64vAU17OTSnpgjwyw", "alias": "taco-bell-shrewsbury", "name": "Taco Bell", "image_url": "https://s3-media3.fl.yelpcdn.com/bphoto/rwgtsLNCdoIv49UUqYhJdA/o.jpg", "is_closed": false, "url": "https://www.yelp.com/biz/taco-bell-shrewsbury?adjust_creative=ywY5UnLZrNrRl2b93Ruy_g&utm_campaign=yelp_api_v3&utm_medium=api_v3_business_search&utm_source=ywY5UnLZrNrRl2b93Ruy_g", "review_count": 10, "categories": [{"alias": "hotdogs", "title": "Fast Food"}, {"alias": "tacos", "title": "Tacos"}], "rating": 2.0, "coordinates": {"latitude": 42.273, "longitude": -71.75108}, "transactions": [], "price": "$", "location": {"address1": "21 S Quinsigamond Ave", "address2": null, "address3": null, "city": "Shrewsbury", "zip_code": "01545", "country": "US", "state": "MA", "display_address": ["21 S Quinsigamond Ave", "Shrewsbury, MA 01545"]}, "phone": "+15087552543", "display_phone": "(508) 755-2543", "distance": 9615.404741496903}, {"id": "roxb_F530UAQZ1h9QxNwew", "alias": "b-good-shrewsbury", "name": "B.GOOD", "image_url": "https://s3-media3.fl.yelpcdn.com/bphoto/ADELHSOWRkWq8Mw9i71ghg/o.jpg", "is_closed": false, "url": "https://www.yelp.com/biz/b-good-shrewsbury?adjust_creative=ywY5UnLZrNrRl2b93Ruy_g&utm_campaign=yelp_api_v3&utm_medium=api_v3_business_search&utm_source=ywY5UnLZrNrRl2b93Ruy_g", "review_count": 87, "categories": [{"alias": "salad", "title": "Salad"}, {"alias": "sandwiches", "title": "Sandwiches"}, {"alias": "breakfast_brunch", "title": "Breakfast & Brunch"}], "rating": 3.0, "coordinates": {"latitude": 42.2739547169898, "longitude": -71.7494667028743}, "transactions": ["delivery", "pickup"], "price": "$$", "location": {"address1": "120 Boston Turnpike", "address2": "", "address3": "", "city": "Shrewsbury", "zip_code": "01545", "country": "US", "state": "MA", "display_address": ["120 Boston Turnpike", "Shrewsbury, MA 01545"]}, "phone": "+15087521289", "display_phone": "(508) 752-1289", "distance": 9624.574594310094}]