[{"id": "wAJvDgFgZFraLD_C4wxSfg", "alias": "depot-street-tavern-milford", "name": "Depot Street Tavern", "image_url": "https://s3-media2.fl.yelpcdn.com/bphoto/-lAWIfalsmMin-Bca2urFQ/o.jpg", "is_closed": false, "url": "https://www.yelp.com/biz/depot-street-tavern-milford?adjust_creative=asslzE1UV0XuKI953B1vtw&utm_campaign=yelp_api_v3&utm_medium=api_v3_business_search&utm_source=asslzE1UV0XuKI953B1vtw", "review_count": 448, "categories": [{"alias": "bars", "title": "Bars"}, {"alias": "tradamerican", "title": "American (Traditional)"}, {"alias": "fishnchips", "title": "Fish & Chips"}], "rating": 4.5, "coordinates": {"latitude": 42.1367348183525, "longitude": -71.514700949192}, "transactions": ["delivery"], "price": "$$", "location": {"address1": "45 Depot St", "address2": "", "address3": "", "city": "Milford", "zip_code": "01757", "country": "US", "state": "MA", "display_address": ["45 Depot St", "Milford, MA 01757"]}, "phone": "+15084886844", "display_phone": "(508) 488-6844", "distance": 1949.1377933259505}, {"id": "GKMpQejm7E9jEl9l0ZApqA", "alias": "alicante-restaurant-and-lounge-mendon", "name": "Alicante Restaurant & Lounge", "image_url": "https://s3-media3.fl.yelpcdn.com/bphoto/seh2hwPtBSHUtovlVXh-bQ/o.jpg", "is_closed": false, "url": "https://www.yelp.com/biz/alicante-restaurant-and-lounge-mendon?adjust_creative=asslzE1UV0XuKI953B1vtw&utm_campaign=yelp_api_v3&utm_medium=api_v3_business_search&utm_source=asslzE1UV0XuKI953B1vtw", "review_count": 279, "categories": [{"alias": "mediterranean", "title": "Mediterranean"}, {"alias": "spanish", "title": "Spanish"}, {"alias": "italian", "title": "Italian"}], "rating": 4.5, "coordinates": {"latitude": 42.0976073, "longitude": -71.5727322}, "transactions": ["restaurant_reservation"], "price": "$$$", "location": {"address1": "84 Uxbridge Rd", "address2": null, "address3": "", "city": "Mendon", "zip_code": "01756", "country": "US", "state": "MA", "display_address": ["84 Uxbridge Rd", "Mendon, MA 01756"]}, "phone": "+15086348188", "display_phone": "(508) 634-8188", "distance": 4616.340350240473}, {"id": "dJaa0qRO-IRQZ3eTR-chog", "alias": "beyond-full-hopedale", "name": "Beyond Full", "image_url": "https://s3-media1.fl.yelpcdn.com/bphoto/-c9lpSzw2u0Uk4Q1P1L9zg/o.jpg", "is_closed": false, "url": "https://www.yelp.com/biz/beyond-full-hopedale?adjust_creative=asslzE1UV0XuKI953B1vtw&utm_campaign=yelp_api_v3&utm_medium=api_v3_business_search&utm_source=asslzE1UV0XuKI953B1vtw", "review_count": 26, "categories": [{"alias": "coffee", "title": "Coffee & Tea"}, {"alias": "breakfast_brunch", "title": "Breakfast & Brunch"}], "rating": 4.0, "coordinates": {"latitude": 42.129003, "longitude": -71.539866}, "transactions": [], "location": {"address1": "76 Hopedale St", "address2": "", "address3": null, "city": "Hopedale", "zip_code": "01747", "country": "US", "state": "MA", "display_address": ["76 Hopedale St", "Hopedale, MA 01747"]}, "phone": "+15083810273", "display_phone": "(508) 381-0273", "distance": 339.6567095879969}, {"id": "1Bohce2vYbNJhiOmo0jpPA", "alias": "taquer\u00eda-la-estrella-milford", "name": "Taquer\u00eda La Estrella", "image_url": "https://s3-media2.fl.yelpcdn.com/bphoto/82h0X0aiN1qH0a-M2Yshpw/o.jpg", "is_closed": false, "url": "https://www.yelp.com/biz/taquer%C3%ADa-la-estrella-milford?adjust_creative=asslzE1UV0XuKI953B1vtw&utm_campaign=yelp_api_v3&utm_medium=api_v3_business_search&utm_source=asslzE1UV0XuKI953B1vtw", "review_count": 52, "categories": [{"alias": "mexican", "title": "Mexican"}], "rating": 5.0, "coordinates": {"latitude": 42.12743, "longitude": -71.51772}, "transactions": [], "location": {"address1": "134 S Main St", "address2": null, "address3": "", "city": "Milford", "zip_code": "01757", "country": "US", "state": "MA", "display_address": ["134 S Main St", "Milford, MA 01757"]}, "phone": "+15082825900", "display_phone": "(508) 282-5900", "distance": 1497.8699026855352}, {"id": "lOviMKn6PpmB3tacgBE0dw", "alias": "trattoria-89-centrale-milford", "name": "Trattoria 89 Centrale", "image_url": "https://s3-media3.fl.yelpcdn.com/bphoto/j3xR9q-emUdD_6gMcXpppw/o.jpg", "is_closed": false, "url": "https://www.yelp.com/biz/trattoria-89-centrale-milford?adjust_creative=asslzE1UV0XuKI953B1vtw&utm_campaign=yelp_api_v3&utm_medium=api_v3_business_search&utm_source=asslzE1UV0XuKI953B1vtw", "review_count": 113, "categories": [{"alias": "italian", "title": "Italian"}], "rating": 4.0, "coordinates": {"latitude": 42.1424126, "longitude": -71.5179658}, "transactions": ["delivery"], "price": "$$", "location": {"address1": "89 Main St", "address2": null, "address3": "", "city": "Milford", "zip_code": "01757", "country": "US", "state": "MA", "display_address": ["89 Main St", "Milford, MA 01757"]}, "phone": "+15086348911", "display_phone": "(508) 634-8911", "distance": 2093.235124057016}, {"id": "rODzJK3cCSRJEtDTL6PFyw", "alias": "karma-cafe-milford-3", "name": "Karma Cafe", "image_url": "https://s3-media2.fl.yelpcdn.com/bphoto/-m9jNPjYdngwTFPWAxvVvg/o.jpg", "is_closed": false, "url": "https://www.yelp.com/biz/karma-cafe-milford-3?adjust_creative=asslzE1UV0XuKI953B1vtw&utm_campaign=yelp_api_v3&utm_medium=api_v3_business_search&utm_source=asslzE1UV0XuKI953B1vtw", "review_count": 2, "categories": [{"alias": "cafes", "title": "Cafes"}], "rating": 5.0, "coordinates": {"latitude": 42.135156, "longitude": -71.524962}, "transactions": [], "location": {"address1": "319 1/2 Main St", "address2": null, "address3": null, "city": "Milford", "zip_code": "01757", "country": "US", "state": "MA", "display_address": ["319 1/2 Main St", "Milford, MA 01757"]}, "phone": "", "display_phone": "", "distance": 1128.3405960439954}, {"id": "ekXO4Tll54siqocJdL3G7w", "alias": "prezo-milford-3", "name": "Prezo", "image_url": "https://s3-media1.fl.yelpcdn.com/bphoto/qgCmznVX6yhEZtLDKNXqKg/o.jpg", "is_closed": false, "url": "https://www.yelp.com/biz/prezo-milford-3?adjust_creative=asslzE1UV0XuKI953B1vtw&utm_campaign=yelp_api_v3&utm_medium=api_v3_business_search&utm_source=asslzE1UV0XuKI953B1vtw", "review_count": 329, "categories": [{"alias": "italian", "title": "Italian"}, {"alias": "steak", "title": "Steakhouses"}], "rating": 4.0, "coordinates": {"latitude": 42.15159, "longitude": -71.49362}, "transactions": ["delivery"], "price": "$$", "location": {"address1": "229 1/2 E Main St", "address2": null, "address3": "", "city": "Milford", "zip_code": "01757", "country": "US", "state": "MA", "display_address": ["229 1/2 E Main St", "Milford, MA 01757"]}, "phone": "+15086340101", "display_phone": "(508) 634-0101", "distance": 4311.05227404187}, {"id": "oJ39jcqEPQX_Ika99L8hlQ", "alias": "new-england-steak-and-seafood-mendon", "name": "New England Steak & Seafood", "image_url": "https://s3-media4.fl.yelpcdn.com/bphoto/3FjSdEKjcZJKfEmmJEilMA/o.jpg", "is_closed": false, "url": "https://www.yelp.com/biz/new-england-steak-and-seafood-mendon?adjust_creative=asslzE1UV0XuKI953B1vtw&utm_campaign=yelp_api_v3&utm_medium=api_v3_business_search&utm_source=asslzE1UV0XuKI953B1vtw", "review_count": 200, "categories": [{"alias": "tradamerican", "title": "American (Traditional)"}, {"alias": "seafood", "title": "Seafood"}, {"alias": "steak", "title": "Steakhouses"}], "rating": 3.5, "coordinates": {"latitude": 42.10336, "longitude": -71.56254}, "transactions": ["delivery"], "price": "$$", "location": {"address1": "11 Uxbridge Rd", "address2": "", "address3": "", "city": "Mendon", "zip_code": "01756", "country": "US", "state": "MA", "display_address": ["11 Uxbridge Rd", "Mendon, MA 01756"]}, "phone": "+15084735079", "display_phone": "(508) 473-5079", "distance": 3607.858618283004}, {"id": "pL5TW-MDDTeLVe_4rASxYA", "alias": "larry-joes-new-england-firepit-mendon-3", "name": "Larry Joe's New England FirePit", "image_url": "https://s3-media2.fl.yelpcdn.com/bphoto/Nmx5oHr0Klp2HbeGKHmUqg/o.jpg", "is_closed": false, "url": "https://www.yelp.com/biz/larry-joes-new-england-firepit-mendon-3?adjust_creative=asslzE1UV0XuKI953B1vtw&utm_campaign=yelp_api_v3&utm_medium=api_v3_business_search&utm_source=asslzE1UV0XuKI953B1vtw", "review_count": 53, "categories": [{"alias": "hotdog", "title": "Hot Dogs"}], "rating": 5.0, "coordinates": {"latitude": 42.0980429, "longitude": -71.499184}, "transactions": ["pickup", "delivery"], "price": "$", "location": {"address1": "30-A Cape Rd", "address2": "", "address3": "", "city": "Mendon", "zip_code": "01756", "country": "US", "state": "MA", "display_address": ["30-A Cape Rd", "Mendon, MA 01756"]}, "phone": "+15087359006", "display_phone": "(508) 735-9006", "distance": 4558.275592979424}, {"id": "ph4FGJNCT_bL0M8zuWlsUA", "alias": "red-heat-tavern-of-milford-milford", "name": "Red Heat Tavern of Milford", "image_url": "https://s3-media3.fl.yelpcdn.com/bphoto/pqtsRxCPh97SLi6iou8Vrg/o.jpg", "is_closed": false, "url": "https://www.yelp.com/biz/red-heat-tavern-of-milford-milford?adjust_creative=asslzE1UV0XuKI953B1vtw&utm_campaign=yelp_api_v3&utm_medium=api_v3_business_search&utm_source=asslzE1UV0XuKI953B1vtw", "review_count": 103, "categories": [{"alias": "bars", "title": "Bars"}, {"alias": "tradamerican", "title": "American (Traditional)"}], "rating": 3.5, "coordinates": {"latitude": 42.14866, "longitude": -71.48874}, "transactions": ["pickup", "delivery"], "price": "$$", "location": {"address1": "124 Medway Rd", "address2": "Ste 1", "address3": null, "city": "Milford", "zip_code": "01757", "country": "US", "state": "MA", "display_address": ["124 Medway Rd", "Ste 1", "Milford, MA 01757"]}, "phone": "+17744625990", "display_phone": "(774) 462-5990", "distance": 4545.484977846973}, {"id": "fBG41ynuHMMdw7rChf6qgw", "alias": "thai-pepper-restaurant-milford", "name": "Thai Pepper Restaurant", "image_url": "https://s3-media2.fl.yelpcdn.com/bphoto/mp2iP57eXCHQdEEr_XkRNA/o.jpg", "is_closed": false, "url": "https://www.yelp.com/biz/thai-pepper-restaurant-milford?adjust_creative=asslzE1UV0XuKI953B1vtw&utm_campaign=yelp_api_v3&utm_medium=api_v3_business_search&utm_source=asslzE1UV0XuKI953B1vtw", "review_count": 159, "categories": [{"alias": "thai", "title": "Thai"}], "rating": 4.0, "coordinates": {"latitude": 42.1511475072744, "longitude": -71.5038151923432}, "transactions": ["delivery"], "price": "$$", "location": {"address1": "178 E Main St", "address2": "", "address3": "", "city": "Milford", "zip_code": "01757", "country": "US", "state": "MA", "display_address": ["178 E Main St", "Milford, MA 01757"]}, "phone": "+15084789022", "display_phone": "(508) 478-9022", "distance": 3623.1064644476132}, {"id": "t89WXv8je9Ci3N7M7HMmug", "alias": "petes-bluebird-bellingham", "name": "Pete's Bluebird", "image_url": "https://s3-media1.fl.yelpcdn.com/bphoto/I_WrKg2NQPar93Tyg8iX6g/o.jpg", "is_closed": false, "url": "https://www.yelp.com/biz/petes-bluebird-bellingham?adjust_creative=asslzE1UV0XuKI953B1vtw&utm_campaign=yelp_api_v3&utm_medium=api_v3_business_search&utm_source=asslzE1UV0XuKI953B1vtw", "review_count": 83, "categories": [{"alias": "steak", "title": "Steakhouses"}, {"alias": "seafood", "title": "Seafood"}, {"alias": "tradamerican", "title": "American (Traditional)"}], "rating": 3.5, "coordinates": {"latitude": 42.08715, "longitude": -71.48538}, "transactions": [], "price": "$$", "location": {"address1": "93 Mendon St", "address2": "", "address3": "", "city": "Bellingham", "zip_code": "02019", "country": "US", "state": "MA", "display_address": ["93 Mendon St", "Bellingham, MA 02019"]}, "phone": "+15089669717", "display_phone": "(508) 966-9717", "distance": 6309.720911305575}, {"id": "7nB8XpmeTyB4ifA-EckUCg", "alias": "caffe-sorrento-milford", "name": "Caffe Sorrento", "image_url": "https://s3-media2.fl.yelpcdn.com/bphoto/1nV1zkbxpICyk0I5bB39_g/o.jpg", "is_closed": false, "url": "https://www.yelp.com/biz/caffe-sorrento-milford?adjust_creative=asslzE1UV0XuKI953B1vtw&utm_campaign=yelp_api_v3&utm_medium=api_v3_business_search&utm_source=asslzE1UV0XuKI953B1vtw", "review_count": 91, "categories": [{"alias": "italian", "title": "Italian"}, {"alias": "cafes", "title": "Cafes"}], "rating": 3.5, "coordinates": {"latitude": 42.139505, "longitude": -71.516083}, "transactions": ["delivery"], "price": "$$", "location": {"address1": "143 Central St", "address2": "", "address3": "", "city": "Milford", "zip_code": "01757", "country": "US", "state": "MA", "display_address": ["143 Central St", "Milford, MA 01757"]}, "phone": "+15084732460", "display_phone": "(508) 473-2460", "distance": 2018.6461418222868}, {"id": "rdbwZ7QhJ9-V5bhV6sNmWQ", "alias": "wanokura-milford", "name": "Wanokura", "image_url": "https://s3-media3.fl.yelpcdn.com/bphoto/OSr9w-j8_LcxNLYlIZ7FxA/o.jpg", "is_closed": false, "url": "https://www.yelp.com/biz/wanokura-milford?adjust_creative=asslzE1UV0XuKI953B1vtw&utm_campaign=yelp_api_v3&utm_medium=api_v3_business_search&utm_source=asslzE1UV0XuKI953B1vtw", "review_count": 137, "categories": [{"alias": "sushi", "title": "Sushi Bars"}, {"alias": "japanese", "title": "Japanese"}], "rating": 4.0, "coordinates": {"latitude": 42.142196, "longitude": -71.544883}, "transactions": ["delivery"], "price": "$$", "location": {"address1": "194 West St", "address2": "", "address3": "", "city": "Milford", "zip_code": "01757", "country": "US", "state": "MA", "display_address": ["194 West St", "Milford, MA 01757"]}, "phone": "+15083816767", "display_phone": "(508) 381-6767", "distance": 1657.8171372051092}, {"id": "UvlxXIaBSdZMbn4IMSc92g", "alias": "118-main-street-kitchen-and-spirits-upton", "name": "118 Main Street Kitchen & Spirits", "image_url": "https://s3-media3.fl.yelpcdn.com/bphoto/HbssHaMexb34Dk7WbOH_KA/o.jpg", "is_closed": false, "url": "https://www.yelp.com/biz/118-main-street-kitchen-and-spirits-upton?adjust_creative=asslzE1UV0XuKI953B1vtw&utm_campaign=yelp_api_v3&utm_medium=api_v3_business_search&utm_source=asslzE1UV0XuKI953B1vtw", "review_count": 29, "categories": [{"alias": "newamerican", "title": "American (New)"}], "rating": 3.5, "coordinates": {"latitude": 42.1696108481808, "longitude": -71.6204329580069}, "transactions": [], "location": {"address1": "118 Main St", "address2": "", "address3": null, "city": "Upton", "zip_code": "01568", "country": "US", "state": "MA", "display_address": ["118 Main St", "Upton, MA 01568"]}, "phone": "+15086031304", "display_phone": "(508) 603-1304", "distance": 8327.54019822396}, {"id": "7sUwD-X01F_qKdTJpNwHQA", "alias": "christiano-pizza-hopedale", "name": "Christiano Pizza", "image_url": "https://s3-media1.fl.yelpcdn.com/bphoto/WgX1zw_DzvlwmcH4kYlXQw/o.jpg", "is_closed": false, "url": "https://www.yelp.com/biz/christiano-pizza-hopedale?adjust_creative=asslzE1UV0XuKI953B1vtw&utm_campaign=yelp_api_v3&utm_medium=api_v3_business_search&utm_source=asslzE1UV0XuKI953B1vtw", "review_count": 15, "categories": [{"alias": "pizza", "title": "Pizza"}], "rating": 4.0, "coordinates": {"latitude": 42.1297830165506, "longitude": -71.540490757918}, "transactions": ["delivery"], "price": "$", "location": {"address1": "60 Hopedale St", "address2": "", "address3": "", "city": "Hopedale", "zip_code": "01747", "country": "US", "state": "MA", "display_address": ["60 Hopedale St", "Hopedale, MA 01747"]}, "phone": "+15084229993", "display_phone": "(508) 422-9993", "distance": 406.0554891210439}, {"id": "RNn5RZrttdUoTT1GXoKcRw", "alias": "genes-variety-milford", "name": "Gene's Variety", "image_url": "https://s3-media1.fl.yelpcdn.com/bphoto/r235BYl1yFyFfuI8BpIckA/o.jpg", "is_closed": false, "url": "https://www.yelp.com/biz/genes-variety-milford?adjust_creative=asslzE1UV0XuKI953B1vtw&utm_campaign=yelp_api_v3&utm_medium=api_v3_business_search&utm_source=asslzE1UV0XuKI953B1vtw", "review_count": 81, "categories": [{"alias": "delis", "title": "Delis"}, {"alias": "sandwiches", "title": "Sandwiches"}, {"alias": "pastashops", "title": "Pasta Shops"}], "rating": 4.5, "coordinates": {"latitude": 42.13765, "longitude": -71.53067}, "transactions": [], "price": "$", "location": {"address1": "80 Water St", "address2": "", "address3": "", "city": "Milford", "zip_code": "01757", "country": "US", "state": "MA", "display_address": ["80 Water St", "Milford, MA 01757"]}, "phone": "+15084732324", "display_phone": "(508) 473-2324", "distance": 1072.213003805347}, {"id": "C0L5oIxGYuSeYoiMFnshxA", "alias": "greenhouse-wood-fired-grill-mendon-3", "name": "Greenhouse Wood Fired Grill", "image_url": "https://s3-media4.fl.yelpcdn.com/bphoto/Stt4q-LQCevgXtYHVjYoIg/o.jpg", "is_closed": false, "url": "https://www.yelp.com/biz/greenhouse-wood-fired-grill-mendon-3?adjust_creative=asslzE1UV0XuKI953B1vtw&utm_campaign=yelp_api_v3&utm_medium=api_v3_business_search&utm_source=asslzE1UV0XuKI953B1vtw", "review_count": 150, "categories": [{"alias": "irish", "title": "Irish"}, {"alias": "newamerican", "title": "American (New)"}, {"alias": "gastropubs", "title": "Gastropubs"}], "rating": 2.5, "coordinates": {"latitude": 42.101918, "longitude": -71.505128}, "transactions": ["pickup", "delivery"], "price": "$$", "location": {"address1": "3 Cape Rd", "address2": "", "address3": "", "city": "Mendon", "zip_code": "01756", "country": "US", "state": "MA", "display_address": ["3 Cape Rd", "Mendon, MA 01756"]}, "phone": "+15086348900", "display_phone": "(508) 634-8900", "distance": 3911.5756258924657}, {"id": "MV-PnnPf9bzQn6jk0I4t8A", "alias": "willowbrook-restaurant-mendon", "name": "Willowbrook Restaurant", "image_url": "https://s3-media1.fl.yelpcdn.com/bphoto/68-SJ3fvanQyefRoRb9P4w/o.jpg", "is_closed": false, "url": "https://www.yelp.com/biz/willowbrook-restaurant-mendon?adjust_creative=asslzE1UV0XuKI953B1vtw&utm_campaign=yelp_api_v3&utm_medium=api_v3_business_search&utm_source=asslzE1UV0XuKI953B1vtw", "review_count": 62, "categories": [{"alias": "tradamerican", "title": "American (Traditional)"}], "rating": 3.5, "coordinates": {"latitude": 42.104744464159, "longitude": -71.5565709024668}, "transactions": [], "price": "$$", "location": {"address1": "16 Hastings St", "address2": null, "address3": null, "city": "Mendon", "zip_code": "01756", "country": "US", "state": "MA", "display_address": ["16 Hastings St", "Mendon, MA 01756"]}, "phone": "+15084734420", "display_phone": "(508) 473-4420", "distance": 3073.5680499071245}, {"id": "4eirYOGfMez0OAlBFHerzg", "alias": "sabor-de-minas-restaurant-milford", "name": "Sabor De Minas Restaurant", "image_url": "https://s3-media4.fl.yelpcdn.com/bphoto/CaVQXt5edcNdzzmaI0Y1yw/o.jpg", "is_closed": false, "url": "https://www.yelp.com/biz/sabor-de-minas-restaurant-milford?adjust_creative=asslzE1UV0XuKI953B1vtw&utm_campaign=yelp_api_v3&utm_medium=api_v3_business_search&utm_source=asslzE1UV0XuKI953B1vtw", "review_count": 7, "categories": [{"alias": "brazilian", "title": "Brazilian"}], "rating": 5.0, "coordinates": {"latitude": 42.148976, "longitude": -71.5083377}, "transactions": ["delivery"], "price": "$", "location": {"address1": "122 E Main St", "address2": "", "address3": "", "city": "Milford", "zip_code": "01757", "country": "US", "state": "MA", "display_address": ["122 E Main St", "Milford, MA 01757"]}, "phone": "+15086340252", "display_phone": "(508) 634-0252", "distance": 3187.271039290377}, {"id": "fSAXnbC9FqXJGZxMlHMG_A", "alias": "tokyo-japanese-steak-house-milford-2", "name": "Tokyo Japanese Steak House", "image_url": "https://s3-media1.fl.yelpcdn.com/bphoto/tMQfH9q_ikxsUq4FG76ZUA/o.jpg", "is_closed": false, "url": "https://www.yelp.com/biz/tokyo-japanese-steak-house-milford-2?adjust_creative=asslzE1UV0XuKI953B1vtw&utm_campaign=yelp_api_v3&utm_medium=api_v3_business_search&utm_source=asslzE1UV0XuKI953B1vtw", "review_count": 44, "categories": [{"alias": "sushi", "title": "Sushi Bars"}, {"alias": "steak", "title": "Steakhouses"}], "rating": 3.5, "coordinates": {"latitude": 42.1302299499512, "longitude": -71.5178375244141}, "transactions": ["delivery"], "price": "$$", "location": {"address1": "121 Depot St", "address2": "", "address3": "", "city": "Milford", "zip_code": "01757", "country": "US", "state": "MA", "display_address": ["121 Depot St", "Milford, MA 01757"]}, "phone": "+15084787788", "display_phone": "(508) 478-7788", "distance": 1488.8113581308469}, {"id": "L_Lb9L3_li29cPLwbO2jQg", "alias": "sabor-latino-restaurant-milford", "name": "Sabor Latino Restaurant", "image_url": "https://s3-media3.fl.yelpcdn.com/bphoto/29Tx0fLNKnfY_0J5fda0WQ/o.jpg", "is_closed": false, "url": "https://www.yelp.com/biz/sabor-latino-restaurant-milford?adjust_creative=asslzE1UV0XuKI953B1vtw&utm_campaign=yelp_api_v3&utm_medium=api_v3_business_search&utm_source=asslzE1UV0XuKI953B1vtw", "review_count": 13, "categories": [{"alias": "latin", "title": "Latin American"}], "rating": 4.0, "coordinates": {"latitude": 42.1416439429516, "longitude": -71.5188921237696}, "transactions": [], "price": "$$", "location": {"address1": "126 Main St", "address2": "", "address3": "", "city": "Milford", "zip_code": "01757", "country": "US", "state": "MA", "display_address": ["126 Main St", "Milford, MA 01757"]}, "phone": "+15082444986", "display_phone": "(508) 244-4986", "distance": 1995.6639114290767}, {"id": "rF_vrI7PMvQdJjefVbVWhQ", "alias": "anthonys-on-the-green-holliston", "name": "Anthony's On The Green", "image_url": "https://s3-media3.fl.yelpcdn.com/bphoto/qDdKSIC8LgGdzzXRSPyhOg/o.jpg", "is_closed": false, "url": "https://www.yelp.com/biz/anthonys-on-the-green-holliston?adjust_creative=asslzE1UV0XuKI953B1vtw&utm_campaign=yelp_api_v3&utm_medium=api_v3_business_search&utm_source=asslzE1UV0XuKI953B1vtw", "review_count": 6, "categories": [{"alias": "newamerican", "title": "American (New)"}], "rating": 4.5, "coordinates": {"latitude": 42.1995756674295, "longitude": -71.4557016375274}, "transactions": [], "price": "$", "location": {"address1": "212 Prentice St", "address2": "", "address3": "", "city": "Holliston", "zip_code": "01746", "country": "US", "state": "MA", "display_address": ["212 Prentice St", "Holliston, MA 01746"]}, "phone": "+15084294848", "display_phone": "(508) 429-4848", "distance": 10272.333927109157}, {"id": "uaNv3_nxEQBiPMRdwKooWw", "alias": "central-tavern-milford", "name": "Central Tavern", "image_url": "https://s3-media4.fl.yelpcdn.com/bphoto/6P0Ry_DL9DYbWeqM_cp-yg/o.jpg", "is_closed": false, "url": "https://www.yelp.com/biz/central-tavern-milford?adjust_creative=asslzE1UV0XuKI953B1vtw&utm_campaign=yelp_api_v3&utm_medium=api_v3_business_search&utm_source=asslzE1UV0XuKI953B1vtw", "review_count": 26, "categories": [{"alias": "pubs", "title": "Pubs"}, {"alias": "tradamerican", "title": "American (Traditional)"}], "rating": 3.5, "coordinates": {"latitude": 42.1400294, "longitude": -71.5195074}, "transactions": [], "price": "$$", "location": {"address1": "31 Central St", "address2": "", "address3": "", "city": "Milford", "zip_code": "01757", "country": "US", "state": "MA", "display_address": ["31 Central St", "Milford, MA 01757"]}, "phone": "+15084780913", "display_phone": "(508) 478-0913", "distance": 1833.7170784396387}, {"id": "ZykUnWqwlHRi3itIVwl7pw", "alias": "restaurant-45-medway", "name": "Restaurant 45", "image_url": "https://s3-media4.fl.yelpcdn.com/bphoto/-BZnyB5MYhMea0ljfC39qw/o.jpg", "is_closed": false, "url": "https://www.yelp.com/biz/restaurant-45-medway?adjust_creative=asslzE1UV0XuKI953B1vtw&utm_campaign=yelp_api_v3&utm_medium=api_v3_business_search&utm_source=asslzE1UV0XuKI953B1vtw", "review_count": 171, "categories": [{"alias": "italian", "title": "Italian"}, {"alias": "newamerican", "title": "American (New)"}, {"alias": "seafood", "title": "Seafood"}], "rating": 3.5, "coordinates": {"latitude": 42.14449, "longitude": -71.44364}, "transactions": [], "price": "$$", "location": {"address1": "45 Milford St", "address2": "", "address3": "", "city": "Medway", "zip_code": "02053", "country": "US", "state": "MA", "display_address": ["45 Milford St", "Medway, MA 02053"]}, "phone": "+15085338171", "display_phone": "(508) 533-8171", "distance": 7796.104224995725}, {"id": "tdh1rVZdBvWI8nMYvZwUSA", "alias": "hong-kong-house-hopedale", "name": "Hong Kong House", "image_url": "https://s3-media2.fl.yelpcdn.com/bphoto/6MnQ0os3dBnVkYBqrG8q7A/o.jpg", "is_closed": false, "url": "https://www.yelp.com/biz/hong-kong-house-hopedale?adjust_creative=asslzE1UV0XuKI953B1vtw&utm_campaign=yelp_api_v3&utm_medium=api_v3_business_search&utm_source=asslzE1UV0XuKI953B1vtw", "review_count": 42, "categories": [{"alias": "chinese", "title": "Chinese"}], "rating": 4.0, "coordinates": {"latitude": 42.1040996969436, "longitude": -71.5022871236781}, "transactions": ["delivery"], "price": "$$", "location": {"address1": "150 Hartford Ave", "address2": "", "address3": "", "city": "Hopedale", "zip_code": "01747", "country": "US", "state": "MA", "display_address": ["150 Hartford Ave", "Hopedale, MA 01747"]}, "phone": "+15084738885", "display_phone": "(508) 473-8885", "distance": 3892.1943891201536}, {"id": "ukGam4bZqVn_6QIjf-O7aw", "alias": "gallifords-restaurant-and-tavern-mendon", "name": "Galliford's Restaurant & Tavern", "image_url": "https://s3-media2.fl.yelpcdn.com/bphoto/9ZFBDmrQT6NvVX6TtbWI9A/o.jpg", "is_closed": false, "url": "https://www.yelp.com/biz/gallifords-restaurant-and-tavern-mendon?adjust_creative=asslzE1UV0XuKI953B1vtw&utm_campaign=yelp_api_v3&utm_medium=api_v3_business_search&utm_source=asslzE1UV0XuKI953B1vtw", "review_count": 95, "categories": [{"alias": "newamerican", "title": "American (New)"}, {"alias": "beerbar", "title": "Beer Bar"}], "rating": 4.0, "coordinates": {"latitude": 42.064921819907, "longitude": -71.5841863249914}, "transactions": [], "price": "$$", "location": {"address1": "5 Southwick St", "address2": "", "address3": "Southwick's Zoo", "city": "Mendon", "zip_code": "01756", "country": "US", "state": "MA", "display_address": ["5 Southwick St", "Southwick's Zoo", "Mendon, MA 01756"]}, "phone": "+15089280928", "display_phone": "(508) 928-0928", "distance": 8147.0096381451}, {"id": "NhWR9UUNrkn3KskGRAlucg", "alias": "garden-pizza-milford", "name": "Garden Pizza", "image_url": "https://s3-media2.fl.yelpcdn.com/bphoto/F2whc8uJ7iuvbV37pqMgfg/o.jpg", "is_closed": false, "url": "https://www.yelp.com/biz/garden-pizza-milford?adjust_creative=asslzE1UV0XuKI953B1vtw&utm_campaign=yelp_api_v3&utm_medium=api_v3_business_search&utm_source=asslzE1UV0XuKI953B1vtw", "review_count": 83, "categories": [{"alias": "pizza", "title": "Pizza"}, {"alias": "salad", "title": "Salad"}, {"alias": "italian", "title": "Italian"}], "rating": 3.5, "coordinates": {"latitude": 42.138256, "longitude": -71.535524}, "transactions": ["delivery"], "price": "$", "location": {"address1": "92 Prospect St", "address2": "", "address3": "", "city": "Milford", "zip_code": "01757", "country": "US", "state": "MA", "display_address": ["92 Prospect St", "Milford, MA 01757"]}, "phone": "+15084782720", "display_phone": "(508) 478-2720", "distance": 1054.655151548081}, {"id": "8pzGbBEKRnzVB4ghXljCAw", "alias": "acapulcos-mexican-family-restaurant-and-cantina-milford", "name": "Acapulcos Mexican Family Restaurant & Cantina", "image_url": "https://s3-media3.fl.yelpcdn.com/bphoto/fjr28DstzxiYm-TMERBqbg/o.jpg", "is_closed": false, "url": "https://www.yelp.com/biz/acapulcos-mexican-family-restaurant-and-cantina-milford?adjust_creative=asslzE1UV0XuKI953B1vtw&utm_campaign=yelp_api_v3&utm_medium=api_v3_business_search&utm_source=asslzE1UV0XuKI953B1vtw", "review_count": 128, "categories": [{"alias": "mexican", "title": "Mexican"}, {"alias": "bars", "title": "Bars"}], "rating": 4.0, "coordinates": {"latitude": 42.151822029224, "longitude": -71.492409807802}, "transactions": ["delivery"], "price": "$$", "location": {"address1": "231 E Main St", "address2": "", "address3": "", "city": "Milford", "zip_code": "01757", "country": "US", "state": "MA", "display_address": ["231 E Main St", "Milford, MA 01757"]}, "phone": "+15084787197", "display_phone": "(508) 478-7197", "distance": 4398.137068279197}, {"id": "gHhVjJcC9PdNB10onURTzQ", "alias": "sol-de-mexico-bar-and-grill-bellingham", "name": "Sol de Mexico Bar & Grill", "image_url": "https://s3-media2.fl.yelpcdn.com/bphoto/QL17dUg2pQs4WBn56ovgSg/o.jpg", "is_closed": false, "url": "https://www.yelp.com/biz/sol-de-mexico-bar-and-grill-bellingham?adjust_creative=asslzE1UV0XuKI953B1vtw&utm_campaign=yelp_api_v3&utm_medium=api_v3_business_search&utm_source=asslzE1UV0XuKI953B1vtw", "review_count": 52, "categories": [{"alias": "mexican", "title": "Mexican"}], "rating": 4.0, "coordinates": {"latitude": 42.0825992426816, "longitude": -71.4548220754631}, "transactions": ["pickup", "delivery"], "price": "$$", "location": {"address1": "191 Mechanic St", "address2": "", "address3": null, "city": "Bellingham", "zip_code": "02019", "country": "US", "state": "MA", "display_address": ["191 Mechanic St", "Bellingham, MA 02019"]}, "phone": "+15089664000", "display_phone": "(508) 966-4000", "distance": 8422.77231473398}, {"id": "MkRcPhlNKCx4mLcmKphpQw", "alias": "hopedale-country-club-hopedale-3", "name": "Hopedale Country Club", "image_url": "https://s3-media4.fl.yelpcdn.com/bphoto/4OzIWiFWewdu1ekp74Rh9w/o.jpg", "is_closed": false, "url": "https://www.yelp.com/biz/hopedale-country-club-hopedale-3?adjust_creative=asslzE1UV0XuKI953B1vtw&utm_campaign=yelp_api_v3&utm_medium=api_v3_business_search&utm_source=asslzE1UV0XuKI953B1vtw", "review_count": 1, "categories": [{"alias": "venues", "title": "Venues & Event Spaces"}, {"alias": "seafood", "title": "Seafood"}, {"alias": "bars", "title": "Bars"}], "rating": 5.0, "coordinates": {"latitude": 42.11343833, "longitude": -71.5267395}, "transactions": [], "location": {"address1": "90 Mill St", "address2": "", "address3": null, "city": "Hopedale", "zip_code": "01747", "country": "US", "state": "MA", "display_address": ["90 Mill St", "Hopedale, MA 01747"]}, "phone": "+15084739876", "display_phone": "(508) 473-9876", "distance": 2076.1516240377623}, {"id": "04ixfA0ZJqSTRXbJ1sWuDQ", "alias": "lizs-diamond-bar-and-grille-hopedale", "name": "Liz's Diamond Bar & Grille", "image_url": "https://s3-media4.fl.yelpcdn.com/bphoto/5jf1KKpRAWaUxIH-Trpr8Q/o.jpg", "is_closed": false, "url": "https://www.yelp.com/biz/lizs-diamond-bar-and-grille-hopedale?adjust_creative=asslzE1UV0XuKI953B1vtw&utm_campaign=yelp_api_v3&utm_medium=api_v3_business_search&utm_source=asslzE1UV0XuKI953B1vtw", "review_count": 17, "categories": [{"alias": "pubs", "title": "Pubs"}, {"alias": "newamerican", "title": "American (New)"}], "rating": 4.0, "coordinates": {"latitude": 42.1038742991199, "longitude": -71.5097415447235}, "transactions": ["delivery"], "price": "$", "location": {"address1": "1 Menfi Way", "address2": "", "address3": "", "city": "Hopedale", "zip_code": "01747", "country": "US", "state": "MA", "display_address": ["1 Menfi Way", "Hopedale, MA 01747"]}, "phone": "+15084780690", "display_phone": "(508) 478-0690", "distance": 3502.9045285310735}, {"id": "6oitktWSQGOd0KzvlMrI5Q", "alias": "hide-a-way-pizza-mendon-2", "name": "Hide-A-Way Pizza", "image_url": "https://s3-media1.fl.yelpcdn.com/bphoto/AIS6tQmxeK0EtnY3Gcjpnw/o.jpg", "is_closed": false, "url": "https://www.yelp.com/biz/hide-a-way-pizza-mendon-2?adjust_creative=asslzE1UV0XuKI953B1vtw&utm_campaign=yelp_api_v3&utm_medium=api_v3_business_search&utm_source=asslzE1UV0XuKI953B1vtw", "review_count": 89, "categories": [{"alias": "pizza", "title": "Pizza"}], "rating": 4.0, "coordinates": {"latitude": 42.0969568864465, "longitude": -71.5782347694039}, "transactions": [], "price": "$", "location": {"address1": "95 Uxbridge Rd", "address2": "", "address3": "", "city": "Mendon", "zip_code": "01756", "country": "US", "state": "MA", "display_address": ["95 Uxbridge Rd", "Mendon, MA 01756"]}, "phone": "+15084780600", "display_phone": "(508) 478-0600", "distance": 4979.13335280626}, {"id": "W0FJmkDBLdYEZZlWb4BY1A", "alias": "casa-brasil-milford", "name": "Casa Brasil", "image_url": "https://s3-media2.fl.yelpcdn.com/bphoto/Sn5FzuHCwqTY2C8YEW1uKg/o.jpg", "is_closed": false, "url": "https://www.yelp.com/biz/casa-brasil-milford?adjust_creative=asslzE1UV0XuKI953B1vtw&utm_campaign=yelp_api_v3&utm_medium=api_v3_business_search&utm_source=asslzE1UV0XuKI953B1vtw", "review_count": 19, "categories": [{"alias": "brazilian", "title": "Brazilian"}], "rating": 3.5, "coordinates": {"latitude": 42.1417388916016, "longitude": -71.5183410644531}, "transactions": [], "price": "$", "location": {"address1": "112 Main St", "address2": "", "address3": "", "city": "Milford", "zip_code": "01757", "country": "US", "state": "MA", "display_address": ["112 Main St", "Milford, MA 01757"]}, "phone": "+15084787818", "display_phone": "(508) 478-7818", "distance": 2033.334303053092}, {"id": "9HKr_dKDpZvOGWPP6Q7UYQ", "alias": "mandarin-milford-milford", "name": "Mandarin Milford", "image_url": "https://s3-media2.fl.yelpcdn.com/bphoto/rxovUHGh5JpU3mvfqFR-DQ/o.jpg", "is_closed": false, "url": "https://www.yelp.com/biz/mandarin-milford-milford?adjust_creative=asslzE1UV0XuKI953B1vtw&utm_campaign=yelp_api_v3&utm_medium=api_v3_business_search&utm_source=asslzE1UV0XuKI953B1vtw", "review_count": 135, "categories": [{"alias": "chinese", "title": "Chinese"}, {"alias": "sushi", "title": "Sushi Bars"}, {"alias": "japanese", "title": "Japanese"}], "rating": 3.5, "coordinates": {"latitude": 42.1530848112327, "longitude": -71.5015531121532}, "transactions": ["delivery"], "price": "$$", "location": {"address1": "196 E Main St", "address2": "", "address3": "", "city": "Milford", "zip_code": "01757", "country": "US", "state": "MA", "display_address": ["196 E Main St", "Milford, MA 01757"]}, "phone": "+15084785800", "display_phone": "(508) 478-5800", "distance": 3906.6903125482763}, {"id": "tlqh8s687FOTLLbxJfkmEw", "alias": "pizza-chef-milford-milford", "name": "Pizza Chef Milford", "image_url": "https://s3-media1.fl.yelpcdn.com/bphoto/TZbjS_7qBUVR4mUxA2hmPg/o.jpg", "is_closed": false, "url": "https://www.yelp.com/biz/pizza-chef-milford-milford?adjust_creative=asslzE1UV0XuKI953B1vtw&utm_campaign=yelp_api_v3&utm_medium=api_v3_business_search&utm_source=asslzE1UV0XuKI953B1vtw", "review_count": 38, "categories": [{"alias": "pizza", "title": "Pizza"}], "rating": 4.0, "coordinates": {"latitude": 42.140857, "longitude": -71.520301}, "transactions": ["pickup", "delivery"], "price": "$", "location": {"address1": "179 Main St", "address2": null, "address3": null, "city": "Milford", "zip_code": "01757", "country": "US", "state": "MA", "display_address": ["179 Main St", "Milford, MA 01757"]}, "phone": "+15084731119", "display_phone": "(508) 473-1119", "distance": 1852.0873965698756}, {"id": "myelXUlJgV2bCMZH7FMrww", "alias": "pizza-palace-milford-4", "name": "Pizza Palace", "image_url": "https://s3-media3.fl.yelpcdn.com/bphoto/nmlvu5fLevYdrckKo33GwA/o.jpg", "is_closed": false, "url": "https://www.yelp.com/biz/pizza-palace-milford-4?adjust_creative=asslzE1UV0XuKI953B1vtw&utm_campaign=yelp_api_v3&utm_medium=api_v3_business_search&utm_source=asslzE1UV0XuKI953B1vtw", "review_count": 80, "categories": [{"alias": "pizza", "title": "Pizza"}], "rating": 4.0, "coordinates": {"latitude": 42.1427469, "longitude": -71.5121612}, "transactions": ["delivery"], "price": "$", "location": {"address1": "8 Beach St", "address2": "", "address3": "", "city": "Milford", "zip_code": "01757", "country": "US", "state": "MA", "display_address": ["8 Beach St", "Milford, MA 01757"]}, "phone": "+15084788898", "display_phone": "(508) 478-8898", "distance": 2490.0997720523537}, {"id": "20CGMo03b_mlTWTeTVxApQ", "alias": "olivas-market-catering-and-gourmet-gifts-milford", "name": "Oliva's Market, Catering & Gourmet Gifts", "image_url": "https://s3-media2.fl.yelpcdn.com/bphoto/s6CK3rqLKDg9gnyLaYzazg/o.jpg", "is_closed": false, "url": "https://www.yelp.com/biz/olivas-market-catering-and-gourmet-gifts-milford?adjust_creative=asslzE1UV0XuKI953B1vtw&utm_campaign=yelp_api_v3&utm_medium=api_v3_business_search&utm_source=asslzE1UV0XuKI953B1vtw", "review_count": 78, "categories": [{"alias": "catering", "title": "Caterers"}, {"alias": "delis", "title": "Delis"}, {"alias": "giftshops", "title": "Gift Shops"}], "rating": 4.0, "coordinates": {"latitude": 42.1473826, "longitude": -71.5106675}, "transactions": [], "price": "$", "location": {"address1": "83-85 E Main St", "address2": "", "address3": "", "city": "Milford", "zip_code": "01757", "country": "US", "state": "MA", "display_address": ["83-85 E Main St", "Milford, MA 01757"]}, "phone": "+15084737920", "display_phone": "(508) 473-7920", "distance": 2926.1544479095846}, {"id": "yHPTmk4oRqiuTxo3Jme2xQ", "alias": "georges-surf-n-turf-mendon", "name": "George's Surf N Turf", "image_url": "https://s3-media2.fl.yelpcdn.com/bphoto/2mXeMMR3fTFW2sIQYDWbTQ/o.jpg", "is_closed": false, "url": "https://www.yelp.com/biz/georges-surf-n-turf-mendon?adjust_creative=asslzE1UV0XuKI953B1vtw&utm_campaign=yelp_api_v3&utm_medium=api_v3_business_search&utm_source=asslzE1UV0XuKI953B1vtw", "review_count": 75, "categories": [{"alias": "seafood", "title": "Seafood"}, {"alias": "burgers", "title": "Burgers"}], "rating": 4.0, "coordinates": {"latitude": 42.095380978894, "longitude": -71.580294736915}, "transactions": [], "price": "$$", "location": {"address1": "116 Uxbridge Rd", "address2": "", "address3": "", "city": "Mendon", "zip_code": "01756", "country": "US", "state": "MA", "display_address": ["116 Uxbridge Rd", "Mendon, MA 01756"]}, "phone": "+15084732125", "display_phone": "(508) 473-2125", "distance": 5223.2417909119795}, {"id": "d_KPyqFHXsgYGTMSaWW38g", "alias": "chim-thai-cafe-milford", "name": "Chim Thai Cafe", "image_url": "https://s3-media2.fl.yelpcdn.com/bphoto/_xfCa23_agcqE9NWX4uBTA/o.jpg", "is_closed": false, "url": "https://www.yelp.com/biz/chim-thai-cafe-milford?adjust_creative=asslzE1UV0XuKI953B1vtw&utm_campaign=yelp_api_v3&utm_medium=api_v3_business_search&utm_source=asslzE1UV0XuKI953B1vtw", "review_count": 70, "categories": [{"alias": "thai", "title": "Thai"}], "rating": 4.0, "coordinates": {"latitude": 42.1530685424805, "longitude": -71.5004959106445}, "transactions": ["delivery"], "price": "$$", "location": {"address1": "196 E Main St", "address2": "Ste 52", "address3": "", "city": "Milford", "zip_code": "01757", "country": "US", "state": "MA", "display_address": ["196 E Main St", "Ste 52", "Milford, MA 01757"]}, "phone": "+15084784599", "display_phone": "(508) 478-4599", "distance": 3942.5436594687176}, {"id": "VrqIs4bre2LYrVbtzuDIYw", "alias": "joffs-backyard-grill-bellingham-2", "name": "Joffs Backyard Grill", "image_url": "https://s3-media4.fl.yelpcdn.com/bphoto/vFqzJ3QEUnRV0jFcD8kGkA/o.jpg", "is_closed": false, "url": "https://www.yelp.com/biz/joffs-backyard-grill-bellingham-2?adjust_creative=asslzE1UV0XuKI953B1vtw&utm_campaign=yelp_api_v3&utm_medium=api_v3_business_search&utm_source=asslzE1UV0XuKI953B1vtw", "review_count": 117, "categories": [{"alias": "bbq", "title": "Barbeque"}, {"alias": "burgers", "title": "Burgers"}], "rating": 4.0, "coordinates": {"latitude": 42.0845413, "longitude": -71.4720535}, "transactions": ["delivery"], "price": "$$", "location": {"address1": "61 Mechanic St", "address2": null, "address3": null, "city": "Bellingham", "zip_code": "02019", "country": "US", "state": "MA", "display_address": ["61 Mechanic St", "Bellingham, MA 02019"]}, "phone": "+15089662938", "display_phone": "(508) 966-2938", "distance": 7202.06634945464}, {"id": "xiQXpj6DGHJyTED5O47JxA", "alias": "tgi-fridays-milford", "name": "TGI Fridays", "image_url": "https://s3-media2.fl.yelpcdn.com/bphoto/50OOFPUlo0u9JWrhyIEb_w/o.jpg", "is_closed": false, "url": "https://www.yelp.com/biz/tgi-fridays-milford?adjust_creative=asslzE1UV0XuKI953B1vtw&utm_campaign=yelp_api_v3&utm_medium=api_v3_business_search&utm_source=asslzE1UV0XuKI953B1vtw", "review_count": 109, "categories": [{"alias": "tradamerican", "title": "American (Traditional)"}], "rating": 2.0, "coordinates": {"latitude": 42.1596993, "longitude": -71.5003884}, "transactions": ["delivery"], "price": "$$", "location": {"address1": "240 Fortune Blvd", "address2": "", "address3": "", "city": "Milford", "zip_code": "01757", "country": "US", "state": "MA", "display_address": ["240 Fortune Blvd", "Milford, MA 01757"]}, "phone": "+15086343018", "display_phone": "(508) 634-3018", "distance": 4527.889825533664}, {"id": "TsdIsYYP2uTuYV7RjRqyBA", "alias": "garden-restaurant-milford", "name": "Garden Restaurant", "image_url": "https://s3-media2.fl.yelpcdn.com/bphoto/el3Vu7ef78qq5IcTaGP4Fw/o.jpg", "is_closed": false, "url": "https://www.yelp.com/biz/garden-restaurant-milford?adjust_creative=asslzE1UV0XuKI953B1vtw&utm_campaign=yelp_api_v3&utm_medium=api_v3_business_search&utm_source=asslzE1UV0XuKI953B1vtw", "review_count": 25, "categories": [{"alias": "tradamerican", "title": "American (Traditional)"}, {"alias": "seafood", "title": "Seafood"}], "rating": 3.5, "coordinates": {"latitude": 42.127119, "longitude": -71.516331}, "transactions": ["delivery"], "price": "$", "location": {"address1": "138 S Main St", "address2": "", "address3": "", "city": "Milford", "zip_code": "01757", "country": "US", "state": "MA", "display_address": ["138 S Main St", "Milford, MA 01757"]}, "phone": "+15084734211", "display_phone": "(508) 473-4211", "distance": 1609.7195022520004}, {"id": "LkHZs6Os_UXmG8M59VEC3Q", "alias": "140-pub-n-club-bellingham", "name": "140 Pub N Club", "image_url": "https://s3-media2.fl.yelpcdn.com/bphoto/Th-kA7ZN2geByIsR1MdRWw/o.jpg", "is_closed": false, "url": "https://www.yelp.com/biz/140-pub-n-club-bellingham?adjust_creative=asslzE1UV0XuKI953B1vtw&utm_campaign=yelp_api_v3&utm_medium=api_v3_business_search&utm_source=asslzE1UV0XuKI953B1vtw", "review_count": 38, "categories": [{"alias": "danceclubs", "title": "Dance Clubs"}, {"alias": "pubs", "title": "Pubs"}, {"alias": "tradamerican", "title": "American (Traditional)"}], "rating": 4.0, "coordinates": {"latitude": 42.0868768154618, "longitude": -71.4899149909616}, "transactions": ["delivery"], "price": "$$", "location": {"address1": "168 Mendon St", "address2": "", "address3": "", "city": "Bellingham", "zip_code": "02019", "country": "US", "state": "MA", "display_address": ["168 Mendon St", "Bellingham, MA 02019"]}, "phone": "+15089664411", "display_phone": "(508) 966-4411", "distance": 6000.420928234744}, {"id": "yAkOnAB9MpIbm5t_hvj1pw", "alias": "great-taste-milford-3", "name": "Great Taste", "image_url": "https://s3-media1.fl.yelpcdn.com/bphoto/cZSyTuSlGYjqbWbzuqmXOw/o.jpg", "is_closed": false, "url": "https://www.yelp.com/biz/great-taste-milford-3?adjust_creative=asslzE1UV0XuKI953B1vtw&utm_campaign=yelp_api_v3&utm_medium=api_v3_business_search&utm_source=asslzE1UV0XuKI953B1vtw", "review_count": 24, "categories": [{"alias": "cantonese", "title": "Cantonese"}], "rating": 3.5, "coordinates": {"latitude": 42.1401737630367, "longitude": -71.5205213427544}, "transactions": [], "price": "$$", "location": {"address1": "201 Main St", "address2": "", "address3": "", "city": "Milford", "zip_code": "01757", "country": "US", "state": "MA", "display_address": ["201 Main St", "Milford, MA 01757"]}, "phone": "+15086342928", "display_phone": "(508) 634-2928", "distance": 1783.0492871302442}, {"id": "TH9nCcZL6vnlIsB0lCxvsQ", "alias": "fusion-express-bellingham", "name": "Fusion Express", "image_url": "https://s3-media1.fl.yelpcdn.com/bphoto/ujtGkZgQvy7r-rnK8uwGhg/o.jpg", "is_closed": false, "url": "https://www.yelp.com/biz/fusion-express-bellingham?adjust_creative=asslzE1UV0XuKI953B1vtw&utm_campaign=yelp_api_v3&utm_medium=api_v3_business_search&utm_source=asslzE1UV0XuKI953B1vtw", "review_count": 67, "categories": [{"alias": "asianfusion", "title": "Asian Fusion"}], "rating": 4.5, "coordinates": {"latitude": 42.083071, "longitude": -71.454925}, "transactions": ["delivery"], "price": "$$", "location": {"address1": "191 Mechanic St", "address2": "", "address3": "", "city": "Bellingham", "zip_code": "02019", "country": "US", "state": "MA", "display_address": ["191 Mechanic St", "Bellingham, MA 02019"]}, "phone": "+15086571198", "display_phone": "(508) 657-1198", "distance": 8384.124460383038}, {"id": "3U0GLAwT3PWJ_cMhlWpCjQ", "alias": "pepperoncinis-milford", "name": "Pepperoncini's", "image_url": "https://s3-media1.fl.yelpcdn.com/bphoto/A4CcKabhIJFaEu95GVyqrQ/o.jpg", "is_closed": false, "url": "https://www.yelp.com/biz/pepperoncinis-milford?adjust_creative=asslzE1UV0XuKI953B1vtw&utm_campaign=yelp_api_v3&utm_medium=api_v3_business_search&utm_source=asslzE1UV0XuKI953B1vtw", "review_count": 90, "categories": [{"alias": "pizza", "title": "Pizza"}, {"alias": "sandwiches", "title": "Sandwiches"}], "rating": 3.0, "coordinates": {"latitude": 42.15059, "longitude": -71.50111}, "transactions": ["delivery"], "price": "$$", "location": {"address1": "201 E Main St", "address2": "", "address3": "", "city": "Milford", "zip_code": "01757", "country": "US", "state": "MA", "display_address": ["201 E Main St", "Milford, MA 01757"]}, "phone": "+15084787377", "display_phone": "(508) 478-7377", "distance": 3745.9961675610116}, {"id": "dQjy0FAZIwbNyQzLaKaosQ", "alias": "golden-house-chinese-restaurant-milford", "name": "Golden House Chinese Restaurant", "image_url": "https://s3-media3.fl.yelpcdn.com/bphoto/4kCpv1EEzIzZndeyCUcVWQ/o.jpg", "is_closed": false, "url": "https://www.yelp.com/biz/golden-house-chinese-restaurant-milford?adjust_creative=asslzE1UV0XuKI953B1vtw&utm_campaign=yelp_api_v3&utm_medium=api_v3_business_search&utm_source=asslzE1UV0XuKI953B1vtw", "review_count": 23, "categories": [{"alias": "chinese", "title": "Chinese"}], "rating": 3.5, "coordinates": {"latitude": 42.1374446811195, "longitude": -71.5335663790985}, "transactions": ["delivery"], "price": "$", "location": {"address1": "93 Water St", "address2": "", "address3": "", "city": "Milford", "zip_code": "01757", "country": "US", "state": "MA", "display_address": ["93 Water St", "Milford, MA 01757"]}, "phone": "+15084780810", "display_phone": "(508) 478-0810", "distance": 981.06689968542}, {"id": "fGnzsVCKzIDqDAzkJZK7Gw", "alias": "legends-sports-bar-and-grill-milford", "name": "Legends Sports Bar and Grill", "image_url": "https://s3-media2.fl.yelpcdn.com/bphoto/bx33zCFkIDbhGhO8oyKLyg/o.jpg", "is_closed": false, "url": "https://www.yelp.com/biz/legends-sports-bar-and-grill-milford?adjust_creative=asslzE1UV0XuKI953B1vtw&utm_campaign=yelp_api_v3&utm_medium=api_v3_business_search&utm_source=asslzE1UV0XuKI953B1vtw", "review_count": 11, "categories": [{"alias": "tradamerican", "title": "American (Traditional)"}, {"alias": "sportsbars", "title": "Sports Bars"}], "rating": 3.0, "coordinates": {"latitude": 42.15153, "longitude": -71.488}, "transactions": ["delivery"], "price": "$$", "location": {"address1": "11 Beaver St", "address2": null, "address3": "", "city": "Milford", "zip_code": "01757", "country": "US", "state": "MA", "display_address": ["11 Beaver St", "Milford, MA 01757"]}, "phone": "+15084787010", "display_phone": "(508) 478-7010", "distance": 4687.136747179255}, {"id": "lpOMAxnG1UgmDVlJeM3sNg", "alias": "turtle-tavern-milford", "name": "Turtle Tavern", "image_url": "", "is_closed": false, "url": "https://www.yelp.com/biz/turtle-tavern-milford?adjust_creative=asslzE1UV0XuKI953B1vtw&utm_campaign=yelp_api_v3&utm_medium=api_v3_business_search&utm_source=asslzE1UV0XuKI953B1vtw", "review_count": 15, "categories": [{"alias": "tradamerican", "title": "American (Traditional)"}, {"alias": "lounges", "title": "Lounges"}, {"alias": "burgers", "title": "Burgers"}], "rating": 3.0, "coordinates": {"latitude": 42.1423196030913, "longitude": -71.5176548714974}, "transactions": ["delivery"], "price": "$$", "location": {"address1": "72 Main St", "address2": "", "address3": "", "city": "Milford", "zip_code": "01757", "country": "US", "state": "MA", "display_address": ["72 Main St", "Milford, MA 01757"]}, "phone": "+15084781097", "display_phone": "(508) 478-1097", "distance": 2120.740273898288}, {"id": "ibvNaosvWn0UJZvcjhXhtQ", "alias": "johnny-jacks-restaurant-milford", "name": "Johnny Jacks Restaurant", "image_url": "https://s3-media2.fl.yelpcdn.com/bphoto/zFNTrmtAIGQ-v1bIONL1xA/o.jpg", "is_closed": false, "url": "https://www.yelp.com/biz/johnny-jacks-restaurant-milford?adjust_creative=asslzE1UV0XuKI953B1vtw&utm_campaign=yelp_api_v3&utm_medium=api_v3_business_search&utm_source=asslzE1UV0XuKI953B1vtw", "review_count": 69, "categories": [{"alias": "diners", "title": "Diners"}, {"alias": "tradamerican", "title": "American (Traditional)"}], "rating": 3.0, "coordinates": {"latitude": 42.13968, "longitude": -71.52054}, "transactions": ["delivery"], "price": "$", "location": {"address1": "220 Main St", "address2": "", "address3": "", "city": "Milford", "zip_code": "01757", "country": "US", "state": "MA", "display_address": ["220 Main St", "Milford, MA 01757"]}, "phone": "+15084782230", "display_phone": "(508) 478-2230", "distance": 1762.3625345501478}, {"id": "RO2jaB93y-_td1wWBwrtDg", "alias": "harefield-tandoori-uxbridge", "name": "Harefield Tandoori", "image_url": "", "is_closed": false, "url": "https://www.yelp.com/biz/harefield-tandoori-uxbridge?adjust_creative=asslzE1UV0XuKI953B1vtw&utm_campaign=yelp_api_v3&utm_medium=api_v3_business_search&utm_source=asslzE1UV0XuKI953B1vtw", "review_count": 1, "categories": [{"alias": "indpak", "title": "Indian"}], "rating": 4.0, "coordinates": {"latitude": 51.603534, "longitude": -0.482555}, "transactions": [], "location": {"address1": "40 High Street", "address2": "", "address3": "Harefield", "city": "Uxbridge", "zip_code": "UB9 6BU", "country": "GB", "state": "XGL", "display_address": ["40 High Street", "Harefield", "Uxbridge UB9 6BU", "United Kingdom"]}, "phone": "+441895825844", "display_phone": "+44 1895 825844", "distance": 9674.983750753665}, {"id": "xXiXLStpLwmsBJZJ0nqVoA", "alias": "hunan-gourmet-milford", "name": "Hunan Gourmet", "image_url": "https://s3-media2.fl.yelpcdn.com/bphoto/pvOIoN-LH3Oe2Deq7t7A8g/o.jpg", "is_closed": false, "url": "https://www.yelp.com/biz/hunan-gourmet-milford?adjust_creative=asslzE1UV0XuKI953B1vtw&utm_campaign=yelp_api_v3&utm_medium=api_v3_business_search&utm_source=asslzE1UV0XuKI953B1vtw", "review_count": 25, "categories": [{"alias": "chinese", "title": "Chinese"}], "rating": 3.5, "coordinates": {"latitude": 42.128768, "longitude": -71.518339}, "transactions": ["delivery"], "price": "$", "location": {"address1": "130 Main St", "address2": "", "address3": "", "city": "Milford", "zip_code": "01757", "country": "US", "state": "MA", "display_address": ["130 Main St", "Milford, MA 01757"]}, "phone": "+15084788528", "display_phone": "(508) 478-8528", "distance": 1436.5627335359493}, {"id": "px-MPfYG-J5ckMlSfA6vqA", "alias": "sky-buffet-milford", "name": "Sky Buffet", "image_url": "https://s3-media4.fl.yelpcdn.com/bphoto/h4uDJzfCxHzW2tXHOljciw/o.jpg", "is_closed": false, "url": "https://www.yelp.com/biz/sky-buffet-milford?adjust_creative=asslzE1UV0XuKI953B1vtw&utm_campaign=yelp_api_v3&utm_medium=api_v3_business_search&utm_source=asslzE1UV0XuKI953B1vtw", "review_count": 140, "categories": [{"alias": "buffets", "title": "Buffets"}, {"alias": "chinese", "title": "Chinese"}], "rating": 2.5, "coordinates": {"latitude": 42.15258, "longitude": -71.49244}, "transactions": [], "price": "$$", "location": {"address1": "340 E Main St", "address2": "", "address3": "", "city": "Milford", "zip_code": "01757", "country": "US", "state": "MA", "display_address": ["340 E Main St", "Milford, MA 01757"]}, "phone": "+15084788878", "display_phone": "(508) 478-8878", "distance": 4451.532920288617}, {"id": "qoZy-Vt2rRHOG32p-Hr0yA", "alias": "breakfast-at-stephanies-upton", "name": "Breakfast At Stephanie's", "image_url": "https://s3-media1.fl.yelpcdn.com/bphoto/rtx-zf0B0YqUZPS7wEUCnA/o.jpg", "is_closed": false, "url": "https://www.yelp.com/biz/breakfast-at-stephanies-upton?adjust_creative=asslzE1UV0XuKI953B1vtw&utm_campaign=yelp_api_v3&utm_medium=api_v3_business_search&utm_source=asslzE1UV0XuKI953B1vtw", "review_count": 178, "categories": [{"alias": "breakfast_brunch", "title": "Breakfast & Brunch"}], "rating": 4.0, "coordinates": {"latitude": 42.169584, "longitude": -71.625271}, "transactions": [], "price": "$", "location": {"address1": "3 Farm St", "address2": null, "address3": "", "city": "Upton", "zip_code": "01568", "country": "US", "state": "MA", "display_address": ["3 Farm St", "Upton, MA 01568"]}, "phone": "+15086031668", "display_phone": "(508) 603-1668", "distance": 8663.038517789812}, {"id": "xg89wUKGQ4c2iaLNkdx6Mg", "alias": "lowells-restaurant-mendon", "name": "Lowell's Restaurant", "image_url": "https://s3-media1.fl.yelpcdn.com/bphoto/huRnyvbHdSxBjewpDCT-Ww/o.jpg", "is_closed": false, "url": "https://www.yelp.com/biz/lowells-restaurant-mendon?adjust_creative=asslzE1UV0XuKI953B1vtw&utm_campaign=yelp_api_v3&utm_medium=api_v3_business_search&utm_source=asslzE1UV0XuKI953B1vtw", "review_count": 55, "categories": [{"alias": "tradamerican", "title": "American (Traditional)"}, {"alias": "steak", "title": "Steakhouses"}], "rating": 3.0, "coordinates": {"latitude": 42.089183807373, "longitude": -71.4996032714844}, "transactions": ["delivery"], "price": "$$", "location": {"address1": "75 Cape Rd", "address2": "", "address3": "", "city": "Mendon", "zip_code": "01756", "country": "US", "state": "MA", "display_address": ["75 Cape Rd", "Mendon, MA 01756"]}, "phone": "+15084731073", "display_phone": "(508) 473-1073", "distance": 5336.351090369229}, {"id": "EBjX7SLyEQ5le-CIalBNvg", "alias": "pjs-bar-and-grill-bellingham", "name": "PJ's Bar & Grill", "image_url": "https://s3-media2.fl.yelpcdn.com/bphoto/a9qngcdquZEDIALD23Akew/o.jpg", "is_closed": false, "url": "https://www.yelp.com/biz/pjs-bar-and-grill-bellingham?adjust_creative=asslzE1UV0XuKI953B1vtw&utm_campaign=yelp_api_v3&utm_medium=api_v3_business_search&utm_source=asslzE1UV0XuKI953B1vtw", "review_count": 112, "categories": [{"alias": "sportsbars", "title": "Sports Bars"}, {"alias": "salad", "title": "Salad"}, {"alias": "tradamerican", "title": "American (Traditional)"}], "rating": 3.5, "coordinates": {"latitude": 42.082939, "longitude": -71.455257}, "transactions": ["delivery"], "price": "$$", "location": {"address1": "191 Mechanic St", "address2": "", "address3": "", "city": "Bellingham", "zip_code": "02019", "country": "US", "state": "MA", "display_address": ["191 Mechanic St", "Bellingham, MA 02019"]}, "phone": "+15086571787", "display_phone": "(508) 657-1787", "distance": 8371.28999399666}, {"id": "Ra1Qd56FRY6IgpLFbQPZWw", "alias": "jrs-diner-milford-2", "name": "Jr's Diner", "image_url": "https://s3-media2.fl.yelpcdn.com/bphoto/IRQ7rmZbITgR-iWL-7ed7w/o.jpg", "is_closed": false, "url": "https://www.yelp.com/biz/jrs-diner-milford-2?adjust_creative=asslzE1UV0XuKI953B1vtw&utm_campaign=yelp_api_v3&utm_medium=api_v3_business_search&utm_source=asslzE1UV0XuKI953B1vtw", "review_count": 34, "categories": [{"alias": "tradamerican", "title": "American (Traditional)"}, {"alias": "breakfast_brunch", "title": "Breakfast & Brunch"}, {"alias": "diners", "title": "Diners"}], "rating": 2.5, "coordinates": {"latitude": 42.1359367370605, "longitude": -71.5232391357422}, "transactions": ["delivery"], "location": {"address1": "296 Main St", "address2": "", "address3": "", "city": "Milford", "zip_code": "01757", "country": "US", "state": "MA", "display_address": ["296 Main St", "Milford, MA 01757"]}, "phone": "+15086349200", "display_phone": "(508) 634-9200", "distance": 1303.04713224445}, {"id": "GM3zCfvIwbsHHrs5wLUbMg", "alias": "deluxe-pizza-mendon", "name": "Deluxe Pizza", "image_url": "https://s3-media4.fl.yelpcdn.com/bphoto/5d_60y_3s-uEso8aMrh6vA/o.jpg", "is_closed": false, "url": "https://www.yelp.com/biz/deluxe-pizza-mendon?adjust_creative=asslzE1UV0XuKI953B1vtw&utm_campaign=yelp_api_v3&utm_medium=api_v3_business_search&utm_source=asslzE1UV0XuKI953B1vtw", "review_count": 18, "categories": [{"alias": "pizza", "title": "Pizza"}], "rating": 4.0, "coordinates": {"latitude": 42.10434, "longitude": -71.55735}, "transactions": ["delivery"], "price": "$$", "location": {"address1": "32 Hastings St", "address2": "", "address3": "", "city": "Mendon", "zip_code": "01756", "country": "US", "state": "MA", "display_address": ["32 Hastings St", "Mendon, MA 01756"]}, "phone": "+15084784501", "display_phone": "(508) 478-4501", "distance": 3396.321618943214}, {"id": "DdyDs2x52X6Rqh2U8-KPxg", "alias": "devlins-tavern-bellingham", "name": "Devlin's Tavern", "image_url": "https://s3-media3.fl.yelpcdn.com/bphoto/UoP82YOORB9XhAEqW47Mmw/o.jpg", "is_closed": false, "url": "https://www.yelp.com/biz/devlins-tavern-bellingham?adjust_creative=asslzE1UV0XuKI953B1vtw&utm_campaign=yelp_api_v3&utm_medium=api_v3_business_search&utm_source=asslzE1UV0XuKI953B1vtw", "review_count": 11, "categories": [{"alias": "bars", "title": "Bars"}, {"alias": "tradamerican", "title": "American (Traditional)"}], "rating": 3.0, "coordinates": {"latitude": 42.088744, "longitude": -71.474123}, "transactions": ["delivery"], "location": {"address1": "15 North St", "address2": "", "address3": null, "city": "Bellingham", "zip_code": "02019", "country": "US", "state": "MA", "display_address": ["15 North St", "Bellingham, MA 02019"]}, "phone": "+15086570196", "display_phone": "(508) 657-0196", "distance": 6757.482291749771}, {"id": "D798R4IHeoy1gX_5IG1cuA", "alias": "nonas-pizza-mendon", "name": "Nona's Pizza", "image_url": "https://s3-media1.fl.yelpcdn.com/bphoto/HwQ2N2N76jJhPt2kxDujdQ/o.jpg", "is_closed": false, "url": "https://www.yelp.com/biz/nonas-pizza-mendon?adjust_creative=asslzE1UV0XuKI953B1vtw&utm_campaign=yelp_api_v3&utm_medium=api_v3_business_search&utm_source=asslzE1UV0XuKI953B1vtw", "review_count": 12, "categories": [{"alias": "pizza", "title": "Pizza"}], "rating": 3.5, "coordinates": {"latitude": 42.095764, "longitude": -71.501494}, "transactions": ["delivery"], "location": {"address1": "1B Cape Rd Rte 140", "address2": "", "address3": "", "city": "Mendon", "zip_code": "01756", "country": "US", "state": "MA", "display_address": ["1B Cape Rd Rte 140", "Mendon, MA 01756"]}, "phone": "+15086343414", "display_phone": "(508) 634-3414", "distance": 4632.571634987023}, {"id": "GNdWwjv-UpUAtfpkBOkGDw", "alias": "dairy-queen-grill-and-chill-milford-4", "name": "Dairy Queen Grill & Chill", "image_url": "https://s3-media2.fl.yelpcdn.com/bphoto/cJu1MuvCkwfeSdSQws6e2Q/o.jpg", "is_closed": false, "url": "https://www.yelp.com/biz/dairy-queen-grill-and-chill-milford-4?adjust_creative=asslzE1UV0XuKI953B1vtw&utm_campaign=yelp_api_v3&utm_medium=api_v3_business_search&utm_source=asslzE1UV0XuKI953B1vtw", "review_count": 28, "categories": [{"alias": "hotdogs", "title": "Fast Food"}, {"alias": "icecream", "title": "Ice Cream & Frozen Yogurt"}, {"alias": "burgers", "title": "Burgers"}], "rating": 4.0, "coordinates": {"latitude": 42.1419068, "longitude": -71.5432544}, "transactions": ["pickup", "delivery"], "price": "$", "location": {"address1": "190 West St", "address2": "", "address3": "", "city": "Milford", "zip_code": "01757", "country": "US", "state": "MA", "display_address": ["190 West St", "Milford, MA 01757"]}, "phone": "+15084734654", "display_phone": "(508) 473-4654", "distance": 1585.8252791049279}, {"id": "NQ_MBBbHNpKOTArxNgbE8g", "alias": "99-restaurants-milford", "name": "99 Restaurants", "image_url": "https://s3-media1.fl.yelpcdn.com/bphoto/7-DZT_PFDbV22YI7YsFeww/o.jpg", "is_closed": false, "url": "https://www.yelp.com/biz/99-restaurants-milford?adjust_creative=asslzE1UV0XuKI953B1vtw&utm_campaign=yelp_api_v3&utm_medium=api_v3_business_search&utm_source=asslzE1UV0XuKI953B1vtw", "review_count": 35, "categories": [{"alias": "pubs", "title": "Pubs"}, {"alias": "tradamerican", "title": "American (Traditional)"}], "rating": 2.5, "coordinates": {"latitude": 42.151179, "longitude": -71.500895}, "transactions": ["pickup"], "price": "$$", "location": {"address1": "196B E Main St", "address2": "", "address3": "", "city": "Milford", "zip_code": "01757", "country": "US", "state": "MA", "display_address": ["196B E Main St", "Milford, MA 01757"]}, "phone": "+15086341999", "display_phone": "(508) 634-1999", "distance": 3804.0274703535465}, {"id": "XIR1_GVjl2M2P9uit2kxpA", "alias": "jade-garden-upton", "name": "Jade Garden", "image_url": "https://s3-media4.fl.yelpcdn.com/bphoto/WriBZG7PoJaEpyko39SlEw/o.jpg", "is_closed": false, "url": "https://www.yelp.com/biz/jade-garden-upton?adjust_creative=asslzE1UV0XuKI953B1vtw&utm_campaign=yelp_api_v3&utm_medium=api_v3_business_search&utm_source=asslzE1UV0XuKI953B1vtw", "review_count": 40, "categories": [{"alias": "chinese", "title": "Chinese"}], "rating": 4.0, "coordinates": {"latitude": 42.170270275884, "longitude": -71.619636916253}, "transactions": [], "price": "$$", "location": {"address1": "113 Main St", "address2": "", "address3": "", "city": "Upton", "zip_code": "01568", "country": "US", "state": "MA", "display_address": ["113 Main St", "Upton, MA 01568"]}, "phone": "+15085296288", "display_phone": "(508) 529-6288", "distance": 8313.052676146404}, {"id": "ILgqYpmPK6S64f6_wG8l-A", "alias": "outback-steakhouse-bellingham", "name": "Outback Steakhouse", "image_url": "https://s3-media2.fl.yelpcdn.com/bphoto/UaR9DFPIsRA1_ztL-knfFQ/o.jpg", "is_closed": false, "url": "https://www.yelp.com/biz/outback-steakhouse-bellingham?adjust_creative=asslzE1UV0XuKI953B1vtw&utm_campaign=yelp_api_v3&utm_medium=api_v3_business_search&utm_source=asslzE1UV0XuKI953B1vtw", "review_count": 77, "categories": [{"alias": "steak", "title": "Steakhouses"}], "rating": 3.0, "coordinates": {"latitude": 42.1129979897263, "longitude": -71.4724366239252}, "transactions": [], "price": "$$", "location": {"address1": "275 N Main St", "address2": "", "address3": "", "city": "Bellingham", "zip_code": "02019", "country": "US", "state": "MA", "display_address": ["275 N Main St", "Bellingham, MA 02019"]}, "phone": "+15089669333", "display_phone": "(508) 966-9333", "distance": 5509.3130767303555}, {"id": "ZBSij1GTQwkV64bVxTFXRw", "alias": "bamboo-express-bellingham", "name": "Bamboo Express", "image_url": "https://s3-media3.fl.yelpcdn.com/bphoto/eoNL7Ajr0PzIuh9wb5U_cg/o.jpg", "is_closed": false, "url": "https://www.yelp.com/biz/bamboo-express-bellingham?adjust_creative=asslzE1UV0XuKI953B1vtw&utm_campaign=yelp_api_v3&utm_medium=api_v3_business_search&utm_source=asslzE1UV0XuKI953B1vtw", "review_count": 37, "categories": [{"alias": "chinese", "title": "Chinese"}, {"alias": "seafood", "title": "Seafood"}, {"alias": "panasian", "title": "Pan Asian"}], "rating": 3.5, "coordinates": {"latitude": 42.0896644963225, "longitude": -71.474663607132}, "transactions": ["pickup", "delivery"], "price": "$", "location": {"address1": "15 N Main St", "address2": "", "address3": "", "city": "Bellingham", "zip_code": "02019", "country": "US", "state": "MA", "display_address": ["15 N Main St", "Bellingham, MA 02019"]}, "phone": "+15089663778", "display_phone": "(508) 966-3778", "distance": 6656.651374726676}, {"id": "UyoZR05MYlxb56GsVq4cIQ", "alias": "medway-lotus-restaurant-medway", "name": "Medway Lotus Restaurant", "image_url": "https://s3-media1.fl.yelpcdn.com/bphoto/cR0UjJsYHMvEb5m86vkM8w/o.jpg", "is_closed": false, "url": "https://www.yelp.com/biz/medway-lotus-restaurant-medway?adjust_creative=asslzE1UV0XuKI953B1vtw&utm_campaign=yelp_api_v3&utm_medium=api_v3_business_search&utm_source=asslzE1UV0XuKI953B1vtw", "review_count": 64, "categories": [{"alias": "chinese", "title": "Chinese"}, {"alias": "karaoke", "title": "Karaoke"}], "rating": 3.0, "coordinates": {"latitude": 42.1466331481934, "longitude": -71.4737930297852}, "transactions": ["delivery"], "price": "$$", "location": {"address1": "128 Milford St", "address2": "", "address3": "", "city": "Medway", "zip_code": "02053", "country": "US", "state": "MA", "display_address": ["128 Milford St", "Medway, MA 02053"]}, "phone": "+15084734600", "display_phone": "(508) 473-4600", "distance": 5473.735784977555}, {"id": "DMkOl5bizeCCeogssZv4pQ", "alias": "cornells-irish-pub-hopkinton", "name": "Cornell's Irish Pub", "image_url": "https://s3-media1.fl.yelpcdn.com/bphoto/tk5S7l7pXLd2OjTG6pNTKQ/o.jpg", "is_closed": false, "url": "https://www.yelp.com/biz/cornells-irish-pub-hopkinton?adjust_creative=asslzE1UV0XuKI953B1vtw&utm_campaign=yelp_api_v3&utm_medium=api_v3_business_search&utm_source=asslzE1UV0XuKI953B1vtw", "review_count": 45, "categories": [{"alias": "pubs", "title": "Pubs"}, {"alias": "irish", "title": "Irish"}, {"alias": "pizza", "title": "Pizza"}], "rating": 3.5, "coordinates": {"latitude": 42.20059, "longitude": -71.50742}, "transactions": [], "price": "$$", "location": {"address1": "229 Hayden Rowe St", "address2": "", "address3": "", "city": "Hopkinton", "zip_code": "01748", "country": "US", "state": "MA", "display_address": ["229 Hayden Rowe St", "Hopkinton, MA 01748"]}, "phone": "+15084356192", "display_phone": "(508) 435-6192", "distance": 8298.975163706718}, {"id": "oWOnXsUrsAeYZH1v9oJbBA", "alias": "muffin-house-cafe-mendon", "name": "Muffin House Cafe", "image_url": "https://s3-media1.fl.yelpcdn.com/bphoto/ygrogVtLBZttKq9Bs2wteg/o.jpg", "is_closed": false, "url": "https://www.yelp.com/biz/muffin-house-cafe-mendon?adjust_creative=asslzE1UV0XuKI953B1vtw&utm_campaign=yelp_api_v3&utm_medium=api_v3_business_search&utm_source=asslzE1UV0XuKI953B1vtw", "review_count": 98, "categories": [{"alias": "cafes", "title": "Cafes"}, {"alias": "coffee", "title": "Coffee & Tea"}, {"alias": "bakeries", "title": "Bakeries"}], "rating": 4.0, "coordinates": {"latitude": 42.10434, "longitude": -71.55735}, "transactions": ["delivery"], "price": "$", "location": {"address1": "32 Hastings St", "address2": "Ste 201", "address3": null, "city": "Mendon", "zip_code": "01756", "country": "US", "state": "MA", "display_address": ["32 Hastings St", "Ste 201", "Mendon, MA 01756"]}, "phone": "+15083810249", "display_phone": "(508) 381-0249", "distance": 3396.987516170944}, {"id": "XZBRXtlw1IO3SFsPS5N7rg", "alias": "rose-garden-restaurant-and-pub-upton", "name": "Rose Garden Restaurant & Pub", "image_url": "https://s3-media4.fl.yelpcdn.com/bphoto/wx4Pm_Ld9z6PpRBERV6xEw/o.jpg", "is_closed": false, "url": "https://www.yelp.com/biz/rose-garden-restaurant-and-pub-upton?adjust_creative=asslzE1UV0XuKI953B1vtw&utm_campaign=yelp_api_v3&utm_medium=api_v3_business_search&utm_source=asslzE1UV0XuKI953B1vtw", "review_count": 35, "categories": [{"alias": "tradamerican", "title": "American (Traditional)"}, {"alias": "pizza", "title": "Pizza"}, {"alias": "pubs", "title": "Pubs"}], "rating": 3.0, "coordinates": {"latitude": 42.174087, "longitude": -71.60017}, "transactions": [], "price": "$$", "location": {"address1": "16 Milford St", "address2": "", "address3": "", "city": "Upton", "zip_code": "01568", "country": "US", "state": "MA", "display_address": ["16 Milford St", "Upton, MA 01568"]}, "phone": "+15085297776", "display_phone": "(508) 529-7776", "distance": 7320.343803517446}, {"id": "R2kWJn1F-w4kjMrOvi4GtA", "alias": "uno-pizzeria-and-grill-bellingham", "name": "Uno Pizzeria & Grill", "image_url": "https://s3-media1.fl.yelpcdn.com/bphoto/AmYMf_b2HmSmdhPnIl8ulg/o.jpg", "is_closed": false, "url": "https://www.yelp.com/biz/uno-pizzeria-and-grill-bellingham?adjust_creative=asslzE1UV0XuKI953B1vtw&utm_campaign=yelp_api_v3&utm_medium=api_v3_business_search&utm_source=asslzE1UV0XuKI953B1vtw", "review_count": 61, "categories": [{"alias": "pizza", "title": "Pizza"}, {"alias": "gluten_free", "title": "Gluten-Free"}, {"alias": "tradamerican", "title": "American (Traditional)"}], "rating": 3.5, "coordinates": {"latitude": 42.1136770982836, "longitude": -71.4691849650105}, "transactions": ["pickup", "delivery"], "price": "$$", "location": {"address1": "Crossroads Shopping Ctr", "address2": "205 Hartford Ave", "address3": "", "city": "Bellingham", "zip_code": "02019", "country": "US", "state": "MA", "display_address": ["Crossroads Shopping Ctr", "205 Hartford Ave", "Bellingham, MA 02019"]}, "phone": "+15089663300", "display_phone": "(508) 966-3300", "distance": 5741.618734538888}, {"id": "hr86MWAbq7rMy4GatlB3Ow", "alias": "pizza-85-milford-2", "name": "Pizza 85", "image_url": "https://s3-media1.fl.yelpcdn.com/bphoto/xjSWzSVN4g_ovGArUd9gzg/o.jpg", "is_closed": false, "url": "https://www.yelp.com/biz/pizza-85-milford-2?adjust_creative=asslzE1UV0XuKI953B1vtw&utm_campaign=yelp_api_v3&utm_medium=api_v3_business_search&utm_source=asslzE1UV0XuKI953B1vtw", "review_count": 33, "categories": [{"alias": "pizza", "title": "Pizza"}], "rating": 2.5, "coordinates": {"latitude": 42.16288, "longitude": -71.50893}, "transactions": ["pickup", "delivery"], "price": "$", "location": {"address1": "130 Cedar St", "address2": "", "address3": "", "city": "Milford", "zip_code": "01757", "country": "US", "state": "MA", "display_address": ["130 Cedar St", "Milford, MA 01757"]}, "phone": "+15084739944", "display_phone": "(508) 473-9944", "distance": 4401.999195183219}, {"id": "FqpUGr4StGpcqGKu4kjLsQ", "alias": "famous-house-of-pizza-bellingham", "name": "Famous House of Pizza", "image_url": "https://s3-media2.fl.yelpcdn.com/bphoto/0JbpFDDFqoq1nxvoTZNGXA/o.jpg", "is_closed": false, "url": "https://www.yelp.com/biz/famous-house-of-pizza-bellingham?adjust_creative=asslzE1UV0XuKI953B1vtw&utm_campaign=yelp_api_v3&utm_medium=api_v3_business_search&utm_source=asslzE1UV0XuKI953B1vtw", "review_count": 41, "categories": [{"alias": "pizza", "title": "Pizza"}], "rating": 4.0, "coordinates": {"latitude": 42.091525, "longitude": -71.47713}, "transactions": ["delivery"], "price": "$", "location": {"address1": "40 N Main St", "address2": "", "address3": "", "city": "Bellingham", "zip_code": "02019", "country": "US", "state": "MA", "display_address": ["40 N Main St", "Bellingham, MA 02019"]}, "phone": "+15089661972", "display_phone": "(508) 966-1972", "distance": 6367.451361823933}, {"id": "4qqoDKGdVJbGe8iY9jIuBQ", "alias": "chowder-bowl-restaurant-bellingham", "name": "Chowder Bowl Restaurant", "image_url": "https://s3-media3.fl.yelpcdn.com/bphoto/uQl6QUjw5oTtL5rMF-rfTA/o.jpg", "is_closed": false, "url": "https://www.yelp.com/biz/chowder-bowl-restaurant-bellingham?adjust_creative=asslzE1UV0XuKI953B1vtw&utm_campaign=yelp_api_v3&utm_medium=api_v3_business_search&utm_source=asslzE1UV0XuKI953B1vtw", "review_count": 34, "categories": [{"alias": "seafood", "title": "Seafood"}], "rating": 2.5, "coordinates": {"latitude": 42.057746887207, "longitude": -71.4936065673828}, "transactions": [], "price": "$$", "location": {"address1": "325 Lakeshore Dr", "address2": "", "address3": "", "city": "Bellingham", "zip_code": "02019", "country": "US", "state": "MA", "display_address": ["325 Lakeshore Dr", "Bellingham, MA 02019"]}, "phone": "+15088837030", "display_phone": "(508) 883-7030", "distance": 8767.745956715922}, {"id": "hhAzZGTsCk2-e-s8wvWw-Q", "alias": "papa-ginos-pizzeria-milford-2", "name": "Papa Gino's Pizzeria", "image_url": "https://s3-media3.fl.yelpcdn.com/bphoto/9EK7Xt2oPiDoDV_eiEaI-w/o.jpg", "is_closed": false, "url": "https://www.yelp.com/biz/papa-ginos-pizzeria-milford-2?adjust_creative=asslzE1UV0XuKI953B1vtw&utm_campaign=yelp_api_v3&utm_medium=api_v3_business_search&utm_source=asslzE1UV0XuKI953B1vtw", "review_count": 26, "categories": [{"alias": "pizza", "title": "Pizza"}], "rating": 3.0, "coordinates": {"latitude": 42.1273422241211, "longitude": -71.5195770263672}, "transactions": ["delivery"], "price": "$$", "location": {"address1": "42 Cape Road", "address2": null, "address3": null, "city": "Milford", "zip_code": "01757", "country": "US", "state": "MA", "display_address": ["42 Cape Road", "Milford, MA 01757"]}, "phone": "+15086340244", "display_phone": "(508) 634-0244", "distance": 1340.7416295016767}, {"id": "TsVfT5igXrJU0Twyvc_OAQ", "alias": "miss-mendon-diner-mendon", "name": "Miss Mendon Diner", "image_url": "https://s3-media4.fl.yelpcdn.com/bphoto/BA5a8U--9-_0T_J4wgTiZA/o.jpg", "is_closed": false, "url": "https://www.yelp.com/biz/miss-mendon-diner-mendon?adjust_creative=asslzE1UV0XuKI953B1vtw&utm_campaign=yelp_api_v3&utm_medium=api_v3_business_search&utm_source=asslzE1UV0XuKI953B1vtw", "review_count": 114, "categories": [{"alias": "diners", "title": "Diners"}, {"alias": "breakfast_brunch", "title": "Breakfast & Brunch"}, {"alias": "tradamerican", "title": "American (Traditional)"}], "rating": 3.0, "coordinates": {"latitude": 42.1022602, "longitude": -71.5634601}, "transactions": ["delivery"], "price": "$", "location": {"address1": "16 Uxbridge Rd", "address2": "", "address3": "", "city": "Mendon", "zip_code": "01756", "country": "US", "state": "MA", "display_address": ["16 Uxbridge Rd", "Mendon, MA 01756"]}, "phone": "+15086343000", "display_phone": "(508) 634-3000", "distance": 3729.8570920927955}, {"id": "2JbfVEM98G5e4_WSqGQX3Q", "alias": "bazels-pizza-and-sub-shop-holliston", "name": "Bazel's Pizza & Sub Shop", "image_url": "https://s3-media1.fl.yelpcdn.com/bphoto/vu4MA0M2Shr1lXNpFmNCCQ/o.jpg", "is_closed": false, "url": "https://www.yelp.com/biz/bazels-pizza-and-sub-shop-holliston?adjust_creative=asslzE1UV0XuKI953B1vtw&utm_campaign=yelp_api_v3&utm_medium=api_v3_business_search&utm_source=asslzE1UV0XuKI953B1vtw", "review_count": 65, "categories": [{"alias": "pizza", "title": "Pizza"}], "rating": 4.5, "coordinates": {"latitude": 42.1794128417969, "longitude": -71.4489974975586}, "transactions": [], "price": "$", "location": {"address1": "1568 Washington St", "address2": "", "address3": "", "city": "Holliston", "zip_code": "01746", "country": "US", "state": "MA", "display_address": ["1568 Washington St", "Holliston, MA 01746"]}, "phone": "+15084295995", "display_phone": "(508) 429-5995", "distance": 9102.683059475441}, {"id": "BiCLQ2oUzOpUtk9LDaH07Q", "alias": "quaker-tavern-uxbridge", "name": "Quaker Tavern", "image_url": "https://s3-media4.fl.yelpcdn.com/bphoto/dCU0Y_OtzzrCsx54jFxq4w/o.jpg", "is_closed": false, "url": "https://www.yelp.com/biz/quaker-tavern-uxbridge?adjust_creative=asslzE1UV0XuKI953B1vtw&utm_campaign=yelp_api_v3&utm_medium=api_v3_business_search&utm_source=asslzE1UV0XuKI953B1vtw", "review_count": 31, "categories": [{"alias": "tradamerican", "title": "American (Traditional)"}], "rating": 3.0, "coordinates": {"latitude": 42.039944306016, "longitude": -71.620462462306}, "transactions": [], "price": "$$", "location": {"address1": "466 Quaker Hwy", "address2": "", "address3": "Rt 146A", "city": "Uxbridge", "zip_code": "01569", "country": "US", "state": "MA", "display_address": ["466 Quaker Hwy", "Rt 146A", "Uxbridge, MA 01569"]}, "phone": "+15087790901", "display_phone": "(508) 779-0901", "distance": 9674.983750753665}, {"id": "lFGV9WuKwEoZpUE7lxie9A", "alias": "bills-pizza-and-seafood-milford", "name": "Bill's Pizza & Seafood", "image_url": "https://s3-media2.fl.yelpcdn.com/bphoto/j3Yi-AGQMbspa2ZZ7F2yWA/o.jpg", "is_closed": false, "url": "https://www.yelp.com/biz/bills-pizza-and-seafood-milford?adjust_creative=asslzE1UV0XuKI953B1vtw&utm_campaign=yelp_api_v3&utm_medium=api_v3_business_search&utm_source=asslzE1UV0XuKI953B1vtw", "review_count": 18, "categories": [{"alias": "pizza", "title": "Pizza"}], "rating": 3.5, "coordinates": {"latitude": 42.1415481567383, "longitude": -71.5188064575195}, "transactions": ["pickup", "delivery"], "price": "$$", "location": {"address1": "126 Main St", "address2": "", "address3": "", "city": "Milford", "zip_code": "01757", "country": "US", "state": "MA", "display_address": ["126 Main St", "Milford, MA 01757"]}, "phone": "+15084733420", "display_phone": "(508) 473-3420", "distance": 1999.4712978281486}, {"id": "EF8TIiLtLdRQs0o8t9jI4Q", "alias": "applebees-grill-bar-milford-4", "name": "Applebee's Grill + Bar", "image_url": "https://s3-media4.fl.yelpcdn.com/bphoto/ol56_xB03JBd6mIEuCpX4Q/o.jpg", "is_closed": false, "url": "https://www.yelp.com/biz/applebees-grill-bar-milford-4?adjust_creative=asslzE1UV0XuKI953B1vtw&utm_campaign=yelp_api_v3&utm_medium=api_v3_business_search&utm_source=asslzE1UV0XuKI953B1vtw", "review_count": 43, "categories": [{"alias": "tradamerican", "title": "American (Traditional)"}, {"alias": "sportsbars", "title": "Sports Bars"}, {"alias": "burgers", "title": "Burgers"}], "rating": 2.5, "coordinates": {"latitude": 42.147885, "longitude": -71.491457}, "transactions": ["delivery"], "price": "$$", "location": {"address1": "91 Medway Rd", "address2": "", "address3": "", "city": "Milford", "zip_code": "01757", "country": "US", "state": "MA", "display_address": ["91 Medway Rd", "Milford, MA 01757"]}, "phone": "+15084789523", "display_phone": "(508) 478-9523", "distance": 4226.090317070817}, {"id": "Ihs7JvFbjMUI5idLvNSvqA", "alias": "lins-garden-milford", "name": "Lin's Garden", "image_url": "https://s3-media3.fl.yelpcdn.com/bphoto/LiNh1U3CC2ZrDonWF4BwJA/o.jpg", "is_closed": false, "url": "https://www.yelp.com/biz/lins-garden-milford?adjust_creative=asslzE1UV0XuKI953B1vtw&utm_campaign=yelp_api_v3&utm_medium=api_v3_business_search&utm_source=asslzE1UV0XuKI953B1vtw", "review_count": 27, "categories": [{"alias": "chinese", "title": "Chinese"}], "rating": 3.0, "coordinates": {"latitude": 42.1519699816239, "longitude": -71.4964758724915}, "transactions": ["pickup", "delivery"], "price": "$$", "location": {"address1": "206 E Main St", "address2": "Unit 2A", "address3": null, "city": "Milford", "zip_code": "01757", "country": "US", "state": "MA", "display_address": ["206 E Main St", "Unit 2A", "Milford, MA 01757"]}, "phone": "+15084783188", "display_phone": "(508) 478-3188", "distance": 4140.5384741888365}, {"id": "YKK7wMWCJXjd1zgsr7Nc-Q", "alias": "rosewood-restaurant-bellingham", "name": "Rosewood Restaurant", "image_url": "https://s3-media2.fl.yelpcdn.com/bphoto/gshs6QQLx8U9Hi4kmtXYFA/o.jpg", "is_closed": false, "url": "https://www.yelp.com/biz/rosewood-restaurant-bellingham?adjust_creative=asslzE1UV0XuKI953B1vtw&utm_campaign=yelp_api_v3&utm_medium=api_v3_business_search&utm_source=asslzE1UV0XuKI953B1vtw", "review_count": 67, "categories": [{"alias": "seafood", "title": "Seafood"}, {"alias": "tradamerican", "title": "American (Traditional)"}, {"alias": "icecream", "title": "Ice Cream & Frozen Yogurt"}], "rating": 3.5, "coordinates": {"latitude": 42.13063, "longitude": -71.44998}, "transactions": ["delivery"], "price": "$$", "location": {"address1": "445 Hartford Ave", "address2": "", "address3": "", "city": "Bellingham", "zip_code": "02019", "country": "US", "state": "MA", "display_address": ["445 Hartford Ave", "Bellingham, MA 02019"]}, "phone": "+15089661126", "display_phone": "(508) 966-1126", "distance": 7118.165129436108}, {"id": "PJgqKP1MVUVor0_edvNVkA", "alias": "marias-pizza-hopedale", "name": "Maria's Pizza", "image_url": "", "is_closed": false, "url": "https://www.yelp.com/biz/marias-pizza-hopedale?adjust_creative=asslzE1UV0XuKI953B1vtw&utm_campaign=yelp_api_v3&utm_medium=api_v3_business_search&utm_source=asslzE1UV0XuKI953B1vtw", "review_count": 11, "categories": [{"alias": "pizza", "title": "Pizza"}], "rating": 3.0, "coordinates": {"latitude": 42.103663, "longitude": -71.50134}, "transactions": ["pickup", "delivery"], "price": "$$", "location": {"address1": "156 Hartford Ave E", "address2": null, "address3": null, "city": "Hopedale", "zip_code": "01747", "country": "US", "state": "MA", "display_address": ["156 Hartford Ave E", "Hopedale, MA 01747"]}, "phone": "+15084787878", "display_phone": "(508) 478-7878", "distance": 3981.896025550539}, {"id": "3lC7q4FhEGiOOVA6V-Z1Ww", "alias": "chipotle-mexican-grill-milford-4", "name": "Chipotle Mexican Grill", "image_url": "https://s3-media2.fl.yelpcdn.com/bphoto/MxKtCUc4vSihAXOFGPmMNQ/o.jpg", "is_closed": false, "url": "https://www.yelp.com/biz/chipotle-mexican-grill-milford-4?adjust_creative=asslzE1UV0XuKI953B1vtw&utm_campaign=yelp_api_v3&utm_medium=api_v3_business_search&utm_source=asslzE1UV0XuKI953B1vtw", "review_count": 7, "categories": [{"alias": "hotdogs", "title": "Fast Food"}, {"alias": "mexican", "title": "Mexican"}], "rating": 2.5, "coordinates": {"latitude": 42.150363, "longitude": -71.488341}, "transactions": ["delivery"], "price": "$", "location": {"address1": "128 Medway Rd", "address2": "Ste 8", "address3": null, "city": "Milford", "zip_code": "01757", "country": "US", "state": "MA", "display_address": ["128 Medway Rd", "Ste 8", "Milford, MA 01757"]}, "phone": "+15084730261", "display_phone": "(508) 473-0261", "distance": 4587.9579479175645}, {"id": "vQtEsPIzWVgdFNfEpiS8Wg", "alias": "wing-squad-holliston", "name": "Wing Squad", "image_url": "https://s3-media2.fl.yelpcdn.com/bphoto/jrYp3K_x8YF5g9aj7mKq9Q/o.jpg", "is_closed": false, "url": "https://www.yelp.com/biz/wing-squad-holliston?adjust_creative=asslzE1UV0XuKI953B1vtw&utm_campaign=yelp_api_v3&utm_medium=api_v3_business_search&utm_source=asslzE1UV0XuKI953B1vtw", "review_count": 2, "categories": [{"alias": "fooddeliveryservices", "title": "Food Delivery Services"}, {"alias": "chicken_wings", "title": "Chicken Wings"}], "rating": 3.5, "coordinates": {"latitude": 42.2018699645996, "longitude": -71.4273300170898}, "transactions": ["delivery"], "location": {"address1": "414 Washington St", "address2": null, "address3": null, "city": "Holliston", "zip_code": "01746", "country": "US", "state": "MA", "display_address": ["414 Washington St", "Holliston, MA 01746"]}, "phone": "+18887996601", "display_phone": "(888) 799-6601", "distance": 10925.835497518392}, {"id": "CKus0PSYEdbVfgWZas9cdA", "alias": "ihop-milford-3", "name": "IHOP", "image_url": "https://s3-media1.fl.yelpcdn.com/bphoto/oGk8UdwkgUvJ7U58nxML_Q/o.jpg", "is_closed": false, "url": "https://www.yelp.com/biz/ihop-milford-3?adjust_creative=asslzE1UV0XuKI953B1vtw&utm_campaign=yelp_api_v3&utm_medium=api_v3_business_search&utm_source=asslzE1UV0XuKI953B1vtw", "review_count": 29, "categories": [{"alias": "breakfast_brunch", "title": "Breakfast & Brunch"}, {"alias": "burgers", "title": "Burgers"}, {"alias": "tradamerican", "title": "American (Traditional)"}], "rating": 2.0, "coordinates": {"latitude": 42.1491, "longitude": -71.5001}, "transactions": [], "location": {"address1": "17 Medway Rd", "address2": "", "address3": null, "city": "Milford", "zip_code": "01757", "country": "US", "state": "MA", "display_address": ["17 Medway Rd", "Milford, MA 01757"]}, "phone": "+15082444904", "display_phone": "(508) 244-4904", "distance": 3708.5828009194247}, {"id": "KcqRb8FgFwVkxNF7dMCD_g", "alias": "mcdonalds-milford-5", "name": "McDonald's", "image_url": "https://s3-media3.fl.yelpcdn.com/bphoto/hNrvDm1GkKf3BGhll3y3fg/o.jpg", "is_closed": false, "url": "https://www.yelp.com/biz/mcdonalds-milford-5?adjust_creative=asslzE1UV0XuKI953B1vtw&utm_campaign=yelp_api_v3&utm_medium=api_v3_business_search&utm_source=asslzE1UV0XuKI953B1vtw", "review_count": 9, "categories": [{"alias": "hotdogs", "title": "Fast Food"}, {"alias": "burgers", "title": "Burgers"}, {"alias": "coffee", "title": "Coffee & Tea"}], "rating": 3.0, "coordinates": {"latitude": 42.1262629624423, "longitude": -71.5179504454136}, "transactions": [], "price": "$", "location": {"address1": "139 S Main St", "address2": null, "address3": null, "city": "Milford", "zip_code": "01757", "country": "US", "state": "MA", "display_address": ["139 S Main St", "Milford, MA 01757"]}, "phone": "+15084783412", "display_phone": "(508) 478-3412", "distance": 1494.9167481196657}, {"id": "W4siqE1-H1RBPP7a8m9d2w", "alias": "rosas-villa-pizza-milford", "name": "Rosa's Villa Pizza", "image_url": "https://s3-media2.fl.yelpcdn.com/bphoto/6s9oRMvc2AdzLWqtMCR-HQ/o.jpg", "is_closed": false, "url": "https://www.yelp.com/biz/rosas-villa-pizza-milford?adjust_creative=asslzE1UV0XuKI953B1vtw&utm_campaign=yelp_api_v3&utm_medium=api_v3_business_search&utm_source=asslzE1UV0XuKI953B1vtw", "review_count": 23, "categories": [{"alias": "pizza", "title": "Pizza"}], "rating": 3.0, "coordinates": {"latitude": 42.143440246582, "longitude": -71.5434494018555}, "transactions": ["pickup", "delivery"], "price": "$", "location": {"address1": "189 West St", "address2": "", "address3": "", "city": "Milford", "zip_code": "01757", "country": "US", "state": "MA", "display_address": ["189 West St", "Milford, MA 01757"]}, "phone": "+15084787523", "display_phone": "(508) 478-7523", "distance": 1679.948091219954}, {"id": "hdLBGBQWF6zq0KiLE67hwA", "alias": "red-barn-at-angels-cafe-hopkinton", "name": "Red Barn At Angel's Cafe", "image_url": "https://s3-media4.fl.yelpcdn.com/bphoto/tyhJqHO6bXxjg73GuJ0Wtg/o.jpg", "is_closed": false, "url": "https://www.yelp.com/biz/red-barn-at-angels-cafe-hopkinton?adjust_creative=asslzE1UV0XuKI953B1vtw&utm_campaign=yelp_api_v3&utm_medium=api_v3_business_search&utm_source=asslzE1UV0XuKI953B1vtw", "review_count": 43, "categories": [{"alias": "cafes", "title": "Cafes"}, {"alias": "coffee", "title": "Coffee & Tea"}], "rating": 4.5, "coordinates": {"latitude": 42.1989454112349, "longitude": -71.5692222118378}, "transactions": [], "price": "$", "location": {"address1": "285 W Main St", "address2": "", "address3": "", "city": "Hopkinton", "zip_code": "01748", "country": "US", "state": "MA", "display_address": ["285 W Main St", "Hopkinton, MA 01748"]}, "phone": "+15086251792", "display_phone": "(508) 625-1792", "distance": 8275.927872899556}, {"id": "MvuOsdRtR3S_c_rYy3Xj1w", "alias": "bellingham-house-of-pizza-bellingham", "name": "Bellingham House of Pizza", "image_url": "https://s3-media2.fl.yelpcdn.com/bphoto/jK_r1f_6U4Il-6V-jNlM5g/o.jpg", "is_closed": false, "url": "https://www.yelp.com/biz/bellingham-house-of-pizza-bellingham?adjust_creative=asslzE1UV0XuKI953B1vtw&utm_campaign=yelp_api_v3&utm_medium=api_v3_business_search&utm_source=asslzE1UV0XuKI953B1vtw", "review_count": 38, "categories": [{"alias": "pizza", "title": "Pizza"}, {"alias": "sandwiches", "title": "Sandwiches"}], "rating": 4.0, "coordinates": {"latitude": 42.13098, "longitude": -71.4502399}, "transactions": ["delivery"], "price": "$", "location": {"address1": "442 Hartford Ave", "address2": "", "address3": "", "city": "Bellingham", "zip_code": "02019", "country": "US", "state": "MA", "display_address": ["442 Hartford Ave", "Bellingham, MA 02019"]}, "phone": "+15089661211", "display_phone": "(508) 966-1211", "distance": 7053.517391128245}, {"id": "nROUIfhA2eg7SU-n0rWZdw", "alias": "chilis-bellingham", "name": "Chili's", "image_url": "https://s3-media3.fl.yelpcdn.com/bphoto/Arb8o8nwsMvjYtH96umZJg/o.jpg", "is_closed": false, "url": "https://www.yelp.com/biz/chilis-bellingham?adjust_creative=asslzE1UV0XuKI953B1vtw&utm_campaign=yelp_api_v3&utm_medium=api_v3_business_search&utm_source=asslzE1UV0XuKI953B1vtw", "review_count": 59, "categories": [{"alias": "tradamerican", "title": "American (Traditional)"}, {"alias": "bars", "title": "Bars"}, {"alias": "tex-mex", "title": "Tex-Mex"}], "rating": 2.5, "coordinates": {"latitude": 42.110846, "longitude": -71.460949}, "transactions": [], "price": "$$", "location": {"address1": "257 Hartford Ave", "address2": "", "address3": "", "city": "Bellingham", "zip_code": "02019", "country": "US", "state": "MA", "display_address": ["257 Hartford Ave", "Bellingham, MA 02019"]}, "phone": "+15089663439", "display_phone": "(508) 966-3439", "distance": 6484.187334002752}, {"id": "JPBDGINX6dB2XCUNEP5AvQ", "alias": "five-guys-milford", "name": "Five Guys", "image_url": "https://s3-media2.fl.yelpcdn.com/bphoto/4JhVlGcmMc39WzUyFizZGw/o.jpg", "is_closed": false, "url": "https://www.yelp.com/biz/five-guys-milford?adjust_creative=asslzE1UV0XuKI953B1vtw&utm_campaign=yelp_api_v3&utm_medium=api_v3_business_search&utm_source=asslzE1UV0XuKI953B1vtw", "review_count": 26, "categories": [{"alias": "hotdogs", "title": "Fast Food"}, {"alias": "burgers", "title": "Burgers"}, {"alias": "hotdog", "title": "Hot Dogs"}], "rating": 3.5, "coordinates": {"latitude": 42.14959, "longitude": -71.5022544}, "transactions": ["delivery"], "price": "$$", "location": {"address1": "9 Medway Rd", "address2": "", "address3": "", "city": "Milford", "zip_code": "01757", "country": "US", "state": "MA", "display_address": ["9 Medway Rd", "Milford, MA 01757"]}, "phone": "+15083810652", "display_phone": "(508) 381-0652", "distance": 3604.1336368375496}, {"id": "fKxLU-EcAOCdutSS_TX4AQ", "alias": "town-pizza-and-cafe-bellingham-2", "name": "Town Pizza & Cafe", "image_url": "https://s3-media3.fl.yelpcdn.com/bphoto/0vyAwt8wQYIRiucdFMN8yA/o.jpg", "is_closed": false, "url": "https://www.yelp.com/biz/town-pizza-and-cafe-bellingham-2?adjust_creative=asslzE1UV0XuKI953B1vtw&utm_campaign=yelp_api_v3&utm_medium=api_v3_business_search&utm_source=asslzE1UV0XuKI953B1vtw", "review_count": 25, "categories": [{"alias": "pizza", "title": "Pizza"}, {"alias": "italian", "title": "Italian"}], "rating": 3.0, "coordinates": {"latitude": 42.0866018, "longitude": -71.4747639}, "transactions": ["delivery"], "price": "$$", "location": {"address1": "15 Mechanic St", "address2": "", "address3": "", "city": "Bellingham", "zip_code": "02019", "country": "US", "state": "MA", "display_address": ["15 Mechanic St", "Bellingham, MA 02019"]}, "phone": "+15089662222", "display_phone": "(508) 966-2222", "distance": 6877.99372688346}, {"id": "NGLEblAlDC7UufUyppZm3w", "alias": "pams-diner-bellingham", "name": "Pam's Diner", "image_url": "https://s3-media3.fl.yelpcdn.com/bphoto/uUOnDlnFuRogSD7USvX2iw/o.jpg", "is_closed": false, "url": "https://www.yelp.com/biz/pams-diner-bellingham?adjust_creative=asslzE1UV0XuKI953B1vtw&utm_campaign=yelp_api_v3&utm_medium=api_v3_business_search&utm_source=asslzE1UV0XuKI953B1vtw", "review_count": 26, "categories": [{"alias": "coffee", "title": "Coffee & Tea"}, {"alias": "breakfast_brunch", "title": "Breakfast & Brunch"}, {"alias": "diners", "title": "Diners"}], "rating": 3.5, "coordinates": {"latitude": 42.0828938, "longitude": -71.4691641}, "transactions": ["pickup", "delivery"], "price": "$", "location": {"address1": "93 Mechanic St", "address2": null, "address3": "", "city": "Bellingham", "zip_code": "02019", "country": "US", "state": "MA", "display_address": ["93 Mechanic St", "Bellingham, MA 02019"]}, "phone": "+15086571284", "display_phone": "(508) 657-1284", "distance": 7506.11640493326}, {"id": "MNtw9mhkZTH63GwxoUbx4w", "alias": "subway-milford-36", "name": "Subway", "image_url": "https://s3-media4.fl.yelpcdn.com/bphoto/7PKahRt_PXOosG9lzgf6AQ/o.jpg", "is_closed": false, "url": "https://www.yelp.com/biz/subway-milford-36?adjust_creative=asslzE1UV0XuKI953B1vtw&utm_campaign=yelp_api_v3&utm_medium=api_v3_business_search&utm_source=asslzE1UV0XuKI953B1vtw", "review_count": 1, "categories": [{"alias": "sandwiches", "title": "Sandwiches"}], "rating": 3.0, "coordinates": {"latitude": 42.1382331573037, "longitude": -71.5356616}, "transactions": [], "price": "$", "location": {"address1": "94 Prospect St", "address2": "", "address3": "", "city": "Milford", "zip_code": "01757", "country": "US", "state": "MA", "display_address": ["94 Prospect St", "Milford, MA 01757"]}, "phone": "+15084732500", "display_phone": "(508) 473-2500", "distance": 1051.9678062835337}, {"id": "rPTh2dLa2yB5yhuDADpfIQ", "alias": "martys-kitchen-milford", "name": "Marty's Kitchen", "image_url": "https://s3-media4.fl.yelpcdn.com/bphoto/7LkhlnbEpALsjBK-cQ-BIw/o.jpg", "is_closed": false, "url": "https://www.yelp.com/biz/martys-kitchen-milford?adjust_creative=asslzE1UV0XuKI953B1vtw&utm_campaign=yelp_api_v3&utm_medium=api_v3_business_search&utm_source=asslzE1UV0XuKI953B1vtw", "review_count": 14, "categories": [{"alias": "breakfast_brunch", "title": "Breakfast & Brunch"}, {"alias": "newamerican", "title": "American (New)"}], "rating": 3.0, "coordinates": {"latitude": 42.151118, "longitude": -71.503926}, "transactions": [], "price": "$", "location": {"address1": "178 E Main St", "address2": "Ste 7", "address3": "", "city": "Milford", "zip_code": "01757", "country": "US", "state": "MA", "display_address": ["178 E Main St", "Ste 7", "Milford, MA 01757"]}, "phone": "+15084780829", "display_phone": "(508) 478-0829", "distance": 3614.2142915076706}, {"id": "AuZhpI3lnuut0SAxMo16CQ", "alias": "d-angelo-milford", "name": "D'Angelo", "image_url": "https://s3-media4.fl.yelpcdn.com/bphoto/Kwiato23OUglWlU5_KNySg/o.jpg", "is_closed": false, "url": "https://www.yelp.com/biz/d-angelo-milford?adjust_creative=asslzE1UV0XuKI953B1vtw&utm_campaign=yelp_api_v3&utm_medium=api_v3_business_search&utm_source=asslzE1UV0XuKI953B1vtw", "review_count": 9, "categories": [{"alias": "sandwiches", "title": "Sandwiches"}], "rating": 2.0, "coordinates": {"latitude": 42.1504211425781, "longitude": -71.5014419555664}, "transactions": [], "location": {"address1": "195 E Main St", "address2": "", "address3": "", "city": "Milford", "zip_code": "01757", "country": "US", "state": "MA", "display_address": ["195 E Main St", "Milford, MA 01757"]}, "phone": "+15084730063", "display_phone": "(508) 473-0063", "distance": 3722.5380550918267}, {"id": "cy0-wnk7uAxyHE70aACr3w", "alias": "honey-dew-donuts-milford-2", "name": "Honey Dew Donuts", "image_url": "https://s3-media1.fl.yelpcdn.com/bphoto/blZThnEJvPC75SvMpnClOQ/o.jpg", "is_closed": false, "url": "https://www.yelp.com/biz/honey-dew-donuts-milford-2?adjust_creative=asslzE1UV0XuKI953B1vtw&utm_campaign=yelp_api_v3&utm_medium=api_v3_business_search&utm_source=asslzE1UV0XuKI953B1vtw", "review_count": 4, "categories": [{"alias": "coffee", "title": "Coffee & Tea"}, {"alias": "donuts", "title": "Donuts"}, {"alias": "sandwiches", "title": "Sandwiches"}], "rating": 4.5, "coordinates": {"latitude": 42.1382318437099, "longitude": -71.5348704904318}, "transactions": ["delivery"], "price": "$", "location": {"address1": "94 Prospect St", "address2": null, "address3": null, "city": "Milford", "zip_code": "01757", "country": "US", "state": "MA", "display_address": ["94 Prospect St", "Milford, MA 01757"]}, "phone": "+15084782619", "display_phone": "(508) 478-2619", "distance": 1053.9733149000629}, {"id": "-B0GDahn1ZW3hHl--6p1Dw", "alias": "dominos-pizza-milford-9", "name": "Domino's Pizza", "image_url": "https://s3-media4.fl.yelpcdn.com/bphoto/NeFNU-6SSLVURNryxo3m8A/o.jpg", "is_closed": false, "url": "https://www.yelp.com/biz/dominos-pizza-milford-9?adjust_creative=asslzE1UV0XuKI953B1vtw&utm_campaign=yelp_api_v3&utm_medium=api_v3_business_search&utm_source=asslzE1UV0XuKI953B1vtw", "review_count": 23, "categories": [{"alias": "pizza", "title": "Pizza"}], "rating": 1.5, "coordinates": {"latitude": 42.1300949, "longitude": -71.5247725}, "transactions": [], "price": "$", "location": {"address1": "2 Cape Rd", "address2": "Ste 2", "address3": null, "city": "Milford", "zip_code": "01757", "country": "US", "state": "MA", "display_address": ["2 Cape Rd", "Ste 2", "Milford, MA 01757"]}, "phone": "+15084788000", "display_phone": "(508) 478-8000", "distance": 917.8542670096256}, {"id": "Xn1D67pCMCoPRT5XvxsBLw", "alias": "the-bistro-milford", "name": "The Bistro", "image_url": "", "is_closed": false, "url": "https://www.yelp.com/biz/the-bistro-milford?adjust_creative=asslzE1UV0XuKI953B1vtw&utm_campaign=yelp_api_v3&utm_medium=api_v3_business_search&utm_source=asslzE1UV0XuKI953B1vtw", "review_count": 4, "categories": [{"alias": "bbq", "title": "Barbeque"}, {"alias": "breakfast_brunch", "title": "Breakfast & Brunch"}], "rating": 3.0, "coordinates": {"latitude": 42.16259, "longitude": -71.507103}, "transactions": [], "location": {"address1": "10 Fortune Blvd", "address2": "", "address3": "", "city": "Milford", "zip_code": "01757", "country": "US", "state": "MA", "display_address": ["10 Fortune Blvd", "Milford, MA 01757"]}, "phone": "", "display_phone": "", "distance": 4453.494500108859}, {"id": "yyKD-oa0tWiY6-LBmjHf5g", "alias": "kfc-milford-6", "name": "KFC", "image_url": "https://s3-media2.fl.yelpcdn.com/bphoto/Rt-G9Vc1WFQmLyqJKOWZNw/o.jpg", "is_closed": false, "url": "https://www.yelp.com/biz/kfc-milford-6?adjust_creative=asslzE1UV0XuKI953B1vtw&utm_campaign=yelp_api_v3&utm_medium=api_v3_business_search&utm_source=asslzE1UV0XuKI953B1vtw", "review_count": 30, "categories": [{"alias": "hotdogs", "title": "Fast Food"}, {"alias": "chicken_wings", "title": "Chicken Wings"}, {"alias": "chickenshop", "title": "Chicken Shop"}], "rating": 1.5, "coordinates": {"latitude": 42.1492422963606, "longitude": -71.5005445755507}, "transactions": ["pickup", "delivery"], "price": "$", "location": {"address1": "15 Medway Rd", "address2": "", "address3": "", "city": "Milford", "zip_code": "01757", "country": "US", "state": "MA", "display_address": ["15 Medway Rd", "Milford, MA 01757"]}, "phone": "+15086342890", "display_phone": "(508) 634-2890", "distance": 3689.3268848017747}, {"id": "lJdro0BxuSkPngWos5y3KQ", "alias": "wendys-milford-8", "name": "Wendy's", "image_url": "https://s3-media1.fl.yelpcdn.com/bphoto/YecHHDqK0bSJzQ-dN3pefg/o.jpg", "is_closed": false, "url": "https://www.yelp.com/biz/wendys-milford-8?adjust_creative=asslzE1UV0XuKI953B1vtw&utm_campaign=yelp_api_v3&utm_medium=api_v3_business_search&utm_source=asslzE1UV0XuKI953B1vtw", "review_count": 33, "categories": [{"alias": "hotdogs", "title": "Fast Food"}, {"alias": "burgers", "title": "Burgers"}], "rating": 2.0, "coordinates": {"latitude": 42.1621293293684, "longitude": -71.508975649993}, "transactions": ["delivery"], "price": "$", "location": {"address1": "128 Cedar Street", "address2": "", "address3": "", "city": "Milford", "zip_code": "01757", "country": "US", "state": "MA", "display_address": ["128 Cedar Street", "Milford, MA 01757"]}, "phone": "+15084785118", "display_phone": "(508) 478-5118", "distance": 4316.604520595617}, {"id": "8Cp4BtZ8iT290az7pTIDow", "alias": "panera-bread-milford-3", "name": "Panera Bread", "image_url": "https://s3-media3.fl.yelpcdn.com/bphoto/1PbFJc_t5F9Z2DoPFtNpDQ/o.jpg", "is_closed": false, "url": "https://www.yelp.com/biz/panera-bread-milford-3?adjust_creative=asslzE1UV0XuKI953B1vtw&utm_campaign=yelp_api_v3&utm_medium=api_v3_business_search&utm_source=asslzE1UV0XuKI953B1vtw", "review_count": 48, "categories": [{"alias": "sandwiches", "title": "Sandwiches"}, {"alias": "salad", "title": "Salad"}, {"alias": "soup", "title": "Soup"}], "rating": 2.5, "coordinates": {"latitude": 42.1469257, "longitude": -71.4912356}, "transactions": ["delivery"], "price": "$$", "location": {"address1": "91 Medway Rd", "address2": "Unit  10", "address3": "", "city": "Milford", "zip_code": "01757", "country": "US", "state": "MA", "display_address": ["91 Medway Rd", "Unit  10", "Milford, MA 01757"]}, "phone": "+15082446005", "display_phone": "(508) 244-6005", "distance": 4189.480054675687}, {"id": "JzK7nd0AC9OgFVg6TOlilQ", "alias": "nellys-sandwich-shop-milford", "name": "Nelly's Sandwich Shop", "image_url": "", "is_closed": false, "url": "https://www.yelp.com/biz/nellys-sandwich-shop-milford?adjust_creative=asslzE1UV0XuKI953B1vtw&utm_campaign=yelp_api_v3&utm_medium=api_v3_business_search&utm_source=asslzE1UV0XuKI953B1vtw", "review_count": 2, "categories": [{"alias": "restaurants", "title": "Restaurants"}], "rating": 3.0, "coordinates": {"latitude": 42.1396299, "longitude": -71.51712}, "transactions": ["delivery"], "location": {"address1": "113 Central St", "address2": "Apt 1", "address3": "", "city": "Milford", "zip_code": "01757", "country": "US", "state": "MA", "display_address": ["113 Central St", "Apt 1", "Milford, MA 01757"]}, "phone": "+15086348144", "display_phone": "(508) 634-8144", "distance": 1960.5697070962265}, {"id": "aBmdShak3hXrS5AgjOI-Qw", "alias": "genji-sushi-bars-bellingham", "name": "Genji Sushi Bars", "image_url": "https://s3-media3.fl.yelpcdn.com/bphoto/8iSQjZ-cwS3kwlnookvOSg/o.jpg", "is_closed": false, "url": "https://www.yelp.com/biz/genji-sushi-bars-bellingham?adjust_creative=asslzE1UV0XuKI953B1vtw&utm_campaign=yelp_api_v3&utm_medium=api_v3_business_search&utm_source=asslzE1UV0XuKI953B1vtw", "review_count": 3, "categories": [{"alias": "sushi", "title": "Sushi Bars"}, {"alias": "grocery", "title": "Grocery"}], "rating": 4.0, "coordinates": {"latitude": 42.1147194, "longitude": -71.4617691}, "transactions": [], "price": "$$", "location": {"address1": "255 Hartford Ave", "address2": "", "address3": "Foods Market", "city": "Bellingham", "zip_code": "02019", "country": "US", "state": "MA", "display_address": ["255 Hartford Ave", "Foods Market", "Bellingham, MA 02019"]}, "phone": "+15089663331", "display_phone": "(508) 966-3331", "distance": 6419.503718566395}, {"id": "7irn3abXSRNeRohyFcJOxA", "alias": "blackhawk-pizza-bellingham", "name": "Blackhawk Pizza", "image_url": "https://s3-media4.fl.yelpcdn.com/bphoto/gQuc8b6JOVL8hnvaNjLgGQ/o.jpg", "is_closed": false, "url": "https://www.yelp.com/biz/blackhawk-pizza-bellingham?adjust_creative=asslzE1UV0XuKI953B1vtw&utm_campaign=yelp_api_v3&utm_medium=api_v3_business_search&utm_source=asslzE1UV0XuKI953B1vtw", "review_count": 30, "categories": [{"alias": "pizza", "title": "Pizza"}, {"alias": "hotdogs", "title": "Fast Food"}, {"alias": "greek", "title": "Greek"}], "rating": 4.0, "coordinates": {"latitude": 42.0539970397949, "longitude": -71.4838409423828}, "transactions": ["delivery"], "price": "$$", "location": {"address1": "829 S Main St", "address2": "Unit 1", "address3": "", "city": "Bellingham", "zip_code": "02019", "country": "US", "state": "MA", "display_address": ["829 S Main St", "Unit 1", "Bellingham, MA 02019"]}, "phone": "+15088830055", "display_phone": "(508) 883-0055", "distance": 9347.187983024825}, {"id": "ta2YFZxlFUgdKgubJGPu0A", "alias": "primo-pizza-bellingham", "name": "Primo Pizza", "image_url": "https://s3-media2.fl.yelpcdn.com/bphoto/uO8kg3q7aJEFypfmsH78vA/o.jpg", "is_closed": false, "url": "https://www.yelp.com/biz/primo-pizza-bellingham?adjust_creative=asslzE1UV0XuKI953B1vtw&utm_campaign=yelp_api_v3&utm_medium=api_v3_business_search&utm_source=asslzE1UV0XuKI953B1vtw", "review_count": 29, "categories": [{"alias": "pizza", "title": "Pizza"}, {"alias": "sandwiches", "title": "Sandwiches"}, {"alias": "burgers", "title": "Burgers"}], "rating": 3.0, "coordinates": {"latitude": 42.0826054319345, "longitude": -71.4545005324021}, "transactions": ["delivery"], "price": "$", "location": {"address1": "191 Mechanic St", "address2": null, "address3": null, "city": "Bellingham", "zip_code": "02019", "country": "US", "state": "MA", "display_address": ["191 Mechanic St", "Bellingham, MA 02019"]}, "phone": "+15089665111", "display_phone": "(508) 966-5111", "distance": 8443.397238391126}, {"id": "OlerFWIyUIu-GNjgGk6uhA", "alias": "uxbridge-house-of-pizza-uxbridge", "name": "Uxbridge House of Pizza", "image_url": "https://s3-media2.fl.yelpcdn.com/bphoto/dNZ55es-_jIznzXzpx90Mg/o.jpg", "is_closed": false, "url": "https://www.yelp.com/biz/uxbridge-house-of-pizza-uxbridge?adjust_creative=asslzE1UV0XuKI953B1vtw&utm_campaign=yelp_api_v3&utm_medium=api_v3_business_search&utm_source=asslzE1UV0XuKI953B1vtw", "review_count": 27, "categories": [{"alias": "pizza", "title": "Pizza"}], "rating": 4.0, "coordinates": {"latitude": 42.07588, "longitude": -71.629301}, "transactions": [], "price": "$", "location": {"address1": "11 S Main St", "address2": "", "address3": "", "city": "Uxbridge", "zip_code": "01569", "country": "US", "state": "MA", "display_address": ["11 S Main St", "Uxbridge, MA 01569"]}, "phone": "+15082782300", "display_phone": "(508) 278-2300", "distance": 9700.036546778134}, {"id": "RJESmMJZj2eK_skovbWn9w", "alias": "moes-southwest-grill-bellingham", "name": "Moe's Southwest Grill", "image_url": "https://s3-media2.fl.yelpcdn.com/bphoto/W8XuePiEasHnEKSZazEK7w/o.jpg", "is_closed": false, "url": "https://www.yelp.com/biz/moes-southwest-grill-bellingham?adjust_creative=asslzE1UV0XuKI953B1vtw&utm_campaign=yelp_api_v3&utm_medium=api_v3_business_search&utm_source=asslzE1UV0XuKI953B1vtw", "review_count": 28, "categories": [{"alias": "tex-mex", "title": "Tex-Mex"}, {"alias": "mexican", "title": "Mexican"}], "rating": 3.0, "coordinates": {"latitude": 42.1163090646014, "longitude": -71.4634507354666}, "transactions": ["pickup", "delivery"], "price": "$", "location": {"address1": "250 Hartford Ave", "address2": "", "address3": "", "city": "Bellingham", "zip_code": "02019", "country": "US", "state": "MA", "display_address": ["250 Hartford Ave", "Bellingham, MA 02019"]}, "phone": "+15089663769", "display_phone": "(508) 966-3769", "distance": 6122.508666130645}, {"id": "LR9vzh5pFbwzWilgLLlUqg", "alias": "main-street-pizza-upton-4", "name": "Main Street Pizza", "image_url": "https://s3-media3.fl.yelpcdn.com/bphoto/DuQ277xziAjtWL7xyja-Yw/o.jpg", "is_closed": false, "url": "https://www.yelp.com/biz/main-street-pizza-upton-4?adjust_creative=asslzE1UV0XuKI953B1vtw&utm_campaign=yelp_api_v3&utm_medium=api_v3_business_search&utm_source=asslzE1UV0XuKI953B1vtw", "review_count": 13, "categories": [{"alias": "pizza", "title": "Pizza"}, {"alias": "sandwiches", "title": "Sandwiches"}], "rating": 3.5, "coordinates": {"latitude": 42.1699035456888, "longitude": -71.6192603775148}, "transactions": [], "price": "$", "location": {"address1": "113 Main St", "address2": "", "address3": "", "city": "Upton", "zip_code": "01568", "country": "US", "state": "MA", "display_address": ["113 Main St", "Upton, MA 01568"]}, "phone": "+15085293500", "display_phone": "(508) 529-3500", "distance": 8264.630762232287}, {"id": "s5FlMeEpVyq8IneuzsZbeg", "alias": "harrys-famous-pizza-uxbridge", "name": "Harry's Famous Pizza", "image_url": "https://s3-media2.fl.yelpcdn.com/bphoto/-NutXo0FG1bXuL-Db6zHXQ/o.jpg", "is_closed": false, "url": "https://www.yelp.com/biz/harrys-famous-pizza-uxbridge?adjust_creative=asslzE1UV0XuKI953B1vtw&utm_campaign=yelp_api_v3&utm_medium=api_v3_business_search&utm_source=asslzE1UV0XuKI953B1vtw", "review_count": 50, "categories": [{"alias": "pizza", "title": "Pizza"}], "rating": 3.0, "coordinates": {"latitude": 42.07622, "longitude": -71.62903}, "transactions": [], "price": "$", "location": {"address1": "6 S Main St", "address2": "", "address3": "", "city": "Uxbridge", "zip_code": "01569", "country": "US", "state": "MA", "display_address": ["6 S Main St", "Uxbridge, MA 01569"]}, "phone": "+15082782114", "display_phone": "(508) 278-2114", "distance": 9665.176122284985}, {"id": "mO_PBWmn3wj_2Pmo597KPw", "alias": "upton-house-of-pizza-upton", "name": "Upton House of Pizza", "image_url": "https://s3-media1.fl.yelpcdn.com/bphoto/gEcRlZ00HVOkXSlVoiOJ5g/o.jpg", "is_closed": false, "url": "https://www.yelp.com/biz/upton-house-of-pizza-upton?adjust_creative=asslzE1UV0XuKI953B1vtw&utm_campaign=yelp_api_v3&utm_medium=api_v3_business_search&utm_source=asslzE1UV0XuKI953B1vtw", "review_count": 15, "categories": [{"alias": "pizza", "title": "Pizza"}, {"alias": "italian", "title": "Italian"}], "rating": 3.0, "coordinates": {"latitude": 42.17436, "longitude": -71.602354}, "transactions": [], "price": "$$", "location": {"address1": "6 Milford St", "address2": "", "address3": "", "city": "Upton", "zip_code": "01568", "country": "US", "state": "MA", "display_address": ["6 Milford St", "Upton, MA 01568"]}, "phone": "+15085296666", "display_phone": "(508) 529-6666", "distance": 7469.471712231421}, {"id": "t-OeMtuK5MZrg0rimrj2qQ", "alias": "depot-cafe-uxbridge", "name": "Depot Cafe", "image_url": "https://s3-media3.fl.yelpcdn.com/bphoto/QNZxvPByFQHMv78OJ2RsVA/o.jpg", "is_closed": false, "url": "https://www.yelp.com/biz/depot-cafe-uxbridge?adjust_creative=asslzE1UV0XuKI953B1vtw&utm_campaign=yelp_api_v3&utm_medium=api_v3_business_search&utm_source=asslzE1UV0XuKI953B1vtw", "review_count": 35, "categories": [{"alias": "breakfast_brunch", "title": "Breakfast & Brunch"}, {"alias": "sandwiches", "title": "Sandwiches"}], "rating": 4.0, "coordinates": {"latitude": 42.075899, "longitude": -71.629256}, "transactions": [], "price": "$", "location": {"address1": "11 S Main St", "address2": null, "address3": "", "city": "Uxbridge", "zip_code": "01569", "country": "US", "state": "MA", "display_address": ["11 S Main St", "Uxbridge, MA 01569"]}, "phone": "+15082788088", "display_phone": "(508) 278-8088", "distance": 9698.7345389604}, {"id": "z87Kiaw4TP01ig1kLI_5Mg", "alias": "burger-king-milford-2", "name": "Burger King", "image_url": "https://s3-media1.fl.yelpcdn.com/bphoto/XZIAZayVvHfpdm1T1jCAig/o.jpg", "is_closed": false, "url": "https://www.yelp.com/biz/burger-king-milford-2?adjust_creative=asslzE1UV0XuKI953B1vtw&utm_campaign=yelp_api_v3&utm_medium=api_v3_business_search&utm_source=asslzE1UV0XuKI953B1vtw", "review_count": 21, "categories": [{"alias": "burgers", "title": "Burgers"}, {"alias": "hotdogs", "title": "Fast Food"}], "rating": 2.0, "coordinates": {"latitude": 42.14875, "longitude": -71.48657}, "transactions": [], "price": "$", "location": {"address1": "22 Beaver St", "address2": "", "address3": "", "city": "Milford", "zip_code": "01757", "country": "US", "state": "MA", "display_address": ["22 Beaver St", "Milford, MA 01757"]}, "phone": "+15084229475", "display_phone": "(508) 422-9475", "distance": 4610.760621666999}, {"id": "gKSlmXb7-TqjhbymcYYYlw", "alias": "dairy-queen-bellingham-2", "name": "Dairy Queen Grill & Chill", "image_url": "https://s3-media3.fl.yelpcdn.com/bphoto/8dm-RYbTL26HinDQayxHqA/o.jpg", "is_closed": false, "url": "https://www.yelp.com/biz/dairy-queen-bellingham-2?adjust_creative=asslzE1UV0XuKI953B1vtw&utm_campaign=yelp_api_v3&utm_medium=api_v3_business_search&utm_source=asslzE1UV0XuKI953B1vtw", "review_count": 22, "categories": [{"alias": "icecream", "title": "Ice Cream & Frozen Yogurt"}, {"alias": "hotdogs", "title": "Fast Food"}, {"alias": "burgers", "title": "Burgers"}], "rating": 3.0, "coordinates": {"latitude": 42.0894508, "longitude": -71.4756587147713}, "transactions": [], "price": "$", "location": {"address1": "21 N Main St", "address2": "", "address3": "", "city": "Bellingham", "zip_code": "02019", "country": "US", "state": "MA", "display_address": ["21 N Main St", "Bellingham, MA 02019"]}, "phone": "+15089660461", "display_phone": "(508) 966-0461", "distance": 6610.418244766993}, {"id": "Rb2MUdFwe5PDEF7xlbO0aQ", "alias": "aroma-pizza-n-grill-bellingham", "name": "Aroma Pizza N' Grill", "image_url": "https://s3-media1.fl.yelpcdn.com/bphoto/tCg8QZGg6YeNwgiQab9JiA/o.jpg", "is_closed": false, "url": "https://www.yelp.com/biz/aroma-pizza-n-grill-bellingham?adjust_creative=asslzE1UV0XuKI953B1vtw&utm_campaign=yelp_api_v3&utm_medium=api_v3_business_search&utm_source=asslzE1UV0XuKI953B1vtw", "review_count": 35, "categories": [{"alias": "pizza", "title": "Pizza"}], "rating": 2.5, "coordinates": {"latitude": 42.0826416, "longitude": -71.4668427}, "transactions": ["pickup", "delivery"], "price": "$", "location": {"address1": "108 Mechanic St", "address2": null, "address3": null, "city": "Bellingham", "zip_code": "02019", "country": "US", "state": "MA", "display_address": ["108 Mechanic St", "Bellingham, MA 02019"]}, "phone": "+15089663100", "display_phone": "(508) 966-3100", "distance": 7629.340211028916}, {"id": "Fw0H1WHcQbbuCYwawyUpNw", "alias": "subway-milford-43", "name": "Subway", "image_url": "https://s3-media1.fl.yelpcdn.com/bphoto/z7CdhRFlbFd5U5wUKTKAZQ/o.jpg", "is_closed": false, "url": "https://www.yelp.com/biz/subway-milford-43?adjust_creative=asslzE1UV0XuKI953B1vtw&utm_campaign=yelp_api_v3&utm_medium=api_v3_business_search&utm_source=asslzE1UV0XuKI953B1vtw", "review_count": 3, "categories": [{"alias": "sandwiches", "title": "Sandwiches"}], "rating": 3.0, "coordinates": {"latitude": 42.1495258123421, "longitude": -71.5023024313389}, "transactions": [], "price": "$", "location": {"address1": "9 Medway Rd", "address2": "Ste F", "address3": "", "city": "Milford", "zip_code": "01757", "country": "US", "state": "MA", "display_address": ["9 Medway Rd", "Ste F", "Milford, MA 01757"]}, "phone": "+15086340200", "display_phone": "(508) 634-0200", "distance": 3596.5163762455836}, {"id": "onHWpahWYcgrERz9ChHb6w", "alias": "subway-uxbridge-6", "name": "Subway", "image_url": "https://s3-media4.fl.yelpcdn.com/bphoto/rztSPnjR8ZTPCDFYsU_lPQ/o.jpg", "is_closed": false, "url": "https://www.yelp.com/biz/subway-uxbridge-6?adjust_creative=asslzE1UV0XuKI953B1vtw&utm_campaign=yelp_api_v3&utm_medium=api_v3_business_search&utm_source=asslzE1UV0XuKI953B1vtw", "review_count": 8, "categories": [{"alias": "sandwiches", "title": "Sandwiches"}], "rating": 2.5, "coordinates": {"latitude": 42.0760286042075, "longitude": -71.6293811725563}, "transactions": [], "price": "$", "location": {"address1": "5 S Main St", "address2": "", "address3": null, "city": "Uxbridge", "zip_code": "01569", "country": "US", "state": "MA", "display_address": ["5 S Main St", "Uxbridge, MA 01569"]}, "phone": "+15082780202", "display_phone": "(508) 278-0202", "distance": 9698.2215408435}, {"id": "pQ5z2ZMP0jFuCle9hUAfYA", "alias": "subway-mendon-5", "name": "Subway", "image_url": "https://s3-media4.fl.yelpcdn.com/bphoto/MT0rMrxVOEjrXmMafEzjRg/o.jpg", "is_closed": false, "url": "https://www.yelp.com/biz/subway-mendon-5?adjust_creative=asslzE1UV0XuKI953B1vtw&utm_campaign=yelp_api_v3&utm_medium=api_v3_business_search&utm_source=asslzE1UV0XuKI953B1vtw", "review_count": 3, "categories": [{"alias": "sandwiches", "title": "Sandwiches"}], "rating": 2.0, "coordinates": {"latitude": 42.1031327230134, "longitude": -71.5590582540693}, "transactions": [], "price": "$", "location": {"address1": "32 Hastings St", "address2": "", "address3": "", "city": "Mendon", "zip_code": "01756", "country": "US", "state": "MA", "display_address": ["32 Hastings St", "Mendon, MA 01756"]}, "phone": "+15084229430", "display_phone": "(508) 422-9430", "distance": 3438.281858380628}, {"id": "YkJgybS22NeDjXCA29lIpw", "alias": "mcdonalds-milford-4", "name": "McDonald's", "image_url": "https://s3-media1.fl.yelpcdn.com/bphoto/anAxW548-sGpH8TbRdYLSg/o.jpg", "is_closed": false, "url": "https://www.yelp.com/biz/mcdonalds-milford-4?adjust_creative=asslzE1UV0XuKI953B1vtw&utm_campaign=yelp_api_v3&utm_medium=api_v3_business_search&utm_source=asslzE1UV0XuKI953B1vtw", "review_count": 19, "categories": [{"alias": "hotdogs", "title": "Fast Food"}, {"alias": "burgers", "title": "Burgers"}, {"alias": "coffee", "title": "Coffee & Tea"}], "rating": 1.5, "coordinates": {"latitude": 42.1475837800454, "longitude": -71.4885896444321}, "transactions": [], "price": "$", "location": {"address1": "143 Medway Rd", "address2": null, "address3": null, "city": "Milford", "zip_code": "01757", "country": "US", "state": "MA", "display_address": ["143 Medway Rd", "Milford, MA 01757"]}, "phone": "+15084733205", "display_phone": "(508) 473-3205", "distance": 4416.0874584000385}, {"id": "NQdkm_8TEqseBQrJBlZh2Q", "alias": "honey-dew-donuts-bellingham-2", "name": "Honey Dew Donuts", "image_url": "https://s3-media4.fl.yelpcdn.com/bphoto/_ccDRGcAkjd9iSsbEE9KJA/o.jpg", "is_closed": false, "url": "https://www.yelp.com/biz/honey-dew-donuts-bellingham-2?adjust_creative=asslzE1UV0XuKI953B1vtw&utm_campaign=yelp_api_v3&utm_medium=api_v3_business_search&utm_source=asslzE1UV0XuKI953B1vtw", "review_count": 6, "categories": [{"alias": "coffee", "title": "Coffee & Tea"}, {"alias": "donuts", "title": "Donuts"}, {"alias": "sandwiches", "title": "Sandwiches"}], "rating": 2.0, "coordinates": {"latitude": 42.0890579223633, "longitude": -71.4754180908203}, "transactions": ["delivery"], "price": "$", "location": {"address1": "19 N Main St", "address2": null, "address3": null, "city": "Bellingham", "zip_code": "02019", "country": "US", "state": "MA", "display_address": ["19 N Main St", "Bellingham, MA 02019"]}, "phone": "+15089661500", "display_phone": "(508) 966-1500", "distance": 6656.897406630084}, {"id": "PGU9xZZCW5zHV4biuAlHPQ", "alias": "mcdonalds-bellingham-10", "name": "McDonald's", "image_url": "https://s3-media2.fl.yelpcdn.com/bphoto/ihdEFaAwztfH9kC73H8phA/o.jpg", "is_closed": false, "url": "https://www.yelp.com/biz/mcdonalds-bellingham-10?adjust_creative=asslzE1UV0XuKI953B1vtw&utm_campaign=yelp_api_v3&utm_medium=api_v3_business_search&utm_source=asslzE1UV0XuKI953B1vtw", "review_count": 28, "categories": [{"alias": "burgers", "title": "Burgers"}, {"alias": "hotdogs", "title": "Fast Food"}, {"alias": "coffee", "title": "Coffee & Tea"}], "rating": 1.5, "coordinates": {"latitude": 42.1152202, "longitude": -71.4614155}, "transactions": [], "price": "$", "location": {"address1": "272 Hartford St", "address2": "", "address3": "", "city": "Bellingham", "zip_code": "02019", "country": "US", "state": "MA", "display_address": ["272 Hartford St", "Bellingham, MA 02019"]}, "phone": "+15089660522", "display_phone": "(508) 966-0522", "distance": 6285.080673061433}, {"id": "xAiC2tb7kUlJscBRucff3g", "alias": "subway-bellingham-20", "name": "Subway", "image_url": "https://s3-media1.fl.yelpcdn.com/bphoto/O3_EnxW-0sxNbK1Vbk9uDg/o.jpg", "is_closed": false, "url": "https://www.yelp.com/biz/subway-bellingham-20?adjust_creative=asslzE1UV0XuKI953B1vtw&utm_campaign=yelp_api_v3&utm_medium=api_v3_business_search&utm_source=asslzE1UV0XuKI953B1vtw", "review_count": 1, "categories": [{"alias": "sandwiches", "title": "Sandwiches"}], "rating": 2.0, "coordinates": {"latitude": 42.1161721227085, "longitude": -71.4652856614276}, "transactions": [], "price": "$", "location": {"address1": "250 Hartford Ave", "address2": null, "address3": null, "city": "Bellingham", "zip_code": "02019", "country": "US", "state": "MA", "display_address": ["250 Hartford Ave", "Bellingham, MA 02019"]}, "phone": "+15089662288", "display_phone": "(508) 966-2288", "distance": 5978.756725925187}]