[{"id": "IRDbtfi_STNrrinh1V3csg", "alias": "the-rabbit-hole-worthington-3", "name": "The Rabbit Hole", "image_url": "https://s3-media1.fl.yelpcdn.com/bphoto/EdhUcHZXdrg_qRpOyqAsSw/o.jpg", "is_closed": false, "url": "https://www.yelp.com/biz/the-rabbit-hole-worthington-3?adjust_creative=asslzE1UV0XuKI953B1vtw&utm_campaign=yelp_api_v3&utm_medium=api_v3_business_search&utm_source=asslzE1UV0XuKI953B1vtw", "review_count": 5, "categories": [{"alias": "newamerican", "title": "American (New)"}], "rating": 4.0, "coordinates": {"latitude": 42.40078, "longitude": -72.93759}, "transactions": [], "location": {"address1": "144 Huntington Rd", "address2": null, "address3": "", "city": "Worthington", "zip_code": "01098", "country": "US", "state": "MA", "display_address": ["144 Huntington Rd", "Worthington, MA 01098"]}, "phone": "+14132380144", "display_phone": "(413) 238-0144", "distance": 4966.085442076673}, {"id": "rCi5XRAlbjFJBD05OWfR1A", "alias": "velvet-restaurant-worthington-2", "name": "Velvet Restaurant", "image_url": "https://s3-media3.fl.yelpcdn.com/bphoto/UlVYHq_A04HTAXFdC6ALBA/o.jpg", "is_closed": false, "url": "https://www.yelp.com/biz/velvet-restaurant-worthington-2?adjust_creative=asslzE1UV0XuKI953B1vtw&utm_campaign=yelp_api_v3&utm_medium=api_v3_business_search&utm_source=asslzE1UV0XuKI953B1vtw", "review_count": 6, "categories": [{"alias": "bars", "title": "Bars"}, {"alias": "newamerican", "title": "American (New)"}], "rating": 4.0, "coordinates": {"latitude": 42.40855, "longitude": -72.94236}, "transactions": [], "location": {"address1": "113 Ridge Rd", "address2": null, "address3": "", "city": "Worthington", "zip_code": "01098", "country": "US", "state": "MA", "display_address": ["113 Ridge Rd", "Worthington, MA 01098"]}, "phone": "+14132384492", "display_phone": "(413) 238-4492", "distance": 5644.692774647366}, {"id": "L23iQ-ONcUb0edZeJJX_nA", "alias": "chester-common-table-chester", "name": "Chester Common Table", "image_url": "https://s3-media4.fl.yelpcdn.com/bphoto/DAStUuP7cBK4DbiHf3HhTQ/o.jpg", "is_closed": false, "url": "https://www.yelp.com/biz/chester-common-table-chester?adjust_creative=asslzE1UV0XuKI953B1vtw&utm_campaign=yelp_api_v3&utm_medium=api_v3_business_search&utm_source=asslzE1UV0XuKI953B1vtw", "review_count": 32, "categories": [{"alias": "comfortfood", "title": "Comfort Food"}, {"alias": "tradamerican", "title": "American (Traditional)"}], "rating": 4.5, "coordinates": {"latitude": 42.280002, "longitude": -72.980058}, "transactions": [], "price": "$$", "location": {"address1": "30 Main St", "address2": null, "address3": "", "city": "Chester", "zip_code": "01011", "country": "US", "state": "MA", "display_address": ["30 Main St", "Chester, MA 01011"]}, "phone": "+14133541076", "display_phone": "(413) 354-1076", "distance": 14507.632144476238}, {"id": "aw0FDqkiYDIE33KmHW7YHQ", "alias": "listons-bar-and-grill-worthington", "name": "Listons Bar & Grill", "image_url": "https://s3-media2.fl.yelpcdn.com/bphoto/Zw2va6P_vOdum1skN8J6cQ/o.jpg", "is_closed": false, "url": "https://www.yelp.com/biz/listons-bar-and-grill-worthington?adjust_creative=asslzE1UV0XuKI953B1vtw&utm_campaign=yelp_api_v3&utm_medium=api_v3_business_search&utm_source=asslzE1UV0XuKI953B1vtw", "review_count": 7, "categories": [{"alias": "sportsbars", "title": "Sports Bars"}, {"alias": "tradamerican", "title": "American (Traditional)"}], "rating": 4.5, "coordinates": {"latitude": 42.42713, "longitude": -72.95322}, "transactions": [], "location": {"address1": "324 Old North Rd Rte 143", "address2": "", "address3": null, "city": "Worthington", "zip_code": "01098", "country": "US", "state": "MA", "display_address": ["324 Old North Rd Rte 143", "Worthington, MA 01098"]}, "phone": "+14132385353", "display_phone": "(413) 238-5353", "distance": 7502.371608439465}, {"id": "wqQ-cLMbLmxzc_p4jjDSxw", "alias": "the-old-creamery-cummington-2", "name": "The Old Creamery", "image_url": "https://s3-media3.fl.yelpcdn.com/bphoto/suPv8fzXhQdsR8elaUVfzg/o.jpg", "is_closed": false, "url": "https://www.yelp.com/biz/the-old-creamery-cummington-2?adjust_creative=asslzE1UV0XuKI953B1vtw&utm_campaign=yelp_api_v3&utm_medium=api_v3_business_search&utm_source=asslzE1UV0XuKI953B1vtw", "review_count": 31, "categories": [{"alias": "grocery", "title": "Grocery"}, {"alias": "bakeries", "title": "Bakeries"}, {"alias": "sandwiches", "title": "Sandwiches"}], "rating": 4.5, "coordinates": {"latitude": 42.464115, "longitude": -72.90535}, "transactions": [], "price": "$$", "location": {"address1": "445 Berkshire Trl", "address2": "", "address3": "", "city": "Cummington", "zip_code": "01026", "country": "US", "state": "MA", "display_address": ["445 Berkshire Trl", "Cummington, MA 01026"]}, "phone": "+14136345560", "display_phone": "(413) 634-5560", "distance": 8781.634174290792}, {"id": "cdlN_aSJOn0EDVexGo0v5g", "alias": "comfort-kitchen-and-bar-huntington-2", "name": "Comfort Kitchen and Bar", "image_url": "https://s3-media2.fl.yelpcdn.com/bphoto/iKDnV5pwo5kA3mJBjTyPeQ/o.jpg", "is_closed": false, "url": "https://www.yelp.com/biz/comfort-kitchen-and-bar-huntington-2?adjust_creative=asslzE1UV0XuKI953B1vtw&utm_campaign=yelp_api_v3&utm_medium=api_v3_business_search&utm_source=asslzE1UV0XuKI953B1vtw", "review_count": 36, "categories": [{"alias": "bars", "title": "Bars"}, {"alias": "tradamerican", "title": "American (Traditional)"}], "rating": 4.5, "coordinates": {"latitude": 42.2348748399165, "longitude": -72.8799170197082}, "transactions": [], "price": "$$", "location": {"address1": "4 Main St", "address2": "", "address3": null, "city": "Huntington", "zip_code": "01050", "country": "US", "state": "MA", "display_address": ["4 Main St", "Huntington, MA 01050"]}, "phone": "+14132073011", "display_phone": "(413) 207-3011", "distance": 16961.39623079724}, {"id": "E0BNgyLQy3WUwFSnMLaQpA", "alias": "high-hopes-farm-worthington", "name": "High Hopes Farm", "image_url": "https://s3-media2.fl.yelpcdn.com/bphoto/VlgVhYdSvdonXZaV59JGtQ/o.jpg", "is_closed": false, "url": "https://www.yelp.com/biz/high-hopes-farm-worthington?adjust_creative=asslzE1UV0XuKI953B1vtw&utm_campaign=yelp_api_v3&utm_medium=api_v3_business_search&utm_source=asslzE1UV0XuKI953B1vtw", "review_count": 4, "categories": [{"alias": "breakfast_brunch", "title": "Breakfast & Brunch"}], "rating": 5.0, "coordinates": {"latitude": 42.3418042, "longitude": -72.8882095}, "transactions": [], "price": "$$", "location": {"address1": "1132 Huntington Rd", "address2": "", "address3": "", "city": "Worthington", "zip_code": "01098", "country": "US", "state": "MA", "display_address": ["1132 Huntington Rd", "Worthington, MA 01098"]}, "phone": "+14132385919", "display_phone": "(413) 238-5919", "distance": 5113.321402675109}, {"id": "NE3t2ECJh8NDDsUbrlhwYQ", "alias": "mollisons-windy-hill-sugar-shack-worthington", "name": "Mollison's Windy Hill Sugar Shack", "image_url": "https://s3-media4.fl.yelpcdn.com/bphoto/4qQPuYhpx4YYjIR2a6o29A/o.jpg", "is_closed": false, "url": "https://www.yelp.com/biz/mollisons-windy-hill-sugar-shack-worthington?adjust_creative=asslzE1UV0XuKI953B1vtw&utm_campaign=yelp_api_v3&utm_medium=api_v3_business_search&utm_source=asslzE1UV0XuKI953B1vtw", "review_count": 2, "categories": [{"alias": "breakfast_brunch", "title": "Breakfast & Brunch"}], "rating": 4.5, "coordinates": {"latitude": 42.394454581771, "longitude": -72.9491633361976}, "transactions": [], "price": "$", "location": {"address1": "1 W Sam Hill Rd", "address2": "", "address3": "", "city": "Worthington", "zip_code": "01098", "country": "US", "state": "MA", "display_address": ["1 W Sam Hill Rd", "Worthington, MA 01098"]}, "phone": "+14132385869", "display_phone": "(413) 238-5869", "distance": 5744.483967430366}, {"id": "Hz8ENDohZ-ZY2MooPz8-Eg", "alias": "spruce-corner-restaurant-goshen", "name": "Spruce Corner Restaurant", "image_url": "https://s3-media3.fl.yelpcdn.com/bphoto/Vf9B0rulKSpqtTS-E_lQrA/o.jpg", "is_closed": false, "url": "https://www.yelp.com/biz/spruce-corner-restaurant-goshen?adjust_creative=asslzE1UV0XuKI953B1vtw&utm_campaign=yelp_api_v3&utm_medium=api_v3_business_search&utm_source=asslzE1UV0XuKI953B1vtw", "review_count": 11, "categories": [{"alias": "tradamerican", "title": "American (Traditional)"}], "rating": 4.0, "coordinates": {"latitude": 42.45618, "longitude": -72.832747}, "transactions": [], "price": "$$", "location": {"address1": "188 Berkshire Trl W", "address2": "", "address3": "", "city": "Goshen", "zip_code": "01032", "country": "US", "state": "MA", "display_address": ["188 Berkshire Trl W", "Goshen, MA 01032"]}, "phone": "+14132683188", "display_phone": "(413) 268-3188", "distance": 8569.157871456102}, {"id": "jilRIDbiEEtDhi4hnV6Oug", "alias": "local-burgy-williamsburg", "name": "Local Burgy", "image_url": "https://s3-media2.fl.yelpcdn.com/bphoto/V9kmP6sTF9MSAXbNKLptZw/o.jpg", "is_closed": false, "url": "https://www.yelp.com/biz/local-burgy-williamsburg?adjust_creative=asslzE1UV0XuKI953B1vtw&utm_campaign=yelp_api_v3&utm_medium=api_v3_business_search&utm_source=asslzE1UV0XuKI953B1vtw", "review_count": 23, "categories": [{"alias": "bbq", "title": "Barbeque"}, {"alias": "foodstands", "title": "Food Stands"}, {"alias": "burgers", "title": "Burgers"}], "rating": 4.5, "coordinates": {"latitude": 42.3818416889538, "longitude": -72.7114339380672}, "transactions": [], "price": "$$", "location": {"address1": "93 Main St", "address2": "", "address3": null, "city": "Williamsburg", "zip_code": "01039", "country": "US", "state": "MA", "display_address": ["93 Main St", "Williamsburg, MA 01039"]}, "phone": "+14132688300", "display_phone": "(413) 268-8300", "distance": 13847.73514357994}, {"id": "1FDg-B7ddSPoZirUJXsdtQ", "alias": "the-ashfield-lake-house-ashfield", "name": "The Ashfield Lake House", "image_url": "https://s3-media4.fl.yelpcdn.com/bphoto/YK6BItbmmR7rbQZzniZojQ/o.jpg", "is_closed": false, "url": "https://www.yelp.com/biz/the-ashfield-lake-house-ashfield?adjust_creative=asslzE1UV0XuKI953B1vtw&utm_campaign=yelp_api_v3&utm_medium=api_v3_business_search&utm_source=asslzE1UV0XuKI953B1vtw", "review_count": 38, "categories": [{"alias": "bars", "title": "Bars"}, {"alias": "tradamerican", "title": "American (Traditional)"}, {"alias": "comfortfood", "title": "Comfort Food"}], "rating": 3.0, "coordinates": {"latitude": 42.53083, "longitude": -72.8026299}, "transactions": [], "price": "$$", "location": {"address1": "141 Buckland Rd", "address2": "", "address3": "", "city": "Ashfield", "zip_code": "01330", "country": "US", "state": "MA", "display_address": ["141 Buckland Rd", "Ashfield, MA 01330"]}, "phone": "+14136280158", "display_phone": "(413) 628-0158", "distance": 17248.120748759415}, {"id": "wrtX2ZzygWcN6PPLIJAZwA", "alias": "the-rapids-bar-and-grill-huntington-2", "name": "The Rapids Bar & Grill", "image_url": "https://s3-media3.fl.yelpcdn.com/bphoto/mlUj7X36KYNNjEEXZuNv-Q/o.jpg", "is_closed": false, "url": "https://www.yelp.com/biz/the-rapids-bar-and-grill-huntington-2?adjust_creative=asslzE1UV0XuKI953B1vtw&utm_campaign=yelp_api_v3&utm_medium=api_v3_business_search&utm_source=asslzE1UV0XuKI953B1vtw", "review_count": 15, "categories": [{"alias": "tradamerican", "title": "American (Traditional)"}, {"alias": "bars", "title": "Bars"}], "rating": 3.5, "coordinates": {"latitude": 42.27658, "longitude": -72.86391}, "transactions": [], "price": "$$", "location": {"address1": "200 Worthington Rd", "address2": null, "address3": "", "city": "Huntington", "zip_code": "01050", "country": "US", "state": "MA", "display_address": ["200 Worthington Rd", "Huntington, MA 01050"]}, "phone": "+14136673300", "display_phone": "(413) 667-3300", "distance": 12334.97109655139}, {"id": "b4-4eClP0ksWjfBUMkI1-A", "alias": "becket-general-store-becket-2", "name": "Becket General Store", "image_url": "https://s3-media2.fl.yelpcdn.com/bphoto/O1QiC8MXq3W-AcqbU7FaFQ/o.jpg", "is_closed": false, "url": "https://www.yelp.com/biz/becket-general-store-becket-2?adjust_creative=asslzE1UV0XuKI953B1vtw&utm_campaign=yelp_api_v3&utm_medium=api_v3_business_search&utm_source=asslzE1UV0XuKI953B1vtw", "review_count": 11, "categories": [{"alias": "breakfast_brunch", "title": "Breakfast & Brunch"}, {"alias": "pizza", "title": "Pizza"}, {"alias": "bars", "title": "Bars"}], "rating": 4.5, "coordinates": {"latitude": 42.3275317514641, "longitude": -73.0836283305567}, "transactions": [], "location": {"address1": "3235 Main St", "address2": "", "address3": null, "city": "Becket", "zip_code": "01223", "country": "US", "state": "MA", "display_address": ["3235 Main St", "Becket, MA 01223"]}, "phone": "+14136236026", "display_phone": "(413) 623-6026", "distance": 18018.041162695747}, {"id": "rHXDd-R9ztUJxKRMj2Ziqw", "alias": "goshen-snack-bar-williamsburg", "name": "Goshen Snack Bar", "image_url": "", "is_closed": false, "url": "https://www.yelp.com/biz/goshen-snack-bar-williamsburg?adjust_creative=asslzE1UV0XuKI953B1vtw&utm_campaign=yelp_api_v3&utm_medium=api_v3_business_search&utm_source=asslzE1UV0XuKI953B1vtw", "review_count": 1, "categories": [{"alias": "hotdogs", "title": "Fast Food"}], "rating": 5.0, "coordinates": {"latitude": 42.443226, "longitude": -72.815647}, "transactions": [], "location": {"address1": "47 Ball Rd", "address2": null, "address3": null, "city": "Williamsburg", "zip_code": "01096", "country": "US", "state": "MA", "display_address": ["47 Ball Rd", "Williamsburg, MA 01096"]}, "phone": "+14132689240", "display_phone": "(413) 268-9240", "distance": 8143.137939091703}, {"id": "7V3RX-SPaYFt5aytErDK0g", "alias": "the-red-bucket-sugar-shack-worthington", "name": "The Red Bucket Sugar Shack", "image_url": "https://s3-media4.fl.yelpcdn.com/bphoto/dbHPKnAevuDhxLkRQIYEDw/o.jpg", "is_closed": false, "url": "https://www.yelp.com/biz/the-red-bucket-sugar-shack-worthington?adjust_creative=asslzE1UV0XuKI953B1vtw&utm_campaign=yelp_api_v3&utm_medium=api_v3_business_search&utm_source=asslzE1UV0XuKI953B1vtw", "review_count": 9, "categories": [{"alias": "breakfast_brunch", "title": "Breakfast & Brunch"}, {"alias": "tradamerican", "title": "American (Traditional)"}], "rating": 4.0, "coordinates": {"latitude": 42.344486, "longitude": -72.919398}, "transactions": [], "price": "$", "location": {"address1": "584 Kinnebrook Rd", "address2": "", "address3": "", "city": "Worthington", "zip_code": "01098", "country": "US", "state": "MA", "display_address": ["584 Kinnebrook Rd", "Worthington, MA 01098"]}, "phone": "+14132387710", "display_phone": "(413) 238-7710", "distance": 5773.262410883804}, {"id": "_19rex6zqPyQgsSAgqsFYg", "alias": "williamsburg-snack-bar-haydenville", "name": "Williamsburg Snack Bar", "image_url": "https://s3-media2.fl.yelpcdn.com/bphoto/2sme__nhtRSb_ViggNHK9g/o.jpg", "is_closed": false, "url": "https://www.yelp.com/biz/williamsburg-snack-bar-haydenville?adjust_creative=asslzE1UV0XuKI953B1vtw&utm_campaign=yelp_api_v3&utm_medium=api_v3_business_search&utm_source=asslzE1UV0XuKI953B1vtw", "review_count": 59, "categories": [{"alias": "sandwiches", "title": "Sandwiches"}], "rating": 4.5, "coordinates": {"latitude": 42.380499, "longitude": -72.707228}, "transactions": [], "price": "$", "location": {"address1": "109 Main St", "address2": "", "address3": "", "city": "Haydenville", "zip_code": "01039", "country": "US", "state": "MA", "display_address": ["109 Main St", "Haydenville, MA 01039"]}, "phone": "+14132687556", "display_phone": "(413) 268-7556", "distance": 14200.292824154774}, {"id": "9LrxgQh9i7vmsFqGmz5B9Q", "alias": "norwich-lake-farm-and-sugar-barn-restaurant-huntington", "name": "Norwich Lake Farm and Sugar Barn Restaurant", "image_url": "https://s3-media1.fl.yelpcdn.com/bphoto/sWWUQk2ZbqD_GBJa2JjCTQ/o.jpg", "is_closed": false, "url": "https://www.yelp.com/biz/norwich-lake-farm-and-sugar-barn-restaurant-huntington?adjust_creative=asslzE1UV0XuKI953B1vtw&utm_campaign=yelp_api_v3&utm_medium=api_v3_business_search&utm_source=asslzE1UV0XuKI953B1vtw", "review_count": 2, "categories": [{"alias": "breakfast_brunch", "title": "Breakfast & Brunch"}], "rating": 5.0, "coordinates": {"latitude": 42.3006329582653, "longitude": -72.8408531472087}, "transactions": [], "location": {"address1": "87 Searle Rd", "address2": "", "address3": null, "city": "Huntington", "zip_code": "01050", "country": "US", "state": "MA", "display_address": ["87 Searle Rd", "Huntington, MA 01050"]}, "phone": "+14136678830", "display_phone": "(413) 667-8830", "distance": 10168.221596258805}, {"id": "wkIOjcec-3uGidfIXcOpJA", "alias": "elmers-store-restaurant-ashfield", "name": "Elmer's Store Restaurant", "image_url": "https://s3-media3.fl.yelpcdn.com/bphoto/2AgISV-Z2E7y_ISdmkzroA/o.jpg", "is_closed": false, "url": "https://www.yelp.com/biz/elmers-store-restaurant-ashfield?adjust_creative=asslzE1UV0XuKI953B1vtw&utm_campaign=yelp_api_v3&utm_medium=api_v3_business_search&utm_source=asslzE1UV0XuKI953B1vtw", "review_count": 45, "categories": [{"alias": "breakfast_brunch", "title": "Breakfast & Brunch"}, {"alias": "bars", "title": "Bars"}], "rating": 4.0, "coordinates": {"latitude": 42.5261756, "longitude": -72.7924932}, "transactions": [], "price": "$$", "location": {"address1": "396 Main St", "address2": null, "address3": "", "city": "Ashfield", "zip_code": "01330", "country": "US", "state": "MA", "display_address": ["396 Main St", "Ashfield, MA 01330"]}, "phone": "+14136284003", "display_phone": "(413) 628-4003", "distance": 17013.440041804726}, {"id": "uhI0q5g8AYGOFGVio7Cj_g", "alias": "glendale-grill-easthampton", "name": "Glendale Grill", "image_url": "https://s3-media3.fl.yelpcdn.com/bphoto/cw_oipGC8ot7einHDkO5Qg/o.jpg", "is_closed": false, "url": "https://www.yelp.com/biz/glendale-grill-easthampton?adjust_creative=asslzE1UV0XuKI953B1vtw&utm_campaign=yelp_api_v3&utm_medium=api_v3_business_search&utm_source=asslzE1UV0XuKI953B1vtw", "review_count": 27, "categories": [{"alias": "tradamerican", "title": "American (Traditional)"}], "rating": 3.5, "coordinates": {"latitude": 42.2649067, "longitude": -72.6880527}, "transactions": ["delivery"], "price": "$$", "location": {"address1": "65 Glendale S", "address2": "", "address3": "", "city": "Easthampton", "zip_code": "01027", "country": "US", "state": "MA", "display_address": ["65 Glendale S", "Easthampton, MA 01027"]}, "phone": "+14132032300", "display_phone": "(413) 203-2300", "distance": 20837.871176635337}, {"id": "_9sO066L6e1kjQRf2jzd7g", "alias": "countrypie-pizza-company-ashfield", "name": "Countrypie Pizza Company", "image_url": "https://s3-media2.fl.yelpcdn.com/bphoto/YIZ24sof1VTPO1xtqCK6cg/o.jpg", "is_closed": false, "url": "https://www.yelp.com/biz/countrypie-pizza-company-ashfield?adjust_creative=asslzE1UV0XuKI953B1vtw&utm_campaign=yelp_api_v3&utm_medium=api_v3_business_search&utm_source=asslzE1UV0XuKI953B1vtw", "review_count": 30, "categories": [{"alias": "pizza", "title": "Pizza"}], "rating": 4.5, "coordinates": {"latitude": 42.526902, "longitude": -72.794253}, "transactions": [], "price": "$", "location": {"address1": "343 Main St", "address2": "", "address3": "", "city": "Ashfield", "zip_code": "01330", "country": "US", "state": "MA", "display_address": ["343 Main St", "Ashfield, MA 01330"]}, "phone": "+14136284488", "display_phone": "(413) 628-4488", "distance": 17030.4703199075}, {"id": "WmWAHNNParZLErd98SEbJw", "alias": "scottis-leeds", "name": "Scotti's", "image_url": "https://s3-media3.fl.yelpcdn.com/bphoto/mwt8mVvPDZ04OQgj4owpZw/o.jpg", "is_closed": false, "url": "https://www.yelp.com/biz/scottis-leeds?adjust_creative=asslzE1UV0XuKI953B1vtw&utm_campaign=yelp_api_v3&utm_medium=api_v3_business_search&utm_source=asslzE1UV0XuKI953B1vtw", "review_count": 27, "categories": [{"alias": "tradamerican", "title": "American (Traditional)"}, {"alias": "icecream", "title": "Ice Cream & Frozen Yogurt"}], "rating": 4.5, "coordinates": {"latitude": 42.352636, "longitude": -72.691094}, "transactions": ["delivery"], "price": "$", "location": {"address1": "90 Haydenville Rd", "address2": "", "address3": "", "city": "Leeds", "zip_code": "01053", "country": "US", "state": "MA", "display_address": ["90 Haydenville Rd", "Leeds, MA 01053"]}, "phone": "+14135865567", "display_phone": "(413) 586-5567", "distance": 15982.896395174215}, {"id": "O-cuf9gqctm096VCcM79Lg", "alias": "conway-inn-conway", "name": "Conway Inn", "image_url": "https://s3-media2.fl.yelpcdn.com/bphoto/PkYRlRCqQCTdb2bqT10Y3A/o.jpg", "is_closed": false, "url": "https://www.yelp.com/biz/conway-inn-conway?adjust_creative=asslzE1UV0XuKI953B1vtw&utm_campaign=yelp_api_v3&utm_medium=api_v3_business_search&utm_source=asslzE1UV0XuKI953B1vtw", "review_count": 6, "categories": [{"alias": "bars", "title": "Bars"}, {"alias": "pizza", "title": "Pizza"}], "rating": 4.5, "coordinates": {"latitude": 42.5087199, "longitude": -72.69772}, "transactions": [], "price": "$", "location": {"address1": "43 Main", "address2": "", "address3": "", "city": "Conway", "zip_code": "01341", "country": "US", "state": "MA", "display_address": ["43 Main", "Conway, MA 01341"]}, "phone": "+14133694428", "display_phone": "(413) 369-4428", "distance": 20132.0424974396}, {"id": "ST2IKt3aNPnw5cfvMbfspQ", "alias": "paisanos-southampton-2", "name": "Paisanos", "image_url": "https://s3-media3.fl.yelpcdn.com/bphoto/BP4-no5DSUgpkqNaaQpRfw/o.jpg", "is_closed": false, "url": "https://www.yelp.com/biz/paisanos-southampton-2?adjust_creative=asslzE1UV0XuKI953B1vtw&utm_campaign=yelp_api_v3&utm_medium=api_v3_business_search&utm_source=asslzE1UV0XuKI953B1vtw", "review_count": 45, "categories": [{"alias": "pizza", "title": "Pizza"}, {"alias": "italian", "title": "Italian"}], "rating": 3.5, "coordinates": {"latitude": 42.2382105429036, "longitude": -72.7205873717075}, "transactions": ["delivery"], "price": "$$", "location": {"address1": "136 College Hwy", "address2": "", "address3": "", "city": "Southampton", "zip_code": "01073", "country": "US", "state": "MA", "display_address": ["136 College Hwy", "Southampton, MA 01073"]}, "phone": "+14135278900", "display_phone": "(413) 527-8900", "distance": 21137.078325878232}, {"id": "sZgz8QmrpPP9Bdb05duIIw", "alias": "sherwood-shoppe-becket", "name": "Sherwood Shoppe", "image_url": "https://s3-media4.fl.yelpcdn.com/bphoto/Aq0y_PiAhV_XqC56wD-m4Q/o.jpg", "is_closed": false, "url": "https://www.yelp.com/biz/sherwood-shoppe-becket?adjust_creative=asslzE1UV0XuKI953B1vtw&utm_campaign=yelp_api_v3&utm_medium=api_v3_business_search&utm_source=asslzE1UV0XuKI953B1vtw", "review_count": 12, "categories": [{"alias": "convenience", "title": "Convenience Stores"}, {"alias": "breakfast_brunch", "title": "Breakfast & Brunch"}, {"alias": "delis", "title": "Delis"}], "rating": 4.5, "coordinates": {"latitude": 42.2538082301617, "longitude": -73.0638302117586}, "transactions": [], "price": "$", "location": {"address1": "437 Wells Rd", "address2": "", "address3": "", "city": "Becket", "zip_code": "01223", "country": "US", "state": "MA", "display_address": ["437 Wells Rd", "Becket, MA 01223"]}, "phone": "+14136232338", "display_phone": "(413) 623-2338", "distance": 21181.380570844696}, {"id": "TIm9N1EDtxj_WR95fwR5Ow", "alias": "a-1-hilltown-pizza-williamsburg", "name": "A-1 Hilltown Pizza", "image_url": "https://s3-media3.fl.yelpcdn.com/bphoto/SjPcoIjB8ZpuMJKMc9pyhw/o.jpg", "is_closed": false, "url": "https://www.yelp.com/biz/a-1-hilltown-pizza-williamsburg?adjust_creative=asslzE1UV0XuKI953B1vtw&utm_campaign=yelp_api_v3&utm_medium=api_v3_business_search&utm_source=asslzE1UV0XuKI953B1vtw", "review_count": 12, "categories": [{"alias": "pizza", "title": "Pizza"}], "rating": 3.5, "coordinates": {"latitude": 42.391134, "longitude": -72.724329}, "transactions": [], "price": "$$", "location": {"address1": "35 Main St", "address2": "", "address3": "", "city": "Williamsburg", "zip_code": "01096", "country": "US", "state": "MA", "display_address": ["35 Main St", "Williamsburg, MA 01096"]}, "phone": "+14132680202", "display_phone": "(413) 268-0202", "distance": 12780.52569196323}, {"id": "gf47Yv8PnATBDgkZ6rBI-w", "alias": "strawbale-cafe-westhampton-4", "name": "Strawbale Cafe", "image_url": "https://s3-media4.fl.yelpcdn.com/bphoto/Nvl_epjAp9rcnQwhjocLXg/o.jpg", "is_closed": false, "url": "https://www.yelp.com/biz/strawbale-cafe-westhampton-4?adjust_creative=asslzE1UV0XuKI953B1vtw&utm_campaign=yelp_api_v3&utm_medium=api_v3_business_search&utm_source=asslzE1UV0XuKI953B1vtw", "review_count": 30, "categories": [{"alias": "breakfast_brunch", "title": "Breakfast & Brunch"}, {"alias": "cafes", "title": "Cafes"}, {"alias": "bakeries", "title": "Bakeries"}], "rating": 4.5, "coordinates": {"latitude": 42.323103, "longitude": -72.754566}, "transactions": [], "price": "$$", "location": {"address1": "188 N Rd", "address2": "", "address3": "Hanging Mountain Farm", "city": "Westhampton", "zip_code": "01027", "country": "US", "state": "MA", "display_address": ["188 N Rd", "Hanging Mountain Farm", "Westhampton, MA 01027"]}, "phone": "+14135273210", "display_phone": "(413) 527-3210", "distance": 12535.774942666254}, {"id": "mHA-Vrq7cgnsFODSvZqHuA", "alias": "steves-sugar-shack-westhampton", "name": "Steve's Sugar Shack", "image_url": "", "is_closed": false, "url": "https://www.yelp.com/biz/steves-sugar-shack-westhampton?adjust_creative=asslzE1UV0XuKI953B1vtw&utm_campaign=yelp_api_v3&utm_medium=api_v3_business_search&utm_source=asslzE1UV0XuKI953B1vtw", "review_count": 2, "categories": [{"alias": "breakfast_brunch", "title": "Breakfast & Brunch"}], "rating": 5.0, "coordinates": {"latitude": 42.307695, "longitude": -72.77132}, "transactions": [], "location": {"address1": "34 N Rd", "address2": "", "address3": null, "city": "Westhampton", "zip_code": "01027", "country": "US", "state": "MA", "display_address": ["34 N Rd", "Westhampton, MA 01027"]}, "phone": "+14135270294", "display_phone": "(413) 527-0294", "distance": 12575.75587217024}, {"id": "2Hxb37Ezwblm7x8czP40Vg", "alias": "outlook-farm-country-store-westhampton", "name": "Outlook Farm Country Store", "image_url": "https://s3-media3.fl.yelpcdn.com/bphoto/SzYQtgjZ-aGwS34mPU9vxQ/o.jpg", "is_closed": false, "url": "https://www.yelp.com/biz/outlook-farm-country-store-westhampton?adjust_creative=asslzE1UV0XuKI953B1vtw&utm_campaign=yelp_api_v3&utm_medium=api_v3_business_search&utm_source=asslzE1UV0XuKI953B1vtw", "review_count": 33, "categories": [{"alias": "bedbreakfast", "title": "Bed & Breakfast"}, {"alias": "meats", "title": "Meat Shops"}, {"alias": "sandwiches", "title": "Sandwiches"}], "rating": 3.5, "coordinates": {"latitude": 42.287347, "longitude": -72.7613498}, "transactions": [], "price": "$", "location": {"address1": "136 Main Rd", "address2": "", "address3": "", "city": "Westhampton", "zip_code": "01027", "country": "US", "state": "MA", "display_address": ["136 Main Rd", "Westhampton, MA 01027"]}, "phone": "+14135299388", "display_phone": "(413) 529-9388", "distance": 14847.070127167239}, {"id": "ARnHCxfth45qbu5AU2g3Og", "alias": "classic-pizza-chester", "name": "Classic Pizza", "image_url": "https://s3-media3.fl.yelpcdn.com/bphoto/eAl51P7XAPmveVMWETkH2g/o.jpg", "is_closed": false, "url": "https://www.yelp.com/biz/classic-pizza-chester?adjust_creative=asslzE1UV0XuKI953B1vtw&utm_campaign=yelp_api_v3&utm_medium=api_v3_business_search&utm_source=asslzE1UV0XuKI953B1vtw", "review_count": 8, "categories": [{"alias": "pizza", "title": "Pizza"}], "rating": 3.5, "coordinates": {"latitude": 42.2799491882324, "longitude": -72.9793853759766}, "transactions": [], "price": "$$", "location": {"address1": "29 Main St", "address2": "", "address3": "", "city": "Chester", "zip_code": "01011", "country": "US", "state": "MA", "display_address": ["29 Main St", "Chester, MA 01011"]}, "phone": "+14133546554", "display_phone": "(413) 354-6554", "distance": 14474.89972070221}, {"id": "YbZg252i3vJ9wmf-gsgUog", "alias": "panda-garden-williamsburg", "name": "Panda Garden", "image_url": "https://s3-media1.fl.yelpcdn.com/bphoto/GR__trIJi5zuhynUKh7owA/o.jpg", "is_closed": false, "url": "https://www.yelp.com/biz/panda-garden-williamsburg?adjust_creative=asslzE1UV0XuKI953B1vtw&utm_campaign=yelp_api_v3&utm_medium=api_v3_business_search&utm_source=asslzE1UV0XuKI953B1vtw", "review_count": 29, "categories": [{"alias": "chinese", "title": "Chinese"}], "rating": 3.0, "coordinates": {"latitude": 42.4294774979353, "longitude": -72.7925515919924}, "transactions": ["pickup", "delivery"], "price": "$$", "location": {"address1": "49 Main St", "address2": "", "address3": "", "city": "Williamsburg", "zip_code": "01096", "country": "US", "state": "MA", "display_address": ["49 Main St", "Williamsburg, MA 01096"]}, "phone": "+14132688811", "display_phone": "(413) 268-8811", "distance": 13041.748003934525}, {"id": "5kNSVF1ZIFz1yu9U4r2bzw", "alias": "bakers-country-store-conway", "name": "Bakers Country Store", "image_url": "", "is_closed": false, "url": "https://www.yelp.com/biz/bakers-country-store-conway?adjust_creative=asslzE1UV0XuKI953B1vtw&utm_campaign=yelp_api_v3&utm_medium=api_v3_business_search&utm_source=asslzE1UV0XuKI953B1vtw", "review_count": 1, "categories": [{"alias": "breakfast_brunch", "title": "Breakfast & Brunch"}], "rating": 1.0, "coordinates": {"latitude": 42.50851, "longitude": -72.701994}, "transactions": [], "location": {"address1": "101 River St", "address2": "", "address3": "", "city": "Conway", "zip_code": "01341", "country": "US", "state": "MA", "display_address": ["101 River St", "Conway, MA 01341"]}, "phone": "+14133694936", "display_phone": "(413) 369-4936", "distance": 19857.368223106965}, {"id": "8G2C6pDPclfoGHk9gVmu_Q", "alias": "west-lake-gourmet-chinese-restaurant-southampton", "name": "West Lake Gourmet Chinese Restaurant", "image_url": "https://s3-media2.fl.yelpcdn.com/bphoto/nKCivoq17DpEBQu72Du6hw/o.jpg", "is_closed": false, "url": "https://www.yelp.com/biz/west-lake-gourmet-chinese-restaurant-southampton?adjust_creative=asslzE1UV0XuKI953B1vtw&utm_campaign=yelp_api_v3&utm_medium=api_v3_business_search&utm_source=asslzE1UV0XuKI953B1vtw", "review_count": 15, "categories": [{"alias": "chinese", "title": "Chinese"}], "rating": 3.5, "coordinates": {"latitude": 42.252496, "longitude": -72.697897}, "transactions": [], "price": "$$", "location": {"address1": "15 College Hwy", "address2": "", "address3": "", "city": "Southampton", "zip_code": "01073", "country": "US", "state": "MA", "display_address": ["15 College Hwy", "Southampton, MA 01073"]}, "phone": "+14135275207", "display_phone": "(413) 527-5207", "distance": 21187.120018570316}, {"id": "w8Ei4KseWaa6O9ox73Oyfw", "alias": "mikel-coffee-southampton", "name": "Mikel Coffee", "image_url": "https://s3-media1.fl.yelpcdn.com/bphoto/M9qrqmeBR1hum_AcoYdMEg/o.jpg", "is_closed": false, "url": "https://www.yelp.com/biz/mikel-coffee-southampton?adjust_creative=asslzE1UV0XuKI953B1vtw&utm_campaign=yelp_api_v3&utm_medium=api_v3_business_search&utm_source=asslzE1UV0XuKI953B1vtw", "review_count": 11, "categories": [{"alias": "cafes", "title": "Cafes"}], "rating": 4.5, "coordinates": {"latitude": 42.252372, "longitude": -72.69815}, "transactions": [], "location": {"address1": "15 College Hwy", "address2": null, "address3": null, "city": "Southampton", "zip_code": "01073", "country": "US", "state": "MA", "display_address": ["15 College Hwy", "Southampton, MA 01073"]}, "phone": "+14132032442", "display_phone": "(413) 203-2442", "distance": 21182.2191890952}, {"id": "PpYOxFZq2tiveGDysCIloQ", "alias": "great-wall-restaurant-florence", "name": "Great Wall Restaurant", "image_url": "https://s3-media1.fl.yelpcdn.com/bphoto/Eigw8QxWmxXQ-7kuMyQRKQ/o.jpg", "is_closed": false, "url": "https://www.yelp.com/biz/great-wall-restaurant-florence?adjust_creative=asslzE1UV0XuKI953B1vtw&utm_campaign=yelp_api_v3&utm_medium=api_v3_business_search&utm_source=asslzE1UV0XuKI953B1vtw", "review_count": 92, "categories": [{"alias": "chinese", "title": "Chinese"}], "rating": 3.0, "coordinates": {"latitude": 42.3308018, "longitude": -72.6770207}, "transactions": ["delivery"], "price": "$$", "location": {"address1": "178 Pine St", "address2": "", "address3": "", "city": "Florence", "zip_code": "01062", "country": "US", "state": "MA", "display_address": ["178 Pine St", "Florence, MA 01062"]}, "phone": "+14135820399", "display_phone": "(413) 582-0399", "distance": 17866.77014513995}, {"id": "1ktEPo1WxTPUk5WdNGdzaA", "alias": "subway-southampton-7", "name": "Subway", "image_url": "https://s3-media2.fl.yelpcdn.com/bphoto/uYuTee3lvW_R1fsLhyYKJQ/o.jpg", "is_closed": false, "url": "https://www.yelp.com/biz/subway-southampton-7?adjust_creative=asslzE1UV0XuKI953B1vtw&utm_campaign=yelp_api_v3&utm_medium=api_v3_business_search&utm_source=asslzE1UV0XuKI953B1vtw", "review_count": 2, "categories": [{"alias": "sandwiches", "title": "Sandwiches"}], "rating": 3.0, "coordinates": {"latitude": 42.23645, "longitude": -72.7241}, "transactions": [], "price": "$", "location": {"address1": "161 College Hwy", "address2": "", "address3": "", "city": "Southampton", "zip_code": "01073", "country": "US", "state": "MA", "display_address": ["161 College Hwy", "Southampton, MA 01073"]}, "phone": "+14135271199", "display_phone": "(413) 527-1199", "distance": 21123.067912887516}, {"id": "qqA8YX58xnmEXLyanHfdUg", "alias": "stufd-food-truck-brooklyn", "name": "Stuf'd Food Truck", "image_url": "https://s3-media2.fl.yelpcdn.com/bphoto/_Wn0i-tLIOFinw8BPAqxPA/o.jpg", "is_closed": false, "url": "https://www.yelp.com/biz/stufd-food-truck-brooklyn?adjust_creative=asslzE1UV0XuKI953B1vtw&utm_campaign=yelp_api_v3&utm_medium=api_v3_business_search&utm_source=asslzE1UV0XuKI953B1vtw", "review_count": 4, "categories": [{"alias": "sandwiches", "title": "Sandwiches"}, {"alias": "foodtrucks", "title": "Food Trucks"}], "rating": 4.0, "coordinates": {"latitude": 40.7124539, "longitude": -73.9287374}, "transactions": [], "location": {"address1": "178 Varick Ave", "address2": "", "address3": null, "city": "Brooklyn", "zip_code": "11237", "country": "US", "state": "NY", "display_address": ["178 Varick Ave", "Brooklyn, NY 11237"]}, "phone": "+18457091808", "display_phone": "(845) 709-1808", "distance": 205679.7201867083}]