[{"id": "mrnvGU8_BnE6uHKHEG5XYg", "alias": "picasso-restaurant-and-bar-barre", "name": "Picasso Restaurant & Bar", "image_url": "https://s3-media1.fl.yelpcdn.com/bphoto/osSGSQKk7zlNJaKO6gbqtg/o.jpg", "is_closed": false, "url": "https://www.yelp.com/biz/picasso-restaurant-and-bar-barre?adjust_creative=ywY5UnLZrNrRl2b93Ruy_g&utm_campaign=yelp_api_v3&utm_medium=api_v3_business_search&utm_source=ywY5UnLZrNrRl2b93Ruy_g", "review_count": 47, "categories": [{"alias": "newamerican", "title": "American (New)"}, {"alias": "seafood", "title": "Seafood"}], "rating": 4.5, "coordinates": {"latitude": 42.42277, "longitude": -72.1061299}, "transactions": [], "price": "$$", "location": {"address1": "2 Common St", "address2": null, "address3": "", "city": "Barre", "zip_code": "01005", "country": "US", "state": "MA", "display_address": ["2 Common St", "Barre, MA 01005"]}, "phone": "+19783553099", "display_phone": "(978) 355-3099", "distance": 7344.115514628583}, {"id": "G_PPROO9ccur-m-GWzbZmA", "alias": "quabbin-woods-restaurant-petersham", "name": "Quabbin Woods Restaurant", "image_url": "https://s3-media3.fl.yelpcdn.com/bphoto/w6hsjy3EUcuAd17n0h42Eg/o.jpg", "is_closed": false, "url": "https://www.yelp.com/biz/quabbin-woods-restaurant-petersham?adjust_creative=ywY5UnLZrNrRl2b93Ruy_g&utm_campaign=yelp_api_v3&utm_medium=api_v3_business_search&utm_source=ywY5UnLZrNrRl2b93Ruy_g", "review_count": 15, "categories": [{"alias": "newamerican", "title": "American (New)"}, {"alias": "comfortfood", "title": "Comfort Food"}, {"alias": "burgers", "title": "Burgers"}], "rating": 4.0, "coordinates": {"latitude": 42.481931, "longitude": -72.183534}, "transactions": [], "price": "$", "location": {"address1": "8 Barre Rd", "address2": "Ste RT", "address3": "", "city": "Petersham", "zip_code": "01366", "country": "US", "state": "MA", "display_address": ["8 Barre Rd", "Ste RT", "Petersham, MA 01366"]}, "phone": "+19787243288", "display_phone": "(978) 724-3288", "distance": 2481.0890875003774}, {"id": "bSTIM0u6sZuMmS6GX0mTqA", "alias": "stone-cow-brewery-barre", "name": "Stone Cow Brewery", "image_url": "https://s3-media2.fl.yelpcdn.com/bphoto/jMxZg8Vqw33_6aBMFZElCQ/o.jpg", "is_closed": false, "url": "https://www.yelp.com/biz/stone-cow-brewery-barre?adjust_creative=ywY5UnLZrNrRl2b93Ruy_g&utm_campaign=yelp_api_v3&utm_medium=api_v3_business_search&utm_source=ywY5UnLZrNrRl2b93Ruy_g", "review_count": 67, "categories": [{"alias": "breweries", "title": "Breweries"}, {"alias": "tradamerican", "title": "American (Traditional)"}], "rating": 4.5, "coordinates": {"latitude": 42.4247357, "longitude": -72.1242577}, "transactions": [], "price": "$", "location": {"address1": "500 West St", "address2": "Ste B", "address3": null, "city": "Barre", "zip_code": "01005", "country": "US", "state": "MA", "display_address": ["500 West St", "Ste B", "Barre, MA 01005"]}, "phone": "+19782578600", "display_phone": "(978) 257-8600", "distance": 6018.127767177748}, {"id": "gLsN78yTskhjpdHMa6HA3A", "alias": "ice-house-pub-barre", "name": "Ice House Pub", "image_url": "https://s3-media1.fl.yelpcdn.com/bphoto/lnDcvFdVS6GZoOB7_uRaqg/o.jpg", "is_closed": false, "url": "https://www.yelp.com/biz/ice-house-pub-barre?adjust_creative=ywY5UnLZrNrRl2b93Ruy_g&utm_campaign=yelp_api_v3&utm_medium=api_v3_business_search&utm_source=ywY5UnLZrNrRl2b93Ruy_g", "review_count": 40, "categories": [{"alias": "gastropubs", "title": "Gastropubs"}, {"alias": "newamerican", "title": "American (New)"}], "rating": 4.0, "coordinates": {"latitude": 42.4090505140105, "longitude": -72.0973576462425}, "transactions": [], "location": {"address1": "7 Worcester Rd", "address2": "", "address3": null, "city": "Barre", "zip_code": "01005", "country": "US", "state": "MA", "display_address": ["7 Worcester Rd", "Barre, MA 01005"]}, "phone": "+19783553000", "display_phone": "(978) 355-3000", "distance": 8830.838574234667}, {"id": "t7FbgEITiEReUrTte9mJiw", "alias": "clamber-hill-inn-and-restaurant-petersham-2", "name": "Clamber Hill Inn & Restaurant", "image_url": "https://s3-media1.fl.yelpcdn.com/bphoto/7rAzCt1SCY2BB_WPoLwT_g/o.jpg", "is_closed": false, "url": "https://www.yelp.com/biz/clamber-hill-inn-and-restaurant-petersham-2?adjust_creative=ywY5UnLZrNrRl2b93Ruy_g&utm_campaign=yelp_api_v3&utm_medium=api_v3_business_search&utm_source=ywY5UnLZrNrRl2b93Ruy_g", "review_count": 11, "categories": [{"alias": "tradamerican", "title": "American (Traditional)"}, {"alias": "whiskeybars", "title": "Whiskey Bars"}, {"alias": "winetasteclasses", "title": "Wine Tasting Classes"}], "rating": 4.0, "coordinates": {"latitude": 42.5031579313361, "longitude": -72.1865090608826}, "transactions": [], "price": "$$$", "location": {"address1": "111 N Main St", "address2": "", "address3": "", "city": "Petersham", "zip_code": "01366", "country": "US", "state": "MA", "display_address": ["111 N Main St", "Petersham, MA 01366"]}, "phone": "+19787248800", "display_phone": "(978) 724-8800", "distance": 4853.942724828946}, {"id": "3Y9OnIQ55G13AcdxFZkHjw", "alias": "high-tides-seafood-barre", "name": "High Tides Seafood", "image_url": "", "is_closed": false, "url": "https://www.yelp.com/biz/high-tides-seafood-barre?adjust_creative=ywY5UnLZrNrRl2b93Ruy_g&utm_campaign=yelp_api_v3&utm_medium=api_v3_business_search&utm_source=ywY5UnLZrNrRl2b93Ruy_g", "review_count": 7, "categories": [{"alias": "seafood", "title": "Seafood"}, {"alias": "beer_and_wine", "title": "Beer, Wine & Spirits"}, {"alias": "icecream", "title": "Ice Cream & Frozen Yogurt"}], "rating": 4.5, "coordinates": {"latitude": 42.442644144625, "longitude": -72.165020017677}, "transactions": [], "location": {"address1": "2291 West St", "address2": "", "address3": null, "city": "Barre", "zip_code": "01005", "country": "US", "state": "MA", "display_address": ["2291 West St", "Barre, MA 01005"]}, "phone": "+19783556715", "display_phone": "(978) 355-6715", "distance": 2273.019657476977}, {"id": "NSR3gnnaeCJfL99xif_PNQ", "alias": "petersham-country-store-petersham", "name": "Petersham Country Store", "image_url": "https://s3-media2.fl.yelpcdn.com/bphoto/MGNdpq_qs24ltsY9fBcmWQ/o.jpg", "is_closed": false, "url": "https://www.yelp.com/biz/petersham-country-store-petersham?adjust_creative=ywY5UnLZrNrRl2b93Ruy_g&utm_campaign=yelp_api_v3&utm_medium=api_v3_business_search&utm_source=ywY5UnLZrNrRl2b93Ruy_g", "review_count": 29, "categories": [{"alias": "grocery", "title": "Grocery"}, {"alias": "cafes", "title": "Cafes"}, {"alias": "artsandcrafts", "title": "Arts & Crafts"}], "rating": 4.5, "coordinates": {"latitude": 42.48871, "longitude": -72.18573}, "transactions": [], "price": "$$", "location": {"address1": "2 N Main St", "address2": "", "address3": "", "city": "Petersham", "zip_code": "01366", "country": "US", "state": "MA", "display_address": ["2 N Main St", "Petersham, MA 01366"]}, "phone": "+19787240000", "display_phone": "(978) 724-0000", "distance": 3253.5989265444014}, {"id": "lUxVsuNo5syFd_cxEplvaA", "alias": "herricks-tavern-orange", "name": "Herrick's Tavern", "image_url": "https://s3-media1.fl.yelpcdn.com/bphoto/mAHqpOXGI32xph2DHpHtHg/o.jpg", "is_closed": false, "url": "https://www.yelp.com/biz/herricks-tavern-orange?adjust_creative=ywY5UnLZrNrRl2b93Ruy_g&utm_campaign=yelp_api_v3&utm_medium=api_v3_business_search&utm_source=ywY5UnLZrNrRl2b93Ruy_g", "review_count": 49, "categories": [{"alias": "tradamerican", "title": "American (Traditional)"}, {"alias": "sportsbars", "title": "Sports Bars"}], "rating": 4.0, "coordinates": {"latitude": 42.5542299, "longitude": -72.28915}, "transactions": [], "price": "$$", "location": {"address1": "207 Daniel Shays Hwy", "address2": null, "address3": null, "city": "Orange", "zip_code": "01364", "country": "US", "state": "MA", "display_address": ["207 Daniel Shays Hwy", "Orange, MA 01364"]}, "phone": "+19785443902", "display_phone": "(978) 544-3902", "distance": 13798.720766405102}, {"id": "ykJGWukwghYMNPwamxCj2A", "alias": "jenkins-inn-and-restaurant-barre", "name": "Jenkins Inn & Restaurant", "image_url": "https://s3-media2.fl.yelpcdn.com/bphoto/wkYdN4OoO_OY3LBUeV6v2Q/o.jpg", "is_closed": false, "url": "https://www.yelp.com/biz/jenkins-inn-and-restaurant-barre?adjust_creative=ywY5UnLZrNrRl2b93Ruy_g&utm_campaign=yelp_api_v3&utm_medium=api_v3_business_search&utm_source=ywY5UnLZrNrRl2b93Ruy_g", "review_count": 6, "categories": [{"alias": "newamerican", "title": "American (New)"}, {"alias": "bedbreakfast", "title": "Bed & Breakfast"}], "rating": 4.5, "coordinates": {"latitude": 42.423309, "longitude": -72.107398}, "transactions": [], "price": "$$", "location": {"address1": "7 West St", "address2": "", "address3": "", "city": "Barre", "zip_code": "01005", "country": "US", "state": "MA", "display_address": ["7 West St", "Barre, MA 01005"]}, "phone": "+19783556444", "display_phone": "(978) 355-6444", "distance": 7209.794345081599}, {"id": "75a3UzxS-M6tL8W5Berg9g", "alias": "beckis-bistro-barre-2", "name": "Becki's Bistro", "image_url": "https://s3-media4.fl.yelpcdn.com/bphoto/8Ed8-teABQ7se6rO_cad3w/o.jpg", "is_closed": false, "url": "https://www.yelp.com/biz/beckis-bistro-barre-2?adjust_creative=ywY5UnLZrNrRl2b93Ruy_g&utm_campaign=yelp_api_v3&utm_medium=api_v3_business_search&utm_source=ywY5UnLZrNrRl2b93Ruy_g", "review_count": 27, "categories": [{"alias": "cafes", "title": "Cafes"}, {"alias": "breakfast_brunch", "title": "Breakfast & Brunch"}, {"alias": "burgers", "title": "Burgers"}], "rating": 4.5, "coordinates": {"latitude": 42.4224345, "longitude": -72.1044324}, "transactions": [], "price": "$$", "location": {"address1": "25 Exchange St", "address2": "", "address3": "", "city": "Barre", "zip_code": "01005", "country": "US", "state": "MA", "display_address": ["25 Exchange St", "Barre, MA 01005"]}, "phone": "+19783550012", "display_phone": "(978) 355-0012", "distance": 7473.500629004012}, {"id": "K0o9LxfijA6wNfKOBUdgVg", "alias": "j-and-j-family-restaurant-barre", "name": "J & J Family Restaurant", "image_url": "https://s3-media3.fl.yelpcdn.com/bphoto/hP0oshzQyKCXLeWljCmuMg/o.jpg", "is_closed": false, "url": "https://www.yelp.com/biz/j-and-j-family-restaurant-barre?adjust_creative=ywY5UnLZrNrRl2b93Ruy_g&utm_campaign=yelp_api_v3&utm_medium=api_v3_business_search&utm_source=ywY5UnLZrNrRl2b93Ruy_g", "review_count": 10, "categories": [{"alias": "tradamerican", "title": "American (Traditional)"}], "rating": 4.0, "coordinates": {"latitude": 42.391973, "longitude": -72.0819719}, "transactions": [], "price": "$$", "location": {"address1": "815 Worcester Rd", "address2": "", "address3": "", "city": "Barre", "zip_code": "01005", "country": "US", "state": "MA", "display_address": ["815 Worcester Rd", "Barre, MA 01005"]}, "phone": "+19783552122", "display_phone": "(978) 355-2122", "distance": 11035.331372184613}, {"id": "2LDyfeKYEV033znbbUjJTg", "alias": "harding-allen-estate-barre", "name": "Harding Allen Estate", "image_url": "https://s3-media3.fl.yelpcdn.com/bphoto/HOird8RBddI8wTn-8SFy2Q/o.jpg", "is_closed": false, "url": "https://www.yelp.com/biz/harding-allen-estate-barre?adjust_creative=ywY5UnLZrNrRl2b93Ruy_g&utm_campaign=yelp_api_v3&utm_medium=api_v3_business_search&utm_source=ywY5UnLZrNrRl2b93Ruy_g", "review_count": 14, "categories": [{"alias": "restaurants", "title": "Restaurants"}, {"alias": "venues", "title": "Venues & Event Spaces"}], "rating": 3.0, "coordinates": {"latitude": 42.42226, "longitude": -72.10778}, "transactions": [], "price": "$$", "location": {"address1": "59 Allen Dr", "address2": "", "address3": "", "city": "Barre", "zip_code": "01005", "country": "US", "state": "MA", "display_address": ["59 Allen Dr", "Barre, MA 01005"]}, "phone": "+19783554920", "display_phone": "(978) 355-4920", "distance": 7290.987691847617}, {"id": "4Jt27guQdNKXH3pJ9u1m5A", "alias": "barre-mill-restaurant-south-barre-3", "name": "Barre Mill Restaurant", "image_url": "https://s3-media4.fl.yelpcdn.com/bphoto/VIfSRtantMJBsa2O3hE2IQ/o.jpg", "is_closed": false, "url": "https://www.yelp.com/biz/barre-mill-restaurant-south-barre-3?adjust_creative=ywY5UnLZrNrRl2b93Ruy_g&utm_campaign=yelp_api_v3&utm_medium=api_v3_business_search&utm_source=ywY5UnLZrNrRl2b93Ruy_g", "review_count": 12, "categories": [{"alias": "italian", "title": "Italian"}, {"alias": "pizza", "title": "Pizza"}, {"alias": "tradamerican", "title": "American (Traditional)"}], "rating": 2.5, "coordinates": {"latitude": 42.3840348, "longitude": -72.1004294}, "transactions": [], "price": "$$", "location": {"address1": "90 Main St", "address2": null, "address3": null, "city": "South Barre", "zip_code": "01074", "country": "US", "state": "MA", "display_address": ["90 Main St", "South Barre, MA 01074"]}, "phone": "+19783552987", "display_phone": "(978) 355-2987", "distance": 10664.965988742437}, {"id": "NPQI9o4Gru4P1FYqfJ_NcA", "alias": "yummy-garden-barre", "name": "Yummy Garden", "image_url": "https://s3-media4.fl.yelpcdn.com/bphoto/uGJpVlkiNkjd5rYt23MpRA/o.jpg", "is_closed": false, "url": "https://www.yelp.com/biz/yummy-garden-barre?adjust_creative=ywY5UnLZrNrRl2b93Ruy_g&utm_campaign=yelp_api_v3&utm_medium=api_v3_business_search&utm_source=ywY5UnLZrNrRl2b93Ruy_g", "review_count": 17, "categories": [{"alias": "chinese", "title": "Chinese"}], "rating": 4.0, "coordinates": {"latitude": 42.3842252790928, "longitude": -72.098863273859}, "transactions": [], "price": "$", "location": {"address1": "57 Main St", "address2": "", "address3": "", "city": "Barre", "zip_code": "01005", "country": "US", "state": "MA", "display_address": ["57 Main St", "Barre, MA 01005"]}, "phone": "+19783552022", "display_phone": "(978) 355-2022", "distance": 10733.006998364554}, {"id": "J5BRVzL0o2u4tCkUZUUM2Q", "alias": "kozy-kabin-restaurant-barre", "name": "Kozy Kabin Restaurant", "image_url": "https://s3-media2.fl.yelpcdn.com/bphoto/MCNZ8x6RognRL9SP6zIbPQ/o.jpg", "is_closed": false, "url": "https://www.yelp.com/biz/kozy-kabin-restaurant-barre?adjust_creative=ywY5UnLZrNrRl2b93Ruy_g&utm_campaign=yelp_api_v3&utm_medium=api_v3_business_search&utm_source=ywY5UnLZrNrRl2b93Ruy_g", "review_count": 3, "categories": [{"alias": "restaurants", "title": "Restaurants"}], "rating": 3.5, "coordinates": {"latitude": 42.3913459777832, "longitude": -72.0739517211914}, "transactions": [], "price": "$", "location": {"address1": "1067 Worcester Rd", "address2": "", "address3": "", "city": "Barre", "zip_code": "01005", "country": "US", "state": "MA", "display_address": ["1067 Worcester Rd", "Barre, MA 01005"]}, "phone": "+19783556264", "display_phone": "(978) 355-6264", "distance": 11570.83403735188}, {"id": "yiV75hVHG23qJ3ESA1MzRg", "alias": "202-grill-nos-age-orange", "name": "202 Grill Nos/Age", "image_url": "https://s3-media3.fl.yelpcdn.com/bphoto/opbKFoo58C8lRuy_kJ53VQ/o.jpg", "is_closed": false, "url": "https://www.yelp.com/biz/202-grill-nos-age-orange?adjust_creative=ywY5UnLZrNrRl2b93Ruy_g&utm_campaign=yelp_api_v3&utm_medium=api_v3_business_search&utm_source=ywY5UnLZrNrRl2b93Ruy_g", "review_count": 8, "categories": [{"alias": "tradamerican", "title": "American (Traditional)"}], "rating": 3.5, "coordinates": {"latitude": 42.55423, "longitude": -72.28915}, "transactions": [], "price": "$$$", "location": {"address1": "207 Daniel Shay Hwy", "address2": "Route 202", "address3": "", "city": "Orange", "zip_code": "01364", "country": "US", "state": "MA", "display_address": ["207 Daniel Shay Hwy", "Route 202", "Orange, MA 01364"]}, "phone": "+19785443902", "display_phone": "(978) 544-3902", "distance": 13798.720766405102}, {"id": "yXkjcWlkcOCYP3CsfT-mEA", "alias": "red-tomato-barre", "name": "Red Tomato", "image_url": "", "is_closed": false, "url": "https://www.yelp.com/biz/red-tomato-barre?adjust_creative=ywY5UnLZrNrRl2b93Ruy_g&utm_campaign=yelp_api_v3&utm_medium=api_v3_business_search&utm_source=ywY5UnLZrNrRl2b93Ruy_g", "review_count": 1, "categories": [{"alias": "pizza", "title": "Pizza"}], "rating": 5.0, "coordinates": {"latitude": 42.42252, "longitude": -72.10426}, "transactions": [], "location": {"address1": "11 Exchange St", "address2": "", "address3": null, "city": "Barre", "zip_code": "01005", "country": "US", "state": "MA", "display_address": ["11 Exchange St", "Barre, MA 01005"]}, "phone": "+19783553536", "display_phone": "(978) 355-3536", "distance": 7482.380494761584}, {"id": "5ld1TVlEcddnCbeq0ulxkQ", "alias": "barre-pizza-barre", "name": "Barre Pizza", "image_url": "https://s3-media1.fl.yelpcdn.com/bphoto/Lk1bGeWFqv1WyoReOh9jyA/o.jpg", "is_closed": false, "url": "https://www.yelp.com/biz/barre-pizza-barre?adjust_creative=ywY5UnLZrNrRl2b93Ruy_g&utm_campaign=yelp_api_v3&utm_medium=api_v3_business_search&utm_source=ywY5UnLZrNrRl2b93Ruy_g", "review_count": 12, "categories": [{"alias": "pizza", "title": "Pizza"}, {"alias": "salad", "title": "Salad"}, {"alias": "sandwiches", "title": "Sandwiches"}], "rating": 3.0, "coordinates": {"latitude": 42.42168, "longitude": -72.10447}, "transactions": [], "price": "$$", "location": {"address1": "10 Moulton St", "address2": "", "address3": "", "city": "Barre", "zip_code": "01005", "country": "US", "state": "MA", "display_address": ["10 Moulton St", "Barre, MA 01005"]}, "phone": "+19783554595", "display_phone": "(978) 355-4595", "distance": 7517.422301149641}, {"id": "z5SDOfUA5zNhGmyXIAXe8A", "alias": "northeast-pizza-barre", "name": "Northeast Pizza", "image_url": "https://s3-media1.fl.yelpcdn.com/bphoto/tNBoaH8M7BxY1upCowwS4A/o.jpg", "is_closed": false, "url": "https://www.yelp.com/biz/northeast-pizza-barre?adjust_creative=ywY5UnLZrNrRl2b93Ruy_g&utm_campaign=yelp_api_v3&utm_medium=api_v3_business_search&utm_source=ywY5UnLZrNrRl2b93Ruy_g", "review_count": 11, "categories": [{"alias": "pizza", "title": "Pizza"}], "rating": 2.5, "coordinates": {"latitude": 42.4102211, "longitude": -72.0980759}, "transactions": [], "price": "$", "location": {"address1": "570 Summer St", "address2": null, "address3": null, "city": "Barre", "zip_code": "01005", "country": "US", "state": "MA", "display_address": ["570 Summer St", "Barre, MA 01005"]}, "phone": "+19783554333", "display_phone": "(978) 355-4333", "distance": 8710.435828116259}, {"id": "ulTdoEH6AfozwdGeAfHL0A", "alias": "pine-ridge-snack-bar-barre", "name": "Pine Ridge Snack Bar", "image_url": "", "is_closed": false, "url": "https://www.yelp.com/biz/pine-ridge-snack-bar-barre?adjust_creative=ywY5UnLZrNrRl2b93Ruy_g&utm_campaign=yelp_api_v3&utm_medium=api_v3_business_search&utm_source=ywY5UnLZrNrRl2b93Ruy_g", "review_count": 2, "categories": [{"alias": "breakfast_brunch", "title": "Breakfast & Brunch"}], "rating": 3.0, "coordinates": {"latitude": 42.4226265, "longitude": -72.1043243}, "transactions": [], "location": {"address1": "25 Exchange St", "address2": null, "address3": null, "city": "Barre", "zip_code": "01005", "country": "US", "state": "MA", "display_address": ["25 Exchange St", "Barre, MA 01005"]}, "phone": "+19783550012", "display_phone": "(978) 355-0012", "distance": 7478.094036240214}]