[{"id": "SQ8HF9mJ39f04WN6NSaw7A", "alias": "lake-george-tavern-wales-2", "name": "Lake George Tavern", "image_url": "https://s3-media4.fl.yelpcdn.com/bphoto/ahxT5yqU6nYh2pW2zAAJww/o.jpg", "is_closed": false, "url": "https://www.yelp.com/biz/lake-george-tavern-wales-2?adjust_creative=asslzE1UV0XuKI953B1vtw&utm_campaign=yelp_api_v3&utm_medium=api_v3_business_search&utm_source=asslzE1UV0XuKI953B1vtw", "review_count": 6, "categories": [{"alias": "pizza", "title": "Pizza"}, {"alias": "seafood", "title": "Seafood"}, {"alias": "italian", "title": "Italian"}], "rating": 3.5, "coordinates": {"latitude": 42.0641008810944, "longitude": -72.2226690128446}, "transactions": [], "location": {"address1": "2 Main St", "address2": "", "address3": null, "city": "Wales", "zip_code": "01081", "country": "US", "state": "MA", "display_address": ["2 Main St", "Wales, MA 01081"]}, "phone": "+14132450103", "display_phone": "(413) 245-0103", "distance": 760.501670291128}, {"id": "UVo_ZqEbVZ3etybVhYOmLw", "alias": "wales-irish-pub-holland", "name": "Wales Irish Pub", "image_url": "https://s3-media2.fl.yelpcdn.com/bphoto/GpZVo9pR6Itx3P8e5697Zg/o.jpg", "is_closed": false, "url": "https://www.yelp.com/biz/wales-irish-pub-holland?adjust_creative=asslzE1UV0XuKI953B1vtw&utm_campaign=yelp_api_v3&utm_medium=api_v3_business_search&utm_source=asslzE1UV0XuKI953B1vtw", "review_count": 15, "categories": [{"alias": "irish_pubs", "title": "Irish Pub"}, {"alias": "tradamerican", "title": "American (Traditional)"}, {"alias": "diners", "title": "Diners"}], "rating": 4.5, "coordinates": {"latitude": 42.0777236263114, "longitude": -72.2023394443603}, "transactions": [], "price": "$$", "location": {"address1": "16 Holland Rd", "address2": "", "address3": "", "city": "Holland", "zip_code": "01521", "country": "US", "state": "MA", "display_address": ["16 Holland Rd", "Holland, MA 01521"]}, "phone": "+14132459730", "display_phone": "(413) 245-9730", "distance": 2978.7267590268775}, {"id": "R-J4SqIZeJD_iHXvTUnqbA", "alias": "traveler-restaurant-union", "name": "Traveler Restaurant", "image_url": "https://s3-media4.fl.yelpcdn.com/bphoto/_84x86CPulAnC3OjOMZ4FQ/o.jpg", "is_closed": false, "url": "https://www.yelp.com/biz/traveler-restaurant-union?adjust_creative=asslzE1UV0XuKI953B1vtw&utm_campaign=yelp_api_v3&utm_medium=api_v3_business_search&utm_source=asslzE1UV0XuKI953B1vtw", "review_count": 182, "categories": [{"alias": "tradamerican", "title": "American (Traditional)"}], "rating": 4.0, "coordinates": {"latitude": 42.0253299, "longitude": -72.13991}, "transactions": [], "price": "$$", "location": {"address1": "1257 Buckley Hwy", "address2": "", "address3": "", "city": "Union", "zip_code": "06076", "country": "US", "state": "CT", "display_address": ["1257 Buckley Hwy", "Union, CT 06076"]}, "phone": "+18606844920", "display_phone": "(860) 684-4920", "distance": 8568.00622497424}, {"id": "P4qT5mxnKXKpdE4G3WIUYA", "alias": "dianes-villa-nova-holland", "name": "Dianes Villa Nova", "image_url": "https://s3-media3.fl.yelpcdn.com/bphoto/Xs8GdYVdbJAcdCsR6WLUfg/o.jpg", "is_closed": false, "url": "https://www.yelp.com/biz/dianes-villa-nova-holland?adjust_creative=asslzE1UV0XuKI953B1vtw&utm_campaign=yelp_api_v3&utm_medium=api_v3_business_search&utm_source=asslzE1UV0XuKI953B1vtw", "review_count": 24, "categories": [{"alias": "italian", "title": "Italian"}], "rating": 4.0, "coordinates": {"latitude": 42.0660911, "longitude": -72.1638886}, "transactions": [], "price": "$$", "location": {"address1": "5 Brimfield Rd", "address2": "", "address3": "", "city": "Holland", "zip_code": "01521", "country": "US", "state": "MA", "display_address": ["5 Brimfield Rd", "Holland, MA 01521"]}, "phone": "+14132459090", "display_phone": "(413) 245-9090", "distance": 5588.087336334501}, {"id": "aJleDSvGLb0dLrH8GPbVPg", "alias": "westview-farm-creamery-monson", "name": "Westview Farm Creamery", "image_url": "https://s3-media3.fl.yelpcdn.com/bphoto/g1oJzsOrHki5eDoyXoNsXA/o.jpg", "is_closed": false, "url": "https://www.yelp.com/biz/westview-farm-creamery-monson?adjust_creative=asslzE1UV0XuKI953B1vtw&utm_campaign=yelp_api_v3&utm_medium=api_v3_business_search&utm_source=asslzE1UV0XuKI953B1vtw", "review_count": 44, "categories": [{"alias": "icecream", "title": "Ice Cream & Frozen Yogurt"}, {"alias": "tradamerican", "title": "American (Traditional)"}], "rating": 4.0, "coordinates": {"latitude": 42.09952, "longitude": -72.2844}, "transactions": [], "price": "$", "location": {"address1": "111 E Hill Rd", "address2": "", "address3": "", "city": "Monson", "zip_code": "01057", "country": "US", "state": "MA", "display_address": ["111 E Hill Rd", "Monson, MA 01057"]}, "phone": "+14132675355", "display_phone": "(413) 267-5355", "distance": 6062.582327306709}, {"id": "wiizkcrFrDbwJBHvAWBUOw", "alias": "rics-place-stafford-springs-2", "name": "Ric's Place", "image_url": "https://s3-media1.fl.yelpcdn.com/bphoto/conD4lf0unpDrqjKdCPKeg/o.jpg", "is_closed": false, "url": "https://www.yelp.com/biz/rics-place-stafford-springs-2?adjust_creative=asslzE1UV0XuKI953B1vtw&utm_campaign=yelp_api_v3&utm_medium=api_v3_business_search&utm_source=asslzE1UV0XuKI953B1vtw", "review_count": 5, "categories": [{"alias": "bars", "title": "Bars"}, {"alias": "tradamerican", "title": "American (Traditional)"}, {"alias": "burgers", "title": "Burgers"}], "rating": 5.0, "coordinates": {"latitude": 41.993641, "longitude": -72.271882}, "transactions": [], "price": "$$", "location": {"address1": "328 East St", "address2": "", "address3": "", "city": "Stafford Springs", "zip_code": "06076", "country": "US", "state": "CT", "display_address": ["328 East St", "Stafford Springs, CT 06076"]}, "phone": "+18608519911", "display_phone": "(860) 851-9911", "distance": 8283.215538523937}, {"id": "aGFyqgUCXsusLVNCxZCGBw", "alias": "apple-barn-cafe-brimfield", "name": "Apple Barn Cafe", "image_url": "https://s3-media4.fl.yelpcdn.com/bphoto/3I9H6VSB6Aj4r2Q4WefGhw/o.jpg", "is_closed": false, "url": "https://www.yelp.com/biz/apple-barn-cafe-brimfield?adjust_creative=asslzE1UV0XuKI953B1vtw&utm_campaign=yelp_api_v3&utm_medium=api_v3_business_search&utm_source=asslzE1UV0XuKI953B1vtw", "review_count": 31, "categories": [{"alias": "cafes", "title": "Cafes"}], "rating": 4.5, "coordinates": {"latitude": 42.120546, "longitude": -72.216371}, "transactions": [], "price": "$", "location": {"address1": "52 Palmer Rd", "address2": null, "address3": null, "city": "Brimfield", "zip_code": "01010", "country": "US", "state": "MA", "display_address": ["52 Palmer Rd", "Brimfield, MA 01010"]}, "phone": "+14132454575", "display_phone": "(413) 245-4575", "distance": 6650.922287071395}, {"id": "Dlc_rrsrn7dBsnSOk1K0rA", "alias": "main-street-tavern-monson", "name": "Main Street Tavern", "image_url": "https://s3-media2.fl.yelpcdn.com/bphoto/A_2LpBoslXhrYltOad_VLw/o.jpg", "is_closed": false, "url": "https://www.yelp.com/biz/main-street-tavern-monson?adjust_creative=asslzE1UV0XuKI953B1vtw&utm_campaign=yelp_api_v3&utm_medium=api_v3_business_search&utm_source=asslzE1UV0XuKI953B1vtw", "review_count": 9, "categories": [{"alias": "beer_and_wine", "title": "Beer, Wine & Spirits"}, {"alias": "tapasmallplates", "title": "Tapas/Small Plates"}, {"alias": "sandwiches", "title": "Sandwiches"}], "rating": 4.0, "coordinates": {"latitude": 42.0961932, "longitude": -72.3123868}, "transactions": [], "location": {"address1": "218 Main St", "address2": "", "address3": null, "city": "Monson", "zip_code": "01057", "country": "US", "state": "MA", "display_address": ["218 Main St", "Monson, MA 01057"]}, "phone": "+14138939078", "display_phone": "(413) 893-9078", "distance": 7705.42805906773}, {"id": "o3g3py94erorbByKE47i2g", "alias": "marias-pizzeria-and-seafood-monson", "name": "Maria's Pizzeria & Seafood", "image_url": "https://s3-media1.fl.yelpcdn.com/bphoto/RepwC3NKpAJLyYzPQqUCHA/o.jpg", "is_closed": false, "url": "https://www.yelp.com/biz/marias-pizzeria-and-seafood-monson?adjust_creative=asslzE1UV0XuKI953B1vtw&utm_campaign=yelp_api_v3&utm_medium=api_v3_business_search&utm_source=asslzE1UV0XuKI953B1vtw", "review_count": 16, "categories": [{"alias": "seafood", "title": "Seafood"}, {"alias": "pizza", "title": "Pizza"}], "rating": 4.5, "coordinates": {"latitude": 42.104267, "longitude": -72.317604}, "transactions": [], "price": "$$", "location": {"address1": "52 Main St", "address2": "", "address3": "", "city": "Monson", "zip_code": "01057", "country": "US", "state": "MA", "display_address": ["52 Main St", "Monson, MA 01057"]}, "phone": "+14132670111", "display_phone": "(413) 267-0111", "distance": 8544.894488926482}, {"id": "ooC2guPCI2B1e9Yxg7XBgw", "alias": "salernos-taste-of-philadelphia-monson-2", "name": "Salerno's Taste of Philadelphia", "image_url": "https://s3-media3.fl.yelpcdn.com/bphoto/I4zfMyAynhDje0hzSsTSqA/o.jpg", "is_closed": false, "url": "https://www.yelp.com/biz/salernos-taste-of-philadelphia-monson-2?adjust_creative=asslzE1UV0XuKI953B1vtw&utm_campaign=yelp_api_v3&utm_medium=api_v3_business_search&utm_source=asslzE1UV0XuKI953B1vtw", "review_count": 7, "categories": [{"alias": "icecream", "title": "Ice Cream & Frozen Yogurt"}, {"alias": "gelato", "title": "Gelato"}, {"alias": "sandwiches", "title": "Sandwiches"}], "rating": 4.5, "coordinates": {"latitude": 42.0963302033287, "longitude": -72.3127286916714}, "transactions": [], "location": {"address1": "223 Main St", "address2": "", "address3": null, "city": "Monson", "zip_code": "01057", "country": "US", "state": "MA", "display_address": ["223 Main St", "Monson, MA 01057"]}, "phone": "+14138939444", "display_phone": "(413) 893-9444", "distance": 7739.239001239575}, {"id": "AbtBV17tzg0-IqHnydKqsw", "alias": "francescos-restaurant-brimfield", "name": "Francesco's Restaurant", "image_url": "https://s3-media1.fl.yelpcdn.com/bphoto/1EZ14aKOmBthUK6d94z7Zg/o.jpg", "is_closed": false, "url": "https://www.yelp.com/biz/francescos-restaurant-brimfield?adjust_creative=asslzE1UV0XuKI953B1vtw&utm_campaign=yelp_api_v3&utm_medium=api_v3_business_search&utm_source=asslzE1UV0XuKI953B1vtw", "review_count": 43, "categories": [{"alias": "italian", "title": "Italian"}, {"alias": "pizza", "title": "Pizza"}], "rating": 3.5, "coordinates": {"latitude": 42.1200899, "longitude": -72.2150277}, "transactions": [], "price": "$$", "location": {"address1": "45 Palmer Rd", "address2": "", "address3": "", "city": "Brimfield", "zip_code": "01010", "country": "US", "state": "MA", "display_address": ["45 Palmer Rd", "Brimfield, MA 01010"]}, "phone": "+14132454640", "display_phone": "(413) 245-4640", "distance": 6622.718269360674}, {"id": "IRgfRxgOYrAUAKckb22N1A", "alias": "charlies-diner-brimfield", "name": "Charlie's Diner", "image_url": "https://s3-media1.fl.yelpcdn.com/bphoto/RU4nB5aESMd3EfQZjYzUUg/o.jpg", "is_closed": false, "url": "https://www.yelp.com/biz/charlies-diner-brimfield?adjust_creative=asslzE1UV0XuKI953B1vtw&utm_campaign=yelp_api_v3&utm_medium=api_v3_business_search&utm_source=asslzE1UV0XuKI953B1vtw", "review_count": 2, "categories": [{"alias": "tradamerican", "title": "American (Traditional)"}, {"alias": "breakfast_brunch", "title": "Breakfast & Brunch"}, {"alias": "diners", "title": "Diners"}], "rating": 4.0, "coordinates": {"latitude": 42.1219487485498, "longitude": -72.2029420360923}, "transactions": [], "location": {"address1": "17 Main St", "address2": "", "address3": null, "city": "Brimfield", "zip_code": "01010", "country": "US", "state": "MA", "display_address": ["17 Main St", "Brimfield, MA 01010"]}, "phone": "+14132457711", "display_phone": "(413) 245-7711", "distance": 7089.521137458072}, {"id": "2lPx57IP0188-v2tPlJw-Q", "alias": "new-china-monson", "name": "New China", "image_url": "https://s3-media3.fl.yelpcdn.com/bphoto/Qf9rO6YsSe8l8thvXJWl0g/o.jpg", "is_closed": false, "url": "https://www.yelp.com/biz/new-china-monson?adjust_creative=asslzE1UV0XuKI953B1vtw&utm_campaign=yelp_api_v3&utm_medium=api_v3_business_search&utm_source=asslzE1UV0XuKI953B1vtw", "review_count": 2, "categories": [{"alias": "chinese", "title": "Chinese"}, {"alias": "seafood", "title": "Seafood"}, {"alias": "noodles", "title": "Noodles"}], "rating": 4.0, "coordinates": {"latitude": 42.0976973187631, "longitude": -72.3157599121258}, "transactions": ["pickup", "delivery"], "location": {"address1": "123 Main St", "address2": "", "address3": "", "city": "Monson", "zip_code": "01057", "country": "US", "state": "MA", "display_address": ["123 Main St", "Monson, MA 01057"]}, "phone": "+14132670505", "display_phone": "(413) 267-0505", "distance": 8031.810478517524}, {"id": "ZJo82cXL2ocRUPjbuSvxmQ", "alias": "monson-italian-pizza-monson", "name": "Monson Italian Pizza", "image_url": "https://s3-media1.fl.yelpcdn.com/bphoto/J0j62N81ieBqHR8TanmEiQ/o.jpg", "is_closed": false, "url": "https://www.yelp.com/biz/monson-italian-pizza-monson?adjust_creative=asslzE1UV0XuKI953B1vtw&utm_campaign=yelp_api_v3&utm_medium=api_v3_business_search&utm_source=asslzE1UV0XuKI953B1vtw", "review_count": 15, "categories": [{"alias": "italian", "title": "Italian"}, {"alias": "pizza", "title": "Pizza"}], "rating": 4.0, "coordinates": {"latitude": 42.0985418558121, "longitude": -72.3145960271358}, "transactions": [], "location": {"address1": "136 Main St", "address2": "", "address3": "", "city": "Monson", "zip_code": "01057", "country": "US", "state": "MA", "display_address": ["136 Main St", "Monson, MA 01057"]}, "phone": "+14132679792", "display_phone": "(413) 267-9792", "distance": 8035.26837991418}, {"id": "OiVSoTv67Te99DAk73_abg", "alias": "beth-family-dining-monson", "name": "Beth Family Dining", "image_url": "https://s3-media1.fl.yelpcdn.com/bphoto/GTVFMcNFvxNmrdTMeW8tjw/o.jpg", "is_closed": false, "url": "https://www.yelp.com/biz/beth-family-dining-monson?adjust_creative=asslzE1UV0XuKI953B1vtw&utm_campaign=yelp_api_v3&utm_medium=api_v3_business_search&utm_source=asslzE1UV0XuKI953B1vtw", "review_count": 6, "categories": [{"alias": "diners", "title": "Diners"}], "rating": 3.0, "coordinates": {"latitude": 42.0990982, "longitude": -72.3160934}, "transactions": [], "price": "$", "location": {"address1": "107 Main St", "address2": null, "address3": null, "city": "Monson", "zip_code": "01057", "country": "US", "state": "MA", "display_address": ["107 Main St", "Monson, MA 01057"]}, "phone": "+14132679641", "display_phone": "(413) 267-9641", "distance": 8134.600903828609}, {"id": "yAZHUhdwTi2ygoFS_J4F0g", "alias": "maine-attraction-holland", "name": "Maine Attraction", "image_url": "https://s3-media2.fl.yelpcdn.com/bphoto/NVkj_B7kO8QmwJxWG4azsA/o.jpg", "is_closed": false, "url": "https://www.yelp.com/biz/maine-attraction-holland?adjust_creative=asslzE1UV0XuKI953B1vtw&utm_campaign=yelp_api_v3&utm_medium=api_v3_business_search&utm_source=asslzE1UV0XuKI953B1vtw", "review_count": 35, "categories": [{"alias": "seafood", "title": "Seafood"}, {"alias": "icecream", "title": "Ice Cream & Frozen Yogurt"}, {"alias": "tradamerican", "title": "American (Traditional)"}], "rating": 3.0, "coordinates": {"latitude": 42.0582043, "longitude": -72.1612952}, "transactions": [], "price": "$$", "location": {"address1": "154 Mashapaug Rd", "address2": "", "address3": "", "city": "Holland", "zip_code": "01521", "country": "US", "state": "MA", "display_address": ["154 Mashapaug Rd", "Holland, MA 01521"]}, "phone": "+14132456043", "display_phone": "(413) 245-6043", "distance": 5795.451242114427}, {"id": "uNVJBRZSTtjrKbF7eb0IdQ", "alias": "the-mug-n-muffin-monson", "name": "The Mug 'N' Muffin", "image_url": "https://s3-media4.fl.yelpcdn.com/bphoto/MwaXfqhL8eabnw9u8f9NiQ/o.jpg", "is_closed": false, "url": "https://www.yelp.com/biz/the-mug-n-muffin-monson?adjust_creative=asslzE1UV0XuKI953B1vtw&utm_campaign=yelp_api_v3&utm_medium=api_v3_business_search&utm_source=asslzE1UV0XuKI953B1vtw", "review_count": 23, "categories": [{"alias": "breakfast_brunch", "title": "Breakfast & Brunch"}, {"alias": "cafes", "title": "Cafes"}], "rating": 4.0, "coordinates": {"latitude": 42.1127899, "longitude": -72.31469}, "transactions": [], "price": "$", "location": {"address1": "25 Palmer Rd", "address2": "", "address3": "", "city": "Monson", "zip_code": "01057", "country": "US", "state": "MA", "display_address": ["25 Palmer Rd", "Monson, MA 01057"]}, "phone": "+14132674300", "display_phone": "(413) 267-4300", "distance": 8917.332946459699}, {"id": "P3GSgNPUBIVmkGJTil5Wwg", "alias": "athens-pizza-brimfield", "name": "Athens Pizza", "image_url": "https://s3-media1.fl.yelpcdn.com/bphoto/jttJHc-xQMWnq1Zod5wIYA/o.jpg", "is_closed": false, "url": "https://www.yelp.com/biz/athens-pizza-brimfield?adjust_creative=asslzE1UV0XuKI953B1vtw&utm_campaign=yelp_api_v3&utm_medium=api_v3_business_search&utm_source=asslzE1UV0XuKI953B1vtw", "review_count": 10, "categories": [{"alias": "pizza", "title": "Pizza"}], "rating": 3.5, "coordinates": {"latitude": 42.11982, "longitude": -72.19916}, "transactions": [], "price": "$", "location": {"address1": "26 Sturbridge Rd", "address2": "", "address3": "", "city": "Brimfield", "zip_code": "01010", "country": "US", "state": "MA", "display_address": ["26 Sturbridge Rd", "Brimfield, MA 01010"]}, "phone": "+14132459437", "display_phone": "(413) 245-9437", "distance": 6994.31288855899}, {"id": "Io4C5tUwnb_YzeaMXHBqBA", "alias": "shuckin-truck-narragansett-2", "name": "Shuckin Truck", "image_url": "https://s3-media2.fl.yelpcdn.com/bphoto/r7QRORfe9UYVS7GGzUm9DQ/o.jpg", "is_closed": false, "url": "https://www.yelp.com/biz/shuckin-truck-narragansett-2?adjust_creative=asslzE1UV0XuKI953B1vtw&utm_campaign=yelp_api_v3&utm_medium=api_v3_business_search&utm_source=asslzE1UV0XuKI953B1vtw", "review_count": 24, "categories": [{"alias": "foodtrucks", "title": "Food Trucks"}, {"alias": "seafood", "title": "Seafood"}], "rating": 4.5, "coordinates": {"latitude": 41.4274482727051, "longitude": -71.4597778320313}, "transactions": [], "price": "$$", "location": {"address1": "", "address2": "", "address3": "", "city": "Narragansett", "zip_code": "02882", "country": "US", "state": "RI", "display_address": ["Narragansett, RI 02882"]}, "phone": "+14017415953", "display_phone": "(401) 741-5953", "distance": 96091.08321759714}, {"id": "qqA8YX58xnmEXLyanHfdUg", "alias": "stufd-food-truck-brooklyn", "name": "Stuf'd Food Truck", "image_url": "https://s3-media2.fl.yelpcdn.com/bphoto/_Wn0i-tLIOFinw8BPAqxPA/o.jpg", "is_closed": false, "url": "https://www.yelp.com/biz/stufd-food-truck-brooklyn?adjust_creative=asslzE1UV0XuKI953B1vtw&utm_campaign=yelp_api_v3&utm_medium=api_v3_business_search&utm_source=asslzE1UV0XuKI953B1vtw", "review_count": 4, "categories": [{"alias": "sandwiches", "title": "Sandwiches"}, {"alias": "foodtrucks", "title": "Food Trucks"}], "rating": 4.0, "coordinates": {"latitude": 40.7124539, "longitude": -73.9287374}, "transactions": [], "location": {"address1": "178 Varick Ave", "address2": "", "address3": null, "city": "Brooklyn", "zip_code": "11237", "country": "US", "state": "NY", "display_address": ["178 Varick Ave", "Brooklyn, NY 11237"]}, "phone": "+18457091808", "display_phone": "(845) 709-1808", "distance": 206300.06461809544}]