[{"id": "D4_xUi9BdkjQeet8G1cogA", "alias": "the-bistro-lenox", "name": "The Bistro", "image_url": "https://s3-media1.fl.yelpcdn.com/bphoto/ez0NuT9or3hcVzek-8khbQ/o.jpg", "is_closed": false, "url": "https://www.yelp.com/biz/the-bistro-lenox?adjust_creative=ywY5UnLZrNrRl2b93Ruy_g&utm_campaign=yelp_api_v3&utm_medium=api_v3_business_search&utm_source=ywY5UnLZrNrRl2b93Ruy_g", "review_count": 5, "categories": [{"alias": "diners", "title": "Diners"}, {"alias": "bars", "title": "Bars"}, {"alias": "breakfast_brunch", "title": "Breakfast & Brunch"}], "rating": 4.5, "coordinates": {"latitude": 42.33615, "longitude": -73.25892}, "transactions": [], "location": {"address1": "16 Blantyre Rd", "address2": null, "address3": "", "city": "Lenox", "zip_code": "01240", "country": "US", "state": "MA", "display_address": ["16 Blantyre Rd", "Lenox, MA 01240"]}, "phone": "+14136373556", "display_phone": "(413) 637-3556", "distance": 720.3052401080647}, {"id": "bwKFfSyhtACDwJJu1SX90Q", "alias": "mint-indian-lakeside-dining-lee", "name": "Mint - Indian Lakeside Dining", "image_url": "https://s3-media3.fl.yelpcdn.com/bphoto/9_C5f6ZUtfaNxhaLothc1Q/o.jpg", "is_closed": false, "url": "https://www.yelp.com/biz/mint-indian-lakeside-dining-lee?adjust_creative=ywY5UnLZrNrRl2b93Ruy_g&utm_campaign=yelp_api_v3&utm_medium=api_v3_business_search&utm_source=ywY5UnLZrNrRl2b93Ruy_g", "review_count": 113, "categories": [{"alias": "indpak", "title": "Indian"}], "rating": 3.5, "coordinates": {"latitude": 42.32158, "longitude": -73.25985}, "transactions": ["pickup"], "price": "$$", "location": {"address1": "435 Laurel St", "address2": null, "address3": "", "city": "Lee", "zip_code": "01238", "country": "US", "state": "MA", "display_address": ["435 Laurel St", "Lee, MA 01238"]}, "phone": "+14132436731", "display_phone": "(413) 243-6731", "distance": 1730.748193547861}, {"id": "j1Caj8bDL2gm4Q4OppvMQQ", "alias": "cork-n-hearth-lee-2", "name": "Cork N' Hearth", "image_url": "https://s3-media1.fl.yelpcdn.com/bphoto/NP_IxYEUvuC983-ZmoND3w/o.jpg", "is_closed": false, "url": "https://www.yelp.com/biz/cork-n-hearth-lee-2?adjust_creative=ywY5UnLZrNrRl2b93Ruy_g&utm_campaign=yelp_api_v3&utm_medium=api_v3_business_search&utm_source=ywY5UnLZrNrRl2b93Ruy_g", "review_count": 29, "categories": [{"alias": "desserts", "title": "Desserts"}, {"alias": "wine_bars", "title": "Wine Bars"}, {"alias": "diners", "title": "Diners"}], "rating": 3.5, "coordinates": {"latitude": 42.32676, "longitude": -73.26269}, "transactions": ["delivery"], "price": "$$$", "location": {"address1": "635 Laurel St", "address2": "", "address3": "", "city": "Lee", "zip_code": "01238", "country": "US", "state": "MA", "display_address": ["635 Laurel St", "Lee, MA 01238"]}, "phone": "+14132430535", "display_phone": "(413) 243-0535", "distance": 1396.7537181107448}, {"id": "Ih_1dL1e_GcnZMCIzyWPxw", "alias": "river-dale-market-and-deli-lenox-dale", "name": "River Dale Market and Deli", "image_url": "https://s3-media4.fl.yelpcdn.com/bphoto/MTcXOfPq309gYnidVS3QMA/o.jpg", "is_closed": false, "url": "https://www.yelp.com/biz/river-dale-market-and-deli-lenox-dale?adjust_creative=ywY5UnLZrNrRl2b93Ruy_g&utm_campaign=yelp_api_v3&utm_medium=api_v3_business_search&utm_source=ywY5UnLZrNrRl2b93Ruy_g", "review_count": 1, "categories": [{"alias": "delis", "title": "Delis"}, {"alias": "convenience", "title": "Convenience Stores"}, {"alias": "meats", "title": "Meat Shops"}], "rating": 5.0, "coordinates": {"latitude": 42.33335, "longitude": -73.24598}, "transactions": [], "location": {"address1": "2 Crystal St", "address2": null, "address3": "", "city": "Lenox Dale", "zip_code": "01242", "country": "US", "state": "MA", "display_address": ["2 Crystal St", "Lenox Dale, MA 01242"]}, "phone": "+14138814136", "display_phone": "(413) 881-4136", "distance": 407.16857771909844}, {"id": "UpGxqkYYWLe3aXvHAaA6iw", "alias": "sloanes-restaurant-and-bar-lenox-2", "name": "Sloane's Restaurant & Bar", "image_url": "https://s3-media4.fl.yelpcdn.com/bphoto/pbN3999sshy1WyjCSu4A2w/o.jpg", "is_closed": false, "url": "https://www.yelp.com/biz/sloanes-restaurant-and-bar-lenox-2?adjust_creative=ywY5UnLZrNrRl2b93Ruy_g&utm_campaign=yelp_api_v3&utm_medium=api_v3_business_search&utm_source=ywY5UnLZrNrRl2b93Ruy_g", "review_count": 21, "categories": [{"alias": "salad", "title": "Salad"}, {"alias": "tradamerican", "title": "American (Traditional)"}, {"alias": "sandwiches", "title": "Sandwiches"}], "rating": 2.5, "coordinates": {"latitude": 42.34162, "longitude": -73.26428}, "transactions": [], "price": "$$", "location": {"address1": "55 Lee Rd", "address2": "", "address3": "", "city": "Lenox", "zip_code": "01240", "country": "US", "state": "MA", "display_address": ["55 Lee Rd", "Lenox, MA 01240"]}, "phone": "+14136371364", "display_phone": "(413) 637-1364", "distance": 1251.4587325024825}, {"id": "EVGrHXuAo1bPFzs187TqDA", "alias": "wyndhurst-restaurant-at-cranwell-lenox-2", "name": "Wyndhurst Restaurant At Cranwell", "image_url": "https://s3-media3.fl.yelpcdn.com/bphoto/7WxPFjXNfs5lkNKvGBV2uA/o.jpg", "is_closed": false, "url": "https://www.yelp.com/biz/wyndhurst-restaurant-at-cranwell-lenox-2?adjust_creative=ywY5UnLZrNrRl2b93Ruy_g&utm_campaign=yelp_api_v3&utm_medium=api_v3_business_search&utm_source=ywY5UnLZrNrRl2b93Ruy_g", "review_count": 12, "categories": [{"alias": "coffee", "title": "Coffee & Tea"}, {"alias": "breakfast_brunch", "title": "Breakfast & Brunch"}, {"alias": "buffets", "title": "Buffets"}], "rating": 3.5, "coordinates": {"latitude": 42.33985, "longitude": -73.265758}, "transactions": ["delivery"], "price": "$$$", "location": {"address1": "55 Lee Rd", "address2": "", "address3": "", "city": "Lenox", "zip_code": "01240", "country": "US", "state": "MA", "display_address": ["55 Lee Rd", "Lenox, MA 01240"]}, "phone": "+14136371364", "display_phone": "(413) 637-1364", "distance": 1372.1092240675312}, {"id": "qqA8YX58xnmEXLyanHfdUg", "alias": "stufd-food-truck-brooklyn", "name": "Stuf'd Food Truck", "image_url": "https://s3-media2.fl.yelpcdn.com/bphoto/_Wn0i-tLIOFinw8BPAqxPA/o.jpg", "is_closed": false, "url": "https://www.yelp.com/biz/stufd-food-truck-brooklyn?adjust_creative=ywY5UnLZrNrRl2b93Ruy_g&utm_campaign=yelp_api_v3&utm_medium=api_v3_business_search&utm_source=ywY5UnLZrNrRl2b93Ruy_g", "review_count": 4, "categories": [{"alias": "sandwiches", "title": "Sandwiches"}, {"alias": "foodtrucks", "title": "Food Trucks"}], "rating": 4.0, "coordinates": {"latitude": 40.7124539, "longitude": -73.9287374}, "transactions": [], "location": {"address1": "178 Varick Ave", "address2": "", "address3": null, "city": "Brooklyn", "zip_code": "11237", "country": "US", "state": "NY", "display_address": ["178 Varick Ave", "Brooklyn, NY 11237"]}, "phone": "+18457091808", "display_phone": "(845) 709-1808", "distance": 189086.89750638665}]