[{"id": "-OHvOZui-qKcOesWILrJ9w", "alias": "samuel-slaters-restaurant-webster-2", "name": "Samuel Slater's Restaurant", "image_url": "https://s3-media3.fl.yelpcdn.com/bphoto/Y65E351W_YCZrSXQZO4SMA/o.jpg", "is_closed": false, "url": "https://www.yelp.com/biz/samuel-slaters-restaurant-webster-2?adjust_creative=wVJJqwOt_3apsoGmwgRWnw&utm_campaign=yelp_api_v3&utm_medium=api_v3_business_search&utm_source=wVJJqwOt_3apsoGmwgRWnw", "review_count": 54, "categories": [{"alias": "newamerican", "title": "American (New)"}, {"alias": "bars", "title": "Bars"}, {"alias": "seafood", "title": "Seafood"}], "rating": 4.0, "coordinates": {"latitude": 42.051621, "longitude": -71.841277}, "transactions": ["delivery"], "location": {"address1": "200 Gore Rd", "address2": "", "address3": null, "city": "Webster", "zip_code": "01570", "country": "US", "state": "MA", "display_address": ["200 Gore Rd", "Webster, MA 01570"]}, "phone": "+15089431639", "display_phone": "(508) 943-1639", "distance": 862.7635874066592}, {"id": "WfN4g5c6eA7z7w_f5YN-7w", "alias": "the-lodge-restaurant-webster-2", "name": "The Lodge Restaurant", "image_url": "https://s3-media2.fl.yelpcdn.com/bphoto/qhqlMcEyDrBv9yVXvfijLg/o.jpg", "is_closed": false, "url": "https://www.yelp.com/biz/the-lodge-restaurant-webster-2?adjust_creative=wVJJqwOt_3apsoGmwgRWnw&utm_campaign=yelp_api_v3&utm_medium=api_v3_business_search&utm_source=wVJJqwOt_3apsoGmwgRWnw", "review_count": 52, "categories": [{"alias": "steak", "title": "Steakhouses"}, {"alias": "bars", "title": "Bars"}, {"alias": "tradamerican", "title": "American (Traditional)"}], "rating": 3.0, "coordinates": {"latitude": 42.056873, "longitude": -71.842842}, "transactions": ["delivery", "pickup"], "price": "$$", "location": {"address1": "148 Gore Rd", "address2": "", "address3": "", "city": "Webster", "zip_code": "01570", "country": "US", "state": "MA", "display_address": ["148 Gore Rd", "Webster, MA 01570"]}, "phone": "+15089490000", "display_phone": "(508) 949-0000", "distance": 359.40264472469386}, {"id": "eKPfn4ssUg-ba18XNMmhpg", "alias": "bistro-eighty-ates-webster", "name": "Bistro Eighty-Ates", "image_url": "https://s3-media1.fl.yelpcdn.com/bphoto/NoeNWCk6YKi75FYayAz4iA/o.jpg", "is_closed": false, "url": "https://www.yelp.com/biz/bistro-eighty-ates-webster?adjust_creative=wVJJqwOt_3apsoGmwgRWnw&utm_campaign=yelp_api_v3&utm_medium=api_v3_business_search&utm_source=wVJJqwOt_3apsoGmwgRWnw", "review_count": 71, "categories": [{"alias": "newamerican", "title": "American (New)"}, {"alias": "bars", "title": "Bars"}], "rating": 3.0, "coordinates": {"latitude": 42.05399, "longitude": -71.84024}, "transactions": [], "price": "$$", "location": {"address1": "172 Gore Rd", "address2": "", "address3": "", "city": "Webster", "zip_code": "01570", "country": "US", "state": "MA", "display_address": ["172 Gore Rd", "Webster, MA 01570"]}, "phone": "+15089498888", "display_phone": "(508) 949-8888", "distance": 670.9565880007611}, {"id": "aJ-dT3Atclzlf9siGXetOQ", "alias": "big-belly-cafe-webster", "name": "Big Belly Cafe", "image_url": "https://s3-media3.fl.yelpcdn.com/bphoto/yh1TkC3L1wnenZozKp5S3g/o.jpg", "is_closed": false, "url": "https://www.yelp.com/biz/big-belly-cafe-webster?adjust_creative=wVJJqwOt_3apsoGmwgRWnw&utm_campaign=yelp_api_v3&utm_medium=api_v3_business_search&utm_source=wVJJqwOt_3apsoGmwgRWnw", "review_count": 10, "categories": [{"alias": "tradamerican", "title": "American (Traditional)"}, {"alias": "breakfast_brunch", "title": "Breakfast & Brunch"}], "rating": 3.5, "coordinates": {"latitude": 42.0568745, "longitude": -71.8427077}, "transactions": [], "location": {"address1": "144 Gore Rd", "address2": "", "address3": null, "city": "Webster", "zip_code": "01570", "country": "US", "state": "MA", "display_address": ["144 Gore Rd", "Webster, MA 01570"]}, "phone": "+15089492433", "display_phone": "(508) 949-2433", "distance": 294.4865498907033}, {"id": "txzImRpxvqOK7zxScp2vPg", "alias": "waterfront-marys-webster", "name": "Waterfront Mary's", "image_url": "https://s3-media2.fl.yelpcdn.com/bphoto/Xi6dtdTqt2YtWLs_mDBkhg/o.jpg", "is_closed": false, "url": "https://www.yelp.com/biz/waterfront-marys-webster?adjust_creative=wVJJqwOt_3apsoGmwgRWnw&utm_campaign=yelp_api_v3&utm_medium=api_v3_business_search&utm_source=wVJJqwOt_3apsoGmwgRWnw", "review_count": 59, "categories": [{"alias": "bars", "title": "Bars"}, {"alias": "tradamerican", "title": "American (Traditional)"}, {"alias": "seafood", "title": "Seafood"}], "rating": 2.5, "coordinates": {"latitude": 42.0443153381348, "longitude": -71.8564071655273}, "transactions": ["delivery"], "price": "$$", "location": {"address1": "103 Birch Island Rd", "address2": "", "address3": "", "city": "Webster", "zip_code": "01570", "country": "US", "state": "MA", "display_address": ["103 Birch Island Rd", "Webster, MA 01570"]}, "phone": "+15089432222", "display_phone": "(508) 943-2222", "distance": 1735.7939826852912}, {"id": "rtnZtuCt_hXXXOoaYQ4cMg", "alias": "thai-lemongrass-webster", "name": "Thai Lemongrass", "image_url": "https://s3-media2.fl.yelpcdn.com/bphoto/Zg80zwtIHTRC-qQ2VpSOCg/o.jpg", "is_closed": false, "url": "https://www.yelp.com/biz/thai-lemongrass-webster?adjust_creative=wVJJqwOt_3apsoGmwgRWnw&utm_campaign=yelp_api_v3&utm_medium=api_v3_business_search&utm_source=wVJJqwOt_3apsoGmwgRWnw", "review_count": 51, "categories": [{"alias": "thai", "title": "Thai"}], "rating": 4.0, "coordinates": {"latitude": 42.06071, "longitude": -71.865327}, "transactions": ["delivery"], "price": "$$", "location": {"address1": "129 E Main St", "address2": "", "address3": "", "city": "Webster", "zip_code": "01570", "country": "US", "state": "MA", "display_address": ["129 E Main St", "Webster, MA 01570"]}, "phone": "+15084615388", "display_phone": "(508) 461-5388", "distance": 1553.950757310025}, {"id": "I2VisCOfthLrohfZMMZ2-w", "alias": "lake-pizza-webster", "name": "Lake Pizza", "image_url": "https://s3-media3.fl.yelpcdn.com/bphoto/dPVWX6Vdx56cfLnzowZtGw/o.jpg", "is_closed": false, "url": "https://www.yelp.com/biz/lake-pizza-webster?adjust_creative=wVJJqwOt_3apsoGmwgRWnw&utm_campaign=yelp_api_v3&utm_medium=api_v3_business_search&utm_source=wVJJqwOt_3apsoGmwgRWnw", "review_count": 68, "categories": [{"alias": "pizza", "title": "Pizza"}, {"alias": "italian", "title": "Italian"}, {"alias": "salad", "title": "Salad"}], "rating": 3.0, "coordinates": {"latitude": 42.056817, "longitude": -71.861884}, "transactions": ["delivery"], "price": "$$", "location": {"address1": "39 Thompson Rd", "address2": "", "address3": "", "city": "Webster", "zip_code": "01570", "country": "US", "state": "MA", "display_address": ["39 Thompson Rd", "Webster, MA 01570"]}, "phone": "+15089433684", "display_phone": "(508) 943-3684", "distance": 1291.8195989758988}, {"id": "EKey5gaZpb5NorUarnZjGg", "alias": "the-whistle-stop-bar-and-grill-oxford", "name": "The Whistle Stop Bar & Grill", "image_url": "https://s3-media1.fl.yelpcdn.com/bphoto/9kXHnshMMf0lR94bmPsGAw/o.jpg", "is_closed": false, "url": "https://www.yelp.com/biz/the-whistle-stop-bar-and-grill-oxford?adjust_creative=wVJJqwOt_3apsoGmwgRWnw&utm_campaign=yelp_api_v3&utm_medium=api_v3_business_search&utm_source=wVJJqwOt_3apsoGmwgRWnw", "review_count": 61, "categories": [{"alias": "pubs", "title": "Pubs"}, {"alias": "tradamerican", "title": "American (Traditional)"}], "rating": 3.5, "coordinates": {"latitude": 42.092687, "longitude": -71.872206}, "transactions": ["delivery"], "price": "$$", "location": {"address1": "85 Main St", "address2": "", "address3": "", "city": "Oxford", "zip_code": "01540", "country": "US", "state": "MA", "display_address": ["85 Main St", "Oxford, MA 01540"]}, "phone": "+15089873087", "display_phone": "(508) 987-3087", "distance": 4369.935465384798}, {"id": "JdRbrWoqrruaFNaKmlDfcQ", "alias": "ox-bar-and-grill-oxford-2", "name": "Ox Bar & Grill", "image_url": "https://s3-media1.fl.yelpcdn.com/bphoto/UHkxdcaemq--So8r9IGEjQ/o.jpg", "is_closed": false, "url": "https://www.yelp.com/biz/ox-bar-and-grill-oxford-2?adjust_creative=wVJJqwOt_3apsoGmwgRWnw&utm_campaign=yelp_api_v3&utm_medium=api_v3_business_search&utm_source=wVJJqwOt_3apsoGmwgRWnw", "review_count": 21, "categories": [{"alias": "sportsbars", "title": "Sports Bars"}, {"alias": "tradamerican", "title": "American (Traditional)"}, {"alias": "cocktailbars", "title": "Cocktail Bars"}], "rating": 3.0, "coordinates": {"latitude": 42.1149466028443, "longitude": -71.8479865252582}, "transactions": [], "location": {"address1": "111 Sutton Ave", "address2": null, "address3": "", "city": "Oxford", "zip_code": "01540", "country": "US", "state": "MA", "display_address": ["111 Sutton Ave", "Oxford, MA 01540"]}, "phone": "+15085710111", "display_phone": "(508) 571-0111", "distance": 6128.925395272608}, {"id": "clRz05uKuOQS__52h_ObBw", "alias": "mexicali-mexican-grill-webster", "name": "Mexicali Mexican Grill", "image_url": "https://s3-media1.fl.yelpcdn.com/bphoto/5P7SrrD2N1-GNg1RsNhamg/o.jpg", "is_closed": false, "url": "https://www.yelp.com/biz/mexicali-mexican-grill-webster?adjust_creative=wVJJqwOt_3apsoGmwgRWnw&utm_campaign=yelp_api_v3&utm_medium=api_v3_business_search&utm_source=wVJJqwOt_3apsoGmwgRWnw", "review_count": 51, "categories": [{"alias": "mexican", "title": "Mexican"}, {"alias": "sportsbars", "title": "Sports Bars"}], "rating": 3.5, "coordinates": {"latitude": 42.0633163, "longitude": -71.8640137}, "transactions": ["delivery", "pickup"], "price": "$$", "location": {"address1": "41 Worcester Rd", "address2": null, "address3": null, "city": "Webster", "zip_code": "01570", "country": "US", "state": "MA", "display_address": ["41 Worcester Rd", "Webster, MA 01570"]}, "phone": "+15084615070", "display_phone": "(508) 461-5070", "distance": 1538.449288263255}, {"id": "ssp1liWG14bxl0ze4Ch-Cg", "alias": "mama-s-kitchen-webster", "name": "Mama\u2019s Kitchen", "image_url": "https://s3-media1.fl.yelpcdn.com/bphoto/5O_uURZjnnxLhSOvBLagmA/o.jpg", "is_closed": false, "url": "https://www.yelp.com/biz/mama-s-kitchen-webster?adjust_creative=wVJJqwOt_3apsoGmwgRWnw&utm_campaign=yelp_api_v3&utm_medium=api_v3_business_search&utm_source=wVJJqwOt_3apsoGmwgRWnw", "review_count": 14, "categories": [{"alias": "breakfast_brunch", "title": "Breakfast & Brunch"}], "rating": 4.5, "coordinates": {"latitude": 42.05275, "longitude": -71.87899}, "transactions": ["delivery", "pickup"], "location": {"address1": "595 S Main St", "address2": "", "address3": null, "city": "Webster", "zip_code": "01570", "country": "US", "state": "MA", "display_address": ["595 S Main St", "Webster, MA 01570"]}, "phone": "+15084617615", "display_phone": "(508) 461-7615", "distance": 2723.3698039737137}, {"id": "rfqTgyUyv4zP3aVFXckW0w", "alias": "thai-cuisine-webster-2", "name": "Thai Cuisine", "image_url": "https://s3-media2.fl.yelpcdn.com/bphoto/ZaWdQ97mmxbqDHoke-NBtA/o.jpg", "is_closed": false, "url": "https://www.yelp.com/biz/thai-cuisine-webster-2?adjust_creative=wVJJqwOt_3apsoGmwgRWnw&utm_campaign=yelp_api_v3&utm_medium=api_v3_business_search&utm_source=wVJJqwOt_3apsoGmwgRWnw", "review_count": 46, "categories": [{"alias": "thai", "title": "Thai"}, {"alias": "vegetarian", "title": "Vegetarian"}, {"alias": "asianfusion", "title": "Asian Fusion"}], "rating": 4.5, "coordinates": {"latitude": 42.0495627, "longitude": -71.8821079}, "transactions": ["delivery", "pickup"], "price": "$$", "location": {"address1": "267 Main St", "address2": null, "address3": "", "city": "Webster", "zip_code": "01570", "country": "US", "state": "MA", "display_address": ["267 Main St", "Webster, MA 01570"]}, "phone": "+15089430369", "display_phone": "(508) 943-0369", "distance": 3070.0707370900336}, {"id": "NCvVGUSfazdB2jnCsQxueQ", "alias": "asia-kitchen-oxford", "name": "Asia Kitchen", "image_url": "https://s3-media4.fl.yelpcdn.com/bphoto/Qn1o9QPpbiPvruWLywt7Ng/o.jpg", "is_closed": false, "url": "https://www.yelp.com/biz/asia-kitchen-oxford?adjust_creative=wVJJqwOt_3apsoGmwgRWnw&utm_campaign=yelp_api_v3&utm_medium=api_v3_business_search&utm_source=wVJJqwOt_3apsoGmwgRWnw", "review_count": 15, "categories": [{"alias": "asianfusion", "title": "Asian Fusion"}], "rating": 4.5, "coordinates": {"latitude": 42.12652, "longitude": -71.86364}, "transactions": ["delivery"], "location": {"address1": "390 Main St", "address2": "", "address3": null, "city": "Oxford", "zip_code": "01540", "country": "US", "state": "MA", "display_address": ["390 Main St", "Oxford, MA 01540"]}, "phone": "+15087316918", "display_phone": "(508) 731-6918", "distance": 7714.059482794103}, {"id": "xoRSgEj5oQ7pxpVa9oNuww", "alias": "delray-docs-fruit-and-deli-webster", "name": "Delray Doc's Fruit & Deli", "image_url": "https://s3-media4.fl.yelpcdn.com/bphoto/RiG-vIckL7Fh4vxwHd3vqQ/o.jpg", "is_closed": false, "url": "https://www.yelp.com/biz/delray-docs-fruit-and-deli-webster?adjust_creative=wVJJqwOt_3apsoGmwgRWnw&utm_campaign=yelp_api_v3&utm_medium=api_v3_business_search&utm_source=wVJJqwOt_3apsoGmwgRWnw", "review_count": 19, "categories": [{"alias": "markets", "title": "Fruits & Veggies"}, {"alias": "delis", "title": "Delis"}], "rating": 4.0, "coordinates": {"latitude": 42.0577202, "longitude": -71.8625565}, "transactions": ["delivery"], "price": "$$", "location": {"address1": "31 Thompson Rd", "address2": null, "address3": null, "city": "Webster", "zip_code": "01570", "country": "US", "state": "MA", "display_address": ["31 Thompson Rd", "Webster, MA 01570"]}, "phone": "+15089433303", "display_phone": "(508) 943-3303", "distance": 1300.760680943891}, {"id": "WlSbxf4uAbbcgEot9_9MFg", "alias": "firebrands-bar-and-grill-dudley", "name": "Firebrand's Bar and Grill", "image_url": "https://s3-media4.fl.yelpcdn.com/bphoto/oAwISxkzxACXNXHBBUNl6Q/o.jpg", "is_closed": false, "url": "https://www.yelp.com/biz/firebrands-bar-and-grill-dudley?adjust_creative=wVJJqwOt_3apsoGmwgRWnw&utm_campaign=yelp_api_v3&utm_medium=api_v3_business_search&utm_source=wVJJqwOt_3apsoGmwgRWnw", "review_count": 68, "categories": [{"alias": "bars", "title": "Bars"}, {"alias": "tradamerican", "title": "American (Traditional)"}], "rating": 3.5, "coordinates": {"latitude": 42.042627, "longitude": -71.91253}, "transactions": ["delivery"], "price": "$$", "location": {"address1": "8 Airport Rd", "address2": "", "address3": "", "city": "Dudley", "zip_code": "01571", "country": "US", "state": "MA", "display_address": ["8 Airport Rd", "Dudley, MA 01571"]}, "phone": "+15089498881", "display_phone": "(508) 949-8881", "distance": 5696.152839510665}, {"id": "-y5EdNMcDJwUzs6Tc8lPQw", "alias": "famous-franks-milltown-grille-north-grosvenor-dale", "name": "Famous Franks Milltown Grille", "image_url": "https://s3-media4.fl.yelpcdn.com/bphoto/aG-w0ypy90cIBXfACSUdgA/o.jpg", "is_closed": false, "url": "https://www.yelp.com/biz/famous-franks-milltown-grille-north-grosvenor-dale?adjust_creative=wVJJqwOt_3apsoGmwgRWnw&utm_campaign=yelp_api_v3&utm_medium=api_v3_business_search&utm_source=wVJJqwOt_3apsoGmwgRWnw", "review_count": 20, "categories": [{"alias": "tradamerican", "title": "American (Traditional)"}], "rating": 4.0, "coordinates": {"latitude": 41.9842432657846, "longitude": -71.8962666666748}, "transactions": ["delivery"], "price": "$", "location": {"address1": "897 Riverside Dr", "address2": "", "address3": null, "city": "North Grosvenor Dale", "zip_code": "06255", "country": "US", "state": "CT", "display_address": ["897 Riverside Dr", "North Grosvenor Dale, CT 06255"]}, "phone": "+18609239183", "display_phone": "(860) 923-9183", "distance": 9182.869624531902}, {"id": "SWbsjpYr33epLE-Mt_Kfog", "alias": "wind-tiki-restaurant-webster", "name": "Wind Tiki Restaurant", "image_url": "https://s3-media1.fl.yelpcdn.com/bphoto/L5-slFasOFDL8iKTjMRiMg/o.jpg", "is_closed": false, "url": "https://www.yelp.com/biz/wind-tiki-restaurant-webster?adjust_creative=wVJJqwOt_3apsoGmwgRWnw&utm_campaign=yelp_api_v3&utm_medium=api_v3_business_search&utm_source=wVJJqwOt_3apsoGmwgRWnw", "review_count": 43, "categories": [{"alias": "chinese", "title": "Chinese"}], "rating": 2.5, "coordinates": {"latitude": 42.044239, "longitude": -71.86329}, "transactions": ["delivery"], "price": "$$", "location": {"address1": "154 Thompson Rd", "address2": "", "address3": "", "city": "Webster", "zip_code": "01570", "country": "US", "state": "MA", "display_address": ["154 Thompson Rd", "Webster, MA 01570"]}, "phone": "+15089436996", "display_phone": "(508) 943-6996", "distance": 2033.3586166784667}, {"id": "ZwPq9JsbyBllJs1l_V6PuA", "alias": "oxfords-casual-dining-oxford-3", "name": "Oxfords Casual Dining", "image_url": "https://s3-media1.fl.yelpcdn.com/bphoto/B5v_I7UnYKLy9WESiCKp-Q/o.jpg", "is_closed": false, "url": "https://www.yelp.com/biz/oxfords-casual-dining-oxford-3?adjust_creative=wVJJqwOt_3apsoGmwgRWnw&utm_campaign=yelp_api_v3&utm_medium=api_v3_business_search&utm_source=wVJJqwOt_3apsoGmwgRWnw", "review_count": 53, "categories": [{"alias": "tradamerican", "title": "American (Traditional)"}, {"alias": "desserts", "title": "Desserts"}, {"alias": "italian", "title": "Italian"}], "rating": 4.0, "coordinates": {"latitude": 42.133, "longitude": -71.86407}, "transactions": [], "price": "$$", "location": {"address1": "2 Millbury Blvd", "address2": "", "address3": "", "city": "Oxford", "zip_code": "01540", "country": "US", "state": "MA", "display_address": ["2 Millbury Blvd", "Oxford, MA 01540"]}, "phone": "+15089871567", "display_phone": "(508) 987-1567", "distance": 8424.397082957976}, {"id": "YF7BlSBxjZJIJ5Uhbsln3g", "alias": "point-breeze-webster-2", "name": "Point Breeze", "image_url": "https://s3-media2.fl.yelpcdn.com/bphoto/XzDIg8fGxAUcOHMHF-dbew/o.jpg", "is_closed": false, "url": "https://www.yelp.com/biz/point-breeze-webster-2?adjust_creative=wVJJqwOt_3apsoGmwgRWnw&utm_campaign=yelp_api_v3&utm_medium=api_v3_business_search&utm_source=wVJJqwOt_3apsoGmwgRWnw", "review_count": 120, "categories": [{"alias": "venues", "title": "Venues & Event Spaces"}, {"alias": "bars", "title": "Bars"}, {"alias": "newamerican", "title": "American (New)"}], "rating": 2.5, "coordinates": {"latitude": 42.0330464720742, "longitude": -71.8397459846558}, "transactions": ["delivery"], "price": "$$", "location": {"address1": "114 Point Breeze Rd", "address2": "", "address3": "", "city": "Webster", "zip_code": "01570", "country": "US", "state": "MA", "display_address": ["114 Point Breeze Rd", "Webster, MA 01570"]}, "phone": "+15089430404", "display_phone": "(508) 943-0404", "distance": 2857.4821753213887}, {"id": "IF3K0XuTBbLQoEXoSquE5w", "alias": "webster-house-of-pizza-webster", "name": "Webster House Of Pizza", "image_url": "https://s3-media4.fl.yelpcdn.com/bphoto/MfiRYSik3xCKY5QIAUluWA/o.jpg", "is_closed": false, "url": "https://www.yelp.com/biz/webster-house-of-pizza-webster?adjust_creative=wVJJqwOt_3apsoGmwgRWnw&utm_campaign=yelp_api_v3&utm_medium=api_v3_business_search&utm_source=wVJJqwOt_3apsoGmwgRWnw", "review_count": 13, "categories": [{"alias": "pizza", "title": "Pizza"}], "rating": 4.5, "coordinates": {"latitude": 42.0547081543662, "longitude": -71.8775855059407}, "transactions": ["delivery"], "location": {"address1": "11 E Main St", "address2": "", "address3": null, "city": "Webster", "zip_code": "01570", "country": "US", "state": "MA", "display_address": ["11 E Main St", "Webster, MA 01570"]}, "phone": "+15089492593", "display_phone": "(508) 949-2593", "distance": 2570.4441142606647}, {"id": "VrWNoIS1SyXfKl0Vyw1Qzw", "alias": "monte-bianco-restaurant-thompson", "name": "Monte Bianco Restaurant", "image_url": "https://s3-media2.fl.yelpcdn.com/bphoto/ZQ0i-KoYoxh_PE5Lqql30w/o.jpg", "is_closed": false, "url": "https://www.yelp.com/biz/monte-bianco-restaurant-thompson?adjust_creative=wVJJqwOt_3apsoGmwgRWnw&utm_campaign=yelp_api_v3&utm_medium=api_v3_business_search&utm_source=wVJJqwOt_3apsoGmwgRWnw", "review_count": 39, "categories": [{"alias": "italian", "title": "Italian"}], "rating": 4.0, "coordinates": {"latitude": 42.0033760070801, "longitude": -71.8449401855469}, "transactions": ["pickup"], "price": "$$", "location": {"address1": "1097 Thompson Rd", "address2": null, "address3": null, "city": "Thompson", "zip_code": "06277", "country": "US", "state": "CT", "display_address": ["1097 Thompson Rd", "Thompson, CT 06277"]}, "phone": "+18609230202", "display_phone": "(860) 923-0202", "distance": 6098.738079348743}, {"id": "cGkQfoMkARCvocRUuUCN9w", "alias": "b-kind-cafe-webster", "name": "B Kind Cafe", "image_url": "https://s3-media3.fl.yelpcdn.com/bphoto/OxccC1VBd5BmDNCNUMtARQ/o.jpg", "is_closed": false, "url": "https://www.yelp.com/biz/b-kind-cafe-webster?adjust_creative=wVJJqwOt_3apsoGmwgRWnw&utm_campaign=yelp_api_v3&utm_medium=api_v3_business_search&utm_source=wVJJqwOt_3apsoGmwgRWnw", "review_count": 3, "categories": [{"alias": "cafes", "title": "Cafes"}, {"alias": "bakeries", "title": "Bakeries"}, {"alias": "gluten_free", "title": "Gluten-Free"}], "rating": 4.5, "coordinates": {"latitude": 42.04953617, "longitude": -71.88446617}, "transactions": ["delivery", "pickup"], "location": {"address1": "8 Davis St", "address2": null, "address3": "", "city": "Webster", "zip_code": "01570", "country": "US", "state": "MA", "display_address": ["8 Davis St", "Webster, MA 01570"]}, "phone": "+15084617662", "display_phone": "(508) 461-7662", "distance": 3264.229927416346}, {"id": "RkHAhxOrCv3skcJWbvKwAQ", "alias": "apollo-pizza-webster", "name": "Apollo Pizza", "image_url": "https://s3-media4.fl.yelpcdn.com/bphoto/ezK2lvFkqMpDX20Xoj8hfw/o.jpg", "is_closed": false, "url": "https://www.yelp.com/biz/apollo-pizza-webster?adjust_creative=wVJJqwOt_3apsoGmwgRWnw&utm_campaign=yelp_api_v3&utm_medium=api_v3_business_search&utm_source=wVJJqwOt_3apsoGmwgRWnw", "review_count": 9, "categories": [{"alias": "pizza", "title": "Pizza"}, {"alias": "greek", "title": "Greek"}], "rating": 3.5, "coordinates": {"latitude": 42.054548, "longitude": -71.840715}, "transactions": ["delivery"], "price": "$", "location": {"address1": "170 Gore Rd", "address2": "", "address3": "", "city": "Webster", "zip_code": "01570", "country": "US", "state": "MA", "display_address": ["170 Gore Rd", "Webster, MA 01570"]}, "phone": "+15089431215", "display_phone": "(508) 943-1215", "distance": 646.8227987823801}, {"id": "TIQWdkWiSr-hsA7wVHzd6g", "alias": "eastern-pearl-webster", "name": "Eastern Pearl", "image_url": "https://s3-media3.fl.yelpcdn.com/bphoto/3M2XARxckCHNfg2wQvnXWw/o.jpg", "is_closed": false, "url": "https://www.yelp.com/biz/eastern-pearl-webster?adjust_creative=wVJJqwOt_3apsoGmwgRWnw&utm_campaign=yelp_api_v3&utm_medium=api_v3_business_search&utm_source=wVJJqwOt_3apsoGmwgRWnw", "review_count": 84, "categories": [{"alias": "chinese", "title": "Chinese"}, {"alias": "japanese", "title": "Japanese"}, {"alias": "sushi", "title": "Sushi Bars"}], "rating": 3.5, "coordinates": {"latitude": 42.0495157688856, "longitude": -71.8815372884274}, "transactions": ["delivery"], "price": "$$", "location": {"address1": "290 Main St", "address2": "", "address3": "", "city": "Webster", "zip_code": "01570", "country": "US", "state": "MA", "display_address": ["290 Main St", "Webster, MA 01570"]}, "phone": "+15086719288", "display_phone": "(508) 671-9288", "distance": 3046.9203413274677}, {"id": "vG_Emymjcxx1ZjjVrG25_Q", "alias": "himalaya-wok-webster", "name": "Himalaya Wok", "image_url": "https://s3-media2.fl.yelpcdn.com/bphoto/jsnOhDegpMHKcqa3mVsmtQ/o.jpg", "is_closed": false, "url": "https://www.yelp.com/biz/himalaya-wok-webster?adjust_creative=wVJJqwOt_3apsoGmwgRWnw&utm_campaign=yelp_api_v3&utm_medium=api_v3_business_search&utm_source=wVJJqwOt_3apsoGmwgRWnw", "review_count": 24, "categories": [{"alias": "chinese", "title": "Chinese"}], "rating": 3.5, "coordinates": {"latitude": 42.0566291809082, "longitude": -71.8713226318359}, "transactions": ["delivery"], "price": "$", "location": {"address1": "68 E Main St", "address2": null, "address3": null, "city": "Webster", "zip_code": "01570", "country": "US", "state": "MA", "display_address": ["68 E Main St", "Webster, MA 01570"]}, "phone": "+15089492420", "display_phone": "(508) 949-2420", "distance": 2025.435647263044}, {"id": "kMwK6GdTF4dXM2axInPl6g", "alias": "our-fathers-table-thompson", "name": "Our Father's Table", "image_url": "https://s3-media4.fl.yelpcdn.com/bphoto/pVSQxC1uOafbj70dlipmGA/o.jpg", "is_closed": false, "url": "https://www.yelp.com/biz/our-fathers-table-thompson?adjust_creative=wVJJqwOt_3apsoGmwgRWnw&utm_campaign=yelp_api_v3&utm_medium=api_v3_business_search&utm_source=wVJJqwOt_3apsoGmwgRWnw", "review_count": 35, "categories": [{"alias": "cafes", "title": "Cafes"}, {"alias": "icecream", "title": "Ice Cream & Frozen Yogurt"}, {"alias": "tradamerican", "title": "American (Traditional)"}], "rating": 4.0, "coordinates": {"latitude": 41.990608244679, "longitude": -71.8970104004334}, "transactions": ["delivery"], "price": "$$", "location": {"address1": "1020 Riverside Dr", "address2": "", "address3": null, "city": "Thompson", "zip_code": "06255", "country": "US", "state": "CT", "display_address": ["1020 Riverside Dr", "Thompson, CT 06255"]}, "phone": "+18603151015", "display_phone": "(860) 315-1015", "distance": 8584.227878415908}, {"id": "47JMvrOEsXykr2RskQjsIg", "alias": "ryans-clam-shack-webster", "name": "Ryan's Clam Shack", "image_url": "", "is_closed": false, "url": "https://www.yelp.com/biz/ryans-clam-shack-webster?adjust_creative=wVJJqwOt_3apsoGmwgRWnw&utm_campaign=yelp_api_v3&utm_medium=api_v3_business_search&utm_source=wVJJqwOt_3apsoGmwgRWnw", "review_count": 3, "categories": [{"alias": "seafood", "title": "Seafood"}], "rating": 2.5, "coordinates": {"latitude": 42.0575019, "longitude": -71.843299}, "transactions": [], "location": {"address1": "152 Gore Rd", "address2": "", "address3": "", "city": "Webster", "zip_code": "01570", "country": "US", "state": "MA", "display_address": ["152 Gore Rd", "Webster, MA 01570"]}, "phone": "+15084616416", "display_phone": "(508) 461-6416", "distance": 300.12750005433185}, {"id": "ueCNOJ5EMJBOYaU2BUJ4qw", "alias": "four-corners-restaurant-thompson", "name": "Four Corners Restaurant", "image_url": "https://s3-media2.fl.yelpcdn.com/bphoto/n4Qf0Wom2QeRebtEywB5Cg/o.jpg", "is_closed": false, "url": "https://www.yelp.com/biz/four-corners-restaurant-thompson?adjust_creative=wVJJqwOt_3apsoGmwgRWnw&utm_campaign=yelp_api_v3&utm_medium=api_v3_business_search&utm_source=wVJJqwOt_3apsoGmwgRWnw", "review_count": 5, "categories": [{"alias": "bars", "title": "Bars"}, {"alias": "tradamerican", "title": "American (Traditional)"}], "rating": 3.5, "coordinates": {"latitude": 41.9485233948919, "longitude": -71.8760515742788}, "transactions": [], "location": {"address1": "142 Old Turnpike Rd", "address2": null, "address3": null, "city": "Thompson", "zip_code": "06277", "country": "US", "state": "CT", "display_address": ["142 Old Turnpike Rd", "Thompson, CT 06277"]}, "phone": "+18609355771", "display_phone": "(860) 935-5771", "distance": 7033.39427041202}, {"id": "-gLPPLhAjss9gOtCnsQdEQ", "alias": "golden-greek-webster-2", "name": "Golden Greek", "image_url": "https://s3-media4.fl.yelpcdn.com/bphoto/Q39gRBfPV2b_S2zLWmoJEA/o.jpg", "is_closed": false, "url": "https://www.yelp.com/biz/golden-greek-webster-2?adjust_creative=wVJJqwOt_3apsoGmwgRWnw&utm_campaign=yelp_api_v3&utm_medium=api_v3_business_search&utm_source=wVJJqwOt_3apsoGmwgRWnw", "review_count": 32, "categories": [{"alias": "seafood", "title": "Seafood"}, {"alias": "fishnchips", "title": "Fish & Chips"}, {"alias": "pizza", "title": "Pizza"}], "rating": 4.0, "coordinates": {"latitude": 42.04542, "longitude": -71.86381}, "transactions": ["delivery"], "price": "$$", "location": {"address1": "156 Lake St", "address2": "", "address3": "", "city": "Webster", "zip_code": "01570", "country": "US", "state": "MA", "display_address": ["156 Lake St", "Webster, MA 01570"]}, "phone": "+15089492240", "display_phone": "(508) 949-2240", "distance": 1991.3533339294872}, {"id": "d0O2Pd9hBLzU5MTv81OAlg", "alias": "big-belly-cafe-webster-2", "name": "Big Belly Cafe", "image_url": "https://s3-media4.fl.yelpcdn.com/bphoto/IpNZSN9vhjiKTkHZbGC5VQ/o.jpg", "is_closed": false, "url": "https://www.yelp.com/biz/big-belly-cafe-webster-2?adjust_creative=wVJJqwOt_3apsoGmwgRWnw&utm_campaign=yelp_api_v3&utm_medium=api_v3_business_search&utm_source=wVJJqwOt_3apsoGmwgRWnw", "review_count": 2, "categories": [{"alias": "tradamerican", "title": "American (Traditional)"}, {"alias": "breakfast_brunch", "title": "Breakfast & Brunch"}, {"alias": "burgers", "title": "Burgers"}], "rating": 3.5, "coordinates": {"latitude": 42.0568745, "longitude": -71.8427077}, "transactions": ["delivery", "pickup"], "location": {"address1": "144 Gore Rd", "address2": null, "address3": "", "city": "Webster", "zip_code": "01570", "country": "US", "state": "MA", "display_address": ["144 Gore Rd", "Webster, MA 01570"]}, "phone": "+15089492433", "display_phone": "(508) 949-2433", "distance": 294.4865498907033}, {"id": "9u4Yk0-797ZFdcz1b3c0Tg", "alias": "papa-ginos-pizzeria-webster", "name": "Papa Gino's Pizzeria", "image_url": "https://s3-media3.fl.yelpcdn.com/bphoto/mwb3EZxPZP5Z7HbGxVt3sA/o.jpg", "is_closed": false, "url": "https://www.yelp.com/biz/papa-ginos-pizzeria-webster?adjust_creative=wVJJqwOt_3apsoGmwgRWnw&utm_campaign=yelp_api_v3&utm_medium=api_v3_business_search&utm_source=wVJJqwOt_3apsoGmwgRWnw", "review_count": 21, "categories": [{"alias": "pizza", "title": "Pizza"}, {"alias": "italian", "title": "Italian"}], "rating": 2.5, "coordinates": {"latitude": 42.058869, "longitude": -71.865089}, "transactions": ["delivery"], "price": "$$", "location": {"address1": "128 E. Main St", "address2": "", "address3": "", "city": "Webster", "zip_code": "01570", "country": "US", "state": "MA", "display_address": ["128 E. Main St", "Webster, MA 01570"]}, "phone": "+15089492022", "display_phone": "(508) 949-2022", "distance": 1510.9379409507098}, {"id": "cd8aYNI93qmxqHOAHD2q0Q", "alias": "scores-webster", "name": "Scores", "image_url": "", "is_closed": false, "url": "https://www.yelp.com/biz/scores-webster?adjust_creative=wVJJqwOt_3apsoGmwgRWnw&utm_campaign=yelp_api_v3&utm_medium=api_v3_business_search&utm_source=wVJJqwOt_3apsoGmwgRWnw", "review_count": 1, "categories": [{"alias": "restaurants", "title": "Restaurants"}], "rating": 1.0, "coordinates": {"latitude": 42.0557245, "longitude": -71.8627898}, "transactions": [], "location": {"address1": "51 Thompson Rd", "address2": "", "address3": "", "city": "Webster", "zip_code": "01570", "country": "US", "state": "MA", "display_address": ["51 Thompson Rd", "Webster, MA 01570"]}, "phone": "+15089434600", "display_phone": "(508) 943-4600", "distance": 1347.8271527621418}, {"id": "Ouv6_8SKJqbVpZRklWy5Qg", "alias": "isadors-organics-oxford-2", "name": "Isador's Organics", "image_url": "https://s3-media2.fl.yelpcdn.com/bphoto/j4U-ozyWIjju9yxDzyq1Aw/o.jpg", "is_closed": false, "url": "https://www.yelp.com/biz/isadors-organics-oxford-2?adjust_creative=wVJJqwOt_3apsoGmwgRWnw&utm_campaign=yelp_api_v3&utm_medium=api_v3_business_search&utm_source=wVJJqwOt_3apsoGmwgRWnw", "review_count": 45, "categories": [{"alias": "juicebars", "title": "Juice Bars & Smoothies"}, {"alias": "delis", "title": "Delis"}, {"alias": "sandwiches", "title": "Sandwiches"}], "rating": 4.0, "coordinates": {"latitude": 42.113887, "longitude": -71.865664}, "transactions": ["delivery"], "price": "$$", "location": {"address1": "261 Main St", "address2": "", "address3": "", "city": "Oxford", "zip_code": "01540", "country": "US", "state": "MA", "display_address": ["261 Main St", "Oxford, MA 01540"]}, "phone": "+15089871211", "display_phone": "(508) 987-1211", "distance": 6384.225175275177}, {"id": "WYLEOjlNyQ2wnMIh9VSTMA", "alias": "gas-light-cafe-dudley", "name": "Gas Light Cafe", "image_url": "", "is_closed": false, "url": "https://www.yelp.com/biz/gas-light-cafe-dudley?adjust_creative=wVJJqwOt_3apsoGmwgRWnw&utm_campaign=yelp_api_v3&utm_medium=api_v3_business_search&utm_source=wVJJqwOt_3apsoGmwgRWnw", "review_count": 2, "categories": [{"alias": "restaurants", "title": "Restaurants"}], "rating": 2.5, "coordinates": {"latitude": 42.0426139831543, "longitude": -71.8905487060547}, "transactions": [], "location": {"address1": "59 Schofield Ave", "address2": null, "address3": null, "city": "Dudley", "zip_code": "01571", "country": "US", "state": "MA", "display_address": ["59 Schofield Ave", "Dudley, MA 01571"]}, "phone": "+15084619981", "display_phone": "(508) 461-9981", "distance": 4011.2529037529102}, {"id": "vq9ofdXMwxY4YAc2h0Hy6g", "alias": "alley-cat-diner-webster", "name": "Alley Cat Diner", "image_url": "https://s3-media2.fl.yelpcdn.com/bphoto/xx8RXacG5oZiz4DSp8Wtiw/o.jpg", "is_closed": false, "url": "https://www.yelp.com/biz/alley-cat-diner-webster?adjust_creative=wVJJqwOt_3apsoGmwgRWnw&utm_campaign=yelp_api_v3&utm_medium=api_v3_business_search&utm_source=wVJJqwOt_3apsoGmwgRWnw", "review_count": 30, "categories": [{"alias": "diners", "title": "Diners"}, {"alias": "breakfast_brunch", "title": "Breakfast & Brunch"}], "rating": 3.5, "coordinates": {"latitude": 42.0591964089059, "longitude": -71.866293739354}, "transactions": ["delivery"], "price": "$$", "location": {"address1": "117 E Main St", "address2": "", "address3": "", "city": "Webster", "zip_code": "01570", "country": "US", "state": "MA", "display_address": ["117 E Main St", "Webster, MA 01570"]}, "phone": "+15084615256", "display_phone": "(508) 461-5256", "distance": 1612.3658091178913}, {"id": "c7uXeov5PvutRl5baFsLsQ", "alias": "yummy-restaurant-webster", "name": "Yummy Restaurant", "image_url": "", "is_closed": false, "url": "https://www.yelp.com/biz/yummy-restaurant-webster?adjust_creative=wVJJqwOt_3apsoGmwgRWnw&utm_campaign=yelp_api_v3&utm_medium=api_v3_business_search&utm_source=wVJJqwOt_3apsoGmwgRWnw", "review_count": 4, "categories": [{"alias": "chinese", "title": "Chinese"}], "rating": 2.5, "coordinates": {"latitude": 42.0595738589591, "longitude": -71.8651805625497}, "transactions": [], "location": {"address1": "129 E Main St", "address2": "", "address3": "", "city": "Webster", "zip_code": "01570", "country": "US", "state": "MA", "display_address": ["129 E Main St", "Webster, MA 01570"]}, "phone": "+15089497888", "display_phone": "(508) 949-7888", "distance": 1492.682570053547}, {"id": "0R1n9T8s9FrgEZ9CAO6OCg", "alias": "panera-bread-webster-3", "name": "Panera Bread", "image_url": "https://s3-media2.fl.yelpcdn.com/bphoto/fxVwsSasghDqxp3Ry5Y2Mg/o.jpg", "is_closed": false, "url": "https://www.yelp.com/biz/panera-bread-webster-3?adjust_creative=wVJJqwOt_3apsoGmwgRWnw&utm_campaign=yelp_api_v3&utm_medium=api_v3_business_search&utm_source=wVJJqwOt_3apsoGmwgRWnw", "review_count": 28, "categories": [{"alias": "salad", "title": "Salad"}, {"alias": "soup", "title": "Soup"}, {"alias": "sandwiches", "title": "Sandwiches"}], "rating": 3.0, "coordinates": {"latitude": 42.0606109, "longitude": -71.8633147}, "transactions": ["delivery"], "price": "$$", "location": {"address1": "2 Worcester Rd", "address2": "", "address3": "", "city": "Webster", "zip_code": "01570", "country": "US", "state": "MA", "display_address": ["2 Worcester Rd", "Webster, MA 01570"]}, "phone": "+15086710110", "display_phone": "(508) 671-0110", "distance": 1388.6701640063707}, {"id": "m5DFLUqAnnOYBnZHgOlRDA", "alias": "wendys-webster", "name": "Wendy's", "image_url": "https://s3-media4.fl.yelpcdn.com/bphoto/nLdG__ueh8Y3p_U11eeiGg/o.jpg", "is_closed": false, "url": "https://www.yelp.com/biz/wendys-webster?adjust_creative=wVJJqwOt_3apsoGmwgRWnw&utm_campaign=yelp_api_v3&utm_medium=api_v3_business_search&utm_source=wVJJqwOt_3apsoGmwgRWnw", "review_count": 12, "categories": [{"alias": "burgers", "title": "Burgers"}, {"alias": "hotdogs", "title": "Fast Food"}], "rating": 2.5, "coordinates": {"latitude": 42.0594271074739, "longitude": -71.8656538055659}, "transactions": ["delivery"], "price": "$", "location": {"address1": "123 E Main Street", "address2": "", "address3": "", "city": "Webster", "zip_code": "01570", "country": "US", "state": "MA", "display_address": ["123 E Main Street", "Webster, MA 01570"]}, "phone": "+15089490212", "display_phone": "(508) 949-0212", "distance": 1561.6855079272034}, {"id": "dDig_vdctpiElemDRVak4w", "alias": "raceway-restaurant-and-golf-club-thompson", "name": "Raceway Restaurant & Golf Club", "image_url": "https://s3-media4.fl.yelpcdn.com/bphoto/HvH3TrAt-YpZclpd1pSSgg/o.jpg", "is_closed": false, "url": "https://www.yelp.com/biz/raceway-restaurant-and-golf-club-thompson?adjust_creative=wVJJqwOt_3apsoGmwgRWnw&utm_campaign=yelp_api_v3&utm_medium=api_v3_business_search&utm_source=wVJJqwOt_3apsoGmwgRWnw", "review_count": 10, "categories": [{"alias": "restaurants", "title": "Restaurants"}, {"alias": "golf", "title": "Golf"}], "rating": 3.0, "coordinates": {"latitude": 41.9825653, "longitude": -71.8307667}, "transactions": [], "price": "$$", "location": {"address1": "205 E Thompson Rd", "address2": "", "address3": "", "city": "Thompson", "zip_code": "06277", "country": "US", "state": "CT", "display_address": ["205 E Thompson Rd", "Thompson, CT 06277"]}, "phone": "+18609239591", "display_phone": "(860) 923-9591", "distance": 8441.05329302807}, {"id": "__EGJ69nU-rJ8pd3elPRIQ", "alias": "empire-wok-webster", "name": "Empire Wok", "image_url": "https://s3-media4.fl.yelpcdn.com/bphoto/SAig9_vWDFhvwgY3jg2qTQ/o.jpg", "is_closed": false, "url": "https://www.yelp.com/biz/empire-wok-webster?adjust_creative=wVJJqwOt_3apsoGmwgRWnw&utm_campaign=yelp_api_v3&utm_medium=api_v3_business_search&utm_source=wVJJqwOt_3apsoGmwgRWnw", "review_count": 30, "categories": [{"alias": "chinese", "title": "Chinese"}, {"alias": "sushi", "title": "Sushi Bars"}, {"alias": "lounges", "title": "Lounges"}], "rating": 2.5, "coordinates": {"latitude": 42.060687, "longitude": -71.863953}, "transactions": ["delivery"], "price": "$", "location": {"address1": "11 Worcester Rd", "address2": "", "address3": "", "city": "Webster", "zip_code": "01570", "country": "US", "state": "MA", "display_address": ["11 Worcester Rd", "Webster, MA 01570"]}, "phone": "+15089438888", "display_phone": "(508) 943-8888", "distance": 1465.4400521512548}, {"id": "1LHiNAL-1zFltozdU8ChZw", "alias": "leonis-brick-oven-pizzeria-dudley", "name": "Leoni's Brick Oven Pizzeria", "image_url": "https://s3-media4.fl.yelpcdn.com/bphoto/veCEf0yhjpeZvccG12S9QQ/o.jpg", "is_closed": false, "url": "https://www.yelp.com/biz/leonis-brick-oven-pizzeria-dudley?adjust_creative=wVJJqwOt_3apsoGmwgRWnw&utm_campaign=yelp_api_v3&utm_medium=api_v3_business_search&utm_source=wVJJqwOt_3apsoGmwgRWnw", "review_count": 20, "categories": [{"alias": "pizza", "title": "Pizza"}], "rating": 2.5, "coordinates": {"latitude": 42.04261, "longitude": -71.89055}, "transactions": ["delivery"], "price": "$$", "location": {"address1": "59 Schofield Ave", "address2": "", "address3": "", "city": "Dudley", "zip_code": "01571", "country": "US", "state": "MA", "display_address": ["59 Schofield Ave", "Dudley, MA 01571"]}, "phone": "+15089490533", "display_phone": "(508) 949-0533", "distance": 4011.2529037529102}, {"id": "lQPgvmxQjdDUgw24vflGlg", "alias": "dudley-house-of-pizza-dudley", "name": "Dudley House of Pizza", "image_url": "https://s3-media1.fl.yelpcdn.com/bphoto/1rC2ahyx6qMXOiwxQR5gHw/o.jpg", "is_closed": false, "url": "https://www.yelp.com/biz/dudley-house-of-pizza-dudley?adjust_creative=wVJJqwOt_3apsoGmwgRWnw&utm_campaign=yelp_api_v3&utm_medium=api_v3_business_search&utm_source=wVJJqwOt_3apsoGmwgRWnw", "review_count": 12, "categories": [{"alias": "pizza", "title": "Pizza"}], "rating": 3.0, "coordinates": {"latitude": 42.0388857, "longitude": -71.9153258}, "transactions": [], "price": "$$", "location": {"address1": "206 W Main St", "address2": "", "address3": "", "city": "Dudley", "zip_code": "01571", "country": "US", "state": "MA", "display_address": ["206 W Main St", "Dudley, MA 01571"]}, "phone": "+15089490436", "display_phone": "(508) 949-0436", "distance": 6071.6742344741615}, {"id": "Ay7B2SryhZxP4t3CdQYQNg", "alias": "slice-of-heaven-oxford", "name": "Slice of Heaven", "image_url": "https://s3-media2.fl.yelpcdn.com/bphoto/ZZTItgLpi5vN9D9arWrLWg/o.jpg", "is_closed": false, "url": "https://www.yelp.com/biz/slice-of-heaven-oxford?adjust_creative=wVJJqwOt_3apsoGmwgRWnw&utm_campaign=yelp_api_v3&utm_medium=api_v3_business_search&utm_source=wVJJqwOt_3apsoGmwgRWnw", "review_count": 17, "categories": [{"alias": "pizza", "title": "Pizza"}], "rating": 3.0, "coordinates": {"latitude": 42.11523, "longitude": -71.86549}, "transactions": ["delivery"], "location": {"address1": "273 Main St", "address2": "", "address3": null, "city": "Oxford", "zip_code": "01540", "country": "US", "state": "MA", "display_address": ["273 Main St", "Oxford, MA 01540"]}, "phone": "+15089877172", "display_phone": "(508) 987-7172", "distance": 6530.3063222127375}, {"id": "6HDT-gW5R03cobgopkGJ_A", "alias": "happy-garden-restaurant-oxford", "name": "Happy Garden Restaurant", "image_url": "https://s3-media2.fl.yelpcdn.com/bphoto/TB-alTMS2MUAcGj4nC3tZg/o.jpg", "is_closed": false, "url": "https://www.yelp.com/biz/happy-garden-restaurant-oxford?adjust_creative=wVJJqwOt_3apsoGmwgRWnw&utm_campaign=yelp_api_v3&utm_medium=api_v3_business_search&utm_source=wVJJqwOt_3apsoGmwgRWnw", "review_count": 31, "categories": [{"alias": "chinese", "title": "Chinese"}, {"alias": "seafood", "title": "Seafood"}, {"alias": "sportsbars", "title": "Sports Bars"}], "rating": 3.5, "coordinates": {"latitude": 42.10779, "longitude": -71.86657}, "transactions": ["delivery", "pickup"], "price": "$$", "location": {"address1": "211 Main St", "address2": "", "address3": "", "city": "Oxford", "zip_code": "01540", "country": "US", "state": "MA", "display_address": ["211 Main St", "Oxford, MA 01540"]}, "phone": "+15089870271", "display_phone": "(508) 987-0271", "distance": 5733.116623485588}, {"id": "_UT5juvQopWG6kje9U1GuA", "alias": "rainbow-pizza-house-webster-2", "name": "Rainbow Pizza House", "image_url": "https://s3-media2.fl.yelpcdn.com/bphoto/VFjpq_4jC_B-ujC6tpgqhQ/o.jpg", "is_closed": false, "url": "https://www.yelp.com/biz/rainbow-pizza-house-webster-2?adjust_creative=wVJJqwOt_3apsoGmwgRWnw&utm_campaign=yelp_api_v3&utm_medium=api_v3_business_search&utm_source=wVJJqwOt_3apsoGmwgRWnw", "review_count": 10, "categories": [{"alias": "pizza", "title": "Pizza"}], "rating": 3.5, "coordinates": {"latitude": 42.049314, "longitude": -71.885598}, "transactions": [], "price": "$", "location": {"address1": "81 Main St", "address2": "", "address3": null, "city": "Webster", "zip_code": "01570", "country": "US", "state": "MA", "display_address": ["81 Main St", "Webster, MA 01570"]}, "phone": "+15089438672", "display_phone": "(508) 943-8672", "distance": 3351.616075745467}, {"id": "eeNqbcfVinm0fDW6HM3iUg", "alias": "east-main-street-cafe-webster", "name": "East Main Street Cafe", "image_url": "https://s3-media2.fl.yelpcdn.com/bphoto/TrpyW4-PotitScF4lLwUxw/o.jpg", "is_closed": false, "url": "https://www.yelp.com/biz/east-main-street-cafe-webster?adjust_creative=wVJJqwOt_3apsoGmwgRWnw&utm_campaign=yelp_api_v3&utm_medium=api_v3_business_search&utm_source=wVJJqwOt_3apsoGmwgRWnw", "review_count": 13, "categories": [{"alias": "restaurants", "title": "Restaurants"}], "rating": 2.5, "coordinates": {"latitude": 42.0595738589591, "longitude": -71.8651805625497}, "transactions": [], "price": "$", "location": {"address1": "129 E Main St", "address2": "", "address3": "", "city": "Webster", "zip_code": "01570", "country": "US", "state": "MA", "display_address": ["129 E Main St", "Webster, MA 01570"]}, "phone": "+15089490323", "display_phone": "(508) 949-0323", "distance": 1492.682570053547}, {"id": "veG-C4-huNWPGHP8-Y51og", "alias": "yummy-restaurant-dudley", "name": "Yummy Restaurant", "image_url": "https://s3-media1.fl.yelpcdn.com/bphoto/M63Yi5mVO6A21gsW8iPawg/o.jpg", "is_closed": false, "url": "https://www.yelp.com/biz/yummy-restaurant-dudley?adjust_creative=wVJJqwOt_3apsoGmwgRWnw&utm_campaign=yelp_api_v3&utm_medium=api_v3_business_search&utm_source=wVJJqwOt_3apsoGmwgRWnw", "review_count": 30, "categories": [{"alias": "chinese", "title": "Chinese"}, {"alias": "asianfusion", "title": "Asian Fusion"}], "rating": 3.0, "coordinates": {"latitude": 42.028531, "longitude": -71.937421}, "transactions": ["delivery"], "price": "$$", "location": {"address1": "3 Center Rd", "address2": "", "address3": "", "city": "Dudley", "zip_code": "01571", "country": "US", "state": "MA", "display_address": ["3 Center Rd", "Dudley, MA 01571"]}, "phone": "+15089497888", "display_phone": "(508) 949-7888", "distance": 8177.632880335774}, {"id": "RZmXmwmStdqseUszkDMRxg", "alias": "little-caesars-webster-2", "name": "Little Caesars", "image_url": "https://s3-media2.fl.yelpcdn.com/bphoto/s-GJqrHHw461QOF3PFHqng/o.jpg", "is_closed": false, "url": "https://www.yelp.com/biz/little-caesars-webster-2?adjust_creative=wVJJqwOt_3apsoGmwgRWnw&utm_campaign=yelp_api_v3&utm_medium=api_v3_business_search&utm_source=wVJJqwOt_3apsoGmwgRWnw", "review_count": 9, "categories": [{"alias": "pizza", "title": "Pizza"}], "rating": 2.5, "coordinates": {"latitude": 42.0618808717464, "longitude": -71.8645469389077}, "transactions": [], "price": "$", "location": {"address1": "41 Worcester Rd", "address2": "", "address3": "", "city": "Webster", "zip_code": "01570", "country": "US", "state": "MA", "display_address": ["41 Worcester Rd", "Webster, MA 01570"]}, "phone": "+15084615100", "display_phone": "(508) 461-5100", "distance": 1520.360473216646}, {"id": "0JAM0038tihMO3MJ7gmcew", "alias": "the-rose-room-webster", "name": "The Rose Room", "image_url": "https://s3-media3.fl.yelpcdn.com/bphoto/-3i_RkwEvog0UAVCNGKjwQ/o.jpg", "is_closed": false, "url": "https://www.yelp.com/biz/the-rose-room-webster?adjust_creative=wVJJqwOt_3apsoGmwgRWnw&utm_campaign=yelp_api_v3&utm_medium=api_v3_business_search&utm_source=wVJJqwOt_3apsoGmwgRWnw", "review_count": 4, "categories": [{"alias": "cafes", "title": "Cafes"}, {"alias": "coffee", "title": "Coffee & Tea"}, {"alias": "breakfast_brunch", "title": "Breakfast & Brunch"}], "rating": 4.5, "coordinates": {"latitude": 42.054225, "longitude": -71.877818}, "transactions": [], "location": {"address1": "4 E Main St", "address2": "", "address3": null, "city": "Webster", "zip_code": "01570", "country": "US", "state": "MA", "display_address": ["4 E Main St", "Webster, MA 01570"]}, "phone": "+15084615344", "display_phone": "(508) 461-5344", "distance": 2598.0361833168436}, {"id": "xVaaTuDNhQCB6tygRB2Vqw", "alias": "the-national-grill-sutton", "name": "The National Grill", "image_url": "https://s3-media3.fl.yelpcdn.com/bphoto/fM0fbN6GxgFETYvCpgZiFQ/o.jpg", "is_closed": false, "url": "https://www.yelp.com/biz/the-national-grill-sutton?adjust_creative=wVJJqwOt_3apsoGmwgRWnw&utm_campaign=yelp_api_v3&utm_medium=api_v3_business_search&utm_source=wVJJqwOt_3apsoGmwgRWnw", "review_count": 2, "categories": [{"alias": "tradamerican", "title": "American (Traditional)"}, {"alias": "burgers", "title": "Burgers"}, {"alias": "sandwiches", "title": "Sandwiches"}], "rating": 3.5, "coordinates": {"latitude": 42.120342, "longitude": -71.766884}, "transactions": [], "location": {"address1": "227 Putnam Hill Rd", "address2": "", "address3": "Blackstone National Golf Club", "city": "Sutton", "zip_code": "01590", "country": "US", "state": "MA", "display_address": ["227 Putnam Hill Rd", "Blackstone National Golf Club", "Sutton, MA 01590"]}, "phone": "+15088652111", "display_phone": "(508) 865-2111", "distance": 9551.886951260352}, {"id": "dGeyKQXRMOtK9AKtT_HAvg", "alias": "wow-cafe-dudley", "name": "Wow Cafe", "image_url": "https://s3-media2.fl.yelpcdn.com/bphoto/4xIuyzOB1aXtW8WrX02pbg/o.jpg", "is_closed": false, "url": "https://www.yelp.com/biz/wow-cafe-dudley?adjust_creative=wVJJqwOt_3apsoGmwgRWnw&utm_campaign=yelp_api_v3&utm_medium=api_v3_business_search&utm_source=wVJJqwOt_3apsoGmwgRWnw", "review_count": 1, "categories": [{"alias": "chicken_wings", "title": "Chicken Wings"}, {"alias": "tradamerican", "title": "American (Traditional)"}], "rating": 3.0, "coordinates": {"latitude": 42.0456326, "longitude": -71.9299202}, "transactions": [], "location": {"address1": "119 Ctr St", "address2": "", "address3": "Nichols College-Fels Student Center", "city": "Dudley", "zip_code": "01571", "country": "US", "state": "MA", "display_address": ["119 Ctr St", "Nichols College-Fels Student Center", "Dudley, MA 01571"]}, "phone": "+15082132251", "display_phone": "(508) 213-2251", "distance": 7003.078317685671}, {"id": "ufrdyLOqcs0rJ9O6f1sxvA", "alias": "dairy-express-oxford", "name": "Dairy Express", "image_url": "https://s3-media2.fl.yelpcdn.com/bphoto/KYvb8_dmYP5XAiwcM5e8fQ/o.jpg", "is_closed": false, "url": "https://www.yelp.com/biz/dairy-express-oxford?adjust_creative=wVJJqwOt_3apsoGmwgRWnw&utm_campaign=yelp_api_v3&utm_medium=api_v3_business_search&utm_source=wVJJqwOt_3apsoGmwgRWnw", "review_count": 13, "categories": [{"alias": "pizza", "title": "Pizza"}, {"alias": "seafood", "title": "Seafood"}, {"alias": "icecream", "title": "Ice Cream & Frozen Yogurt"}], "rating": 3.0, "coordinates": {"latitude": 42.117153, "longitude": -71.864334}, "transactions": ["delivery"], "price": "$", "location": {"address1": "2 Sutton Ave", "address2": "", "address3": "", "city": "Oxford", "zip_code": "01540", "country": "US", "state": "MA", "display_address": ["2 Sutton Ave", "Oxford, MA 01540"]}, "phone": "+15089871151", "display_phone": "(508) 987-1151", "distance": 6719.67467612046}, {"id": "Kbe0Tmm-vICNFo_Vez-U8Q", "alias": "big-als-pizza-plus-dudley", "name": "Big Al's Pizza Plus", "image_url": "https://s3-media1.fl.yelpcdn.com/bphoto/2cbzUhWFMJsp-pE6-r98kQ/o.jpg", "is_closed": false, "url": "https://www.yelp.com/biz/big-als-pizza-plus-dudley?adjust_creative=wVJJqwOt_3apsoGmwgRWnw&utm_campaign=yelp_api_v3&utm_medium=api_v3_business_search&utm_source=wVJJqwOt_3apsoGmwgRWnw", "review_count": 25, "categories": [{"alias": "pizza", "title": "Pizza"}, {"alias": "seafood", "title": "Seafood"}, {"alias": "sandwiches", "title": "Sandwiches"}], "rating": 3.0, "coordinates": {"latitude": 42.0433731079102, "longitude": -71.8918533325195}, "transactions": ["delivery"], "price": "$", "location": {"address1": "23 Brandon Rd", "address2": null, "address3": null, "city": "Dudley", "zip_code": "01571", "country": "US", "state": "MA", "display_address": ["23 Brandon Rd", "Dudley, MA 01571"]}, "phone": "+15084617446", "display_phone": "(508) 461-7446", "distance": 4066.996956203132}, {"id": "RKCXhKqwMOj3cAQl6wWOfA", "alias": "carolos-pizza-oxford-2", "name": "Carolos Pizza", "image_url": "https://s3-media3.fl.yelpcdn.com/bphoto/Ybcly4JiGdXHCjPXI8y_SQ/o.jpg", "is_closed": false, "url": "https://www.yelp.com/biz/carolos-pizza-oxford-2?adjust_creative=wVJJqwOt_3apsoGmwgRWnw&utm_campaign=yelp_api_v3&utm_medium=api_v3_business_search&utm_source=wVJJqwOt_3apsoGmwgRWnw", "review_count": 14, "categories": [{"alias": "pizza", "title": "Pizza"}], "rating": 4.0, "coordinates": {"latitude": 42.1319186, "longitude": -71.8648416}, "transactions": ["delivery"], "price": "$$", "location": {"address1": "448 Main St", "address2": "Ste 2", "address3": null, "city": "Oxford", "zip_code": "01540", "country": "US", "state": "MA", "display_address": ["448 Main St", "Ste 2", "Oxford, MA 01540"]}, "phone": "+15089873777", "display_phone": "(508) 987-3777", "distance": 8333.774344459474}, {"id": "MI-qKNV8I9PkaI2jp-P21A", "alias": "friendlys-webster", "name": "Friendly's", "image_url": "https://s3-media2.fl.yelpcdn.com/bphoto/7PnrCN0CphNANGw4juWo_g/o.jpg", "is_closed": false, "url": "https://www.yelp.com/biz/friendlys-webster?adjust_creative=wVJJqwOt_3apsoGmwgRWnw&utm_campaign=yelp_api_v3&utm_medium=api_v3_business_search&utm_source=wVJJqwOt_3apsoGmwgRWnw", "review_count": 30, "categories": [{"alias": "icecream", "title": "Ice Cream & Frozen Yogurt"}, {"alias": "tradamerican", "title": "American (Traditional)"}, {"alias": "burgers", "title": "Burgers"}], "rating": 1.5, "coordinates": {"latitude": 42.060009, "longitude": -71.864657}, "transactions": ["pickup", "delivery"], "price": "$$", "location": {"address1": "129 E Main St", "address2": "", "address3": "", "city": "Webster", "zip_code": "01570", "country": "US", "state": "MA", "display_address": ["129 E Main St", "Webster, MA 01570"]}, "phone": "+15089438533", "display_phone": "(508) 943-8533", "distance": 1487.0615995609055}, {"id": "D18DKMr9zJDtCd54tdURkg", "alias": "carls-oxford-diner-oxford", "name": "Carl's Oxford Diner", "image_url": "https://s3-media1.fl.yelpcdn.com/bphoto/baoRN59Nx9cFRTtP-ioXLg/o.jpg", "is_closed": false, "url": "https://www.yelp.com/biz/carls-oxford-diner-oxford?adjust_creative=wVJJqwOt_3apsoGmwgRWnw&utm_campaign=yelp_api_v3&utm_medium=api_v3_business_search&utm_source=wVJJqwOt_3apsoGmwgRWnw", "review_count": 150, "categories": [{"alias": "diners", "title": "Diners"}, {"alias": "sandwiches", "title": "Sandwiches"}, {"alias": "coffee", "title": "Coffee & Tea"}], "rating": 4.0, "coordinates": {"latitude": 42.11646, "longitude": -71.86518}, "transactions": ["delivery"], "price": "$", "location": {"address1": "291 Main St", "address2": "", "address3": "", "city": "Oxford", "zip_code": "01540", "country": "US", "state": "MA", "display_address": ["291 Main St", "Oxford, MA 01540"]}, "phone": "+15089878770", "display_phone": "(508) 987-8770", "distance": 6657.598654333282}, {"id": "5Sr3BLA1iZP1mLG72BgZYw", "alias": "kfc-webster-4", "name": "KFC", "image_url": "https://s3-media4.fl.yelpcdn.com/bphoto/G9ORfLB5vr6VDTuQl96LQg/o.jpg", "is_closed": false, "url": "https://www.yelp.com/biz/kfc-webster-4?adjust_creative=wVJJqwOt_3apsoGmwgRWnw&utm_campaign=yelp_api_v3&utm_medium=api_v3_business_search&utm_source=wVJJqwOt_3apsoGmwgRWnw", "review_count": 5, "categories": [{"alias": "hotdogs", "title": "Fast Food"}, {"alias": "chicken_wings", "title": "Chicken Wings"}, {"alias": "chickenshop", "title": "Chicken Shop"}], "rating": 2.5, "coordinates": {"latitude": 42.057304068212, "longitude": -71.8711184251833}, "transactions": [], "price": "$", "location": {"address1": "71 E Main St", "address2": "", "address3": "", "city": "Webster", "zip_code": "01570", "country": "US", "state": "MA", "display_address": ["71 E Main St", "Webster, MA 01570"]}, "phone": "+15086710134", "display_phone": "(508) 671-0134", "distance": 2009.4150901481134}, {"id": "rMDu31LazmoZeQUkdn8-4g", "alias": "new-england-pizza-oxford-2", "name": "New England Pizza", "image_url": "", "is_closed": false, "url": "https://www.yelp.com/biz/new-england-pizza-oxford-2?adjust_creative=wVJJqwOt_3apsoGmwgRWnw&utm_campaign=yelp_api_v3&utm_medium=api_v3_business_search&utm_source=wVJJqwOt_3apsoGmwgRWnw", "review_count": 5, "categories": [{"alias": "salad", "title": "Salad"}, {"alias": "pizza", "title": "Pizza"}], "rating": 3.0, "coordinates": {"latitude": 42.1169451624155, "longitude": -71.8653421103954}, "transactions": [], "price": "$$", "location": {"address1": "4 Charlton St", "address2": "", "address3": "", "city": "Oxford", "zip_code": "01540", "country": "US", "state": "MA", "display_address": ["4 Charlton St", "Oxford, MA 01540"]}, "phone": "+15089871999", "display_phone": "(508) 987-1999", "distance": 6738.245980466938}, {"id": "NPE-fiD9wq0hm4CtzkduJw", "alias": "subway-webster-18", "name": "Subway", "image_url": "https://s3-media2.fl.yelpcdn.com/bphoto/r6rsCUkX_Cd6shF4mlkQ3A/o.jpg", "is_closed": false, "url": "https://www.yelp.com/biz/subway-webster-18?adjust_creative=wVJJqwOt_3apsoGmwgRWnw&utm_campaign=yelp_api_v3&utm_medium=api_v3_business_search&utm_source=wVJJqwOt_3apsoGmwgRWnw", "review_count": 5, "categories": [{"alias": "sandwiches", "title": "Sandwiches"}], "rating": 2.0, "coordinates": {"latitude": 42.0536703, "longitude": -71.8402332918703}, "transactions": [], "price": "$", "location": {"address1": "188 Gore Rd", "address2": null, "address3": null, "city": "Webster", "zip_code": "01570", "country": "US", "state": "MA", "display_address": ["188 Gore Rd", "Webster, MA 01570"]}, "phone": "+15089433833", "display_phone": "(508) 943-3833", "distance": 740.844069859896}, {"id": "nFJMK142eT2K_F2gqnYAQA", "alias": "l-bs-family-restaurant-north-grosvenordale-7", "name": "L B'S Family Restaurant", "image_url": "https://s3-media1.fl.yelpcdn.com/bphoto/0aPh9zODllFFbfPsB2sAkA/o.jpg", "is_closed": false, "url": "https://www.yelp.com/biz/l-bs-family-restaurant-north-grosvenordale-7?adjust_creative=wVJJqwOt_3apsoGmwgRWnw&utm_campaign=yelp_api_v3&utm_medium=api_v3_business_search&utm_source=wVJJqwOt_3apsoGmwgRWnw", "review_count": 18, "categories": [{"alias": "tradamerican", "title": "American (Traditional)"}, {"alias": "seafood", "title": "Seafood"}, {"alias": "breakfast_brunch", "title": "Breakfast & Brunch"}], "rating": 4.0, "coordinates": {"latitude": 41.981778, "longitude": -71.897967}, "transactions": ["delivery"], "price": "$", "location": {"address1": "860 Riverside Dr", "address2": "", "address3": "", "city": "North Grosvenordale", "zip_code": "06255", "country": "US", "state": "CT", "display_address": ["860 Riverside Dr", "North Grosvenordale, CT 06255"]}, "phone": "+18609231899", "display_phone": "(860) 923-1899", "distance": 9490.897400016613}, {"id": "NwZChwjiFqStJ_BKawEI5Q", "alias": "dominos-pizza-webster", "name": "Domino's Pizza", "image_url": "https://s3-media4.fl.yelpcdn.com/bphoto/Wp5gsfl_Bi8gks2JrDpzww/o.jpg", "is_closed": false, "url": "https://www.yelp.com/biz/dominos-pizza-webster?adjust_creative=wVJJqwOt_3apsoGmwgRWnw&utm_campaign=yelp_api_v3&utm_medium=api_v3_business_search&utm_source=wVJJqwOt_3apsoGmwgRWnw", "review_count": 14, "categories": [{"alias": "pizza", "title": "Pizza"}, {"alias": "chicken_wings", "title": "Chicken Wings"}, {"alias": "sandwiches", "title": "Sandwiches"}], "rating": 3.0, "coordinates": {"latitude": 42.04959, "longitude": -71.87515}, "transactions": [], "price": "$", "location": {"address1": "55 Lake St", "address2": "", "address3": "", "city": "Webster", "zip_code": "01570", "country": "US", "state": "MA", "display_address": ["55 Lake St", "Webster, MA 01570"]}, "phone": "+15089491330", "display_phone": "(508) 949-1330", "distance": 2523.5071433473104}, {"id": "vL2nE8QdtpFOzF0PWMApqQ", "alias": "burger-king-webster-2", "name": "Burger King", "image_url": "https://s3-media4.fl.yelpcdn.com/bphoto/yQJN8VdmgynRvXsZn6HGiw/o.jpg", "is_closed": false, "url": "https://www.yelp.com/biz/burger-king-webster-2?adjust_creative=wVJJqwOt_3apsoGmwgRWnw&utm_campaign=yelp_api_v3&utm_medium=api_v3_business_search&utm_source=wVJJqwOt_3apsoGmwgRWnw", "review_count": 7, "categories": [{"alias": "burgers", "title": "Burgers"}, {"alias": "hotdogs", "title": "Fast Food"}], "rating": 1.5, "coordinates": {"latitude": 42.059378, "longitude": -71.865116}, "transactions": [], "price": "$", "location": {"address1": "128 East Main Street", "address2": "", "address3": "", "city": "Webster", "zip_code": "01570", "country": "US", "state": "MA", "display_address": ["128 East Main Street", "Webster, MA 01570"]}, "phone": "", "display_phone": "", "distance": 1511.8219779601736}, {"id": "1hh52SruKBa2UrgyAQ8D-A", "alias": "taco-bell-webster-6", "name": "Taco Bell", "image_url": "https://s3-media2.fl.yelpcdn.com/bphoto/iIGiLglIVStZOQWslFtz3g/o.jpg", "is_closed": false, "url": "https://www.yelp.com/biz/taco-bell-webster-6?adjust_creative=wVJJqwOt_3apsoGmwgRWnw&utm_campaign=yelp_api_v3&utm_medium=api_v3_business_search&utm_source=wVJJqwOt_3apsoGmwgRWnw", "review_count": 10, "categories": [{"alias": "hotdogs", "title": "Fast Food"}, {"alias": "tacos", "title": "Tacos"}], "rating": 2.0, "coordinates": {"latitude": 42.05706, "longitude": -71.87118}, "transactions": ["delivery"], "price": "$", "location": {"address1": "71 E. Main St.", "address2": null, "address3": null, "city": "Webster", "zip_code": "01570", "country": "US", "state": "MA", "display_address": ["71 E. Main St.", "Webster, MA 01570"]}, "phone": "+15086710134", "display_phone": "(508) 671-0134", "distance": 2016.0256867383853}, {"id": "vnh055ZHDtJFWGU7HjZaIw", "alias": "jimmys-pizza-dudley-5", "name": "Jimmy's Pizza", "image_url": "https://s3-media1.fl.yelpcdn.com/bphoto/eiIT-vfcbKTNkEoJ0mknyg/o.jpg", "is_closed": false, "url": "https://www.yelp.com/biz/jimmys-pizza-dudley-5?adjust_creative=wVJJqwOt_3apsoGmwgRWnw&utm_campaign=yelp_api_v3&utm_medium=api_v3_business_search&utm_source=wVJJqwOt_3apsoGmwgRWnw", "review_count": 30, "categories": [{"alias": "pizza", "title": "Pizza"}], "rating": 3.5, "coordinates": {"latitude": 42.0404091, "longitude": -71.9116898}, "transactions": [], "price": "$", "location": {"address1": "185 W Main St", "address2": "Ste 7", "address3": "", "city": "Dudley", "zip_code": "01571", "country": "US", "state": "MA", "display_address": ["185 W Main St", "Ste 7", "Dudley, MA 01571"]}, "phone": "+15089490722", "display_phone": "(508) 949-0722", "distance": 5608.1393207856745}, {"id": "HknqAjrc3oM277HLASIMzg", "alias": "thompson-house-of-pizza-north-grosvenor-dale", "name": "Thompson House of Pizza", "image_url": "https://s3-media1.fl.yelpcdn.com/bphoto/-ExABgh40Q6REJveTC0D7A/o.jpg", "is_closed": false, "url": "https://www.yelp.com/biz/thompson-house-of-pizza-north-grosvenor-dale?adjust_creative=wVJJqwOt_3apsoGmwgRWnw&utm_campaign=yelp_api_v3&utm_medium=api_v3_business_search&utm_source=wVJJqwOt_3apsoGmwgRWnw", "review_count": 17, "categories": [{"alias": "pizza", "title": "Pizza"}, {"alias": "chicken_wings", "title": "Chicken Wings"}], "rating": 3.5, "coordinates": {"latitude": 41.99894, "longitude": -71.8988}, "transactions": ["delivery"], "price": "$", "location": {"address1": "1139 Riverside Dr", "address2": "", "address3": "", "city": "North Grosvenor Dale", "zip_code": "06255", "country": "US", "state": "CT", "display_address": ["1139 Riverside Dr", "North Grosvenor Dale, CT 06255"]}, "phone": "+18609233018", "display_phone": "(860) 923-3018", "distance": 7884.150026518426}, {"id": "P-ZwlesRUxqNUDsDoisNZg", "alias": "mcdonalds-webster", "name": "McDonald's", "image_url": "https://s3-media4.fl.yelpcdn.com/bphoto/2WGDN4iZfcah0qjKr0egSw/o.jpg", "is_closed": false, "url": "https://www.yelp.com/biz/mcdonalds-webster?adjust_creative=wVJJqwOt_3apsoGmwgRWnw&utm_campaign=yelp_api_v3&utm_medium=api_v3_business_search&utm_source=wVJJqwOt_3apsoGmwgRWnw", "review_count": 19, "categories": [{"alias": "burgers", "title": "Burgers"}, {"alias": "hotdogs", "title": "Fast Food"}, {"alias": "coffee", "title": "Coffee & Tea"}], "rating": 1.5, "coordinates": {"latitude": 42.0555872470577, "longitude": -71.873440617594}, "transactions": [], "price": "$", "location": {"address1": "44 E Main St", "address2": "", "address3": "", "city": "Webster", "zip_code": "01570", "country": "US", "state": "MA", "display_address": ["44 E Main St", "Webster, MA 01570"]}, "phone": "+15089439009", "display_phone": "(508) 943-9009", "distance": 2217.8335375662687}, {"id": "apMonxeSVZ7ZT3U4KIOxHw", "alias": "kfc-webster-3", "name": "KFC", "image_url": "", "is_closed": false, "url": "https://www.yelp.com/biz/kfc-webster-3?adjust_creative=wVJJqwOt_3apsoGmwgRWnw&utm_campaign=yelp_api_v3&utm_medium=api_v3_business_search&utm_source=wVJJqwOt_3apsoGmwgRWnw", "review_count": 2, "categories": [{"alias": "hotdogs", "title": "Fast Food"}], "rating": 1.0, "coordinates": {"latitude": 42.056532, "longitude": -71.873261}, "transactions": [], "price": "$", "location": {"address1": "51 E Main St", "address2": "", "address3": "", "city": "Webster", "zip_code": "01570", "country": "US", "state": "MA", "display_address": ["51 E Main St", "Webster, MA 01570"]}, "phone": "+15089436915", "display_phone": "(508) 943-6915", "distance": 2194.4940672118}, {"id": "9lYjQdxEdm61F6Iv93IgIQ", "alias": "p-and-d-oxford-house-of-pizza-oxford", "name": "P&D Oxford House of Pizza", "image_url": "https://s3-media1.fl.yelpcdn.com/bphoto/Y0jS4mag-Pqr4w8mcpQL0Q/o.jpg", "is_closed": false, "url": "https://www.yelp.com/biz/p-and-d-oxford-house-of-pizza-oxford?adjust_creative=wVJJqwOt_3apsoGmwgRWnw&utm_campaign=yelp_api_v3&utm_medium=api_v3_business_search&utm_source=wVJJqwOt_3apsoGmwgRWnw", "review_count": 18, "categories": [{"alias": "pizza", "title": "Pizza"}, {"alias": "seafood", "title": "Seafood"}, {"alias": "sandwiches", "title": "Sandwiches"}], "rating": 3.5, "coordinates": {"latitude": 42.131183, "longitude": -71.86489}, "transactions": ["delivery"], "price": "$", "location": {"address1": "440 Main St", "address2": "", "address3": "", "city": "Oxford", "zip_code": "01540", "country": "US", "state": "MA", "display_address": ["440 Main St", "Oxford, MA 01540"]}, "phone": "+15089875798", "display_phone": "(508) 987-5798", "distance": 8274.45081363342}, {"id": "Hy4KaXrFXFX3p0OOIywiyQ", "alias": "subway-dudley-4", "name": "Subway", "image_url": "https://s3-media2.fl.yelpcdn.com/bphoto/ohCyo3PEPfoephIi8KS5EQ/o.jpg", "is_closed": false, "url": "https://www.yelp.com/biz/subway-dudley-4?adjust_creative=wVJJqwOt_3apsoGmwgRWnw&utm_campaign=yelp_api_v3&utm_medium=api_v3_business_search&utm_source=wVJJqwOt_3apsoGmwgRWnw", "review_count": 6, "categories": [{"alias": "sandwiches", "title": "Sandwiches"}], "rating": 2.0, "coordinates": {"latitude": 42.0420636730551, "longitude": -71.9071146184027}, "transactions": [], "price": "$", "location": {"address1": "157 W Main St", "address2": "", "address3": "", "city": "Dudley", "zip_code": "01571", "country": "US", "state": "MA", "display_address": ["157 W Main St", "Dudley, MA 01571"]}, "phone": "+15089498665", "display_phone": "(508) 949-8665", "distance": 5292.869712338186}, {"id": "kNxcxjYk1c3IpxXZ6OmG-g", "alias": "mcdonalds-oxford-10", "name": "McDonald's", "image_url": "https://s3-media2.fl.yelpcdn.com/bphoto/kWJAImPOxo0zzr73sWxO7w/o.jpg", "is_closed": false, "url": "https://www.yelp.com/biz/mcdonalds-oxford-10?adjust_creative=wVJJqwOt_3apsoGmwgRWnw&utm_campaign=yelp_api_v3&utm_medium=api_v3_business_search&utm_source=wVJJqwOt_3apsoGmwgRWnw", "review_count": 9, "categories": [{"alias": "burgers", "title": "Burgers"}, {"alias": "hotdogs", "title": "Fast Food"}, {"alias": "coffee", "title": "Coffee & Tea"}], "rating": 3.0, "coordinates": {"latitude": 42.1170527832476, "longitude": -71.8599253892899}, "transactions": [], "price": "$", "location": {"address1": "26 A Sutton Ave", "address2": "", "address3": "", "city": "Oxford", "zip_code": "01540", "country": "US", "state": "MA", "display_address": ["26 A Sutton Ave", "Oxford, MA 01540"]}, "phone": "+15089872047", "display_phone": "(508) 987-2047", "distance": 6632.647010469366}]