[{"id": "1SuRjphJzX8b9mhicrjGSA", "alias": "the-waxwing-hatfield", "name": "The Waxwing", "image_url": "https://s3-media2.fl.yelpcdn.com/bphoto/QWAmNTvZfp7mBBSPK0Camw/o.jpg", "is_closed": false, "url": "https://www.yelp.com/biz/the-waxwing-hatfield?adjust_creative=wVJJqwOt_3apsoGmwgRWnw&utm_campaign=yelp_api_v3&utm_medium=api_v3_business_search&utm_source=wVJJqwOt_3apsoGmwgRWnw", "review_count": 1, "categories": [{"alias": "seafood", "title": "Seafood"}, {"alias": "mediterranean", "title": "Mediterranean"}, {"alias": "cocktailbars", "title": "Cocktail Bars"}], "rating": 5.0, "coordinates": {"latitude": 42.37246, "longitude": -72.63478}, "transactions": [], "location": {"address1": "34 West St", "address2": "", "address3": null, "city": "Hatfield", "zip_code": "01088", "country": "US", "state": "MA", "display_address": ["34 West St", "Hatfield, MA 01088"]}, "phone": "+14132476113", "display_phone": "(413) 247-6113", "distance": 1987.7327078878234}, {"id": "35kzCz1iaCkTaJU63sDVaw", "alias": "smithsonian-cafe-and-chowder-house-west-hatfield", "name": "Smithsonian Cafe and Chowder House", "image_url": "https://s3-media4.fl.yelpcdn.com/bphoto/C4k2O-DbgIRb9ljmxwlHbg/o.jpg", "is_closed": false, "url": "https://www.yelp.com/biz/smithsonian-cafe-and-chowder-house-west-hatfield?adjust_creative=wVJJqwOt_3apsoGmwgRWnw&utm_campaign=yelp_api_v3&utm_medium=api_v3_business_search&utm_source=wVJJqwOt_3apsoGmwgRWnw", "review_count": 75, "categories": [{"alias": "tradamerican", "title": "American (Traditional)"}], "rating": 4.5, "coordinates": {"latitude": 42.3671380235461, "longitude": -72.6379209011793}, "transactions": ["delivery"], "price": "$", "location": {"address1": "1 W St", "address2": "", "address3": "", "city": "West Hatfield", "zip_code": "01088", "country": "US", "state": "MA", "display_address": ["1 W St", "West Hatfield, MA 01088"]}, "phone": "+14132475157", "display_phone": "(413) 247-5157", "distance": 2392.441071982389}, {"id": "8J_jggFBM3m4-9a8PwoGWA", "alias": "progression-brewing-company-northampton", "name": "Progression Brewing Company", "image_url": "https://s3-media3.fl.yelpcdn.com/bphoto/tNyOKN8hZg3HUa_UtIqyXw/o.jpg", "is_closed": false, "url": "https://www.yelp.com/biz/progression-brewing-company-northampton?adjust_creative=wVJJqwOt_3apsoGmwgRWnw&utm_campaign=yelp_api_v3&utm_medium=api_v3_business_search&utm_source=wVJJqwOt_3apsoGmwgRWnw", "review_count": 37, "categories": [{"alias": "newamerican", "title": "American (New)"}, {"alias": "breweries", "title": "Breweries"}], "rating": 4.0, "coordinates": {"latitude": 42.318713529645, "longitude": -72.6270833562579}, "transactions": [], "price": "$$", "location": {"address1": "9 Pearl St", "address2": "", "address3": null, "city": "Northampton", "zip_code": "01060", "country": "US", "state": "MA", "display_address": ["9 Pearl St", "Northampton, MA 01060"]}, "phone": "+14133413517", "display_phone": "(413) 341-3517", "distance": 7814.7522565220615}, {"id": "z-6kOs2txOoFTZfVDxd42g", "alias": "highbrow-northampton-2", "name": "HighBrow", "image_url": "https://s3-media2.fl.yelpcdn.com/bphoto/ycxh2Avdfs-k6S66b_O8gw/o.jpg", "is_closed": false, "url": "https://www.yelp.com/biz/highbrow-northampton-2?adjust_creative=wVJJqwOt_3apsoGmwgRWnw&utm_campaign=yelp_api_v3&utm_medium=api_v3_business_search&utm_source=wVJJqwOt_3apsoGmwgRWnw", "review_count": 46, "categories": [{"alias": "pizza", "title": "Pizza"}, {"alias": "newamerican", "title": "American (New)"}, {"alias": "beer_and_wine", "title": "Beer, Wine & Spirits"}], "rating": 4.5, "coordinates": {"latitude": 42.31741, "longitude": -72.63153}, "transactions": ["delivery"], "price": "$$", "location": {"address1": "12 Crafts Ave", "address2": null, "address3": "", "city": "Northampton", "zip_code": "01060", "country": "US", "state": "MA", "display_address": ["12 Crafts Ave", "Northampton, MA 01060"]}, "phone": "+14135861468", "display_phone": "(413) 586-1468", "distance": 7882.779941754965}, {"id": "zwC34RoPsOM_j3-V05DYfQ", "alias": "alinas-ristorante-hadley", "name": "Alina's Ristorante", "image_url": "https://s3-media2.fl.yelpcdn.com/bphoto/B1AD-W6YogcNltt3PT6rAg/o.jpg", "is_closed": false, "url": "https://www.yelp.com/biz/alinas-ristorante-hadley?adjust_creative=wVJJqwOt_3apsoGmwgRWnw&utm_campaign=yelp_api_v3&utm_medium=api_v3_business_search&utm_source=wVJJqwOt_3apsoGmwgRWnw", "review_count": 116, "categories": [{"alias": "italian", "title": "Italian"}, {"alias": "mediterranean", "title": "Mediterranean"}], "rating": 4.0, "coordinates": {"latitude": 42.34172, "longitude": -72.59766}, "transactions": ["delivery"], "price": "$$", "location": {"address1": "96 Russell St", "address2": "", "address3": "", "city": "Hadley", "zip_code": "01035", "country": "US", "state": "MA", "display_address": ["96 Russell St", "Hadley, MA 01035"]}, "phone": "+14135848000", "display_phone": "(413) 584-8000", "distance": 6551.223360245868}, {"id": "75CHObb-0bxspwAaWcHsyw", "alias": "the-whately-inn-whately", "name": "The Whately Inn", "image_url": "https://s3-media3.fl.yelpcdn.com/bphoto/TkyLjBwFpK2kdenqUkKi0g/o.jpg", "is_closed": false, "url": "https://www.yelp.com/biz/the-whately-inn-whately?adjust_creative=wVJJqwOt_3apsoGmwgRWnw&utm_campaign=yelp_api_v3&utm_medium=api_v3_business_search&utm_source=wVJJqwOt_3apsoGmwgRWnw", "review_count": 60, "categories": [{"alias": "french", "title": "French"}, {"alias": "tradamerican", "title": "American (Traditional)"}], "rating": 3.5, "coordinates": {"latitude": 42.4398746, "longitude": -72.6349179}, "transactions": [], "price": "$$$", "location": {"address1": "193 Chestnut Plain Rd", "address2": "", "address3": "", "city": "Whately", "zip_code": "01093", "country": "US", "state": "MA", "display_address": ["193 Chestnut Plain Rd", "Whately, MA 01093"]}, "phone": "+14136653044", "display_phone": "(413) 665-3044", "distance": 5962.549577783673}, {"id": "KOegsIQ89HRclWRkLGZSzQ", "alias": "mulinos-northampton", "name": "Mulinos", "image_url": "https://s3-media3.fl.yelpcdn.com/bphoto/ClMMaa-hrXhArywLrDYUaw/o.jpg", "is_closed": false, "url": "https://www.yelp.com/biz/mulinos-northampton?adjust_creative=wVJJqwOt_3apsoGmwgRWnw&utm_campaign=yelp_api_v3&utm_medium=api_v3_business_search&utm_source=wVJJqwOt_3apsoGmwgRWnw", "review_count": 170, "categories": [{"alias": "italian", "title": "Italian"}], "rating": 4.0, "coordinates": {"latitude": 42.319131, "longitude": -72.627509}, "transactions": ["delivery", "restaurant_reservation"], "price": "$$", "location": {"address1": "41 Strong Ave", "address2": "Fl 2", "address3": "", "city": "Northampton", "zip_code": "01060", "country": "US", "state": "MA", "display_address": ["41 Strong Ave", "Fl 2", "Northampton, MA 01060"]}, "phone": "+14135868900", "display_phone": "(413) 586-8900", "distance": 7761.576280889727}, {"id": "S3Tkq0oSytqNpe98y9wTdQ", "alias": "bistro-les-gras-northampton", "name": "Bistro Les Gras", "image_url": "https://s3-media2.fl.yelpcdn.com/bphoto/Jbw8cv8PEJ7ze0-L5BUUoQ/o.jpg", "is_closed": false, "url": "https://www.yelp.com/biz/bistro-les-gras-northampton?adjust_creative=wVJJqwOt_3apsoGmwgRWnw&utm_campaign=yelp_api_v3&utm_medium=api_v3_business_search&utm_source=wVJJqwOt_3apsoGmwgRWnw", "review_count": 112, "categories": [{"alias": "french", "title": "French"}, {"alias": "seafood", "title": "Seafood"}, {"alias": "burgers", "title": "Burgers"}], "rating": 4.0, "coordinates": {"latitude": 42.3166369430338, "longitude": -72.6366354072254}, "transactions": ["delivery"], "price": "$$$", "location": {"address1": "25 W St", "address2": "", "address3": "", "city": "Northampton", "zip_code": "01060", "country": "US", "state": "MA", "display_address": ["25 W St", "Northampton, MA 01060"]}, "phone": "+14133204666", "display_phone": "(413) 320-4666", "distance": 7905.547360212332}, {"id": "aBiCOJoljrSfA6gZZ8Qg2w", "alias": "oliver-smith-restaurant-northampton", "name": "Oliver Smith Restaurant", "image_url": "https://s3-media4.fl.yelpcdn.com/bphoto/RkGDHtzrQFak8S9j8Jr3Fg/o.jpg", "is_closed": false, "url": "https://www.yelp.com/biz/oliver-smith-restaurant-northampton?adjust_creative=wVJJqwOt_3apsoGmwgRWnw&utm_campaign=yelp_api_v3&utm_medium=api_v3_business_search&utm_source=wVJJqwOt_3apsoGmwgRWnw", "review_count": 1, "categories": [{"alias": "tradamerican", "title": "American (Traditional)"}, {"alias": "buffets", "title": "Buffets"}], "rating": 5.0, "coordinates": {"latitude": 42.331199, "longitude": -72.659231}, "transactions": [], "location": {"address1": "80 Locust St", "address2": "", "address3": "", "city": "Northampton", "zip_code": "01060", "country": "US", "state": "MA", "display_address": ["80 Locust St", "Northampton, MA 01060"]}, "phone": "+14135871432", "display_phone": "(413) 587-1432", "distance": 6288.7875192523425}, {"id": "jilRIDbiEEtDhi4hnV6Oug", "alias": "local-burgy-williamsburg", "name": "Local Burgy", "image_url": "https://s3-media2.fl.yelpcdn.com/bphoto/V9kmP6sTF9MSAXbNKLptZw/o.jpg", "is_closed": false, "url": "https://www.yelp.com/biz/local-burgy-williamsburg?adjust_creative=wVJJqwOt_3apsoGmwgRWnw&utm_campaign=yelp_api_v3&utm_medium=api_v3_business_search&utm_source=wVJJqwOt_3apsoGmwgRWnw", "review_count": 23, "categories": [{"alias": "bbq", "title": "Barbeque"}, {"alias": "foodstands", "title": "Food Stands"}, {"alias": "burgers", "title": "Burgers"}], "rating": 4.5, "coordinates": {"latitude": 42.3818416889538, "longitude": -72.7114339380672}, "transactions": [], "price": "$$", "location": {"address1": "93 Main St", "address2": "", "address3": null, "city": "Williamsburg", "zip_code": "01039", "country": "US", "state": "MA", "display_address": ["93 Main St", "Williamsburg, MA 01039"]}, "phone": "+14132688300", "display_phone": "(413) 268-8300", "distance": 5205.6842594041755}, {"id": "XlW8r4nHdym6B6VGNBc6QQ", "alias": "the-sierra-grille-northampton", "name": "The Sierra Grille", "image_url": "https://s3-media2.fl.yelpcdn.com/bphoto/xp9rTa3vdRUv3SSyP0BK2A/o.jpg", "is_closed": false, "url": "https://www.yelp.com/biz/the-sierra-grille-northampton?adjust_creative=wVJJqwOt_3apsoGmwgRWnw&utm_campaign=yelp_api_v3&utm_medium=api_v3_business_search&utm_source=wVJJqwOt_3apsoGmwgRWnw", "review_count": 278, "categories": [{"alias": "newamerican", "title": "American (New)"}, {"alias": "bars", "title": "Bars"}], "rating": 4.0, "coordinates": {"latitude": 42.319019317627, "longitude": -72.6276473999023}, "transactions": ["delivery"], "price": "$$", "location": {"address1": "41 Strong Ave", "address2": "", "address3": "", "city": "Northampton", "zip_code": "01060", "country": "US", "state": "MA", "display_address": ["41 Strong Ave", "Northampton, MA 01060"]}, "phone": "+14135841150", "display_phone": "(413) 584-1150", "distance": 7761.576280889727}, {"id": "spyVCMiTpnS418CQiy_b9Q", "alias": "bombay-royale-northampton", "name": "Bombay Royale", "image_url": "https://s3-media1.fl.yelpcdn.com/bphoto/zlVJjsRqTEbCJsmqwL9_NA/o.jpg", "is_closed": false, "url": "https://www.yelp.com/biz/bombay-royale-northampton?adjust_creative=wVJJqwOt_3apsoGmwgRWnw&utm_campaign=yelp_api_v3&utm_medium=api_v3_business_search&utm_source=wVJJqwOt_3apsoGmwgRWnw", "review_count": 194, "categories": [{"alias": "indpak", "title": "Indian"}, {"alias": "vegan", "title": "Vegan"}, {"alias": "buffets", "title": "Buffets"}], "rating": 4.5, "coordinates": {"latitude": 42.3167408799557, "longitude": -72.6318416704081}, "transactions": ["delivery"], "price": "$$", "location": {"address1": "1 Roundhouse Plz", "address2": "Ste 4", "address3": "", "city": "Northampton", "zip_code": "01060", "country": "US", "state": "MA", "display_address": ["1 Roundhouse Plz", "Ste 4", "Northampton, MA 01060"]}, "phone": "+14133413537", "display_phone": "(413) 341-3537", "distance": 7952.214160183769}, {"id": "RkqQC9cvFa12pCWn2leGig", "alias": "fishtales-bar-and-grill-hatfield-4", "name": "Fishtales Bar & Grill", "image_url": "https://s3-media4.fl.yelpcdn.com/bphoto/vcdupOaCugnkyzCp8XqV6Q/o.jpg", "is_closed": false, "url": "https://www.yelp.com/biz/fishtales-bar-and-grill-hatfield-4?adjust_creative=wVJJqwOt_3apsoGmwgRWnw&utm_campaign=yelp_api_v3&utm_medium=api_v3_business_search&utm_source=wVJJqwOt_3apsoGmwgRWnw", "review_count": 45, "categories": [{"alias": "bars", "title": "Bars"}, {"alias": "seafood", "title": "Seafood"}, {"alias": "sandwiches", "title": "Sandwiches"}], "rating": 3.0, "coordinates": {"latitude": 42.3731853, "longitude": -72.5982296}, "transactions": ["delivery"], "price": "$$", "location": {"address1": "5 School St", "address2": "", "address3": "", "city": "Hatfield", "zip_code": "01038", "country": "US", "state": "MA", "display_address": ["5 School St", "Hatfield, MA 01038"]}, "phone": "+14133494100", "display_phone": "(413) 349-4100", "distance": 4410.6951757642255}, {"id": "BxLkvKAw-rWIuH7O5A5SDg", "alias": "amanouz-cafe-northampton", "name": "Amanouz Cafe", "image_url": "https://s3-media1.fl.yelpcdn.com/bphoto/8V6w0Pl7Q6zx8k2xDuc9MA/o.jpg", "is_closed": false, "url": "https://www.yelp.com/biz/amanouz-cafe-northampton?adjust_creative=wVJJqwOt_3apsoGmwgRWnw&utm_campaign=yelp_api_v3&utm_medium=api_v3_business_search&utm_source=wVJJqwOt_3apsoGmwgRWnw", "review_count": 284, "categories": [{"alias": "moroccan", "title": "Moroccan"}, {"alias": "mediterranean", "title": "Mediterranean"}], "rating": 4.5, "coordinates": {"latitude": 42.3196, "longitude": -72.62906}, "transactions": ["delivery", "pickup"], "price": "$", "location": {"address1": "44 Main St", "address2": "", "address3": "", "city": "Northampton", "zip_code": "01060", "country": "US", "state": "MA", "display_address": ["44 Main St", "Northampton, MA 01060"]}, "phone": "+14135859128", "display_phone": "(413) 585-9128", "distance": 7685.403576570417}, {"id": "ujdYCeulx68Mfdf4pvbxYg", "alias": "grill-n-chill-hatfield", "name": "Grill N Chill", "image_url": "https://s3-media1.fl.yelpcdn.com/bphoto/6_ORnjaKTNiU_12QB0U-5w/o.jpg", "is_closed": false, "url": "https://www.yelp.com/biz/grill-n-chill-hatfield?adjust_creative=wVJJqwOt_3apsoGmwgRWnw&utm_campaign=yelp_api_v3&utm_medium=api_v3_business_search&utm_source=wVJJqwOt_3apsoGmwgRWnw", "review_count": 14, "categories": [{"alias": "newamerican", "title": "American (New)"}, {"alias": "pizza", "title": "Pizza"}], "rating": 3.5, "coordinates": {"latitude": 42.359764, "longitude": -72.625832}, "transactions": ["delivery"], "price": "$$", "location": {"address1": "127 Elm St", "address2": "", "address3": "", "city": "Hatfield", "zip_code": "01038", "country": "US", "state": "MA", "display_address": ["127 Elm St", "Hatfield, MA 01038"]}, "phone": "+14132475044", "display_phone": "(413) 247-5044", "distance": 3571.9735297144925}, {"id": "uzplqOLK7sx5gV3DYURn1Q", "alias": "goten-of-japan-sunderland", "name": "Goten of Japan", "image_url": "https://s3-media1.fl.yelpcdn.com/bphoto/cGjbWaxmcdOjijjzYz5Rsw/o.jpg", "is_closed": false, "url": "https://www.yelp.com/biz/goten-of-japan-sunderland?adjust_creative=wVJJqwOt_3apsoGmwgRWnw&utm_campaign=yelp_api_v3&utm_medium=api_v3_business_search&utm_source=wVJJqwOt_3apsoGmwgRWnw", "review_count": 105, "categories": [{"alias": "sushi", "title": "Sushi Bars"}, {"alias": "teppanyaki", "title": "Teppanyaki"}], "rating": 4.0, "coordinates": {"latitude": 42.45876, "longitude": -72.5722}, "transactions": ["delivery"], "price": "$$", "location": {"address1": "104 Old Amherst Rd", "address2": "", "address3": "", "city": "Sunderland", "zip_code": "01375", "country": "US", "state": "MA", "display_address": ["104 Old Amherst Rd", "Sunderland, MA 01375"]}, "phone": "+14136653628", "display_phone": "(413) 665-3628", "distance": 10094.981841785871}, {"id": "FPhpaFCxrKYbig2eTz8r6Q", "alias": "paul-and-elizabeths-northampton", "name": "Paul & Elizabeth's", "image_url": "https://s3-media1.fl.yelpcdn.com/bphoto/zSsGBPr4wX-lI-ZCtfRuig/o.jpg", "is_closed": false, "url": "https://www.yelp.com/biz/paul-and-elizabeths-northampton?adjust_creative=wVJJqwOt_3apsoGmwgRWnw&utm_campaign=yelp_api_v3&utm_medium=api_v3_business_search&utm_source=wVJJqwOt_3apsoGmwgRWnw", "review_count": 271, "categories": [{"alias": "seafood", "title": "Seafood"}, {"alias": "vegetarian", "title": "Vegetarian"}, {"alias": "soup", "title": "Soup"}], "rating": 4.0, "coordinates": {"latitude": 42.31834, "longitude": -72.63117}, "transactions": ["delivery"], "price": "$$", "location": {"address1": "150 Main St", "address2": "", "address3": "", "city": "Northampton", "zip_code": "01060", "country": "US", "state": "MA", "display_address": ["150 Main St", "Northampton, MA 01060"]}, "phone": "+14135844832", "display_phone": "(413) 584-4832", "distance": 7811.471752768335}, {"id": "_19rex6zqPyQgsSAgqsFYg", "alias": "williamsburg-snack-bar-haydenville", "name": "Williamsburg Snack Bar", "image_url": "https://s3-media2.fl.yelpcdn.com/bphoto/2sme__nhtRSb_ViggNHK9g/o.jpg", "is_closed": false, "url": "https://www.yelp.com/biz/williamsburg-snack-bar-haydenville?adjust_creative=wVJJqwOt_3apsoGmwgRWnw&utm_campaign=yelp_api_v3&utm_medium=api_v3_business_search&utm_source=wVJJqwOt_3apsoGmwgRWnw", "review_count": 59, "categories": [{"alias": "sandwiches", "title": "Sandwiches"}], "rating": 4.5, "coordinates": {"latitude": 42.380499, "longitude": -72.707228}, "transactions": [], "price": "$", "location": {"address1": "109 Main St", "address2": "", "address3": "", "city": "Haydenville", "zip_code": "01039", "country": "US", "state": "MA", "display_address": ["109 Main St", "Haydenville, MA 01039"]}, "phone": "+14132687556", "display_phone": "(413) 268-7556", "distance": 4883.235425273282}, {"id": "1yFNsud2RmCzfogPNDTbNw", "alias": "gohyang-korean-restaurant-hadley-3", "name": "Gohyang Korean Restaurant", "image_url": "https://s3-media3.fl.yelpcdn.com/bphoto/Fw_-7t4W0a6ISwnHRKEgbQ/o.jpg", "is_closed": false, "url": "https://www.yelp.com/biz/gohyang-korean-restaurant-hadley-3?adjust_creative=wVJJqwOt_3apsoGmwgRWnw&utm_campaign=yelp_api_v3&utm_medium=api_v3_business_search&utm_source=wVJJqwOt_3apsoGmwgRWnw", "review_count": 53, "categories": [{"alias": "korean", "title": "Korean"}], "rating": 4.0, "coordinates": {"latitude": 42.3418961, "longitude": -72.5941849}, "transactions": ["delivery"], "price": "$$", "location": {"address1": "113 Russell St", "address2": null, "address3": "", "city": "Hadley", "zip_code": "01035", "country": "US", "state": "MA", "display_address": ["113 Russell St", "Hadley, MA 01035"]}, "phone": "+14135868848", "display_phone": "(413) 586-8848", "distance": 6742.46416954991}, {"id": "biPLLM7fpLkTV-sdr1_G0w", "alias": "spoleto-restaurant-northampton", "name": "Spoleto Restaurant", "image_url": "https://s3-media3.fl.yelpcdn.com/bphoto/DBRlrhAiRwB9tQO0bsOsXw/o.jpg", "is_closed": false, "url": "https://www.yelp.com/biz/spoleto-restaurant-northampton?adjust_creative=wVJJqwOt_3apsoGmwgRWnw&utm_campaign=yelp_api_v3&utm_medium=api_v3_business_search&utm_source=wVJJqwOt_3apsoGmwgRWnw", "review_count": 153, "categories": [{"alias": "italian", "title": "Italian"}, {"alias": "bars", "title": "Bars"}], "rating": 3.0, "coordinates": {"latitude": 42.3205604626326, "longitude": -72.6281838777878}, "transactions": ["delivery"], "price": "$$", "location": {"address1": "1 Bridge St", "address2": "", "address3": "", "city": "Northampton", "zip_code": "01060", "country": "US", "state": "MA", "display_address": ["1 Bridge St", "Northampton, MA 01060"]}, "phone": "+14135866313", "display_phone": "(413) 586-6313", "distance": 7594.417391309976}, {"id": "yycn8BXeRWA-gVXoONyZoA", "alias": "eastside-grill-northampton", "name": "Eastside Grill", "image_url": "https://s3-media2.fl.yelpcdn.com/bphoto/D_Y4Mr0Q23MP7Z0QhdrO5w/o.jpg", "is_closed": false, "url": "https://www.yelp.com/biz/eastside-grill-northampton?adjust_creative=wVJJqwOt_3apsoGmwgRWnw&utm_campaign=yelp_api_v3&utm_medium=api_v3_business_search&utm_source=wVJJqwOt_3apsoGmwgRWnw", "review_count": 154, "categories": [{"alias": "steak", "title": "Steakhouses"}, {"alias": "tradamerican", "title": "American (Traditional)"}, {"alias": "cajun", "title": "Cajun/Creole"}], "rating": 3.5, "coordinates": {"latitude": 42.3196053170176, "longitude": -72.6283599810946}, "transactions": ["delivery"], "price": "$$", "location": {"address1": "19 Pearl St", "address2": "", "address3": "", "city": "Northampton", "zip_code": "01060", "country": "US", "state": "MA", "display_address": ["19 Pearl St", "Northampton, MA 01060"]}, "phone": "+14135863347", "display_phone": "(413) 586-3347", "distance": 7694.952719547274}, {"id": "ZKUPDRb212aHYFMxrssEJA", "alias": "homestead-northampton-2", "name": "Homestead.", "image_url": "https://s3-media3.fl.yelpcdn.com/bphoto/7H3Z10N2-HV3vBhgTlCCtA/o.jpg", "is_closed": false, "url": "https://www.yelp.com/biz/homestead-northampton-2?adjust_creative=wVJJqwOt_3apsoGmwgRWnw&utm_campaign=yelp_api_v3&utm_medium=api_v3_business_search&utm_source=wVJJqwOt_3apsoGmwgRWnw", "review_count": 72, "categories": [{"alias": "newamerican", "title": "American (New)"}, {"alias": "italian", "title": "Italian"}, {"alias": "cocktailbars", "title": "Cocktail Bars"}], "rating": 4.0, "coordinates": {"latitude": 42.3199679328172, "longitude": -72.6285998420788}, "transactions": ["delivery"], "price": "$$", "location": {"address1": "7 Strong Ave", "address2": "", "address3": null, "city": "Northampton", "zip_code": "01060", "country": "US", "state": "MA", "display_address": ["7 Strong Ave", "Northampton, MA 01060"]}, "phone": "+14135860502", "display_phone": "(413) 586-0502", "distance": 7651.346227740816}, {"id": "AnpPJkpAweO5Y5jQ8IHasQ", "alias": "websters-fish-hook-northampton-2", "name": "Webster's Fish Hook", "image_url": "https://s3-media2.fl.yelpcdn.com/bphoto/cZPGet3z6NBIHPnSreJhrQ/o.jpg", "is_closed": false, "url": "https://www.yelp.com/biz/websters-fish-hook-northampton-2?adjust_creative=wVJJqwOt_3apsoGmwgRWnw&utm_campaign=yelp_api_v3&utm_medium=api_v3_business_search&utm_source=wVJJqwOt_3apsoGmwgRWnw", "review_count": 69, "categories": [{"alias": "seafood", "title": "Seafood"}], "rating": 4.0, "coordinates": {"latitude": 42.334283, "longitude": -72.621815}, "transactions": ["delivery"], "price": "$$", "location": {"address1": "391 Damon Rd", "address2": "", "address3": "", "city": "Northampton", "zip_code": "01060", "country": "US", "state": "MA", "display_address": ["391 Damon Rd", "Northampton, MA 01060"]}, "phone": "+14135863190", "display_phone": "(413) 586-3190", "distance": 6277.72122483106}, {"id": "FrfYCK8yxan_GTwCSG5S6A", "alias": "uya-restaurant-florence", "name": "UYA Restaurant", "image_url": "https://s3-media1.fl.yelpcdn.com/bphoto/kCFagPg2NUMet3r0kaLkcA/o.jpg", "is_closed": false, "url": "https://www.yelp.com/biz/uya-restaurant-florence?adjust_creative=wVJJqwOt_3apsoGmwgRWnw&utm_campaign=yelp_api_v3&utm_medium=api_v3_business_search&utm_source=wVJJqwOt_3apsoGmwgRWnw", "review_count": 40, "categories": [{"alias": "japanese", "title": "Japanese"}, {"alias": "poke", "title": "Poke"}, {"alias": "bubbletea", "title": "Bubble Tea"}], "rating": 4.5, "coordinates": {"latitude": 42.3351863, "longitude": -72.6705223}, "transactions": ["delivery"], "location": {"address1": "89 Main St", "address2": "Fl 1", "address3": "", "city": "Florence", "zip_code": "01062", "country": "US", "state": "MA", "display_address": ["89 Main St", "Fl 1", "Florence, MA 01062"]}, "phone": "+14135704734", "display_phone": "(413) 570-4734", "distance": 6060.181810933278}, {"id": "shdRdjPzsHQn5SXhsT9bVw", "alias": "toms-hot-dog-whately", "name": "Tom's Hot Dog", "image_url": "https://s3-media1.fl.yelpcdn.com/bphoto/8sAD2sXoHiFeNzO598_MaQ/o.jpg", "is_closed": false, "url": "https://www.yelp.com/biz/toms-hot-dog-whately?adjust_creative=wVJJqwOt_3apsoGmwgRWnw&utm_campaign=yelp_api_v3&utm_medium=api_v3_business_search&utm_source=wVJJqwOt_3apsoGmwgRWnw", "review_count": 34, "categories": [{"alias": "hotdog", "title": "Hot Dogs"}, {"alias": "burgers", "title": "Burgers"}, {"alias": "soup", "title": "Soup"}], "rating": 4.0, "coordinates": {"latitude": 42.4235720399516, "longitude": -72.6222722370316}, "transactions": ["delivery"], "price": "$", "location": {"address1": "61 State Rd Rte 5 And 10", "address2": "", "address3": "", "city": "Whately", "zip_code": "01093", "country": "US", "state": "MA", "display_address": ["61 State Rd Rte 5 And 10", "Whately, MA 01093"]}, "phone": "+14136652931", "display_phone": "(413) 665-2931", "distance": 4581.361460487139}, {"id": "gnzzIJDtkrql8iaKfDnyyQ", "alias": "thai-garden-northampton", "name": "Thai Garden", "image_url": "https://s3-media2.fl.yelpcdn.com/bphoto/kcHBi1qJCjGQOx3Y75q7SQ/o.jpg", "is_closed": false, "url": "https://www.yelp.com/biz/thai-garden-northampton?adjust_creative=wVJJqwOt_3apsoGmwgRWnw&utm_campaign=yelp_api_v3&utm_medium=api_v3_business_search&utm_source=wVJJqwOt_3apsoGmwgRWnw", "review_count": 185, "categories": [{"alias": "thai", "title": "Thai"}], "rating": 4.0, "coordinates": {"latitude": 42.32072, "longitude": -72.62863}, "transactions": ["delivery"], "price": "$$", "location": {"address1": "2 Bridge St", "address2": "", "address3": "", "city": "Northampton", "zip_code": "01060", "country": "US", "state": "MA", "display_address": ["2 Bridge St", "Northampton, MA 01060"]}, "phone": "+14135873336", "display_phone": "(413) 587-3336", "distance": 7575.9878490951}, {"id": "WmWAHNNParZLErd98SEbJw", "alias": "scottis-leeds", "name": "Scotti's", "image_url": "https://s3-media3.fl.yelpcdn.com/bphoto/mwt8mVvPDZ04OQgj4owpZw/o.jpg", "is_closed": false, "url": "https://www.yelp.com/biz/scottis-leeds?adjust_creative=wVJJqwOt_3apsoGmwgRWnw&utm_campaign=yelp_api_v3&utm_medium=api_v3_business_search&utm_source=wVJJqwOt_3apsoGmwgRWnw", "review_count": 27, "categories": [{"alias": "tradamerican", "title": "American (Traditional)"}, {"alias": "icecream", "title": "Ice Cream & Frozen Yogurt"}], "rating": 4.5, "coordinates": {"latitude": 42.352636, "longitude": -72.691094}, "transactions": ["delivery"], "price": "$", "location": {"address1": "90 Haydenville Rd", "address2": "", "address3": "", "city": "Leeds", "zip_code": "01053", "country": "US", "state": "MA", "display_address": ["90 Haydenville Rd", "Leeds, MA 01053"]}, "phone": "+14135865567", "display_phone": "(413) 586-5567", "distance": 5198.872957687468}, {"id": "Py-pq_QzEvEKFIce_x6k6w", "alias": "wildwood-barbeque-hadley", "name": "Wildwood Barbeque", "image_url": "https://s3-media2.fl.yelpcdn.com/bphoto/Z3EhA7EHNfv1GVWXI2TXRA/o.jpg", "is_closed": false, "url": "https://www.yelp.com/biz/wildwood-barbeque-hadley?adjust_creative=wVJJqwOt_3apsoGmwgRWnw&utm_campaign=yelp_api_v3&utm_medium=api_v3_business_search&utm_source=wVJJqwOt_3apsoGmwgRWnw", "review_count": 170, "categories": [{"alias": "bbq", "title": "Barbeque"}, {"alias": "beerbar", "title": "Beer Bar"}, {"alias": "tradamerican", "title": "American (Traditional)"}], "rating": 3.5, "coordinates": {"latitude": 42.34659, "longitude": -72.57226}, "transactions": ["delivery"], "price": "$$", "location": {"address1": "235 Russell St", "address2": null, "address3": "", "city": "Hadley", "zip_code": "01035", "country": "US", "state": "MA", "display_address": ["235 Russell St", "Hadley, MA 01035"]}, "phone": "+14135844227", "display_phone": "(413) 584-4227", "distance": 7683.778441347808}, {"id": "F3j1yyzmRvy3LeILGElL5w", "alias": "pita-pockets-northampton-2", "name": "Pita Pockets", "image_url": "https://s3-media1.fl.yelpcdn.com/bphoto/PBp9_0-WCq9u3AvZcmRsZQ/o.jpg", "is_closed": false, "url": "https://www.yelp.com/biz/pita-pockets-northampton-2?adjust_creative=wVJJqwOt_3apsoGmwgRWnw&utm_campaign=yelp_api_v3&utm_medium=api_v3_business_search&utm_source=wVJJqwOt_3apsoGmwgRWnw", "review_count": 147, "categories": [{"alias": "falafel", "title": "Falafel"}, {"alias": "mideastern", "title": "Middle Eastern"}], "rating": 4.5, "coordinates": {"latitude": 42.31825, "longitude": -72.63199}, "transactions": ["delivery"], "price": "$", "location": {"address1": "193 Main St", "address2": null, "address3": "", "city": "Northampton", "zip_code": "01060", "country": "US", "state": "MA", "display_address": ["193 Main St", "Northampton, MA 01060"]}, "phone": "+14133413629", "display_phone": "(413) 341-3629", "distance": 7784.6975823834355}, {"id": "UppMTlDwdP2G-BQEJntR6g", "alias": "caminito-steakhouse-northampton-2", "name": "Caminito Steakhouse", "image_url": "https://s3-media4.fl.yelpcdn.com/bphoto/FoiRofibtEe__sSTQQZ2yw/o.jpg", "is_closed": false, "url": "https://www.yelp.com/biz/caminito-steakhouse-northampton-2?adjust_creative=wVJJqwOt_3apsoGmwgRWnw&utm_campaign=yelp_api_v3&utm_medium=api_v3_business_search&utm_source=wVJJqwOt_3apsoGmwgRWnw", "review_count": 121, "categories": [{"alias": "argentine", "title": "Argentine"}, {"alias": "steak", "title": "Steakhouses"}, {"alias": "salad", "title": "Salad"}], "rating": 4.0, "coordinates": {"latitude": 42.31764, "longitude": -72.6312}, "transactions": ["delivery", "pickup"], "price": "$$$", "location": {"address1": "7 Old South St", "address2": "", "address3": "", "city": "Northampton", "zip_code": "01060", "country": "US", "state": "MA", "display_address": ["7 Old South St", "Northampton, MA 01060"]}, "phone": "+14133876387", "display_phone": "(413) 387-6387", "distance": 7871.946699370084}, {"id": "d2zT-n0KPLHYvWIr6mRMVQ", "alias": "the-quarters-hadley", "name": "The Quarters", "image_url": "https://s3-media3.fl.yelpcdn.com/bphoto/c1LpRrIL3w5GIx4uQCkfPg/o.jpg", "is_closed": false, "url": "https://www.yelp.com/biz/the-quarters-hadley?adjust_creative=wVJJqwOt_3apsoGmwgRWnw&utm_campaign=yelp_api_v3&utm_medium=api_v3_business_search&utm_source=wVJJqwOt_3apsoGmwgRWnw", "review_count": 133, "categories": [{"alias": "bars", "title": "Bars"}, {"alias": "arcades", "title": "Arcades"}, {"alias": "hotdog", "title": "Hot Dogs"}], "rating": 4.0, "coordinates": {"latitude": 42.34408, "longitude": -72.59122}, "transactions": [], "price": "$", "location": {"address1": "8 Railroad St", "address2": null, "address3": "", "city": "Hadley", "zip_code": "01035", "country": "US", "state": "MA", "display_address": ["8 Railroad St", "Hadley, MA 01035"]}, "phone": "+14134294263", "display_phone": "(413) 429-4263", "distance": 6720.13680909783}, {"id": "_SXfH8nXDNA3tY-CG2kytQ", "alias": "bela-vegetarian-restaurant-northampton", "name": "Bela Vegetarian Restaurant", "image_url": "https://s3-media1.fl.yelpcdn.com/bphoto/CvcyvCbyfH9XX2Qm7Q3_Kg/o.jpg", "is_closed": false, "url": "https://www.yelp.com/biz/bela-vegetarian-restaurant-northampton?adjust_creative=wVJJqwOt_3apsoGmwgRWnw&utm_campaign=yelp_api_v3&utm_medium=api_v3_business_search&utm_source=wVJJqwOt_3apsoGmwgRWnw", "review_count": 102, "categories": [{"alias": "vegetarian", "title": "Vegetarian"}], "rating": 4.0, "coordinates": {"latitude": 42.31897, "longitude": -72.63328}, "transactions": [], "price": "$$", "location": {"address1": "68 Masonic St", "address2": "", "address3": "", "city": "Northampton", "zip_code": "01060", "country": "US", "state": "MA", "display_address": ["68 Masonic St", "Northampton, MA 01060"]}, "phone": "+14135868011", "display_phone": "(413) 586-8011", "distance": 7688.494199789589}, {"id": "Vax50JhWTgAdpRJyAWimoQ", "alias": "kkuljaem-korean-kitchen-hadley-2", "name": "KKulJaem Korean Kitchen", "image_url": "https://s3-media4.fl.yelpcdn.com/bphoto/2cqMVNV88TvOVW9PqbaCWw/o.jpg", "is_closed": false, "url": "https://www.yelp.com/biz/kkuljaem-korean-kitchen-hadley-2?adjust_creative=wVJJqwOt_3apsoGmwgRWnw&utm_campaign=yelp_api_v3&utm_medium=api_v3_business_search&utm_source=wVJJqwOt_3apsoGmwgRWnw", "review_count": 21, "categories": [{"alias": "korean", "title": "Korean"}], "rating": 4.0, "coordinates": {"latitude": 42.35599, "longitude": -72.54771}, "transactions": ["delivery", "pickup"], "location": {"address1": "367 Russell St", "address2": null, "address3": "", "city": "Hadley", "zip_code": "01035", "country": "US", "state": "MA", "display_address": ["367 Russell St", "Hadley, MA 01035"]}, "phone": "+14133870585", "display_phone": "(413) 387-0585", "distance": 8975.024273504136}, {"id": "GozHnnsLBsvS2fbgyIugXw", "alias": "muffins-general-market-whately", "name": "Muffin's General Market", "image_url": "https://s3-media2.fl.yelpcdn.com/bphoto/I5w5JBJ5aHfLKOP1SWjgaQ/o.jpg", "is_closed": false, "url": "https://www.yelp.com/biz/muffins-general-market-whately?adjust_creative=wVJJqwOt_3apsoGmwgRWnw&utm_campaign=yelp_api_v3&utm_medium=api_v3_business_search&utm_source=wVJJqwOt_3apsoGmwgRWnw", "review_count": 7, "categories": [{"alias": "breakfast_brunch", "title": "Breakfast & Brunch"}, {"alias": "beer_and_wine", "title": "Beer, Wine & Spirits"}, {"alias": "delis", "title": "Delis"}], "rating": 4.0, "coordinates": {"latitude": 42.41856, "longitude": -72.62037}, "transactions": ["delivery", "pickup"], "price": "$", "location": {"address1": "28 State Rd", "address2": "", "address3": null, "city": "Whately", "zip_code": "01373", "country": "US", "state": "MA", "display_address": ["28 State Rd", "Whately, MA 01373"]}, "phone": "+14133973372", "display_phone": "(413) 397-3372", "distance": 4187.089711756953}, {"id": "EAUjVCdEDzoDeOJ8w24PeQ", "alias": "belly-of-the-beast-northampton", "name": "Belly Of The Beast", "image_url": "https://s3-media3.fl.yelpcdn.com/bphoto/AsZlRlZToBRX6CXj6uZj0A/o.jpg", "is_closed": false, "url": "https://www.yelp.com/biz/belly-of-the-beast-northampton?adjust_creative=wVJJqwOt_3apsoGmwgRWnw&utm_campaign=yelp_api_v3&utm_medium=api_v3_business_search&utm_source=wVJJqwOt_3apsoGmwgRWnw", "review_count": 83, "categories": [{"alias": "delis", "title": "Delis"}, {"alias": "gourmet", "title": "Specialty Food"}], "rating": 4.0, "coordinates": {"latitude": 42.3187, "longitude": -72.63146}, "transactions": ["delivery"], "price": "$$", "location": {"address1": "159 Main St", "address2": "", "address3": null, "city": "Northampton", "zip_code": "01060", "country": "US", "state": "MA", "display_address": ["159 Main St", "Northampton, MA 01060"]}, "phone": "+14137273040", "display_phone": "(413) 727-3040", "distance": 7744.597626575846}, {"id": "dccdUZW8PApkxL3ynmyazA", "alias": "fitzwillys-restaurant-northampton-2", "name": "Fitzwilly's Restaurant", "image_url": "https://s3-media1.fl.yelpcdn.com/bphoto/DU_Y-r48HIukbSMn4BDS8g/o.jpg", "is_closed": false, "url": "https://www.yelp.com/biz/fitzwillys-restaurant-northampton-2?adjust_creative=wVJJqwOt_3apsoGmwgRWnw&utm_campaign=yelp_api_v3&utm_medium=api_v3_business_search&utm_source=wVJJqwOt_3apsoGmwgRWnw", "review_count": 234, "categories": [{"alias": "bars", "title": "Bars"}, {"alias": "tradamerican", "title": "American (Traditional)"}], "rating": 3.5, "coordinates": {"latitude": 42.320065, "longitude": -72.628881}, "transactions": ["delivery", "pickup"], "price": "$$", "location": {"address1": "23 Main St", "address2": "", "address3": "", "city": "Northampton", "zip_code": "01060", "country": "US", "state": "MA", "display_address": ["23 Main St", "Northampton, MA 01060"]}, "phone": "+14135848666", "display_phone": "(413) 584-8666", "distance": 7635.898268669973}, {"id": "9hfW5LampTq-tf-_Xc8nyQ", "alias": "texas-roadhouse-hadley", "name": "Texas Roadhouse", "image_url": "https://s3-media2.fl.yelpcdn.com/bphoto/6TC9EqKhCtLCEKibTRW3Zg/o.jpg", "is_closed": false, "url": "https://www.yelp.com/biz/texas-roadhouse-hadley?adjust_creative=wVJJqwOt_3apsoGmwgRWnw&utm_campaign=yelp_api_v3&utm_medium=api_v3_business_search&utm_source=wVJJqwOt_3apsoGmwgRWnw", "review_count": 63, "categories": [{"alias": "tradamerican", "title": "American (Traditional)"}, {"alias": "steak", "title": "Steakhouses"}, {"alias": "bbq", "title": "Barbeque"}], "rating": 3.5, "coordinates": {"latitude": 42.352027, "longitude": -72.563707}, "transactions": [], "price": "$$", "location": {"address1": "280 Russell St", "address2": null, "address3": null, "city": "Hadley", "zip_code": "01035", "country": "US", "state": "MA", "display_address": ["280 Russell St", "Hadley, MA 01035"]}, "phone": "+14135840100", "display_phone": "(413) 584-0100", "distance": 7986.12760336036}, {"id": "5d6BCUCZuaU2SYeek-uoNA", "alias": "mi-tierra-hadley-2", "name": "Mi Tierra", "image_url": "https://s3-media3.fl.yelpcdn.com/bphoto/0cTrPL_qIKB7hQQQX83toA/o.jpg", "is_closed": false, "url": "https://www.yelp.com/biz/mi-tierra-hadley-2?adjust_creative=wVJJqwOt_3apsoGmwgRWnw&utm_campaign=yelp_api_v3&utm_medium=api_v3_business_search&utm_source=wVJJqwOt_3apsoGmwgRWnw", "review_count": 123, "categories": [{"alias": "mexican", "title": "Mexican"}], "rating": 3.5, "coordinates": {"latitude": 42.3405706, "longitude": -72.6053010552254}, "transactions": ["delivery"], "price": "$$", "location": {"address1": "48 Russell St", "address2": null, "address3": null, "city": "Hadley", "zip_code": "01035", "country": "US", "state": "MA", "display_address": ["48 Russell St", "Hadley, MA 01035"]}, "phone": "+14135879820", "display_phone": "(413) 587-9820", "distance": 6281.275419920767}, {"id": "9Ui5x2OFuyWat5SC3f6CwA", "alias": "jjs-tavern-florence", "name": "JJ's Tavern", "image_url": "https://s3-media3.fl.yelpcdn.com/bphoto/DLn7-B5J_60C70Lhh6efQQ/o.jpg", "is_closed": false, "url": "https://www.yelp.com/biz/jjs-tavern-florence?adjust_creative=wVJJqwOt_3apsoGmwgRWnw&utm_campaign=yelp_api_v3&utm_medium=api_v3_business_search&utm_source=wVJJqwOt_3apsoGmwgRWnw", "review_count": 11, "categories": [{"alias": "tradamerican", "title": "American (Traditional)"}, {"alias": "pubs", "title": "Pubs"}, {"alias": "burgers", "title": "Burgers"}], "rating": 3.5, "coordinates": {"latitude": 42.335644, "longitude": -72.671405}, "transactions": ["delivery", "pickup"], "price": "$$", "location": {"address1": "99 Main St", "address2": "Unit B", "address3": "", "city": "Florence", "zip_code": "01062", "country": "US", "state": "MA", "display_address": ["99 Main St", "Unit B", "Florence, MA 01062"]}, "phone": "+14135865705", "display_phone": "(413) 586-5705", "distance": 6033.890605699628}, {"id": "eSjDTVJ9E2kkcqA826C6rQ", "alias": "mosaic-cafe-northampton", "name": "Mosaic Cafe", "image_url": "https://s3-media4.fl.yelpcdn.com/bphoto/mXMjvewtcJjOB9fxinAaVA/o.jpg", "is_closed": false, "url": "https://www.yelp.com/biz/mosaic-cafe-northampton?adjust_creative=wVJJqwOt_3apsoGmwgRWnw&utm_campaign=yelp_api_v3&utm_medium=api_v3_business_search&utm_source=wVJJqwOt_3apsoGmwgRWnw", "review_count": 127, "categories": [{"alias": "moroccan", "title": "Moroccan"}], "rating": 4.0, "coordinates": {"latitude": 42.3190536499023, "longitude": -72.6332626342773}, "transactions": ["delivery"], "price": "$$", "location": {"address1": "78 Masonic St", "address2": "", "address3": "", "city": "Northampton", "zip_code": "01060", "country": "US", "state": "MA", "display_address": ["78 Masonic St", "Northampton, MA 01060"]}, "phone": "+14135851155", "display_phone": "(413) 585-1155", "distance": 7675.598458053574}, {"id": "tH6MLUyc-FwAwsdqYcZUsQ", "alias": "jakes-northampton", "name": "Jake's", "image_url": "https://s3-media3.fl.yelpcdn.com/bphoto/z7LUDrFU1o6IXHoNW9LRdA/o.jpg", "is_closed": false, "url": "https://www.yelp.com/biz/jakes-northampton?adjust_creative=wVJJqwOt_3apsoGmwgRWnw&utm_campaign=yelp_api_v3&utm_medium=api_v3_business_search&utm_source=wVJJqwOt_3apsoGmwgRWnw", "review_count": 433, "categories": [{"alias": "breakfast_brunch", "title": "Breakfast & Brunch"}, {"alias": "sandwiches", "title": "Sandwiches"}, {"alias": "southern", "title": "Southern"}], "rating": 4.5, "coordinates": {"latitude": 42.3199985, "longitude": -72.6300315}, "transactions": ["delivery"], "price": "$$", "location": {"address1": "17 King St", "address2": "", "address3": "", "city": "Northampton", "zip_code": "01060", "country": "US", "state": "MA", "display_address": ["17 King St", "Northampton, MA 01060"]}, "phone": "+14135849613", "display_phone": "(413) 584-9613", "distance": 7628.741870894121}, {"id": "TA3Dqs1bVBnD7Y0qYXpQyQ", "alias": "filos-greek-taverna-northampton", "name": "Filos Greek Taverna", "image_url": "https://s3-media4.fl.yelpcdn.com/bphoto/ZFUFSlX6_aXV-9alRvsmqQ/o.jpg", "is_closed": false, "url": "https://www.yelp.com/biz/filos-greek-taverna-northampton?adjust_creative=wVJJqwOt_3apsoGmwgRWnw&utm_campaign=yelp_api_v3&utm_medium=api_v3_business_search&utm_source=wVJJqwOt_3apsoGmwgRWnw", "review_count": 212, "categories": [{"alias": "greek", "title": "Greek"}, {"alias": "salad", "title": "Salad"}], "rating": 4.0, "coordinates": {"latitude": 42.3178238, "longitude": -72.6337045}, "transactions": ["delivery"], "price": "$$", "location": {"address1": "279 Main St", "address2": "", "address3": "", "city": "Northampton", "zip_code": "01060", "country": "US", "state": "MA", "display_address": ["279 Main St", "Northampton, MA 01060"]}, "phone": "+14135863456", "display_phone": "(413) 586-3456", "distance": 7808.371693669034}, {"id": "kZyn3Hoss5qRyBauGreexA", "alias": "110-grill-hadley", "name": "110 Grill", "image_url": "https://s3-media1.fl.yelpcdn.com/bphoto/tsE935EgK7P17-XCRBQzUg/o.jpg", "is_closed": false, "url": "https://www.yelp.com/biz/110-grill-hadley?adjust_creative=wVJJqwOt_3apsoGmwgRWnw&utm_campaign=yelp_api_v3&utm_medium=api_v3_business_search&utm_source=wVJJqwOt_3apsoGmwgRWnw", "review_count": 31, "categories": [{"alias": "tradamerican", "title": "American (Traditional)"}, {"alias": "gluten_free", "title": "Gluten-Free"}, {"alias": "cocktailbars", "title": "Cocktail Bars"}], "rating": 3.0, "coordinates": {"latitude": 42.3568108489038, "longitude": -72.5517587515841}, "transactions": [], "location": {"address1": "355 Russell St", "address2": null, "address3": "", "city": "Hadley", "zip_code": "01035", "country": "US", "state": "MA", "display_address": ["355 Russell St", "Hadley, MA 01035"]}, "phone": "+14135840110", "display_phone": "(413) 584-0110", "distance": 8633.061340017914}, {"id": "sVmGXhFYNg0RMBTMNHm8uA", "alias": "pho-boston-florence", "name": "Pho Boston", "image_url": "https://s3-media2.fl.yelpcdn.com/bphoto/LmBrswGF2GaX6dGy34fG0Q/o.jpg", "is_closed": false, "url": "https://www.yelp.com/biz/pho-boston-florence?adjust_creative=wVJJqwOt_3apsoGmwgRWnw&utm_campaign=yelp_api_v3&utm_medium=api_v3_business_search&utm_source=wVJJqwOt_3apsoGmwgRWnw", "review_count": 26, "categories": [{"alias": "vietnamese", "title": "Vietnamese"}], "rating": 4.0, "coordinates": {"latitude": 42.320845, "longitude": -72.66416}, "transactions": ["delivery"], "location": {"address1": "311 Riverside Dr", "address2": "", "address3": null, "city": "Florence", "zip_code": "01062", "country": "US", "state": "MA", "display_address": ["311 Riverside Dr", "Florence, MA 01062"]}, "phone": "+14135704702", "display_phone": "(413) 570-4702", "distance": 7489.444736939035}, {"id": "TIm9N1EDtxj_WR95fwR5Ow", "alias": "a-1-hilltown-pizza-williamsburg", "name": "A-1 Hilltown Pizza", "image_url": "https://s3-media3.fl.yelpcdn.com/bphoto/SjPcoIjB8ZpuMJKMc9pyhw/o.jpg", "is_closed": false, "url": "https://www.yelp.com/biz/a-1-hilltown-pizza-williamsburg?adjust_creative=wVJJqwOt_3apsoGmwgRWnw&utm_campaign=yelp_api_v3&utm_medium=api_v3_business_search&utm_source=wVJJqwOt_3apsoGmwgRWnw", "review_count": 12, "categories": [{"alias": "pizza", "title": "Pizza"}], "rating": 3.5, "coordinates": {"latitude": 42.391134, "longitude": -72.724329}, "transactions": [], "price": "$$", "location": {"address1": "35 Main St", "address2": "", "address3": "", "city": "Williamsburg", "zip_code": "01096", "country": "US", "state": "MA", "display_address": ["35 Main St", "Williamsburg, MA 01096"]}, "phone": "+14132680202", "display_phone": "(413) 268-0202", "distance": 6245.591265215791}, {"id": "kSF3nWZmVYlXM8AWBDY6GA", "alias": "cafe-evolution-florence-2", "name": "Cafe Evolution", "image_url": "https://s3-media2.fl.yelpcdn.com/bphoto/EYVJUESeRQQdxUqzLDKyvQ/o.jpg", "is_closed": false, "url": "https://www.yelp.com/biz/cafe-evolution-florence-2?adjust_creative=wVJJqwOt_3apsoGmwgRWnw&utm_campaign=yelp_api_v3&utm_medium=api_v3_business_search&utm_source=wVJJqwOt_3apsoGmwgRWnw", "review_count": 111, "categories": [{"alias": "bakeries", "title": "Bakeries"}, {"alias": "burgers", "title": "Burgers"}, {"alias": "sandwiches", "title": "Sandwiches"}], "rating": 4.5, "coordinates": {"latitude": 42.3341957928981, "longitude": -72.6679041537607}, "transactions": ["delivery"], "price": "$$", "location": {"address1": "22 Chestnut St", "address2": "", "address3": "", "city": "Florence", "zip_code": "01062", "country": "US", "state": "MA", "display_address": ["22 Chestnut St", "Florence, MA 01062"]}, "phone": "+14135860200", "display_phone": "(413) 586-0200", "distance": 6102.403033993557}, {"id": "YFwYMiYE5_8rGfrNw1vI6A", "alias": "joes-pizza-and-spaghetti-house-northampton", "name": "Joe's Pizza & Spaghetti House", "image_url": "https://s3-media2.fl.yelpcdn.com/bphoto/epU2li37cz3LmtbI-OnjlA/o.jpg", "is_closed": false, "url": "https://www.yelp.com/biz/joes-pizza-and-spaghetti-house-northampton?adjust_creative=wVJJqwOt_3apsoGmwgRWnw&utm_campaign=yelp_api_v3&utm_medium=api_v3_business_search&utm_source=wVJJqwOt_3apsoGmwgRWnw", "review_count": 143, "categories": [{"alias": "pizza", "title": "Pizza"}, {"alias": "italian", "title": "Italian"}, {"alias": "seafood", "title": "Seafood"}], "rating": 4.0, "coordinates": {"latitude": 42.32187, "longitude": -72.62911}, "transactions": [], "price": "$$", "location": {"address1": "33 Market St", "address2": "", "address3": "", "city": "Northampton", "zip_code": "01060", "country": "US", "state": "MA", "display_address": ["33 Market St", "Northampton, MA 01060"]}, "phone": "+14135843168", "display_phone": "(413) 584-3168", "distance": 7435.29349549353}, {"id": "actYV0sh0IL-2FmM0iA8mw", "alias": "pulse-cafe-hadley-2", "name": "Pulse Cafe", "image_url": "https://s3-media2.fl.yelpcdn.com/bphoto/VJeYG0WOKBCYxajMs9XGqA/o.jpg", "is_closed": false, "url": "https://www.yelp.com/biz/pulse-cafe-hadley-2?adjust_creative=wVJJqwOt_3apsoGmwgRWnw&utm_campaign=yelp_api_v3&utm_medium=api_v3_business_search&utm_source=wVJJqwOt_3apsoGmwgRWnw", "review_count": 121, "categories": [{"alias": "vegan", "title": "Vegan"}, {"alias": "juicebars", "title": "Juice Bars & Smoothies"}, {"alias": "pizza", "title": "Pizza"}], "rating": 4.5, "coordinates": {"latitude": 42.3514255777614, "longitude": -72.5670206797623}, "transactions": ["delivery"], "price": "$$", "location": {"address1": null, "address2": "270 Russell St", "address3": "", "city": "Hadley", "zip_code": "01035", "country": "US", "state": "MA", "display_address": ["270 Russell St", "Hadley, MA 01035"]}, "phone": "+14133870555", "display_phone": "(413) 387-0555", "distance": 7783.898008121811}, {"id": "WXMV2M3JjMhIifScR5umUA", "alias": "freckled-fox-cafe-florence", "name": "Freckled Fox Cafe", "image_url": "https://s3-media2.fl.yelpcdn.com/bphoto/6Wv4DSm6bKUnz6Avur7yxA/o.jpg", "is_closed": false, "url": "https://www.yelp.com/biz/freckled-fox-cafe-florence?adjust_creative=wVJJqwOt_3apsoGmwgRWnw&utm_campaign=yelp_api_v3&utm_medium=api_v3_business_search&utm_source=wVJJqwOt_3apsoGmwgRWnw", "review_count": 18, "categories": [{"alias": "coffee", "title": "Coffee & Tea"}, {"alias": "breakfast_brunch", "title": "Breakfast & Brunch"}, {"alias": "sandwiches", "title": "Sandwiches"}], "rating": 4.0, "coordinates": {"latitude": 42.33568, "longitude": -72.6720859}, "transactions": ["delivery", "pickup"], "price": "$$", "location": {"address1": "1 N Main St", "address2": "", "address3": null, "city": "Florence", "zip_code": "01062", "country": "US", "state": "MA", "display_address": ["1 N Main St", "Florence, MA 01062"]}, "phone": "+14135850445", "display_phone": "(413) 585-0445", "distance": 6040.808253514175}, {"id": "veBxinfRKsUFsV0Xl603FA", "alias": "osaka-northampton", "name": "Osaka", "image_url": "https://s3-media1.fl.yelpcdn.com/bphoto/uBQOhYhTfopuEy7ae7oUEA/o.jpg", "is_closed": false, "url": "https://www.yelp.com/biz/osaka-northampton?adjust_creative=wVJJqwOt_3apsoGmwgRWnw&utm_campaign=yelp_api_v3&utm_medium=api_v3_business_search&utm_source=wVJJqwOt_3apsoGmwgRWnw", "review_count": 266, "categories": [{"alias": "japanese", "title": "Japanese"}, {"alias": "sushi", "title": "Sushi Bars"}, {"alias": "cocktailbars", "title": "Cocktail Bars"}], "rating": 3.5, "coordinates": {"latitude": 42.31764, "longitude": -72.6312}, "transactions": ["delivery"], "price": "$$", "location": {"address1": "7 Old S St", "address2": "", "address3": "", "city": "Northampton", "zip_code": "01060", "country": "US", "state": "MA", "display_address": ["7 Old S St", "Northampton, MA 01060"]}, "phone": "+14135879548", "display_phone": "(413) 587-9548", "distance": 7871.946699370084}, {"id": "YbZg252i3vJ9wmf-gsgUog", "alias": "panda-garden-williamsburg", "name": "Panda Garden", "image_url": "https://s3-media1.fl.yelpcdn.com/bphoto/GR__trIJi5zuhynUKh7owA/o.jpg", "is_closed": false, "url": "https://www.yelp.com/biz/panda-garden-williamsburg?adjust_creative=wVJJqwOt_3apsoGmwgRWnw&utm_campaign=yelp_api_v3&utm_medium=api_v3_business_search&utm_source=wVJJqwOt_3apsoGmwgRWnw", "review_count": 29, "categories": [{"alias": "chinese", "title": "Chinese"}], "rating": 3.0, "coordinates": {"latitude": 42.4294774979353, "longitude": -72.7925515919924}, "transactions": ["pickup", "delivery"], "price": "$$", "location": {"address1": "49 Main St", "address2": "", "address3": "", "city": "Williamsburg", "zip_code": "01096", "country": "US", "state": "MA", "display_address": ["49 Main St", "Williamsburg, MA 01096"]}, "phone": "+14132688811", "display_phone": "(413) 268-8811", "distance": 5974.953370491945}, {"id": "BaMC0nhGOuZyy7y9T8I47g", "alias": "wurst-haus-northampton", "name": "Wurst Haus", "image_url": "https://s3-media3.fl.yelpcdn.com/bphoto/Lnz1ycj8JDl4mvrke_pYnQ/o.jpg", "is_closed": false, "url": "https://www.yelp.com/biz/wurst-haus-northampton?adjust_creative=wVJJqwOt_3apsoGmwgRWnw&utm_campaign=yelp_api_v3&utm_medium=api_v3_business_search&utm_source=wVJJqwOt_3apsoGmwgRWnw", "review_count": 3, "categories": [{"alias": "newamerican", "title": "American (New)"}, {"alias": "german", "title": "German"}, {"alias": "burgers", "title": "Burgers"}], "rating": 3.5, "coordinates": {"latitude": 42.3191232135204, "longitude": -72.629424}, "transactions": [], "location": {"address1": "27 Pleasant St", "address2": "", "address3": null, "city": "Northampton", "zip_code": "01060", "country": "US", "state": "MA", "display_address": ["27 Pleasant St", "Northampton, MA 01060"]}, "phone": "+14133413680", "display_phone": "(413) 341-3680", "distance": 7729.143579611031}, {"id": "iDO-jAnFDtnFN91GGBgEgA", "alias": "florence-pie-bar-florence", "name": "Florence Pie Bar", "image_url": "https://s3-media2.fl.yelpcdn.com/bphoto/iIk06LczykXi56RayaV0RA/o.jpg", "is_closed": false, "url": "https://www.yelp.com/biz/florence-pie-bar-florence?adjust_creative=wVJJqwOt_3apsoGmwgRWnw&utm_campaign=yelp_api_v3&utm_medium=api_v3_business_search&utm_source=wVJJqwOt_3apsoGmwgRWnw", "review_count": 82, "categories": [{"alias": "cafes", "title": "Cafes"}, {"alias": "bakeries", "title": "Bakeries"}, {"alias": "desserts", "title": "Desserts"}], "rating": 4.0, "coordinates": {"latitude": 42.334936, "longitude": -72.667399}, "transactions": ["delivery"], "price": "$", "location": {"address1": "17 Main St", "address2": "", "address3": "", "city": "Florence", "zip_code": "01062", "country": "US", "state": "MA", "display_address": ["17 Main St", "Florence, MA 01062"]}, "phone": "+14133413283", "display_phone": "(413) 341-3283", "distance": 6015.340933693561}, {"id": "rEfVdfn-HKiKFqhKFkCpMQ", "alias": "robertos-northampton", "name": "Roberto's", "image_url": "https://s3-media1.fl.yelpcdn.com/bphoto/OBUpC2sdZozNFJbPf5ijmA/o.jpg", "is_closed": false, "url": "https://www.yelp.com/biz/robertos-northampton?adjust_creative=wVJJqwOt_3apsoGmwgRWnw&utm_campaign=yelp_api_v3&utm_medium=api_v3_business_search&utm_source=wVJJqwOt_3apsoGmwgRWnw", "review_count": 66, "categories": [{"alias": "italian", "title": "Italian"}, {"alias": "pizza", "title": "Pizza"}], "rating": 3.5, "coordinates": {"latitude": 42.3171899, "longitude": -72.62676}, "transactions": ["delivery"], "price": "$$", "location": {"address1": "223 Pleasant St", "address2": "", "address3": "", "city": "Northampton", "zip_code": "01060", "country": "US", "state": "MA", "display_address": ["223 Pleasant St", "Northampton, MA 01060"]}, "phone": "+14135840204", "display_phone": "(413) 584-0204", "distance": 7990.850721370055}, {"id": "1H2TXqhBFvTHgT0bm4czxg", "alias": "miss-florence-diner-florence", "name": "Miss Florence Diner", "image_url": "https://s3-media2.fl.yelpcdn.com/bphoto/NxYE_ZYXLX4HyMH9NsepEw/o.jpg", "is_closed": false, "url": "https://www.yelp.com/biz/miss-florence-diner-florence?adjust_creative=wVJJqwOt_3apsoGmwgRWnw&utm_campaign=yelp_api_v3&utm_medium=api_v3_business_search&utm_source=wVJJqwOt_3apsoGmwgRWnw", "review_count": 74, "categories": [{"alias": "diners", "title": "Diners"}], "rating": 4.0, "coordinates": {"latitude": 42.3356481, "longitude": -72.671405}, "transactions": ["pickup", "delivery"], "price": "$", "location": {"address1": "99 Main St", "address2": null, "address3": "", "city": "Florence", "zip_code": "01062", "country": "US", "state": "MA", "display_address": ["99 Main St", "Florence, MA 01062"]}, "phone": "+14135843137", "display_phone": "(413) 584-3137", "distance": 6033.457496503539}, {"id": "BfLWb8JucJVRBzKX46Ck1g", "alias": "wiggins-old-tavern-at-hotel-northampton-northampton", "name": "Wiggins Old Tavern at Hotel Northampton", "image_url": "https://s3-media2.fl.yelpcdn.com/bphoto/rMYcD1UWcoY3X3FE-THZMA/o.jpg", "is_closed": false, "url": "https://www.yelp.com/biz/wiggins-old-tavern-at-hotel-northampton-northampton?adjust_creative=wVJJqwOt_3apsoGmwgRWnw&utm_campaign=yelp_api_v3&utm_medium=api_v3_business_search&utm_source=wVJJqwOt_3apsoGmwgRWnw", "review_count": 50, "categories": [{"alias": "seafood", "title": "Seafood"}, {"alias": "tradamerican", "title": "American (Traditional)"}], "rating": 3.5, "coordinates": {"latitude": 42.3201415, "longitude": -72.63089}, "transactions": ["delivery"], "price": "$$", "location": {"address1": "36 King St", "address2": "", "address3": "", "city": "Northampton", "zip_code": "01063", "country": "US", "state": "MA", "display_address": ["36 King St", "Northampton, MA 01063"]}, "phone": "+14135843100", "display_phone": "(413) 584-3100", "distance": 7594.462279351174}, {"id": "WTwLgWLCHmTZSQ3_HleTUA", "alias": "india-house-restaurant-northampton", "name": "India House Restaurant", "image_url": "https://s3-media3.fl.yelpcdn.com/bphoto/0EkefXNb3k6az1ayCvVUiA/o.jpg", "is_closed": false, "url": "https://www.yelp.com/biz/india-house-restaurant-northampton?adjust_creative=wVJJqwOt_3apsoGmwgRWnw&utm_campaign=yelp_api_v3&utm_medium=api_v3_business_search&utm_source=wVJJqwOt_3apsoGmwgRWnw", "review_count": 209, "categories": [{"alias": "indpak", "title": "Indian"}], "rating": 4.0, "coordinates": {"latitude": 42.31911, "longitude": -72.63403}, "transactions": ["delivery"], "price": "$$", "location": {"address1": "45 State St", "address2": "", "address3": "", "city": "Northampton", "zip_code": "01060", "country": "US", "state": "MA", "display_address": ["45 State St", "Northampton, MA 01060"]}, "phone": "+14135866344", "display_phone": "(413) 586-6344", "distance": 7661.427176833539}, {"id": "39C414-SwTpyes-9lbqkLg", "alias": "hillside-pizza-hadley", "name": "Hillside Pizza", "image_url": "https://s3-media3.fl.yelpcdn.com/bphoto/cSJCU4SgQmygp4YNf7mvCg/o.jpg", "is_closed": false, "url": "https://www.yelp.com/biz/hillside-pizza-hadley?adjust_creative=wVJJqwOt_3apsoGmwgRWnw&utm_campaign=yelp_api_v3&utm_medium=api_v3_business_search&utm_source=wVJJqwOt_3apsoGmwgRWnw", "review_count": 53, "categories": [{"alias": "pizza", "title": "Pizza"}, {"alias": "sandwiches", "title": "Sandwiches"}, {"alias": "wraps", "title": "Wraps"}], "rating": 4.5, "coordinates": {"latitude": 42.3424679785967, "longitude": -72.5839910656214}, "transactions": ["delivery"], "price": "$$", "location": {"address1": "173 Russell St", "address2": "", "address3": "", "city": "Hadley", "zip_code": "01035", "country": "US", "state": "MA", "display_address": ["173 Russell St", "Hadley, MA 01035"]}, "phone": "+14135850003", "display_phone": "(413) 585-0003", "distance": 7292.898404886208}, {"id": "WH0CR-IGRBgt_eGLavvK9A", "alias": "the-deck-at-union-station-northampton", "name": "The Deck at Union Station", "image_url": "", "is_closed": false, "url": "https://www.yelp.com/biz/the-deck-at-union-station-northampton?adjust_creative=wVJJqwOt_3apsoGmwgRWnw&utm_campaign=yelp_api_v3&utm_medium=api_v3_business_search&utm_source=wVJJqwOt_3apsoGmwgRWnw", "review_count": 1, "categories": [{"alias": "tradamerican", "title": "American (Traditional)"}, {"alias": "sportsbars", "title": "Sports Bars"}], "rating": 5.0, "coordinates": {"latitude": 42.3188558186693, "longitude": -72.6269715959465}, "transactions": [], "location": {"address1": "125 A Pleasant St", "address2": "", "address3": null, "city": "Northampton", "zip_code": "01060", "country": "US", "state": "MA", "display_address": ["125 A Pleasant St", "Northampton, MA 01060"]}, "phone": "", "display_phone": "", "distance": 7801.410332446103}, {"id": "JQpK5Pv7fwh_FTlX8MjCvA", "alias": "yokohama-ramen-northampton", "name": "Yokohama Ramen", "image_url": "https://s3-media4.fl.yelpcdn.com/bphoto/B6uSNfpTDcEukyDdSaZOoQ/o.jpg", "is_closed": false, "url": "https://www.yelp.com/biz/yokohama-ramen-northampton?adjust_creative=wVJJqwOt_3apsoGmwgRWnw&utm_campaign=yelp_api_v3&utm_medium=api_v3_business_search&utm_source=wVJJqwOt_3apsoGmwgRWnw", "review_count": 51, "categories": [{"alias": "ramen", "title": "Ramen"}], "rating": 3.5, "coordinates": {"latitude": 42.3187214467049, "longitude": -72.6306232680921}, "transactions": ["pickup", "delivery"], "price": "$$", "location": {"address1": "88 Main St", "address2": "", "address3": null, "city": "Northampton", "zip_code": "01060", "country": "US", "state": "MA", "display_address": ["88 Main St", "Northampton, MA 01060"]}, "phone": "+14135704703", "display_phone": "(413) 570-4703", "distance": 7753.659044225856}, {"id": "KolYzOXHRpS39JTlEtSVaw", "alias": "the-roost-northampton-2", "name": "The Roost", "image_url": "https://s3-media4.fl.yelpcdn.com/bphoto/S1UwHJ6VvyQBUn_eGaOeAA/o.jpg", "is_closed": false, "url": "https://www.yelp.com/biz/the-roost-northampton-2?adjust_creative=wVJJqwOt_3apsoGmwgRWnw&utm_campaign=yelp_api_v3&utm_medium=api_v3_business_search&utm_source=wVJJqwOt_3apsoGmwgRWnw", "review_count": 225, "categories": [{"alias": "coffee", "title": "Coffee & Tea"}, {"alias": "cocktailbars", "title": "Cocktail Bars"}, {"alias": "sandwiches", "title": "Sandwiches"}], "rating": 4.0, "coordinates": {"latitude": 42.32098, "longitude": -72.62823}, "transactions": ["delivery"], "price": "$$", "location": {"address1": "1 Market St", "address2": "", "address3": "", "city": "Northampton", "zip_code": "01060", "country": "US", "state": "MA", "display_address": ["1 Market St", "Northampton, MA 01060"]}, "phone": "+14135872625", "display_phone": "(413) 587-2625", "distance": 7545.679193227439}, {"id": "mMObXUtsHJW-v-4QarElaQ", "alias": "hot-head-burritos-northampton", "name": "Hot Head Burritos", "image_url": "https://s3-media3.fl.yelpcdn.com/bphoto/FqnzNA4mLdVXWuJ6VtKQtw/o.jpg", "is_closed": false, "url": "https://www.yelp.com/biz/hot-head-burritos-northampton?adjust_creative=wVJJqwOt_3apsoGmwgRWnw&utm_campaign=yelp_api_v3&utm_medium=api_v3_business_search&utm_source=wVJJqwOt_3apsoGmwgRWnw", "review_count": 3, "categories": [{"alias": "mexican", "title": "Mexican"}, {"alias": "hotdogs", "title": "Fast Food"}], "rating": 3.5, "coordinates": {"latitude": 42.338268, "longitude": -72.63743}, "transactions": [], "location": {"address1": "55 Damon Rd", "address2": "Ste 1", "address3": null, "city": "Northampton", "zip_code": "01060", "country": "US", "state": "MA", "display_address": ["55 Damon Rd", "Ste 1", "Northampton, MA 01060"]}, "phone": "+14135704872", "display_phone": "(413) 570-4872", "distance": 5515.333266270468}, {"id": "0tX2BR7qE-IP5Ne6vLwy3A", "alias": "esselon-cafe-and-coffee-roasting-hadley", "name": "Esselon Cafe and Coffee Roasting", "image_url": "https://s3-media3.fl.yelpcdn.com/bphoto/fFdRzFMqDf-c9xZudZHWpQ/o.jpg", "is_closed": false, "url": "https://www.yelp.com/biz/esselon-cafe-and-coffee-roasting-hadley?adjust_creative=wVJJqwOt_3apsoGmwgRWnw&utm_campaign=yelp_api_v3&utm_medium=api_v3_business_search&utm_source=wVJJqwOt_3apsoGmwgRWnw", "review_count": 286, "categories": [{"alias": "breakfast_brunch", "title": "Breakfast & Brunch"}, {"alias": "bakeries", "title": "Bakeries"}, {"alias": "coffeeroasteries", "title": "Coffee Roasteries"}], "rating": 4.0, "coordinates": {"latitude": 42.3413112667955, "longitude": -72.5976977566659}, "transactions": ["delivery"], "price": "$$", "location": {"address1": "99 Russell St", "address2": "", "address3": "", "city": "Hadley", "zip_code": "01035", "country": "US", "state": "MA", "display_address": ["99 Russell St", "Hadley, MA 01035"]}, "phone": "+14135851515", "display_phone": "(413) 585-1515", "distance": 6590.014340369546}, {"id": "-3PgeuLlTJJraWG1NRAijw", "alias": "local-burger-northampton-2", "name": "Local Burger", "image_url": "https://s3-media4.fl.yelpcdn.com/bphoto/XfT1vA_N0CRXAQ3JcAHQVQ/o.jpg", "is_closed": false, "url": "https://www.yelp.com/biz/local-burger-northampton-2?adjust_creative=wVJJqwOt_3apsoGmwgRWnw&utm_campaign=yelp_api_v3&utm_medium=api_v3_business_search&utm_source=wVJJqwOt_3apsoGmwgRWnw", "review_count": 435, "categories": [{"alias": "burgers", "title": "Burgers"}], "rating": 4.0, "coordinates": {"latitude": 42.31989, "longitude": -72.62869}, "transactions": ["delivery"], "price": "$$", "location": {"address1": "16 Main St", "address2": "", "address3": "", "city": "Northampton", "zip_code": "01060", "country": "US", "state": "MA", "display_address": ["16 Main St", "Northampton, MA 01060"]}, "phone": "+14135865857", "display_phone": "(413) 586-5857", "distance": 7655.210675377749}, {"id": "L_0XOOAjfPhNGdKAfPAuFw", "alias": "river-valley-co-op-northampton", "name": "River Valley Co-op", "image_url": "https://s3-media3.fl.yelpcdn.com/bphoto/byo6COSgU4heIcZfTxMKYw/o.jpg", "is_closed": false, "url": "https://www.yelp.com/biz/river-valley-co-op-northampton?adjust_creative=wVJJqwOt_3apsoGmwgRWnw&utm_campaign=yelp_api_v3&utm_medium=api_v3_business_search&utm_source=wVJJqwOt_3apsoGmwgRWnw", "review_count": 49, "categories": [{"alias": "grocery", "title": "Grocery"}, {"alias": "delis", "title": "Delis"}], "rating": 4.0, "coordinates": {"latitude": 42.347127, "longitude": -72.643039}, "transactions": [], "price": "$$", "location": {"address1": "330 N King St", "address2": "", "address3": "", "city": "Northampton", "zip_code": "01060", "country": "US", "state": "MA", "display_address": ["330 N King St", "Northampton, MA 01060"]}, "phone": "+14135842665", "display_phone": "(413) 584-2665", "distance": 4477.457020353547}, {"id": "PhX9OVoiUHTHSQIlZOJnOw", "alias": "iconica-social-club-northampton", "name": "Iconica Social Club", "image_url": "https://s3-media1.fl.yelpcdn.com/bphoto/UxdQphV_56gVW_Xhi9WboA/o.jpg", "is_closed": false, "url": "https://www.yelp.com/biz/iconica-social-club-northampton?adjust_creative=wVJJqwOt_3apsoGmwgRWnw&utm_campaign=yelp_api_v3&utm_medium=api_v3_business_search&utm_source=wVJJqwOt_3apsoGmwgRWnw", "review_count": 27, "categories": [{"alias": "coffee", "title": "Coffee & Tea"}, {"alias": "juicebars", "title": "Juice Bars & Smoothies"}, {"alias": "breakfast_brunch", "title": "Breakfast & Brunch"}], "rating": 4.0, "coordinates": {"latitude": 42.3183623879961, "longitude": -72.6321603086328}, "transactions": [], "price": "$$", "location": {"address1": "1 Amber Ln", "address2": "", "address3": null, "city": "Northampton", "zip_code": "01060", "country": "US", "state": "MA", "display_address": ["1 Amber Ln", "Northampton, MA 01060"]}, "phone": "+14133410258", "display_phone": "(413) 341-0258", "distance": 7770.09203450545}, {"id": "F2Fsqm6PnjfV2QYE_PxCSA", "alias": "familiars-coffee-and-tea-northampton", "name": "Familiars Coffee & Tea", "image_url": "https://s3-media2.fl.yelpcdn.com/bphoto/s-6nZYOY213ihTMf-rU3pQ/o.jpg", "is_closed": false, "url": "https://www.yelp.com/biz/familiars-coffee-and-tea-northampton?adjust_creative=wVJJqwOt_3apsoGmwgRWnw&utm_campaign=yelp_api_v3&utm_medium=api_v3_business_search&utm_source=wVJJqwOt_3apsoGmwgRWnw", "review_count": 41, "categories": [{"alias": "coffee", "title": "Coffee & Tea"}, {"alias": "sandwiches", "title": "Sandwiches"}], "rating": 5.0, "coordinates": {"latitude": 42.320036, "longitude": -72.628294}, "transactions": [], "price": "$", "location": {"address1": "6 Strong Ave", "address2": null, "address3": null, "city": "Northampton", "zip_code": "01060", "country": "US", "state": "MA", "display_address": ["6 Strong Ave", "Northampton, MA 01060"]}, "phone": "+14137273578", "display_phone": "(413) 727-3578", "distance": 7649.359002438794}, {"id": "5ttSt0IyngKnNxPLRy9A4Q", "alias": "oriental-taste-northampton", "name": "Oriental Taste", "image_url": "https://s3-media1.fl.yelpcdn.com/bphoto/kwwBi7weDXi8OP2mh9tXGQ/o.jpg", "is_closed": false, "url": "https://www.yelp.com/biz/oriental-taste-northampton?adjust_creative=wVJJqwOt_3apsoGmwgRWnw&utm_campaign=yelp_api_v3&utm_medium=api_v3_business_search&utm_source=wVJJqwOt_3apsoGmwgRWnw", "review_count": 84, "categories": [{"alias": "chinese", "title": "Chinese"}], "rating": 4.0, "coordinates": {"latitude": 42.319869, "longitude": -72.6294463}, "transactions": ["pickup", "delivery"], "price": "$$", "location": {"address1": "41 Main St", "address2": "", "address3": null, "city": "Northampton", "zip_code": "01060", "country": "US", "state": "MA", "display_address": ["41 Main St", "Northampton, MA 01060"]}, "phone": "+14135826888", "display_phone": "(413) 582-6888", "distance": 7630.129666885055}, {"id": "CeNue9aAo1r58011k9-SEw", "alias": "hadley-scoop-hadley", "name": "Hadley Scoop", "image_url": "https://s3-media4.fl.yelpcdn.com/bphoto/qp9s9khJRoY75ekT0sYmqQ/o.jpg", "is_closed": false, "url": "https://www.yelp.com/biz/hadley-scoop-hadley?adjust_creative=wVJJqwOt_3apsoGmwgRWnw&utm_campaign=yelp_api_v3&utm_medium=api_v3_business_search&utm_source=wVJJqwOt_3apsoGmwgRWnw", "review_count": 8, "categories": [{"alias": "icecream", "title": "Ice Cream & Frozen Yogurt"}, {"alias": "hotdog", "title": "Hot Dogs"}], "rating": 5.0, "coordinates": {"latitude": 42.3467072918696, "longitude": -72.5731841102242}, "transactions": [], "price": "$", "location": {"address1": "229 Russell St", "address2": "", "address3": null, "city": "Hadley", "zip_code": "01035", "country": "US", "state": "MA", "display_address": ["229 Russell St", "Hadley, MA 01035"]}, "phone": "+14133870097", "display_phone": "(413) 387-0097", "distance": 7649.894408016869}, {"id": "EkZFEgibp0arnaDniyyrKA", "alias": "good-thyme-deli-northampton", "name": "Good Thyme Deli", "image_url": "", "is_closed": false, "url": "https://www.yelp.com/biz/good-thyme-deli-northampton?adjust_creative=wVJJqwOt_3apsoGmwgRWnw&utm_campaign=yelp_api_v3&utm_medium=api_v3_business_search&utm_source=wVJJqwOt_3apsoGmwgRWnw", "review_count": 1, "categories": [{"alias": "restaurants", "title": "Restaurants"}], "rating": 4.0, "coordinates": {"latitude": 42.3180482, "longitude": -72.6314848}, "transactions": [], "location": {"address1": "186 Main St", "address2": "", "address3": "", "city": "Northampton", "zip_code": "01060", "country": "US", "state": "MA", "display_address": ["186 Main St", "Northampton, MA 01060"]}, "phone": "+14135846195", "display_phone": "(413) 584-6195", "distance": 7827.335579678686}, {"id": "qoFGGxfhFDd3sy99KJhfZw", "alias": "the-stables-restaurant-hadley", "name": "The Stables Restaurant", "image_url": "https://s3-media1.fl.yelpcdn.com/bphoto/BeWfAHSzfA2C7BN8N0mriQ/o.jpg", "is_closed": false, "url": "https://www.yelp.com/biz/the-stables-restaurant-hadley?adjust_creative=wVJJqwOt_3apsoGmwgRWnw&utm_campaign=yelp_api_v3&utm_medium=api_v3_business_search&utm_source=wVJJqwOt_3apsoGmwgRWnw", "review_count": 104, "categories": [{"alias": "breakfast_brunch", "title": "Breakfast & Brunch"}, {"alias": "newamerican", "title": "American (New)"}], "rating": 4.0, "coordinates": {"latitude": 42.355545, "longitude": -72.556625}, "transactions": ["delivery"], "price": "$$", "location": {"address1": "326 Russell St", "address2": "", "address3": "", "city": "Hadley", "zip_code": "01035", "country": "US", "state": "MA", "display_address": ["326 Russell St", "Hadley, MA 01035"]}, "phone": "+14135844700", "display_phone": "(413) 584-4700", "distance": 8325.24873130159}, {"id": "achCxO4Vwx7my8lcllTASA", "alias": "pinz-hadley-hadley", "name": "Pinz - Hadley", "image_url": "https://s3-media3.fl.yelpcdn.com/bphoto/7PUlY3uJTpLPyUVvYWIAKg/o.jpg", "is_closed": false, "url": "https://www.yelp.com/biz/pinz-hadley-hadley?adjust_creative=wVJJqwOt_3apsoGmwgRWnw&utm_campaign=yelp_api_v3&utm_medium=api_v3_business_search&utm_source=wVJJqwOt_3apsoGmwgRWnw", "review_count": 46, "categories": [{"alias": "bowling", "title": "Bowling"}, {"alias": "newamerican", "title": "American (New)"}, {"alias": "arcades", "title": "Arcades"}], "rating": 3.5, "coordinates": {"latitude": 42.356208, "longitude": -72.547214}, "transactions": [], "location": {"address1": "367 Russell St", "address2": "Hampshire Mall", "address3": "", "city": "Hadley", "zip_code": "01035", "country": "US", "state": "MA", "display_address": ["367 Russell St", "Hampshire Mall", "Hadley, MA 01035"]}, "phone": "+14133870550", "display_phone": "(413) 387-0550", "distance": 9003.298640558422}, {"id": "7g9FtDatTaaGP8lddul9KQ", "alias": "india-palace-restaurant-northampton", "name": "India Palace Restaurant", "image_url": "https://s3-media2.fl.yelpcdn.com/bphoto/hrDS1mEqxUYHvn674zg7Wg/o.jpg", "is_closed": false, "url": "https://www.yelp.com/biz/india-palace-restaurant-northampton?adjust_creative=wVJJqwOt_3apsoGmwgRWnw&utm_campaign=yelp_api_v3&utm_medium=api_v3_business_search&utm_source=wVJJqwOt_3apsoGmwgRWnw", "review_count": 79, "categories": [{"alias": "indpak", "title": "Indian"}], "rating": 4.0, "coordinates": {"latitude": 42.3198182, "longitude": -72.6287962}, "transactions": ["delivery"], "price": "$$", "location": {"address1": "28 Main St", "address2": "", "address3": "", "city": "Northampton", "zip_code": "01060", "country": "US", "state": "MA", "display_address": ["28 Main St", "Northampton, MA 01060"]}, "phone": "+14135844892", "display_phone": "(413) 584-4892", "distance": 7664.194115936969}, {"id": "j3bRRMVcrNlwa7HEheOlJQ", "alias": "haymarket-cafe-northampton", "name": "Haymarket Cafe", "image_url": "https://s3-media2.fl.yelpcdn.com/bphoto/nb1DoIKAPRlbux53YbB5Nw/o.jpg", "is_closed": false, "url": "https://www.yelp.com/biz/haymarket-cafe-northampton?adjust_creative=wVJJqwOt_3apsoGmwgRWnw&utm_campaign=yelp_api_v3&utm_medium=api_v3_business_search&utm_source=wVJJqwOt_3apsoGmwgRWnw", "review_count": 229, "categories": [{"alias": "coffee", "title": "Coffee & Tea"}, {"alias": "vegetarian", "title": "Vegetarian"}, {"alias": "juicebars", "title": "Juice Bars & Smoothies"}], "rating": 4.0, "coordinates": {"latitude": 42.3182669142015, "longitude": -72.6318376280419}, "transactions": ["delivery"], "price": "$", "location": {"address1": "185 Main St", "address2": null, "address3": "", "city": "Northampton", "zip_code": "01060", "country": "US", "state": "MA", "display_address": ["185 Main St", "Northampton, MA 01060"]}, "phone": "+14135869969", "display_phone": "(413) 586-9969", "distance": 7785.160307921621}, {"id": "t0aPZwK_XWNLxm-3n3g53Q", "alias": "la-veracruzana-mexican-restaurant-northampton", "name": "La Veracruzana Mexican Restaurant", "image_url": "https://s3-media1.fl.yelpcdn.com/bphoto/icTVqXlEqLkM1xC7KjkO4A/o.jpg", "is_closed": false, "url": "https://www.yelp.com/biz/la-veracruzana-mexican-restaurant-northampton?adjust_creative=wVJJqwOt_3apsoGmwgRWnw&utm_campaign=yelp_api_v3&utm_medium=api_v3_business_search&utm_source=wVJJqwOt_3apsoGmwgRWnw", "review_count": 164, "categories": [{"alias": "mexican", "title": "Mexican"}], "rating": 3.5, "coordinates": {"latitude": 42.320145, "longitude": -72.629074}, "transactions": ["delivery"], "price": "$$", "location": {"address1": "31 Main St", "address2": "", "address3": "", "city": "Northampton", "zip_code": "01060", "country": "US", "state": "MA", "display_address": ["31 Main St", "Northampton, MA 01060"]}, "phone": "+14135867181", "display_phone": "(413) 586-7181", "distance": 7623.871607078355}, {"id": "6Ew_pVMJhG2IMBk-l8bBGA", "alias": "starrs-pizza-florence", "name": "Starr's Pizza", "image_url": "https://s3-media3.fl.yelpcdn.com/bphoto/J5qiW4jkcB8LSB0fvwNEPg/o.jpg", "is_closed": false, "url": "https://www.yelp.com/biz/starrs-pizza-florence?adjust_creative=wVJJqwOt_3apsoGmwgRWnw&utm_campaign=yelp_api_v3&utm_medium=api_v3_business_search&utm_source=wVJJqwOt_3apsoGmwgRWnw", "review_count": 9, "categories": [{"alias": "pizza", "title": "Pizza"}], "rating": 4.0, "coordinates": {"latitude": 42.3350912332535, "longitude": -72.669425457716}, "transactions": [], "price": "$", "location": {"address1": "59 Main St", "address2": null, "address3": "", "city": "Florence", "zip_code": "01062", "country": "US", "state": "MA", "display_address": ["59 Main St", "Florence, MA 01062"]}, "phone": "+14135849946", "display_phone": "(413) 584-9946", "distance": 6039.170436850006}, {"id": "vhMAnf6-he-QpsXVqMe_WQ", "alias": "hot-table-hadley", "name": "Hot Table", "image_url": "https://s3-media4.fl.yelpcdn.com/bphoto/FbW5EUrHsd9_oLPvQok-YQ/o.jpg", "is_closed": false, "url": "https://www.yelp.com/biz/hot-table-hadley?adjust_creative=wVJJqwOt_3apsoGmwgRWnw&utm_campaign=yelp_api_v3&utm_medium=api_v3_business_search&utm_source=wVJJqwOt_3apsoGmwgRWnw", "review_count": 41, "categories": [{"alias": "sandwiches", "title": "Sandwiches"}, {"alias": "salad", "title": "Salad"}, {"alias": "coffee", "title": "Coffee & Tea"}], "rating": 4.0, "coordinates": {"latitude": 42.35744, "longitude": -72.55198}, "transactions": ["delivery"], "price": "$", "location": {"address1": "344 Russell St", "address2": "", "address3": "", "city": "Hadley", "zip_code": "01035", "country": "US", "state": "MA", "display_address": ["344 Russell St", "Hadley, MA 01035"]}, "phone": "+14133870331", "display_phone": "(413) 387-0331", "distance": 8535.381427556811}, {"id": "O7nQoqko1A7WX6HVFOYS6Q", "alias": "moshi-moshi-northampton", "name": "Moshi Moshi", "image_url": "https://s3-media1.fl.yelpcdn.com/bphoto/0n4bYFd_86LO4MbRsa1k2A/o.jpg", "is_closed": false, "url": "https://www.yelp.com/biz/moshi-moshi-northampton?adjust_creative=wVJJqwOt_3apsoGmwgRWnw&utm_campaign=yelp_api_v3&utm_medium=api_v3_business_search&utm_source=wVJJqwOt_3apsoGmwgRWnw", "review_count": 167, "categories": [{"alias": "sushi", "title": "Sushi Bars"}, {"alias": "japanese", "title": "Japanese"}, {"alias": "korean", "title": "Korean"}], "rating": 3.5, "coordinates": {"latitude": 42.32018, "longitude": -72.6285}, "transactions": ["delivery"], "price": "$$", "location": {"address1": "4 Main St", "address2": "", "address3": "", "city": "Northampton", "zip_code": "01060", "country": "US", "state": "MA", "display_address": ["4 Main St", "Northampton, MA 01060"]}, "phone": "+14135865865", "display_phone": "(413) 586-5865", "distance": 7630.82735037358}, {"id": "Gpj6r73EQ2yl2Z-lUMLKfg", "alias": "noodles-northampton", "name": "Noodles", "image_url": "https://s3-media1.fl.yelpcdn.com/bphoto/rbgp8CHGz5mXJ5V676fGxA/o.jpg", "is_closed": false, "url": "https://www.yelp.com/biz/noodles-northampton?adjust_creative=wVJJqwOt_3apsoGmwgRWnw&utm_campaign=yelp_api_v3&utm_medium=api_v3_business_search&utm_source=wVJJqwOt_3apsoGmwgRWnw", "review_count": 114, "categories": [{"alias": "noodles", "title": "Noodles"}], "rating": 3.5, "coordinates": {"latitude": 42.3178947, "longitude": -72.6332189}, "transactions": ["pickup", "delivery"], "price": "$$", "location": {"address1": "257 Main St", "address2": "", "address3": "", "city": "Northampton", "zip_code": "01060", "country": "US", "state": "MA", "display_address": ["257 Main St", "Northampton, MA 01060"]}, "phone": "+14135874070", "display_phone": "(413) 587-4070", "distance": 7802.199771592309}, {"id": "PpYOxFZq2tiveGDysCIloQ", "alias": "great-wall-restaurant-florence", "name": "Great Wall Restaurant", "image_url": "https://s3-media1.fl.yelpcdn.com/bphoto/Eigw8QxWmxXQ-7kuMyQRKQ/o.jpg", "is_closed": false, "url": "https://www.yelp.com/biz/great-wall-restaurant-florence?adjust_creative=wVJJqwOt_3apsoGmwgRWnw&utm_campaign=yelp_api_v3&utm_medium=api_v3_business_search&utm_source=wVJJqwOt_3apsoGmwgRWnw", "review_count": 92, "categories": [{"alias": "chinese", "title": "Chinese"}], "rating": 3.0, "coordinates": {"latitude": 42.3308018, "longitude": -72.6770207}, "transactions": ["delivery"], "price": "$$", "location": {"address1": "178 Pine St", "address2": "", "address3": "", "city": "Florence", "zip_code": "01062", "country": "US", "state": "MA", "display_address": ["178 Pine St", "Florence, MA 01062"]}, "phone": "+14135820399", "display_phone": "(413) 582-0399", "distance": 6721.043275108384}, {"id": "NZ-KxOMeY2CqaQb4mrOH4Q", "alias": "coopers-corner-florence", "name": "Cooper's Corner", "image_url": "https://s3-media3.fl.yelpcdn.com/bphoto/aDGH10IvfHs0a1myylZkXg/o.jpg", "is_closed": false, "url": "https://www.yelp.com/biz/coopers-corner-florence?adjust_creative=wVJJqwOt_3apsoGmwgRWnw&utm_campaign=yelp_api_v3&utm_medium=api_v3_business_search&utm_source=wVJJqwOt_3apsoGmwgRWnw", "review_count": 13, "categories": [{"alias": "delis", "title": "Delis"}, {"alias": "sandwiches", "title": "Sandwiches"}], "rating": 3.5, "coordinates": {"latitude": 42.3349699, "longitude": -72.6681617}, "transactions": ["delivery"], "location": {"address1": "31 Main St", "address2": "", "address3": "", "city": "Florence", "zip_code": "01062", "country": "US", "state": "MA", "display_address": ["31 Main St", "Florence, MA 01062"]}, "phone": "+14135861684", "display_phone": "(413) 586-1684", "distance": 6016.715021543305}, {"id": "94V7YzpmGIwYa4h7w9peCA", "alias": "pizza-factory-florence", "name": "Pizza Factory", "image_url": "https://s3-media2.fl.yelpcdn.com/bphoto/P0Dnb3MpWh8ZC1v0XoZuSQ/o.jpg", "is_closed": false, "url": "https://www.yelp.com/biz/pizza-factory-florence?adjust_creative=wVJJqwOt_3apsoGmwgRWnw&utm_campaign=yelp_api_v3&utm_medium=api_v3_business_search&utm_source=wVJJqwOt_3apsoGmwgRWnw", "review_count": 24, "categories": [{"alias": "pizza", "title": "Pizza"}, {"alias": "italian", "title": "Italian"}], "rating": 3.5, "coordinates": {"latitude": 42.3356271137677, "longitude": -72.6718680313525}, "transactions": ["delivery"], "price": "$$", "location": {"address1": "143 Main St", "address2": "", "address3": "", "city": "Florence", "zip_code": "01062", "country": "US", "state": "MA", "display_address": ["143 Main St", "Florence, MA 01062"]}, "phone": "+14135847777", "display_phone": "(413) 584-7777", "distance": 6047.661223705095}, {"id": "s8OW-375kYYrSXL-yMFNvw", "alias": "share-northampton-northampton", "name": "Share Northampton", "image_url": "https://s3-media2.fl.yelpcdn.com/bphoto/ij9raKMqCKNMP_XZjwn-fQ/o.jpg", "is_closed": false, "url": "https://www.yelp.com/biz/share-northampton-northampton?adjust_creative=wVJJqwOt_3apsoGmwgRWnw&utm_campaign=yelp_api_v3&utm_medium=api_v3_business_search&utm_source=wVJJqwOt_3apsoGmwgRWnw", "review_count": 16, "categories": [{"alias": "cafes", "title": "Cafes"}, {"alias": "coffee", "title": "Coffee & Tea"}], "rating": 4.5, "coordinates": {"latitude": 42.31834, "longitude": -72.63117}, "transactions": [], "price": "$", "location": {"address1": "150 Main St", "address2": null, "address3": "", "city": "Northampton", "zip_code": "01060", "country": "US", "state": "MA", "display_address": ["150 Main St", "Northampton, MA 01060"]}, "phone": "+14135862649", "display_phone": "(413) 586-2649", "distance": 7811.471752768335}, {"id": "AQ8ipYC-DU-XMFNYTQrksQ", "alias": "mama-iguanas-northampton-2", "name": "Mama Iguanas", "image_url": "https://s3-media1.fl.yelpcdn.com/bphoto/BmJyuPOdJdlPx-hDJWlHiA/o.jpg", "is_closed": false, "url": "https://www.yelp.com/biz/mama-iguanas-northampton-2?adjust_creative=wVJJqwOt_3apsoGmwgRWnw&utm_campaign=yelp_api_v3&utm_medium=api_v3_business_search&utm_source=wVJJqwOt_3apsoGmwgRWnw", "review_count": 121, "categories": [{"alias": "mexican", "title": "Mexican"}], "rating": 3.0, "coordinates": {"latitude": 42.3179955255448, "longitude": -72.6334192065829}, "transactions": ["delivery"], "price": "$$", "location": {"address1": "274 Main St", "address2": "", "address3": "", "city": "Northampton", "zip_code": "01060", "country": "US", "state": "MA", "display_address": ["274 Main St", "Northampton, MA 01060"]}, "phone": "+14135860400", "display_phone": "(413) 586-0400", "distance": 7793.1945760248855}, {"id": "Y6Um8fVaq213Zy-DZNzLcQ", "alias": "tandem-bagel-company-northampton", "name": "Tandem Bagel Company", "image_url": "https://s3-media3.fl.yelpcdn.com/bphoto/14tou4lGlzkq2W40IY6DPg/o.jpg", "is_closed": false, "url": "https://www.yelp.com/biz/tandem-bagel-company-northampton?adjust_creative=wVJJqwOt_3apsoGmwgRWnw&utm_campaign=yelp_api_v3&utm_medium=api_v3_business_search&utm_source=wVJJqwOt_3apsoGmwgRWnw", "review_count": 23, "categories": [{"alias": "bagels", "title": "Bagels"}, {"alias": "breakfast_brunch", "title": "Breakfast & Brunch"}], "rating": 4.0, "coordinates": {"latitude": 42.3322686805492, "longitude": -72.6358047897389}, "transactions": ["delivery"], "price": "$$", "location": {"address1": "306 King St", "address2": "", "address3": "", "city": "Northampton", "zip_code": "01060", "country": "US", "state": "MA", "display_address": ["306 King St", "Northampton, MA 01060"]}, "phone": "+14137273123", "display_phone": "(413) 727-3123", "distance": 6195.350149866093}, {"id": "j_toNLVsQPugmRbfuEHHYA", "alias": "hungry-ghost-bread-northampton", "name": "Hungry Ghost Bread", "image_url": "https://s3-media4.fl.yelpcdn.com/bphoto/yS_1AR3Ouje_Bn70MGzYpg/o.jpg", "is_closed": false, "url": "https://www.yelp.com/biz/hungry-ghost-bread-northampton?adjust_creative=wVJJqwOt_3apsoGmwgRWnw&utm_campaign=yelp_api_v3&utm_medium=api_v3_business_search&utm_source=wVJJqwOt_3apsoGmwgRWnw", "review_count": 163, "categories": [{"alias": "bakeries", "title": "Bakeries"}, {"alias": "pizza", "title": "Pizza"}], "rating": 4.5, "coordinates": {"latitude": 42.31992, "longitude": -72.6346}, "transactions": [], "price": "$", "location": {"address1": "62 State St", "address2": null, "address3": "", "city": "Northampton", "zip_code": "01060", "country": "US", "state": "MA", "display_address": ["62 State St", "Northampton, MA 01060"]}, "phone": "+14135829009", "display_phone": "(413) 582-9009", "distance": 7563.64438565258}, {"id": "GhaYwhg5B1ZDGygGNVazmg", "alias": "a-1-pizza-house-florence", "name": "A-1 Pizza House", "image_url": "https://s3-media3.fl.yelpcdn.com/bphoto/2ktOLTeFExV9zRBbNz4VaQ/o.jpg", "is_closed": false, "url": "https://www.yelp.com/biz/a-1-pizza-house-florence?adjust_creative=wVJJqwOt_3apsoGmwgRWnw&utm_campaign=yelp_api_v3&utm_medium=api_v3_business_search&utm_source=wVJJqwOt_3apsoGmwgRWnw", "review_count": 10, "categories": [{"alias": "pizza", "title": "Pizza"}, {"alias": "italian", "title": "Italian"}], "rating": 3.5, "coordinates": {"latitude": 42.335307, "longitude": -72.672278}, "transactions": [], "price": "$", "location": {"address1": "92 Maple St", "address2": "", "address3": "", "city": "Florence", "zip_code": "01062", "country": "US", "state": "MA", "display_address": ["92 Maple St", "Florence, MA 01062"]}, "phone": "+14135864196", "display_phone": "(413) 586-4196", "distance": 6092.154617633915}, {"id": "71pmMLyYDBspzR8Y1dRzeg", "alias": "shelburne-falls-coffee-roasters-northampton-3", "name": "Shelburne Falls Coffee Roasters", "image_url": "https://s3-media4.fl.yelpcdn.com/bphoto/rftOog1b65advlEQ3uipeQ/o.jpg", "is_closed": false, "url": "https://www.yelp.com/biz/shelburne-falls-coffee-roasters-northampton-3?adjust_creative=wVJJqwOt_3apsoGmwgRWnw&utm_campaign=yelp_api_v3&utm_medium=api_v3_business_search&utm_source=wVJJqwOt_3apsoGmwgRWnw", "review_count": 14, "categories": [{"alias": "breakfast_brunch", "title": "Breakfast & Brunch"}, {"alias": "coffeeroasteries", "title": "Coffee Roasteries"}], "rating": 4.5, "coordinates": {"latitude": 42.31797, "longitude": -72.63357}, "transactions": ["delivery"], "price": "$", "location": {"address1": "273 Main St", "address2": "", "address3": null, "city": "Northampton", "zip_code": "01060", "country": "US", "state": "MA", "display_address": ["273 Main St", "Northampton, MA 01060"]}, "phone": "", "display_phone": "", "distance": 7795.739109054471}, {"id": "Ej9Z5c0VHZE66qMOjHltPA", "alias": "the-dirty-truth-northampton", "name": "The Dirty Truth", "image_url": "https://s3-media2.fl.yelpcdn.com/bphoto/-pyE4JPLPrmNQWhPoR1-ig/o.jpg", "is_closed": false, "url": "https://www.yelp.com/biz/the-dirty-truth-northampton?adjust_creative=wVJJqwOt_3apsoGmwgRWnw&utm_campaign=yelp_api_v3&utm_medium=api_v3_business_search&utm_source=wVJJqwOt_3apsoGmwgRWnw", "review_count": 200, "categories": [{"alias": "bars", "title": "Bars"}, {"alias": "newamerican", "title": "American (New)"}], "rating": 3.0, "coordinates": {"latitude": 42.32026, "longitude": -72.62915}, "transactions": [], "price": "$$", "location": {"address1": "29 Main St", "address2": null, "address3": "", "city": "Northampton", "zip_code": "01060", "country": "US", "state": "MA", "display_address": ["29 Main St", "Northampton, MA 01060"]}, "phone": "+14135855999", "display_phone": "(413) 585-5999", "distance": 7619.28319074806}, {"id": "WbQBt4YecdmNPCrcXvK8nw", "alias": "dobra-tea-northampton", "name": "Dobra Tea", "image_url": "https://s3-media4.fl.yelpcdn.com/bphoto/r5YaqpEZIYviOqR0Fb8SCA/o.jpg", "is_closed": false, "url": "https://www.yelp.com/biz/dobra-tea-northampton?adjust_creative=wVJJqwOt_3apsoGmwgRWnw&utm_campaign=yelp_api_v3&utm_medium=api_v3_business_search&utm_source=wVJJqwOt_3apsoGmwgRWnw", "review_count": 110, "categories": [{"alias": "tea", "title": "Tea Rooms"}, {"alias": "mideastern", "title": "Middle Eastern"}], "rating": 4.5, "coordinates": {"latitude": 42.3180482, "longitude": -72.6314848}, "transactions": ["delivery"], "price": "$", "location": {"address1": "186 Main St", "address2": "", "address3": "", "city": "Northampton", "zip_code": "01060", "country": "US", "state": "MA", "display_address": ["186 Main St", "Northampton, MA 01060"]}, "phone": "+14137273471", "display_phone": "(413) 727-3471", "distance": 7827.335579678686}, {"id": "irtmklyCVLhY6G62VMgUwQ", "alias": "platform-sports-bar-northampton", "name": "Platform Sports Bar", "image_url": "https://s3-media3.fl.yelpcdn.com/bphoto/1Fxrljw2E_URlb4se5ApFg/o.jpg", "is_closed": false, "url": "https://www.yelp.com/biz/platform-sports-bar-northampton?adjust_creative=wVJJqwOt_3apsoGmwgRWnw&utm_campaign=yelp_api_v3&utm_medium=api_v3_business_search&utm_source=wVJJqwOt_3apsoGmwgRWnw", "review_count": 47, "categories": [{"alias": "sportsbars", "title": "Sports Bars"}, {"alias": "tradamerican", "title": "American (Traditional)"}], "rating": 2.5, "coordinates": {"latitude": 42.3185155954202, "longitude": -72.6267224257418}, "transactions": ["delivery"], "price": "$$", "location": {"address1": "125A Pleasant St", "address2": "", "address3": "", "city": "Northampton", "zip_code": "01060", "country": "US", "state": "MA", "display_address": ["125A Pleasant St", "Northampton, MA 01060"]}, "phone": "+14133413161", "display_phone": "(413) 341-3161", "distance": 7842.90434396556}, {"id": "hJyXhgV7NUTTqgF7OFEmhQ", "alias": "sylvesters-northampton", "name": "Sylvester's", "image_url": "https://s3-media2.fl.yelpcdn.com/bphoto/5GTWSkzOsOWHJZ01O_AkfQ/o.jpg", "is_closed": false, "url": "https://www.yelp.com/biz/sylvesters-northampton?adjust_creative=wVJJqwOt_3apsoGmwgRWnw&utm_campaign=yelp_api_v3&utm_medium=api_v3_business_search&utm_source=wVJJqwOt_3apsoGmwgRWnw", "review_count": 258, "categories": [{"alias": "breakfast_brunch", "title": "Breakfast & Brunch"}, {"alias": "gluten_free", "title": "Gluten-Free"}, {"alias": "sandwiches", "title": "Sandwiches"}], "rating": 3.5, "coordinates": {"latitude": 42.3183232723761, "longitude": -72.628209555044}, "transactions": ["delivery"], "price": "$$", "location": {"address1": "111 Pleasant St", "address2": "", "address3": "", "city": "Northampton", "zip_code": "01060", "country": "US", "state": "MA", "display_address": ["111 Pleasant St", "Northampton, MA 01060"]}, "phone": "+14135861418", "display_phone": "(413) 586-1418", "distance": 7836.863858338339}, {"id": "epqJjZou4WhvNHm3YI0yaw", "alias": "doves-nest-restaurant-sunderland", "name": "Dove's Nest Restaurant", "image_url": "https://s3-media2.fl.yelpcdn.com/bphoto/lZaim-3fpRBkNFOC81btZQ/o.jpg", "is_closed": false, "url": "https://www.yelp.com/biz/doves-nest-restaurant-sunderland?adjust_creative=wVJJqwOt_3apsoGmwgRWnw&utm_campaign=yelp_api_v3&utm_medium=api_v3_business_search&utm_source=wVJJqwOt_3apsoGmwgRWnw", "review_count": 24, "categories": [{"alias": "diners", "title": "Diners"}, {"alias": "breakfast_brunch", "title": "Breakfast & Brunch"}], "rating": 4.0, "coordinates": {"latitude": 42.4512326907386, "longitude": -72.5632996993883}, "transactions": [], "price": "$", "location": {"address1": "285 Amherst Rd", "address2": "", "address3": "", "city": "Sunderland", "zip_code": "01375", "country": "US", "state": "MA", "display_address": ["285 Amherst Rd", "Sunderland, MA 01375"]}, "phone": "+14136657969", "display_phone": "(413) 665-7969", "distance": 9979.1518626805}, {"id": "hwCthMrt77pywJA7Q6T_9Q", "alias": "panera-bread-hadley", "name": "Panera Bread", "image_url": "https://s3-media1.fl.yelpcdn.com/bphoto/4lTXpzejR73ulmxBCz5bbQ/o.jpg", "is_closed": false, "url": "https://www.yelp.com/biz/panera-bread-hadley?adjust_creative=wVJJqwOt_3apsoGmwgRWnw&utm_campaign=yelp_api_v3&utm_medium=api_v3_business_search&utm_source=wVJJqwOt_3apsoGmwgRWnw", "review_count": 29, "categories": [{"alias": "sandwiches", "title": "Sandwiches"}, {"alias": "salad", "title": "Salad"}, {"alias": "soup", "title": "Soup"}], "rating": 3.0, "coordinates": {"latitude": 42.353491, "longitude": -72.553435}, "transactions": [], "price": "$$", "location": {"address1": "351 Russell St", "address2": "Ste \u00a0351B", "address3": "", "city": "Hadley", "zip_code": "01035", "country": "US", "state": "MA", "display_address": ["351 Russell St", "Ste \u00a0351B", "Hadley, MA 01035"]}, "phone": "+14133876336", "display_phone": "(413) 387-6336", "distance": 8659.936482482184}, {"id": "7g4crrgI44YuvB5zzdAxfg", "alias": "toasted-owl-tavern-northampton", "name": "Toasted Owl Tavern", "image_url": "https://s3-media2.fl.yelpcdn.com/bphoto/iGqQ-y0Yqf6nxpTqIvybyA/o.jpg", "is_closed": false, "url": "https://www.yelp.com/biz/toasted-owl-tavern-northampton?adjust_creative=wVJJqwOt_3apsoGmwgRWnw&utm_campaign=yelp_api_v3&utm_medium=api_v3_business_search&utm_source=wVJJqwOt_3apsoGmwgRWnw", "review_count": 72, "categories": [{"alias": "sportsbars", "title": "Sports Bars"}, {"alias": "burgers", "title": "Burgers"}, {"alias": "sandwiches", "title": "Sandwiches"}], "rating": 3.5, "coordinates": {"latitude": 42.32026, "longitude": -72.62914}, "transactions": ["pickup", "delivery"], "price": "$$", "location": {"address1": "21 Main St", "address2": "", "address3": "", "city": "Northampton", "zip_code": "01060", "country": "US", "state": "MA", "display_address": ["21 Main St", "Northampton, MA 01060"]}, "phone": "+14135855088", "display_phone": "(413) 585-5088", "distance": 7611.12082849016}, {"id": "YZvXTxzycSpl0thbZbA62Q", "alias": "frontier-pizza-place-sunderland", "name": "Frontier Pizza Place", "image_url": "https://s3-media2.fl.yelpcdn.com/bphoto/bRpCBgRHsJrY_hojQ5VK7A/o.jpg", "is_closed": false, "url": "https://www.yelp.com/biz/frontier-pizza-place-sunderland?adjust_creative=wVJJqwOt_3apsoGmwgRWnw&utm_campaign=yelp_api_v3&utm_medium=api_v3_business_search&utm_source=wVJJqwOt_3apsoGmwgRWnw", "review_count": 30, "categories": [{"alias": "pizza", "title": "Pizza"}], "rating": 3.0, "coordinates": {"latitude": 42.450953, "longitude": -72.562729}, "transactions": ["delivery"], "price": "$$", "location": {"address1": "283 Amherst Rd", "address2": "Rte 116", "address3": "", "city": "Sunderland", "zip_code": "01375", "country": "US", "state": "MA", "display_address": ["283 Amherst Rd", "Rte 116", "Sunderland, MA 01375"]}, "phone": "+14136657066", "display_phone": "(413) 665-7066", "distance": 9989.94371972801}, {"id": "ZUl4lCYWPxaR7TO4Neaksg", "alias": "primo-pizzeria-hadley", "name": "Primo Pizzeria", "image_url": "https://s3-media1.fl.yelpcdn.com/bphoto/T5uPNL-qZlzAcTRw3odszg/o.jpg", "is_closed": false, "url": "https://www.yelp.com/biz/primo-pizzeria-hadley?adjust_creative=wVJJqwOt_3apsoGmwgRWnw&utm_campaign=yelp_api_v3&utm_medium=api_v3_business_search&utm_source=wVJJqwOt_3apsoGmwgRWnw", "review_count": 25, "categories": [{"alias": "pizza", "title": "Pizza"}], "rating": 3.5, "coordinates": {"latitude": 42.3414840698242, "longitude": -72.5956878662109}, "transactions": ["delivery"], "price": "$$", "location": {"address1": "103 Russell St", "address2": "", "address3": "", "city": "Hadley", "zip_code": "01035", "country": "US", "state": "MA", "display_address": ["103 Russell St", "Hadley, MA 01035"]}, "phone": "+14135850950", "display_phone": "(413) 585-0950", "distance": 6676.226679178991}, {"id": "1f4CMH9jLV2HYIpVosqoRg", "alias": "nourish-wellness-cafe-and-juice-bar-northampton", "name": "Nourish Wellness Cafe And Juice Bar", "image_url": "https://s3-media2.fl.yelpcdn.com/bphoto/dT0kQX-SGaeFOn3YO6b4HQ/o.jpg", "is_closed": false, "url": "https://www.yelp.com/biz/nourish-wellness-cafe-and-juice-bar-northampton?adjust_creative=wVJJqwOt_3apsoGmwgRWnw&utm_campaign=yelp_api_v3&utm_medium=api_v3_business_search&utm_source=wVJJqwOt_3apsoGmwgRWnw", "review_count": 70, "categories": [{"alias": "juicebars", "title": "Juice Bars & Smoothies"}, {"alias": "vegan", "title": "Vegan"}, {"alias": "gluten_free", "title": "Gluten-Free"}], "rating": 4.0, "coordinates": {"latitude": 42.32078, "longitude": -72.62851}, "transactions": ["delivery"], "price": "$$", "location": {"address1": "10 Bridge St", "address2": "", "address3": null, "city": "Northampton", "zip_code": "01060", "country": "US", "state": "MA", "display_address": ["10 Bridge St", "Northampton, MA 01060"]}, "phone": "+14137273260", "display_phone": "(413) 727-3260", "distance": 7564.386337376666}, {"id": "s45wQXRdtYhkwkZ7r1UKOQ", "alias": "smithsonian-chowder-house-northampton-northampton-2", "name": "Smithsonian Chowder House Northampton", "image_url": "https://s3-media2.fl.yelpcdn.com/bphoto/adwx_dTkUGQQguXSdd_1ow/o.jpg", "is_closed": false, "url": "https://www.yelp.com/biz/smithsonian-chowder-house-northampton-northampton-2?adjust_creative=wVJJqwOt_3apsoGmwgRWnw&utm_campaign=yelp_api_v3&utm_medium=api_v3_business_search&utm_source=wVJJqwOt_3apsoGmwgRWnw", "review_count": 50, "categories": [{"alias": "soup", "title": "Soup"}, {"alias": "sandwiches", "title": "Sandwiches"}, {"alias": "cafes", "title": "Cafes"}], "rating": 4.0, "coordinates": {"latitude": 42.3167382, "longitude": -72.6318819}, "transactions": ["delivery"], "price": "$", "location": {"address1": "1 Roundhouse Plz", "address2": "", "address3": "", "city": "Northampton", "zip_code": "01060", "country": "US", "state": "MA", "display_address": ["1 Roundhouse Plz", "Northampton, MA 01060"]}, "phone": "+14137273318", "display_phone": "(413) 727-3318", "distance": 7951.9404352448}, {"id": "WG60zoex6_tbyX4Tp-LIog", "alias": "bueno-y-sano-northampton", "name": "Bueno Y Sano", "image_url": "https://s3-media3.fl.yelpcdn.com/bphoto/Sl4xtPuE-t55cbyYbbJ7_Q/o.jpg", "is_closed": false, "url": "https://www.yelp.com/biz/bueno-y-sano-northampton?adjust_creative=wVJJqwOt_3apsoGmwgRWnw&utm_campaign=yelp_api_v3&utm_medium=api_v3_business_search&utm_source=wVJJqwOt_3apsoGmwgRWnw", "review_count": 145, "categories": [{"alias": "mexican", "title": "Mexican"}], "rating": 4.0, "coordinates": {"latitude": 42.318645, "longitude": -72.630712}, "transactions": ["pickup", "delivery"], "price": "$", "location": {"address1": "134 Main St", "address2": "", "address3": "", "city": "Northampton", "zip_code": "01060", "country": "US", "state": "MA", "display_address": ["134 Main St", "Northampton, MA 01060"]}, "phone": "+14135867311", "display_phone": "(413) 586-7311", "distance": 7760.632280314437}, {"id": "rx9X9thYgNImhZWe4o010w", "alias": "arizona-pizza-company-hadley-2", "name": "Arizona Pizza Company", "image_url": "https://s3-media2.fl.yelpcdn.com/bphoto/lDKg4sw00oxgrP1rZqsLIA/o.jpg", "is_closed": false, "url": "https://www.yelp.com/biz/arizona-pizza-company-hadley-2?adjust_creative=wVJJqwOt_3apsoGmwgRWnw&utm_campaign=yelp_api_v3&utm_medium=api_v3_business_search&utm_source=wVJJqwOt_3apsoGmwgRWnw", "review_count": 55, "categories": [{"alias": "pizza", "title": "Pizza"}], "rating": 3.0, "coordinates": {"latitude": 42.356886, "longitude": -72.548282}, "transactions": ["pickup", "delivery"], "price": "$$", "location": {"address1": "367 Russell St", "address2": "", "address3": "", "city": "Hadley", "zip_code": "01035", "country": "US", "state": "MA", "display_address": ["367 Russell St", "Hadley, MA 01035"]}, "phone": "+14135820400", "display_phone": "(413) 582-0400", "distance": 8893.423038912557}, {"id": "T5K5NDHfw6sBhvDSv2fYrg", "alias": "friendlys-florence", "name": "Friendly's", "image_url": "https://s3-media4.fl.yelpcdn.com/bphoto/0FJhZw1t158HfkLGLYXrFw/o.jpg", "is_closed": false, "url": "https://www.yelp.com/biz/friendlys-florence?adjust_creative=wVJJqwOt_3apsoGmwgRWnw&utm_campaign=yelp_api_v3&utm_medium=api_v3_business_search&utm_source=wVJJqwOt_3apsoGmwgRWnw", "review_count": 10, "categories": [{"alias": "icecream", "title": "Ice Cream & Frozen Yogurt"}, {"alias": "burgers", "title": "Burgers"}, {"alias": "tradamerican", "title": "American (Traditional)"}], "rating": 3.5, "coordinates": {"latitude": 42.3349100747765, "longitude": -72.6694301515818}, "transactions": [], "price": "$", "location": {"address1": "54 Main St", "address2": null, "address3": null, "city": "Florence", "zip_code": "01062", "country": "US", "state": "MA", "display_address": ["54 Main St", "Florence, MA 01062"]}, "phone": "+14135841772", "display_phone": "(413) 584-1772", "distance": 6063.402449833991}, {"id": "W9XBy0F4M-fjs1Gau_cMIg", "alias": "limered-teahouse-northampton", "name": "LimeRed Teahouse", "image_url": "https://s3-media1.fl.yelpcdn.com/bphoto/-ujNAAosmmDTfpl3q5dngg/o.jpg", "is_closed": false, "url": "https://www.yelp.com/biz/limered-teahouse-northampton?adjust_creative=wVJJqwOt_3apsoGmwgRWnw&utm_campaign=yelp_api_v3&utm_medium=api_v3_business_search&utm_source=wVJJqwOt_3apsoGmwgRWnw", "review_count": 74, "categories": [{"alias": "cafes", "title": "Cafes"}, {"alias": "bubbletea", "title": "Bubble Tea"}], "rating": 4.0, "coordinates": {"latitude": 42.3193702697754, "longitude": -72.6296234130859}, "transactions": ["pickup", "delivery"], "price": "$", "location": {"address1": "11 Pleasant St", "address2": "", "address3": "", "city": "Northampton", "zip_code": "01060", "country": "US", "state": "MA", "display_address": ["11 Pleasant St", "Northampton, MA 01060"]}, "phone": "+14132008832", "display_phone": "(413) 200-8832", "distance": 7698.929939762725}, {"id": "NypGgpHGkW_VrZwYlcf7ag", "alias": "subway-sunderland-9", "name": "Subway", "image_url": "https://s3-media1.fl.yelpcdn.com/bphoto/nWFOwe3ieLFVGShR7NazoA/o.jpg", "is_closed": false, "url": "https://www.yelp.com/biz/subway-sunderland-9?adjust_creative=wVJJqwOt_3apsoGmwgRWnw&utm_campaign=yelp_api_v3&utm_medium=api_v3_business_search&utm_source=wVJJqwOt_3apsoGmwgRWnw", "review_count": 1, "categories": [{"alias": "sandwiches", "title": "Sandwiches"}], "rating": 4.0, "coordinates": {"latitude": 42.4507409061699, "longitude": -72.5608282907318}, "transactions": [], "price": "$", "location": {"address1": "5C Clark Mountain Rd", "address2": null, "address3": "", "city": "Sunderland", "zip_code": "01375", "country": "US", "state": "MA", "display_address": ["5C Clark Mountain Rd", "Sunderland, MA 01375"]}, "phone": "+14136650900", "display_phone": "(413) 665-0900", "distance": 10083.941366334504}, {"id": "XKbjRrkfUgYMbg9oi-LWeA", "alias": "thai-thai-northampton", "name": "Thai Thai", "image_url": "", "is_closed": false, "url": "https://www.yelp.com/biz/thai-thai-northampton?adjust_creative=wVJJqwOt_3apsoGmwgRWnw&utm_campaign=yelp_api_v3&utm_medium=api_v3_business_search&utm_source=wVJJqwOt_3apsoGmwgRWnw", "review_count": 3, "categories": [{"alias": "thai", "title": "Thai"}], "rating": 2.5, "coordinates": {"latitude": 42.318757, "longitude": -72.628304}, "transactions": [], "location": {"address1": "84 Pleasant St", "address2": "", "address3": null, "city": "Northampton", "zip_code": "01060", "country": "US", "state": "MA", "display_address": ["84 Pleasant St", "Northampton, MA 01060"]}, "phone": "+14137273245", "display_phone": "(413) 727-3245", "distance": 7793.868800723668}, {"id": "pUPqX_XUmDoTEa8XO5sfpw", "alias": "florence-pizza-and-family-restaurant-florence", "name": "Florence Pizza & Family Restaurant", "image_url": "https://s3-media3.fl.yelpcdn.com/bphoto/7Qkhxtqtxx9Ij2hhgwoY3g/o.jpg", "is_closed": false, "url": "https://www.yelp.com/biz/florence-pizza-and-family-restaurant-florence?adjust_creative=wVJJqwOt_3apsoGmwgRWnw&utm_campaign=yelp_api_v3&utm_medium=api_v3_business_search&utm_source=wVJJqwOt_3apsoGmwgRWnw", "review_count": 23, "categories": [{"alias": "pizza", "title": "Pizza"}], "rating": 3.0, "coordinates": {"latitude": 42.334924, "longitude": -72.670016}, "transactions": [], "price": "$$", "location": {"address1": "60 Main St", "address2": "", "address3": "", "city": "Florence", "zip_code": "01062", "country": "US", "state": "MA", "display_address": ["60 Main St", "Florence, MA 01062"]}, "phone": "+14135845759", "display_phone": "(413) 584-5759", "distance": 6075.7693066164}, {"id": "OTXSHDT3kEfVyLSa_jQaLg", "alias": "coolidge-park-cafe-northampton", "name": "Coolidge Park Cafe", "image_url": "https://s3-media4.fl.yelpcdn.com/bphoto/yzoq2qAhcJ1MAyseHf38vA/o.jpg", "is_closed": false, "url": "https://www.yelp.com/biz/coolidge-park-cafe-northampton?adjust_creative=wVJJqwOt_3apsoGmwgRWnw&utm_campaign=yelp_api_v3&utm_medium=api_v3_business_search&utm_source=wVJJqwOt_3apsoGmwgRWnw", "review_count": 32, "categories": [{"alias": "diners", "title": "Diners"}, {"alias": "cafes", "title": "Cafes"}], "rating": 3.0, "coordinates": {"latitude": 42.32036, "longitude": -72.63133}, "transactions": ["delivery"], "price": "$$", "location": {"address1": "36 King St", "address2": "", "address3": "", "city": "Northampton", "zip_code": "01060", "country": "US", "state": "MA", "display_address": ["36 King St", "Northampton, MA 01060"]}, "phone": "+14135843100", "display_phone": "(413) 584-3100", "distance": 7596.218100141642}, {"id": "9y8vujKi-sLCicAxESLd0w", "alias": "bluebonnet-diner-northampton", "name": "Bluebonnet Diner", "image_url": "https://s3-media4.fl.yelpcdn.com/bphoto/vDjgM_XOzMC4vl2HI_RkGg/o.jpg", "is_closed": false, "url": "https://www.yelp.com/biz/bluebonnet-diner-northampton?adjust_creative=wVJJqwOt_3apsoGmwgRWnw&utm_campaign=yelp_api_v3&utm_medium=api_v3_business_search&utm_source=wVJJqwOt_3apsoGmwgRWnw", "review_count": 83, "categories": [{"alias": "diners", "title": "Diners"}, {"alias": "breakfast_brunch", "title": "Breakfast & Brunch"}, {"alias": "cocktailbars", "title": "Cocktail Bars"}], "rating": 3.5, "coordinates": {"latitude": 42.33465, "longitude": -72.636}, "transactions": ["delivery"], "price": "$$", "location": {"address1": "324 King St", "address2": "", "address3": "", "city": "Northampton", "zip_code": "01060", "country": "US", "state": "MA", "display_address": ["324 King St", "Northampton, MA 01060"]}, "phone": "+14135843333", "display_phone": "(413) 584-3333", "distance": 5931.692904420922}, {"id": "6QCYOMTbgwCayBYfd72t3Q", "alias": "pinocchios-pizzeria-northampton", "name": "Pinocchio's Pizzeria", "image_url": "https://s3-media4.fl.yelpcdn.com/bphoto/_A0Bz6r93VvOOA7pRNgMaA/o.jpg", "is_closed": false, "url": "https://www.yelp.com/biz/pinocchios-pizzeria-northampton?adjust_creative=wVJJqwOt_3apsoGmwgRWnw&utm_campaign=yelp_api_v3&utm_medium=api_v3_business_search&utm_source=wVJJqwOt_3apsoGmwgRWnw", "review_count": 48, "categories": [{"alias": "pizza", "title": "Pizza"}], "rating": 4.0, "coordinates": {"latitude": 42.31872, "longitude": -72.63035}, "transactions": ["delivery"], "price": "$", "location": {"address1": "122 Main St", "address2": "", "address3": "", "city": "Northampton", "zip_code": "01060", "country": "US", "state": "MA", "display_address": ["122 Main St", "Northampton, MA 01060"]}, "phone": "+14135868275", "display_phone": "(413) 586-8275", "distance": 7756.658368842012}, {"id": "aSBjd6oZCu-HvXKxX2qNtA", "alias": "moes-southwest-grill-hadley", "name": "Moe's Southwest Grill", "image_url": "https://s3-media1.fl.yelpcdn.com/bphoto/pqlMptfaORCa90jWasP_bA/o.jpg", "is_closed": false, "url": "https://www.yelp.com/biz/moes-southwest-grill-hadley?adjust_creative=wVJJqwOt_3apsoGmwgRWnw&utm_campaign=yelp_api_v3&utm_medium=api_v3_business_search&utm_source=wVJJqwOt_3apsoGmwgRWnw", "review_count": 29, "categories": [{"alias": "mexican", "title": "Mexican"}, {"alias": "tex-mex", "title": "Tex-Mex"}], "rating": 2.5, "coordinates": {"latitude": 42.3593230862871, "longitude": -72.5475931540132}, "transactions": ["pickup", "delivery"], "price": "$", "location": {"address1": "379 Russell St", "address2": "", "address3": "", "city": "Hadley", "zip_code": "01035", "country": "US", "state": "MA", "display_address": ["379 Russell St", "Hadley, MA 01035"]}, "phone": "+14133870266", "display_phone": "(413) 387-0266", "distance": 8847.14107856753}, {"id": "E-GBzX-_puSiAIQBHf5XTA", "alias": "holyoke-hummus-company-holyoke", "name": "Holyoke Hummus Company", "image_url": "https://s3-media2.fl.yelpcdn.com/bphoto/K-RvwwHMrU-8EFC9r_j1bw/o.jpg", "is_closed": false, "url": "https://www.yelp.com/biz/holyoke-hummus-company-holyoke?adjust_creative=wVJJqwOt_3apsoGmwgRWnw&utm_campaign=yelp_api_v3&utm_medium=api_v3_business_search&utm_source=wVJJqwOt_3apsoGmwgRWnw", "review_count": 65, "categories": [{"alias": "mideastern", "title": "Middle Eastern"}, {"alias": "foodtrucks", "title": "Food Trucks"}, {"alias": "breakfast_brunch", "title": "Breakfast & Brunch"}], "rating": 4.5, "coordinates": {"latitude": 42.206426, "longitude": -72.6086119}, "transactions": ["pickup", "delivery"], "price": "$", "location": {"address1": "285 High St", "address2": null, "address3": "", "city": "Holyoke", "zip_code": "01040", "country": "US", "state": "MA", "display_address": ["285 High St", "Holyoke, MA 01040"]}, "phone": "+14132251755", "display_phone": "(413) 225-1755", "distance": 20365.951193175162}, {"id": "tlejB4CRtoIulBjW3VIE4w", "alias": "subway-north-hampton-4", "name": "Subway", "image_url": "https://s3-media4.fl.yelpcdn.com/bphoto/maogQyKNhFeQpyOyLNhFhw/o.jpg", "is_closed": false, "url": "https://www.yelp.com/biz/subway-north-hampton-4?adjust_creative=wVJJqwOt_3apsoGmwgRWnw&utm_campaign=yelp_api_v3&utm_medium=api_v3_business_search&utm_source=wVJJqwOt_3apsoGmwgRWnw", "review_count": 3, "categories": [{"alias": "sandwiches", "title": "Sandwiches"}], "rating": 4.5, "coordinates": {"latitude": 42.341656, "longitude": -72.643856}, "transactions": ["pickup", "delivery"], "price": "$", "location": {"address1": "180 N King St", "address2": null, "address3": null, "city": "North Hampton", "zip_code": "01060", "country": "US", "state": "MA", "display_address": ["180 N King St", "North Hampton, MA 01060"]}, "phone": "+14135862800", "display_phone": "(413) 586-2800", "distance": 5074.0234157851155}, {"id": "eiCmbuqsp7TaKYKnU56B1Q", "alias": "woodstar-cafe-northampton", "name": "Woodstar Cafe", "image_url": "https://s3-media2.fl.yelpcdn.com/bphoto/fgnNy9WXd2GCVtGKDhwwJQ/o.jpg", "is_closed": false, "url": "https://www.yelp.com/biz/woodstar-cafe-northampton?adjust_creative=wVJJqwOt_3apsoGmwgRWnw&utm_campaign=yelp_api_v3&utm_medium=api_v3_business_search&utm_source=wVJJqwOt_3apsoGmwgRWnw", "review_count": 184, "categories": [{"alias": "sandwiches", "title": "Sandwiches"}, {"alias": "coffee", "title": "Coffee & Tea"}, {"alias": "bakeries", "title": "Bakeries"}], "rating": 4.0, "coordinates": {"latitude": 42.3188, "longitude": -72.63345}, "transactions": ["delivery"], "price": "$", "location": {"address1": "60 Masonic St", "address2": "", "address3": "", "city": "Northampton", "zip_code": "01060", "country": "US", "state": "MA", "display_address": ["60 Masonic St", "Northampton, MA 01060"]}, "phone": "+14135859777", "display_phone": "(413) 585-9777", "distance": 7710.325828917149}, {"id": "HImGeOW9dlCY9UnpR5BQkQ", "alias": "bistro-bus-northampton", "name": "Bistro Bus", "image_url": "", "is_closed": false, "url": "https://www.yelp.com/biz/bistro-bus-northampton?adjust_creative=wVJJqwOt_3apsoGmwgRWnw&utm_campaign=yelp_api_v3&utm_medium=api_v3_business_search&utm_source=wVJJqwOt_3apsoGmwgRWnw", "review_count": 1, "categories": [{"alias": "foodtrucks", "title": "Food Trucks"}, {"alias": "bbq", "title": "Barbeque"}, {"alias": "tacos", "title": "Tacos"}], "rating": 4.0, "coordinates": {"latitude": 42.3194923400879, "longitude": -72.631462097168}, "transactions": [], "location": {"address1": "", "address2": "", "address3": null, "city": "Northampton", "zip_code": "01060", "country": "US", "state": "MA", "display_address": ["Northampton, MA 01060"]}, "phone": "+14133744090", "display_phone": "(413) 374-4090", "distance": 6935.936598109664}, {"id": "D63WNohxBnrlSi95gutmqg", "alias": "shelburne-falls-coffee-roasters-northampton-2", "name": "Shelburne Falls Coffee Roasters", "image_url": "https://s3-media4.fl.yelpcdn.com/bphoto/Y5OMXYZiaFYYTmOfK7SMBA/o.jpg", "is_closed": false, "url": "https://www.yelp.com/biz/shelburne-falls-coffee-roasters-northampton-2?adjust_creative=wVJJqwOt_3apsoGmwgRWnw&utm_campaign=yelp_api_v3&utm_medium=api_v3_business_search&utm_source=wVJJqwOt_3apsoGmwgRWnw", "review_count": 34, "categories": [{"alias": "coffeeroasteries", "title": "Coffee Roasteries"}, {"alias": "breakfast_brunch", "title": "Breakfast & Brunch"}], "rating": 3.5, "coordinates": {"latitude": 42.3233, "longitude": -72.6326799}, "transactions": ["delivery"], "price": "$$", "location": {"address1": "124 King St", "address2": "", "address3": "", "city": "Northampton", "zip_code": "01060", "country": "US", "state": "MA", "display_address": ["124 King St", "Northampton, MA 01060"]}, "phone": "+14135826799", "display_phone": "(413) 582-6799", "distance": 7227.2853698073895}, {"id": "xjDIZBpzJlXebakIz3NNxw", "alias": "china-wok-express-northampton", "name": "China Wok Express", "image_url": "https://s3-media2.fl.yelpcdn.com/bphoto/k0YG73Zm4fo883k6MGAqpg/o.jpg", "is_closed": false, "url": "https://www.yelp.com/biz/china-wok-express-northampton?adjust_creative=wVJJqwOt_3apsoGmwgRWnw&utm_campaign=yelp_api_v3&utm_medium=api_v3_business_search&utm_source=wVJJqwOt_3apsoGmwgRWnw", "review_count": 9, "categories": [{"alias": "chinese", "title": "Chinese"}], "rating": 2.0, "coordinates": {"latitude": 42.32511, "longitude": -72.63365}, "transactions": ["delivery"], "price": "$", "location": {"address1": "150 King St", "address2": "", "address3": "", "city": "Northampton", "zip_code": "01060", "country": "US", "state": "MA", "display_address": ["150 King St", "Northampton, MA 01060"]}, "phone": "+14135868220", "display_phone": "(413) 586-8220", "distance": 7014.103926355784}, {"id": "6gvgwhOETYdC0RL0hjgNlw", "alias": "taipei-and-tokyo-northampton", "name": "Taipei & Tokyo", "image_url": "https://s3-media2.fl.yelpcdn.com/bphoto/enWpmhPjREz5QOI4UTzCsQ/o.jpg", "is_closed": false, "url": "https://www.yelp.com/biz/taipei-and-tokyo-northampton?adjust_creative=wVJJqwOt_3apsoGmwgRWnw&utm_campaign=yelp_api_v3&utm_medium=api_v3_business_search&utm_source=wVJJqwOt_3apsoGmwgRWnw", "review_count": 66, "categories": [{"alias": "chinese", "title": "Chinese"}, {"alias": "japanese", "title": "Japanese"}, {"alias": "taiwanese", "title": "Taiwanese"}], "rating": 3.0, "coordinates": {"latitude": 42.31734, "longitude": -72.6315599}, "transactions": ["delivery"], "price": "$$", "location": {"address1": "16 Crafts Ave", "address2": "", "address3": "", "city": "Northampton", "zip_code": "01060", "country": "US", "state": "MA", "display_address": ["16 Crafts Ave", "Northampton, MA 01060"]}, "phone": "+14135821888", "display_phone": "(413) 582-1888", "distance": 7892.256259974783}, {"id": "SQGIulXPxQSAGqUhpwcqbA", "alias": "paradise-city-grill-northampton", "name": "Paradise City Grill", "image_url": "", "is_closed": false, "url": "https://www.yelp.com/biz/paradise-city-grill-northampton?adjust_creative=wVJJqwOt_3apsoGmwgRWnw&utm_campaign=yelp_api_v3&utm_medium=api_v3_business_search&utm_source=wVJJqwOt_3apsoGmwgRWnw", "review_count": 2, "categories": [{"alias": "restaurants", "title": "Restaurants"}], "rating": 1.5, "coordinates": {"latitude": 42.3202323913574, "longitude": -72.6276931762695}, "transactions": [], "location": {"address1": "1 Bridge St", "address2": "", "address3": "", "city": "Northampton", "zip_code": "01060", "country": "US", "state": "MA", "display_address": ["1 Bridge St", "Northampton, MA 01060"]}, "phone": "+14135862664", "display_phone": "(413) 586-2664", "distance": 7605.369422040977}, {"id": "O8qWdzTnVg5xa921x2Folw", "alias": "d-angelo-northampton", "name": "D'Angelo", "image_url": "https://s3-media3.fl.yelpcdn.com/bphoto/_d0q8JhawUPfMZTyT9tNSQ/o.jpg", "is_closed": false, "url": "https://www.yelp.com/biz/d-angelo-northampton?adjust_creative=wVJJqwOt_3apsoGmwgRWnw&utm_campaign=yelp_api_v3&utm_medium=api_v3_business_search&utm_source=wVJJqwOt_3apsoGmwgRWnw", "review_count": 14, "categories": [{"alias": "sandwiches", "title": "Sandwiches"}], "rating": 3.5, "coordinates": {"latitude": 42.33734, "longitude": -72.63766}, "transactions": ["delivery"], "price": "$", "location": {"address1": "388 King St", "address2": "", "address3": "", "city": "Northampton", "zip_code": "01060", "country": "US", "state": "MA", "display_address": ["388 King St", "Northampton, MA 01060"]}, "phone": "+14135849776", "display_phone": "(413) 584-9776", "distance": 5616.0326582617245}, {"id": "vgDQ2JDGVFnW_H9Cl9BMJQ", "alias": "the-green-bean-northampton", "name": "The Green Bean", "image_url": "https://s3-media2.fl.yelpcdn.com/bphoto/zBW0YIvmXWDY4nFYVQVy9Q/o.jpg", "is_closed": false, "url": "https://www.yelp.com/biz/the-green-bean-northampton?adjust_creative=wVJJqwOt_3apsoGmwgRWnw&utm_campaign=yelp_api_v3&utm_medium=api_v3_business_search&utm_source=wVJJqwOt_3apsoGmwgRWnw", "review_count": 213, "categories": [{"alias": "breakfast_brunch", "title": "Breakfast & Brunch"}], "rating": 4.0, "coordinates": {"latitude": 42.31802, "longitude": -72.63279}, "transactions": ["delivery"], "price": "$$", "location": {"address1": "241 Main St", "address2": "", "address3": "", "city": "Northampton", "zip_code": "01060", "country": "US", "state": "MA", "display_address": ["241 Main St", "Northampton, MA 01060"]}, "phone": "+14135842326", "display_phone": "(413) 584-2326", "distance": 7797.590811106924}, {"id": "-bEks6gb0Fhnje6r5F7i6w", "alias": "teapot-restaurant-northampton", "name": "Teapot Restaurant", "image_url": "https://s3-media4.fl.yelpcdn.com/bphoto/wp9UqZTHOVOTpKWf8kb-Jw/o.jpg", "is_closed": false, "url": "https://www.yelp.com/biz/teapot-restaurant-northampton?adjust_creative=wVJJqwOt_3apsoGmwgRWnw&utm_campaign=yelp_api_v3&utm_medium=api_v3_business_search&utm_source=wVJJqwOt_3apsoGmwgRWnw", "review_count": 128, "categories": [{"alias": "sushi", "title": "Sushi Bars"}, {"alias": "japanese", "title": "Japanese"}, {"alias": "chinese", "title": "Chinese"}], "rating": 2.5, "coordinates": {"latitude": 42.31876, "longitude": -72.6303}, "transactions": ["delivery"], "price": "$$", "location": {"address1": "116 Main St", "address2": "", "address3": "", "city": "Northampton", "zip_code": "01060", "country": "US", "state": "MA", "display_address": ["116 Main St", "Northampton, MA 01060"]}, "phone": "+14135859308", "display_phone": "(413) 585-9308", "distance": 7755.308064876897}, {"id": "sHu2khcNR7edvPY7eMI3hg", "alias": "chipotle-mexican-grill-hadley", "name": "Chipotle Mexican Grill", "image_url": "https://s3-media3.fl.yelpcdn.com/bphoto/R_v7GvkdY-S9TGY50l8Urw/o.jpg", "is_closed": false, "url": "https://www.yelp.com/biz/chipotle-mexican-grill-hadley?adjust_creative=wVJJqwOt_3apsoGmwgRWnw&utm_campaign=yelp_api_v3&utm_medium=api_v3_business_search&utm_source=wVJJqwOt_3apsoGmwgRWnw", "review_count": 48, "categories": [{"alias": "mexican", "title": "Mexican"}, {"alias": "hotdogs", "title": "Fast Food"}], "rating": 2.5, "coordinates": {"latitude": 42.3566126078367, "longitude": -72.5532884895802}, "transactions": [], "price": "$", "location": {"address1": "334 Russell St", "address2": "", "address3": "", "city": "Hadley", "zip_code": "01035", "country": "US", "state": "MA", "display_address": ["334 Russell St", "Hadley, MA 01035"]}, "phone": "+14135879888", "display_phone": "(413) 587-9888", "distance": 8467.941407846432}, {"id": "5pEpiQRinAOsVieV7vqXHA", "alias": "moes-southwest-grill-northhampton", "name": "Moe's Southwest Grill", "image_url": "https://s3-media2.fl.yelpcdn.com/bphoto/AO9aZEL7DxbBbH5MIFpxXQ/o.jpg", "is_closed": false, "url": "https://www.yelp.com/biz/moes-southwest-grill-northhampton?adjust_creative=wVJJqwOt_3apsoGmwgRWnw&utm_campaign=yelp_api_v3&utm_medium=api_v3_business_search&utm_source=wVJJqwOt_3apsoGmwgRWnw", "review_count": 19, "categories": [{"alias": "mexican", "title": "Mexican"}, {"alias": "tex-mex", "title": "Tex-Mex"}], "rating": 2.5, "coordinates": {"latitude": 42.3290630176772, "longitude": -72.6352741055095}, "transactions": ["pickup", "delivery"], "price": "$", "location": {"address1": "228 King St", "address2": "", "address3": "", "city": "Northhampton", "zip_code": "01060", "country": "US", "state": "MA", "display_address": ["228 King St", "Northhampton, MA 01060"]}, "phone": "+14133876292", "display_phone": "(413) 387-6292", "distance": 6554.089614788899}, {"id": "pdoNdba03NXOdhaDIFkKcg", "alias": "taco-bell-hadley-2", "name": "Taco Bell", "image_url": "https://s3-media3.fl.yelpcdn.com/bphoto/de8hGnyx0GvBnl1uDq9fkQ/o.jpg", "is_closed": false, "url": "https://www.yelp.com/biz/taco-bell-hadley-2?adjust_creative=wVJJqwOt_3apsoGmwgRWnw&utm_campaign=yelp_api_v3&utm_medium=api_v3_business_search&utm_source=wVJJqwOt_3apsoGmwgRWnw", "review_count": 21, "categories": [{"alias": "hotdogs", "title": "Fast Food"}, {"alias": "tacos", "title": "Tacos"}], "rating": 3.0, "coordinates": {"latitude": 42.358228, "longitude": -72.551169}, "transactions": ["delivery"], "price": "$", "location": {"address1": "348 Russell Street", "address2": "", "address3": "", "city": "Hadley", "zip_code": "01035", "country": "US", "state": "MA", "display_address": ["348 Russell Street", "Hadley, MA 01035"]}, "phone": "+14135842391", "display_phone": "(413) 584-2391", "distance": 8617.455648577446}, {"id": "RJsTZN7pEG9hSgvJsgtShQ", "alias": "mimmos-northampton", "name": "Mimmo's", "image_url": "https://s3-media3.fl.yelpcdn.com/bphoto/Y1DShq2wJvy8ZoLF9PA6NA/o.jpg", "is_closed": false, "url": "https://www.yelp.com/biz/mimmos-northampton?adjust_creative=wVJJqwOt_3apsoGmwgRWnw&utm_campaign=yelp_api_v3&utm_medium=api_v3_business_search&utm_source=wVJJqwOt_3apsoGmwgRWnw", "review_count": 96, "categories": [{"alias": "pizza", "title": "Pizza"}], "rating": 3.5, "coordinates": {"latitude": 42.318622, "longitude": -72.628813}, "transactions": ["delivery"], "price": "$", "location": {"address1": "71 Pleasant St", "address2": null, "address3": "", "city": "Northampton", "zip_code": "01060", "country": "US", "state": "MA", "display_address": ["71 Pleasant St", "Northampton, MA 01060"]}, "phone": "+14135841711", "display_phone": "(413) 584-1711", "distance": 7793.98063943442}, {"id": "TDmkjt1EK41Hz118WZC8QQ", "alias": "pizza-amore-northampton", "name": "Pizza Amore", "image_url": "https://s3-media1.fl.yelpcdn.com/bphoto/8WnrnH8Q1LQNRMiSGEd-cQ/o.jpg", "is_closed": false, "url": "https://www.yelp.com/biz/pizza-amore-northampton?adjust_creative=wVJJqwOt_3apsoGmwgRWnw&utm_campaign=yelp_api_v3&utm_medium=api_v3_business_search&utm_source=wVJJqwOt_3apsoGmwgRWnw", "review_count": 45, "categories": [{"alias": "pizza", "title": "Pizza"}, {"alias": "sandwiches", "title": "Sandwiches"}], "rating": 3.0, "coordinates": {"latitude": 42.3167932033539, "longitude": -72.6367682218552}, "transactions": ["delivery"], "price": "$$", "location": {"address1": "18 Green St", "address2": "", "address3": "", "city": "Northampton", "zip_code": "01060", "country": "US", "state": "MA", "display_address": ["18 Green St", "Northampton, MA 01060"]}, "phone": "+14135865443", "display_phone": "(413) 586-5443", "distance": 7893.715156234605}, {"id": "ohN09D6g0N0jd6Jc8uQntA", "alias": "subway-hadley-5", "name": "Subway", "image_url": "https://s3-media2.fl.yelpcdn.com/bphoto/ZO0vcbzgn-lwDtJDZAxVjQ/o.jpg", "is_closed": false, "url": "https://www.yelp.com/biz/subway-hadley-5?adjust_creative=wVJJqwOt_3apsoGmwgRWnw&utm_campaign=yelp_api_v3&utm_medium=api_v3_business_search&utm_source=wVJJqwOt_3apsoGmwgRWnw", "review_count": 2, "categories": [{"alias": "sandwiches", "title": "Sandwiches"}], "rating": 3.5, "coordinates": {"latitude": 42.3545338025272, "longitude": -72.5526640950219}, "transactions": ["pickup", "delivery"], "price": "$", "location": {"address1": "337 Russell St", "address2": null, "address3": null, "city": "Hadley", "zip_code": "01035", "country": "US", "state": "MA", "display_address": ["337 Russell St", "Hadley, MA 01035"]}, "phone": "+14135850670", "display_phone": "(413) 585-0670", "distance": 8667.796559438335}, {"id": "rT2OyIaXeJUgas7HRL-8NA", "alias": "subway-restaurants-hadley", "name": "Subway Restaurants", "image_url": "https://s3-media2.fl.yelpcdn.com/bphoto/XL-9dntDsQHr9nVLqm73eA/o.jpg", "is_closed": false, "url": "https://www.yelp.com/biz/subway-restaurants-hadley?adjust_creative=wVJJqwOt_3apsoGmwgRWnw&utm_campaign=yelp_api_v3&utm_medium=api_v3_business_search&utm_source=wVJJqwOt_3apsoGmwgRWnw", "review_count": 1, "categories": [{"alias": "sandwiches", "title": "Sandwiches"}], "rating": 3.0, "coordinates": {"latitude": 42.3559343, "longitude": -72.5475663}, "transactions": ["pickup", "delivery"], "price": "$", "location": {"address1": "367 Russell St", "address2": "Ste C-15", "address3": null, "city": "Hadley", "zip_code": "01035", "country": "US", "state": "MA", "display_address": ["367 Russell St", "Ste C-15", "Hadley, MA 01035"]}, "phone": "+14135843577", "display_phone": "(413) 584-3577", "distance": 8988.309180758954}, {"id": "GoXAJHnlxZOEsDz6B1bq5Q", "alias": "mcdonalds-northampton", "name": "McDonald's", "image_url": "https://s3-media1.fl.yelpcdn.com/bphoto/a37-H75XxlZ67B-ion-fxg/o.jpg", "is_closed": false, "url": "https://www.yelp.com/biz/mcdonalds-northampton?adjust_creative=wVJJqwOt_3apsoGmwgRWnw&utm_campaign=yelp_api_v3&utm_medium=api_v3_business_search&utm_source=wVJJqwOt_3apsoGmwgRWnw", "review_count": 14, "categories": [{"alias": "burgers", "title": "Burgers"}, {"alias": "hotdogs", "title": "Fast Food"}, {"alias": "coffee", "title": "Coffee & Tea"}], "rating": 2.0, "coordinates": {"latitude": 42.328905, "longitude": -72.633183}, "transactions": [], "price": "$", "location": {"address1": "221 King St", "address2": "", "address3": "", "city": "Northampton", "zip_code": "01060", "country": "US", "state": "MA", "display_address": ["221 King St", "Northampton, MA 01060"]}, "phone": "+14135845073", "display_phone": "(413) 584-5073", "distance": 6601.940324811564}, {"id": "azE-p_Ps4Jnkn1A7WLgZgQ", "alias": "burger-king-northampton-4", "name": "Burger King", "image_url": "https://s3-media4.fl.yelpcdn.com/bphoto/quns-LYeDXeSwPKxluOceQ/o.jpg", "is_closed": false, "url": "https://www.yelp.com/biz/burger-king-northampton-4?adjust_creative=wVJJqwOt_3apsoGmwgRWnw&utm_campaign=yelp_api_v3&utm_medium=api_v3_business_search&utm_source=wVJJqwOt_3apsoGmwgRWnw", "review_count": 12, "categories": [{"alias": "hotdogs", "title": "Fast Food"}, {"alias": "burgers", "title": "Burgers"}], "rating": 3.0, "coordinates": {"latitude": 42.3352620260997, "longitude": -72.6369651608791}, "transactions": ["delivery"], "price": "$", "location": {"address1": "344 King Street", "address2": "", "address3": "", "city": "Northampton", "zip_code": "01060", "country": "US", "state": "MA", "display_address": ["344 King Street", "Northampton, MA 01060"]}, "phone": "+14135846376", "display_phone": "(413) 584-6376", "distance": 5851.341426379963}, {"id": "FHpyc_11CosrtIvcGUIOYQ", "alias": "brueggers-bagels-northampton-2", "name": "Bruegger's Bagels", "image_url": "https://s3-media3.fl.yelpcdn.com/bphoto/yVWa_awCdqel989h5w1WDg/o.jpg", "is_closed": false, "url": "https://www.yelp.com/biz/brueggers-bagels-northampton-2?adjust_creative=wVJJqwOt_3apsoGmwgRWnw&utm_campaign=yelp_api_v3&utm_medium=api_v3_business_search&utm_source=wVJJqwOt_3apsoGmwgRWnw", "review_count": 33, "categories": [{"alias": "bagels", "title": "Bagels"}, {"alias": "breakfast_brunch", "title": "Breakfast & Brunch"}, {"alias": "sandwiches", "title": "Sandwiches"}], "rating": 2.5, "coordinates": {"latitude": 42.31898, "longitude": -72.62999}, "transactions": [], "price": "$", "location": {"address1": "96 Main St", "address2": "", "address3": "", "city": "Northampton", "zip_code": "01060", "country": "US", "state": "MA", "display_address": ["96 Main St", "Northampton, MA 01060"]}, "phone": "+14135850275", "display_phone": "(413) 585-0275", "distance": 7730.467895358341}, {"id": "CoEhkPOvvdyea7dz0SpyMQ", "alias": "kfc-northampton-6", "name": "KFC", "image_url": "https://s3-media2.fl.yelpcdn.com/bphoto/yyTG2RIYyHn-Om-kCEbkxA/o.jpg", "is_closed": false, "url": "https://www.yelp.com/biz/kfc-northampton-6?adjust_creative=wVJJqwOt_3apsoGmwgRWnw&utm_campaign=yelp_api_v3&utm_medium=api_v3_business_search&utm_source=wVJJqwOt_3apsoGmwgRWnw", "review_count": 8, "categories": [{"alias": "hotdogs", "title": "Fast Food"}, {"alias": "chicken_wings", "title": "Chicken Wings"}, {"alias": "chickenshop", "title": "Chicken Shop"}], "rating": 1.5, "coordinates": {"latitude": 42.3284978465264, "longitude": -72.6331302619886}, "transactions": [], "price": "$", "location": {"address1": "203 King St", "address2": null, "address3": null, "city": "Northampton", "zip_code": "01060", "country": "US", "state": "MA", "display_address": ["203 King St", "Northampton, MA 01060"]}, "phone": "+14135820271", "display_phone": "(413) 582-0271", "distance": 6647.213469331194}, {"id": "0p8H5orIBw7Ba-a4czpzhA", "alias": "mcdonalds-hadley", "name": "McDonald's", "image_url": "https://s3-media2.fl.yelpcdn.com/bphoto/cvUP4skZ7jwsuynnXX52Yg/o.jpg", "is_closed": false, "url": "https://www.yelp.com/biz/mcdonalds-hadley?adjust_creative=wVJJqwOt_3apsoGmwgRWnw&utm_campaign=yelp_api_v3&utm_medium=api_v3_business_search&utm_source=wVJJqwOt_3apsoGmwgRWnw", "review_count": 21, "categories": [{"alias": "hotdogs", "title": "Fast Food"}, {"alias": "burgers", "title": "Burgers"}, {"alias": "coffee", "title": "Coffee & Tea"}], "rating": 3.0, "coordinates": {"latitude": 42.358855090675, "longitude": -72.549741268158}, "transactions": [], "price": "$", "location": {"address1": "374 Russell St", "address2": "", "address3": "", "city": "Hadley", "zip_code": "01035", "country": "US", "state": "MA", "display_address": ["374 Russell St", "Hadley, MA 01035"]}, "phone": "+14135820176", "display_phone": "(413) 582-0176", "distance": 8700.818465853501}, {"id": "nF8R1_vtuVntHLpUN3UoVg", "alias": "wendys-hadley", "name": "Wendy's", "image_url": "https://s3-media4.fl.yelpcdn.com/bphoto/R-xzUZQ03uv1D78-sVBY9A/o.jpg", "is_closed": false, "url": "https://www.yelp.com/biz/wendys-hadley?adjust_creative=wVJJqwOt_3apsoGmwgRWnw&utm_campaign=yelp_api_v3&utm_medium=api_v3_business_search&utm_source=wVJJqwOt_3apsoGmwgRWnw", "review_count": 18, "categories": [{"alias": "hotdogs", "title": "Fast Food"}, {"alias": "burgers", "title": "Burgers"}], "rating": 1.5, "coordinates": {"latitude": 42.359309, "longitude": -72.548843}, "transactions": ["delivery"], "price": "$", "location": {"address1": "376 Russell Street", "address2": "", "address3": "", "city": "Hadley", "zip_code": "01035", "country": "US", "state": "MA", "display_address": ["376 Russell Street", "Hadley, MA 01035"]}, "phone": "+14135173968", "display_phone": "(413) 517-3968", "distance": 8749.169583279141}, {"id": "0IR0wkVdQpNwpIR6Om0t4g", "alias": "riffs-cafe-northampton", "name": "Riff's Cafe", "image_url": "", "is_closed": false, "url": "https://www.yelp.com/biz/riffs-cafe-northampton?adjust_creative=wVJJqwOt_3apsoGmwgRWnw&utm_campaign=yelp_api_v3&utm_medium=api_v3_business_search&utm_source=wVJJqwOt_3apsoGmwgRWnw", "review_count": 1, "categories": [{"alias": "sandwiches", "title": "Sandwiches"}, {"alias": "coffee", "title": "Coffee & Tea"}], "rating": 1.0, "coordinates": {"latitude": 42.3175163269043, "longitude": -72.6303482055664}, "transactions": [], "location": {"address1": "Smith College Museum Of Art", "address2": "", "address3": "Elm St at Bedford Ter  N", "city": "Northampton", "zip_code": "01060", "country": "US", "state": "MA", "display_address": ["Smith College Museum Of Art", "Elm St at Bedford Ter  N", "Northampton, MA 01060"]}, "phone": "+14135853115", "display_phone": "(413) 585-3115", "distance": 7702.262488183386}, {"id": "AvX3GO9N1qP090KJwtk_Tw", "alias": "dominos-pizza-northampton", "name": "Domino's Pizza", "image_url": "", "is_closed": false, "url": "https://www.yelp.com/biz/dominos-pizza-northampton?adjust_creative=wVJJqwOt_3apsoGmwgRWnw&utm_campaign=yelp_api_v3&utm_medium=api_v3_business_search&utm_source=wVJJqwOt_3apsoGmwgRWnw", "review_count": 11, "categories": [{"alias": "pizza", "title": "Pizza"}, {"alias": "chicken_wings", "title": "Chicken Wings"}, {"alias": "sandwiches", "title": "Sandwiches"}], "rating": 2.5, "coordinates": {"latitude": 42.3305154525782, "longitude": -72.6334936484999}, "transactions": [], "price": "$", "location": {"address1": "241 King St", "address2": "Ste 115", "address3": "", "city": "Northampton", "zip_code": "01060", "country": "US", "state": "MA", "display_address": ["241 King St", "Ste 115", "Northampton, MA 01060"]}, "phone": "+14135842111", "display_phone": "(413) 584-2111", "distance": 6421.284046441022}, {"id": "IIrpdObyEoQBS3Foh2c95A", "alias": "taco-bell-northampton", "name": "Taco Bell", "image_url": "https://s3-media4.fl.yelpcdn.com/bphoto/NOZkj5vogjnw6Jo-px6GtQ/o.jpg", "is_closed": false, "url": "https://www.yelp.com/biz/taco-bell-northampton?adjust_creative=wVJJqwOt_3apsoGmwgRWnw&utm_campaign=yelp_api_v3&utm_medium=api_v3_business_search&utm_source=wVJJqwOt_3apsoGmwgRWnw", "review_count": 21, "categories": [{"alias": "hotdogs", "title": "Fast Food"}, {"alias": "tacos", "title": "Tacos"}], "rating": 2.0, "coordinates": {"latitude": 42.328505, "longitude": -72.63312}, "transactions": ["delivery"], "price": "$", "location": {"address1": "203 King Street", "address2": null, "address3": null, "city": "Northampton", "zip_code": "01060", "country": "US", "state": "MA", "display_address": ["203 King Street", "Northampton, MA 01060"]}, "phone": "+14135820271", "display_phone": "(413) 582-0271", "distance": 6645.477240258075}, {"id": "qqA8YX58xnmEXLyanHfdUg", "alias": "stufd-food-truck-brooklyn", "name": "Stuf'd Food Truck", "image_url": "https://s3-media2.fl.yelpcdn.com/bphoto/_Wn0i-tLIOFinw8BPAqxPA/o.jpg", "is_closed": false, "url": "https://www.yelp.com/biz/stufd-food-truck-brooklyn?adjust_creative=wVJJqwOt_3apsoGmwgRWnw&utm_campaign=yelp_api_v3&utm_medium=api_v3_business_search&utm_source=wVJJqwOt_3apsoGmwgRWnw", "review_count": 4, "categories": [{"alias": "sandwiches", "title": "Sandwiches"}, {"alias": "foodtrucks", "title": "Food Trucks"}], "rating": 4.0, "coordinates": {"latitude": 40.7124539, "longitude": -73.9287374}, "transactions": [], "location": {"address1": "178 Varick Ave", "address2": "", "address3": null, "city": "Brooklyn", "zip_code": "11237", "country": "US", "state": "NY", "display_address": ["178 Varick Ave", "Brooklyn, NY 11237"]}, "phone": "+18457091808", "display_phone": "(845) 709-1808", "distance": 214537.51142039307}]