[{"id": "uoZFLAnQfFopcPaUC2vX1g", "alias": "nadims-downtown-mediterranean-grill-springfield-3", "name": "Nadim's Downtown Mediterranean Grill", "image_url": "https://s3-media1.fl.yelpcdn.com/bphoto/5NjM6Vl6wRp77g03Kf9LgQ/o.jpg", "is_closed": false, "url": "https://www.yelp.com/biz/nadims-downtown-mediterranean-grill-springfield-3?adjust_creative=wVJJqwOt_3apsoGmwgRWnw&utm_campaign=yelp_api_v3&utm_medium=api_v3_business_search&utm_source=wVJJqwOt_3apsoGmwgRWnw", "review_count": 177, "categories": [{"alias": "mediterranean", "title": "Mediterranean"}, {"alias": "lebanese", "title": "Lebanese"}], "rating": 4.0, "coordinates": {"latitude": 42.10229, "longitude": -72.59}, "transactions": ["pickup", "delivery", "restaurant_reservation"], "price": "$$", "location": {"address1": "1390 Main St", "address2": null, "address3": "", "city": "Springfield", "zip_code": "01103", "country": "US", "state": "MA", "display_address": ["1390 Main St", "Springfield, MA 01103"]}, "phone": "+14137377373", "display_phone": "(413) 737-7373", "distance": 768.4140427137077}, {"id": "glj2EqPtInlYmC73dASY5Q", "alias": "theodores-booze-blues-and-bbq-springfield", "name": "Theodore's Booze Blues & BBQ", "image_url": "https://s3-media1.fl.yelpcdn.com/bphoto/ye2zfJ5Dnpqax2_j7Gvj_A/o.jpg", "is_closed": false, "url": "https://www.yelp.com/biz/theodores-booze-blues-and-bbq-springfield?adjust_creative=wVJJqwOt_3apsoGmwgRWnw&utm_campaign=yelp_api_v3&utm_medium=api_v3_business_search&utm_source=wVJJqwOt_3apsoGmwgRWnw", "review_count": 524, "categories": [{"alias": "bbq", "title": "Barbeque"}, {"alias": "jazzandblues", "title": "Jazz & Blues"}, {"alias": "bars", "title": "Bars"}], "rating": 4.5, "coordinates": {"latitude": 42.1041412353516, "longitude": -72.592041015625}, "transactions": ["delivery"], "price": "$$", "location": {"address1": "201 Worthington St", "address2": "", "address3": "", "city": "Springfield", "zip_code": "01103", "country": "US", "state": "MA", "display_address": ["201 Worthington St", "Springfield, MA 01103"]}, "phone": "+14137366000", "display_phone": "(413) 736-6000", "distance": 529.8273009212136}, {"id": "GlxVHKd0H1pjjUXPRBVPCA", "alias": "chef-waynes-big-mamou-springfield-2", "name": "Chef Wayne's Big Mamou", "image_url": "https://s3-media2.fl.yelpcdn.com/bphoto/bkxTTcFyA44BWB0uHDd2tg/o.jpg", "is_closed": false, "url": "https://www.yelp.com/biz/chef-waynes-big-mamou-springfield-2?adjust_creative=wVJJqwOt_3apsoGmwgRWnw&utm_campaign=yelp_api_v3&utm_medium=api_v3_business_search&utm_source=wVJJqwOt_3apsoGmwgRWnw", "review_count": 473, "categories": [{"alias": "cajun", "title": "Cajun/Creole"}], "rating": 4.5, "coordinates": {"latitude": 42.1063652646148, "longitude": -72.5954923619712}, "transactions": [], "price": "$$", "location": {"address1": "63 Liberty St", "address2": "", "address3": "", "city": "Springfield", "zip_code": "01103", "country": "US", "state": "MA", "display_address": ["63 Liberty St", "Springfield, MA 01103"]}, "phone": "+14137321011", "display_phone": "(413) 732-1011", "distance": 226.16117174833832}, {"id": "FjImeE0Eptdz5PhUrRiPXQ", "alias": "taste-of-lebanon-west-springfield", "name": "Taste of Lebanon", "image_url": "https://s3-media2.fl.yelpcdn.com/bphoto/BHw4GaaStFF2vkJDheALSQ/o.jpg", "is_closed": false, "url": "https://www.yelp.com/biz/taste-of-lebanon-west-springfield?adjust_creative=wVJJqwOt_3apsoGmwgRWnw&utm_campaign=yelp_api_v3&utm_medium=api_v3_business_search&utm_source=wVJJqwOt_3apsoGmwgRWnw", "review_count": 300, "categories": [{"alias": "desserts", "title": "Desserts"}, {"alias": "mediterranean", "title": "Mediterranean"}, {"alias": "lebanese", "title": "Lebanese"}], "rating": 4.5, "coordinates": {"latitude": 42.1019861, "longitude": -72.6087658}, "transactions": ["pickup", "delivery"], "price": "$", "location": {"address1": "553 Main St", "address2": "", "address3": "", "city": "West Springfield", "zip_code": "01089", "country": "US", "state": "MA", "display_address": ["553 Main St", "West Springfield, MA 01089"]}, "phone": "+14133630414", "display_phone": "(413) 363-0414", "distance": 975.7083518159792}, {"id": "K3DiUWJ0UBKpGVLIWBETXw", "alias": "student-prince-cafe-and-fort-restaurant-springfield-2", "name": "Student Prince Cafe And Fort Restaurant", "image_url": "https://s3-media4.fl.yelpcdn.com/bphoto/Vp18qTdt0ntZS-9W6dk-IA/o.jpg", "is_closed": false, "url": "https://www.yelp.com/biz/student-prince-cafe-and-fort-restaurant-springfield-2?adjust_creative=wVJJqwOt_3apsoGmwgRWnw&utm_campaign=yelp_api_v3&utm_medium=api_v3_business_search&utm_source=wVJJqwOt_3apsoGmwgRWnw", "review_count": 313, "categories": [{"alias": "german", "title": "German"}, {"alias": "tradamerican", "title": "American (Traditional)"}, {"alias": "bars", "title": "Bars"}], "rating": 4.0, "coordinates": {"latitude": 42.1031436, "longitude": -72.5943831}, "transactions": ["delivery"], "price": "$$", "location": {"address1": "8 Fort St", "address2": null, "address3": null, "city": "Springfield", "zip_code": "01103", "country": "US", "state": "MA", "display_address": ["8 Fort St", "Springfield, MA 01103"]}, "phone": "+14137347475", "display_phone": "(413) 734-7475", "distance": 426.1632392228697}, {"id": "zQ99spImDikWqsSFF_hnrg", "alias": "red-rose-springfield", "name": "Red Rose", "image_url": "https://s3-media3.fl.yelpcdn.com/bphoto/Lb150W58C0N0yVlcPpouIA/o.jpg", "is_closed": false, "url": "https://www.yelp.com/biz/red-rose-springfield?adjust_creative=wVJJqwOt_3apsoGmwgRWnw&utm_campaign=yelp_api_v3&utm_medium=api_v3_business_search&utm_source=wVJJqwOt_3apsoGmwgRWnw", "review_count": 437, "categories": [{"alias": "pizza", "title": "Pizza"}, {"alias": "italian", "title": "Italian"}, {"alias": "soup", "title": "Soup"}], "rating": 4.0, "coordinates": {"latitude": 42.0995144, "longitude": -72.5852145}, "transactions": ["delivery"], "price": "$$", "location": {"address1": "1060 Main St", "address2": "", "address3": null, "city": "Springfield", "zip_code": "01103", "country": "US", "state": "MA", "display_address": ["1060 Main St", "Springfield, MA 01103"]}, "phone": "+14137398510", "display_phone": "(413) 739-8510", "distance": 1248.0080842513153}, {"id": "TVXuwgDTKcYUD2-gTbi1LA", "alias": "family-nepali-and-indian-cuisine-west-springfield", "name": "Family Nepali and Indian Cuisine", "image_url": "https://s3-media2.fl.yelpcdn.com/bphoto/rpD6Aq10NYKnsyxZE1OnVA/o.jpg", "is_closed": false, "url": "https://www.yelp.com/biz/family-nepali-and-indian-cuisine-west-springfield?adjust_creative=wVJJqwOt_3apsoGmwgRWnw&utm_campaign=yelp_api_v3&utm_medium=api_v3_business_search&utm_source=wVJJqwOt_3apsoGmwgRWnw", "review_count": 12, "categories": [{"alias": "himalayan", "title": "Himalayan/Nepalese"}, {"alias": "indpak", "title": "Indian"}], "rating": 5.0, "coordinates": {"latitude": 42.098388, "longitude": -72.602319}, "transactions": ["pickup", "delivery"], "location": {"address1": "977 a Main St", "address2": null, "address3": "", "city": "West Springfield", "zip_code": "01089", "country": "US", "state": "MA", "display_address": ["977 a Main St", "West Springfield, MA 01089"]}, "phone": "+14132858706", "display_phone": "(413) 285-8706", "distance": 884.9792152701}, {"id": "scIRcvHOQQm3X7UVV4GESQ", "alias": "sun-kim-bop-restaurant-springfield-2", "name": "Sun Kim Bop - Restaurant", "image_url": "https://s3-media3.fl.yelpcdn.com/bphoto/N3GSu1JjBd4YunGY3xMP7w/o.jpg", "is_closed": false, "url": "https://www.yelp.com/biz/sun-kim-bop-restaurant-springfield-2?adjust_creative=wVJJqwOt_3apsoGmwgRWnw&utm_campaign=yelp_api_v3&utm_medium=api_v3_business_search&utm_source=wVJJqwOt_3apsoGmwgRWnw", "review_count": 60, "categories": [{"alias": "korean", "title": "Korean"}], "rating": 4.5, "coordinates": {"latitude": 42.10112, "longitude": -72.58784}, "transactions": ["pickup", "delivery"], "price": "$", "location": {"address1": "1244 Main St", "address2": "", "address3": null, "city": "Springfield", "zip_code": "01103", "country": "US", "state": "MA", "display_address": ["1244 Main St", "Springfield, MA 01103"]}, "phone": "+14134553932", "display_phone": "(413) 455-3932", "distance": 979.7216787154686}, {"id": "EIYT9_IP7olbOxAGYvnL3g", "alias": "barkaya-springfield-7", "name": "BarKaya", "image_url": "https://s3-media2.fl.yelpcdn.com/bphoto/CeJ191o2cfBx996i-H_BPA/o.jpg", "is_closed": false, "url": "https://www.yelp.com/biz/barkaya-springfield-7?adjust_creative=wVJJqwOt_3apsoGmwgRWnw&utm_campaign=yelp_api_v3&utm_medium=api_v3_business_search&utm_source=wVJJqwOt_3apsoGmwgRWnw", "review_count": 28, "categories": [{"alias": "sushi", "title": "Sushi Bars"}, {"alias": "ramen", "title": "Ramen"}, {"alias": "cocktailbars", "title": "Cocktail Bars"}], "rating": 4.0, "coordinates": {"latitude": 42.1051396858134, "longitude": -72.5914650410414}, "transactions": ["delivery"], "location": {"address1": "278 Worthington St", "address2": "", "address3": null, "city": "Springfield", "zip_code": "01103", "country": "US", "state": "MA", "display_address": ["278 Worthington St", "Springfield, MA 01103"]}, "phone": "+14137330000", "display_phone": "(413) 733-0000", "distance": 549.7651839987853}, {"id": "zu7oVgauvXaw0GjR-TMrcw", "alias": "nosh-restaurant-and-caf\u00e8-springfield", "name": "Nosh Restaurant and Caf\u00e8", "image_url": "https://s3-media2.fl.yelpcdn.com/bphoto/4moBBH3zYqUu3W3PEe3dzg/o.jpg", "is_closed": false, "url": "https://www.yelp.com/biz/nosh-restaurant-and-caf%C3%A8-springfield?adjust_creative=wVJJqwOt_3apsoGmwgRWnw&utm_campaign=yelp_api_v3&utm_medium=api_v3_business_search&utm_source=wVJJqwOt_3apsoGmwgRWnw", "review_count": 18, "categories": [{"alias": "cafes", "title": "Cafes"}, {"alias": "sandwiches", "title": "Sandwiches"}, {"alias": "salad", "title": "Salad"}], "rating": 5.0, "coordinates": {"latitude": 42.1022, "longitude": -72.58899}, "transactions": ["delivery"], "location": {"address1": "1341 Main St", "address2": null, "address3": "", "city": "Springfield", "zip_code": "01103", "country": "US", "state": "MA", "display_address": ["1341 Main St", "Springfield, MA 01103"]}, "phone": "+14132371822", "display_phone": "(413) 237-1822", "distance": 852.2761311579308}, {"id": "SdTi833EjUg-Cn8ZxdZ20A", "alias": "panjabi-tadka-springfield", "name": "Panjabi Tadka", "image_url": "https://s3-media1.fl.yelpcdn.com/bphoto/7QQuYtTwtk9AURSMroy6BQ/o.jpg", "is_closed": false, "url": "https://www.yelp.com/biz/panjabi-tadka-springfield?adjust_creative=wVJJqwOt_3apsoGmwgRWnw&utm_campaign=yelp_api_v3&utm_medium=api_v3_business_search&utm_source=wVJJqwOt_3apsoGmwgRWnw", "review_count": 115, "categories": [{"alias": "indpak", "title": "Indian"}], "rating": 4.0, "coordinates": {"latitude": 42.10444592769, "longitude": -72.5946414470673}, "transactions": ["pickup", "delivery"], "price": "$$", "location": {"address1": "1688 Main St", "address2": "", "address3": "", "city": "Springfield", "zip_code": "01103", "country": "US", "state": "MA", "display_address": ["1688 Main St", "Springfield, MA 01103"]}, "phone": "+14137321453", "display_phone": "(413) 732-1453", "distance": 316.7417829490816}, {"id": "bJioFdeNHm1U4SJ1xmPlQA", "alias": "350-grill-springfield", "name": "350 Grill", "image_url": "https://s3-media3.fl.yelpcdn.com/bphoto/nIgQIkfjNtTibSuZZ7k7FA/o.jpg", "is_closed": false, "url": "https://www.yelp.com/biz/350-grill-springfield?adjust_creative=wVJJqwOt_3apsoGmwgRWnw&utm_campaign=yelp_api_v3&utm_medium=api_v3_business_search&utm_source=wVJJqwOt_3apsoGmwgRWnw", "review_count": 116, "categories": [{"alias": "newamerican", "title": "American (New)"}, {"alias": "steak", "title": "Steakhouses"}, {"alias": "italian", "title": "Italian"}], "rating": 3.5, "coordinates": {"latitude": 42.106073, "longitude": -72.590842}, "transactions": ["delivery"], "price": "$$", "location": {"address1": "350 Worthington St", "address2": "", "address3": "", "city": "Springfield", "zip_code": "01103", "country": "US", "state": "MA", "display_address": ["350 Worthington St", "Springfield, MA 01103"]}, "phone": "+14134390666", "display_phone": "(413) 439-0666", "distance": 598.9520927554571}, {"id": "ZPsA0mpC4vMmS9JjCQ8voA", "alias": "the-chandler-steakhouse-springfield", "name": "The Chandler Steakhouse", "image_url": "https://s3-media2.fl.yelpcdn.com/bphoto/eQme48293aSC-qGEbE41eQ/o.jpg", "is_closed": false, "url": "https://www.yelp.com/biz/the-chandler-steakhouse-springfield?adjust_creative=wVJJqwOt_3apsoGmwgRWnw&utm_campaign=yelp_api_v3&utm_medium=api_v3_business_search&utm_source=wVJJqwOt_3apsoGmwgRWnw", "review_count": 101, "categories": [{"alias": "steak", "title": "Steakhouses"}], "rating": 3.5, "coordinates": {"latitude": 42.100167, "longitude": -72.586214}, "transactions": [], "price": "$$$", "location": {"address1": "One MGM Way", "address2": null, "address3": null, "city": "Springfield", "zip_code": "01103", "country": "US", "state": "MA", "display_address": ["One MGM Way", "Springfield, MA 01103"]}, "phone": "+14132735420", "display_phone": "(413) 273-5420", "distance": 1156.9022922054032}, {"id": "oNIMMYFRYCyBtWdC4W3bCQ", "alias": "the-tent-restaurant-west-springfield", "name": "The Tent Restaurant", "image_url": "https://s3-media3.fl.yelpcdn.com/bphoto/wekmvI__TnhXymVVzO4Jtw/o.jpg", "is_closed": false, "url": "https://www.yelp.com/biz/the-tent-restaurant-west-springfield?adjust_creative=wVJJqwOt_3apsoGmwgRWnw&utm_campaign=yelp_api_v3&utm_medium=api_v3_business_search&utm_source=wVJJqwOt_3apsoGmwgRWnw", "review_count": 3, "categories": [{"alias": "mideastern", "title": "Middle Eastern"}], "rating": 4.5, "coordinates": {"latitude": 42.098408, "longitude": -72.6023192}, "transactions": [], "location": {"address1": "977B Main St", "address2": null, "address3": "", "city": "West Springfield", "zip_code": "01089", "country": "US", "state": "MA", "display_address": ["977B Main St", "West Springfield, MA 01089"]}, "phone": "+14133017077", "display_phone": "(413) 301-7077", "distance": 883.385653140573}, {"id": "x18AiyFtwzKesOQfFS8yew", "alias": "janna-mediterranean-grill-and-juice-bar-west-springfield", "name": "Janna Mediterranean Grill & Juice Bar", "image_url": "https://s3-media4.fl.yelpcdn.com/bphoto/lbA9cM8luvgRJFqGd-Y-vw/o.jpg", "is_closed": false, "url": "https://www.yelp.com/biz/janna-mediterranean-grill-and-juice-bar-west-springfield?adjust_creative=wVJJqwOt_3apsoGmwgRWnw&utm_campaign=yelp_api_v3&utm_medium=api_v3_business_search&utm_source=wVJJqwOt_3apsoGmwgRWnw", "review_count": 47, "categories": [{"alias": "mediterranean", "title": "Mediterranean"}, {"alias": "juicebars", "title": "Juice Bars & Smoothies"}, {"alias": "lebanese", "title": "Lebanese"}], "rating": 4.5, "coordinates": {"latitude": 42.09891, "longitude": -72.60855}, "transactions": ["pickup", "delivery"], "price": "$$", "location": {"address1": "751 Union St", "address2": "", "address3": null, "city": "West Springfield", "zip_code": "01089", "country": "US", "state": "MA", "display_address": ["751 Union St", "West Springfield, MA 01089"]}, "phone": "+14132737272", "display_phone": "(413) 273-7272", "distance": 1159.8901199635027}, {"id": "qh_Ctaa1_96vIQP0qVkHiQ", "alias": "queenies-island-cuisine-and-grill-springfield", "name": "Queenie's Island Cuisine and Grill", "image_url": "https://s3-media2.fl.yelpcdn.com/bphoto/bu1BiVIU2elZQsxAmJAQKQ/o.jpg", "is_closed": false, "url": "https://www.yelp.com/biz/queenies-island-cuisine-and-grill-springfield?adjust_creative=wVJJqwOt_3apsoGmwgRWnw&utm_campaign=yelp_api_v3&utm_medium=api_v3_business_search&utm_source=wVJJqwOt_3apsoGmwgRWnw", "review_count": 18, "categories": [{"alias": "caribbean", "title": "Caribbean"}], "rating": 4.0, "coordinates": {"latitude": 42.1044946825426, "longitude": -72.5920980423689}, "transactions": ["pickup", "delivery"], "price": "$", "location": {"address1": "220 Worthington St", "address2": "", "address3": "", "city": "Springfield", "zip_code": "01103", "country": "US", "state": "MA", "display_address": ["220 Worthington St", "Springfield, MA 01103"]}, "phone": "+14133639046", "display_phone": "(413) 363-9046", "distance": 511.9488331255105}, {"id": "GbSFMUlmh-f-xW4HGq7-dg", "alias": "ale-house-springfield-3", "name": "Ale House", "image_url": "https://s3-media1.fl.yelpcdn.com/bphoto/4aDKapfJTXxuOgtjhjR_ww/o.jpg", "is_closed": false, "url": "https://www.yelp.com/biz/ale-house-springfield-3?adjust_creative=wVJJqwOt_3apsoGmwgRWnw&utm_campaign=yelp_api_v3&utm_medium=api_v3_business_search&utm_source=wVJJqwOt_3apsoGmwgRWnw", "review_count": 3, "categories": [{"alias": "tradamerican", "title": "American (Traditional)"}], "rating": 5.0, "coordinates": {"latitude": 42.107811, "longitude": -72.5883789}, "transactions": [], "location": {"address1": "536 Worthington St", "address2": "", "address3": "", "city": "Springfield", "zip_code": "01105", "country": "US", "state": "MA", "display_address": ["536 Worthington St", "Springfield, MA 01105"]}, "phone": "+14137366969", "display_phone": "(413) 736-6969", "distance": 836.8163650147699}, {"id": "zz30qrP6sGQ9V9f0j0zSUQ", "alias": "costa-springfield", "name": "Costa", "image_url": "https://s3-media3.fl.yelpcdn.com/bphoto/g2WkwWYDjo3B6Mywbct2aw/o.jpg", "is_closed": false, "url": "https://www.yelp.com/biz/costa-springfield?adjust_creative=wVJJqwOt_3apsoGmwgRWnw&utm_campaign=yelp_api_v3&utm_medium=api_v3_business_search&utm_source=wVJJqwOt_3apsoGmwgRWnw", "review_count": 1, "categories": [{"alias": "italian", "title": "Italian"}, {"alias": "pizza", "title": "Pizza"}], "rating": 3.0, "coordinates": {"latitude": 42.09935, "longitude": -72.58702}, "transactions": [], "location": {"address1": "One Mgm Way", "address2": "", "address3": null, "city": "Springfield", "zip_code": "01103", "country": "US", "state": "MA", "display_address": ["One Mgm Way", "Springfield, MA 01103"]}, "phone": "+14132735000", "display_phone": "(413) 273-5000", "distance": 1149.9790939133443}, {"id": "mAWG4YohYbv--vaVVrqz4g", "alias": "revitalize-superfoods-springfield", "name": "Revitalize Superfoods", "image_url": "https://s3-media3.fl.yelpcdn.com/bphoto/GVc1cSO5YLkzDVDad-JTjA/o.jpg", "is_closed": false, "url": "https://www.yelp.com/biz/revitalize-superfoods-springfield?adjust_creative=wVJJqwOt_3apsoGmwgRWnw&utm_campaign=yelp_api_v3&utm_medium=api_v3_business_search&utm_source=wVJJqwOt_3apsoGmwgRWnw", "review_count": 2, "categories": [{"alias": "juicebars", "title": "Juice Bars & Smoothies"}, {"alias": "breakfast_brunch", "title": "Breakfast & Brunch"}, {"alias": "healthmarkets", "title": "Health Markets"}], "rating": 5.0, "coordinates": {"latitude": 42.10238, "longitude": -72.59196}, "transactions": ["pickup", "delivery"], "location": {"address1": "1500 Main St", "address2": "Fl 2, Ste 306", "address3": "Tower Square", "city": "Springfield", "zip_code": "01115", "country": "US", "state": "MA", "display_address": ["1500 Main St", "Fl 2, Ste 306", "Tower Square", "Springfield, MA 01115"]}, "phone": "+14133631187", "display_phone": "(413) 363-1187", "distance": 590.3980719754336}, {"id": "FWujJ9SVSxgPhbPV4kkDiQ", "alias": "hot-table-springfield", "name": "Hot Table", "image_url": "https://s3-media1.fl.yelpcdn.com/bphoto/RGSdFACtr60xsYblclr4QQ/o.jpg", "is_closed": false, "url": "https://www.yelp.com/biz/hot-table-springfield?adjust_creative=wVJJqwOt_3apsoGmwgRWnw&utm_campaign=yelp_api_v3&utm_medium=api_v3_business_search&utm_source=wVJJqwOt_3apsoGmwgRWnw", "review_count": 70, "categories": [{"alias": "sandwiches", "title": "Sandwiches"}], "rating": 4.0, "coordinates": {"latitude": 42.102816, "longitude": -72.592177}, "transactions": ["pickup", "delivery"], "price": "$", "location": {"address1": "1500 Main St", "address2": "", "address3": "", "city": "Springfield", "zip_code": "01103", "country": "US", "state": "MA", "display_address": ["1500 Main St", "Springfield, MA 01103"]}, "phone": "+14137311200", "display_phone": "(413) 731-1200", "distance": 583.7745740443938}, {"id": "T2I-BDEbYDZMymGqI1qfMA", "alias": "ahalna-foods-west-springfield", "name": "Ahalna Foods", "image_url": "https://s3-media4.fl.yelpcdn.com/bphoto/NvDjEHwvjo-WCIBsseTvqw/o.jpg", "is_closed": false, "url": "https://www.yelp.com/biz/ahalna-foods-west-springfield?adjust_creative=wVJJqwOt_3apsoGmwgRWnw&utm_campaign=yelp_api_v3&utm_medium=api_v3_business_search&utm_source=wVJJqwOt_3apsoGmwgRWnw", "review_count": 2, "categories": [{"alias": "mideastern", "title": "Middle Eastern"}], "rating": 4.5, "coordinates": {"latitude": 42.0989904552698, "longitude": -72.6036436110735}, "transactions": ["delivery"], "location": {"address1": "909 Main St", "address2": null, "address3": "", "city": "West Springfield", "zip_code": "01089", "country": "US", "state": "MA", "display_address": ["909 Main St", "West Springfield, MA 01089"]}, "phone": "+14133168428", "display_phone": "(413) 316-8428", "distance": 872.1421180139055}, {"id": "EZgA64Z5dC44i96YwR8Ayw", "alias": "le-souk-hookah-lounge-springfield-2", "name": "Le Souk Hookah Lounge", "image_url": "https://s3-media2.fl.yelpcdn.com/bphoto/vXNPgaSDoJuTx15CMGXctg/o.jpg", "is_closed": false, "url": "https://www.yelp.com/biz/le-souk-hookah-lounge-springfield-2?adjust_creative=wVJJqwOt_3apsoGmwgRWnw&utm_campaign=yelp_api_v3&utm_medium=api_v3_business_search&utm_source=wVJJqwOt_3apsoGmwgRWnw", "review_count": 22, "categories": [{"alias": "hookah_bars", "title": "Hookah Bars"}, {"alias": "lounges", "title": "Lounges"}, {"alias": "mediterranean", "title": "Mediterranean"}], "rating": 4.0, "coordinates": {"latitude": 42.1028827210832, "longitude": -72.5939935635566}, "transactions": ["delivery"], "price": "$$", "location": {"address1": "1 Worthington St", "address2": null, "address3": "", "city": "Springfield", "zip_code": "01105", "country": "US", "state": "MA", "display_address": ["1 Worthington St", "Springfield, MA 01105"]}, "phone": "+14133018262", "display_phone": "(413) 301-8262", "distance": 737.7480737829163}, {"id": "7A7xWF4V9KKrLKrto9LYdw", "alias": "jacks-lobster-shack-springfield", "name": "Jack's Lobster Shack", "image_url": "https://s3-media3.fl.yelpcdn.com/bphoto/t7IEQIs3s7GDUct2v5A7lg/o.jpg", "is_closed": false, "url": "https://www.yelp.com/biz/jacks-lobster-shack-springfield?adjust_creative=wVJJqwOt_3apsoGmwgRWnw&utm_campaign=yelp_api_v3&utm_medium=api_v3_business_search&utm_source=wVJJqwOt_3apsoGmwgRWnw", "review_count": 8, "categories": [{"alias": "seafood", "title": "Seafood"}], "rating": 3.0, "coordinates": {"latitude": 42.0983764, "longitude": -72.5884723}, "transactions": [], "location": {"address1": "One Mgm Way", "address2": "", "address3": null, "city": "Springfield", "zip_code": "01103", "country": "US", "state": "MA", "display_address": ["One Mgm Way", "Springfield, MA 01103"]}, "phone": "+14132735000", "display_phone": "(413) 273-5000", "distance": 1149.9790939133443}, {"id": "4bmbK1hXvwpGuj1WBZbhWA", "alias": "fantastico-wraps-and-salads-springfield", "name": "Fantastico Wraps & Salads", "image_url": "https://s3-media1.fl.yelpcdn.com/bphoto/5CyN60kCDdeTYm2wYh_lCg/o.jpg", "is_closed": false, "url": "https://www.yelp.com/biz/fantastico-wraps-and-salads-springfield?adjust_creative=wVJJqwOt_3apsoGmwgRWnw&utm_campaign=yelp_api_v3&utm_medium=api_v3_business_search&utm_source=wVJJqwOt_3apsoGmwgRWnw", "review_count": 3, "categories": [{"alias": "salad", "title": "Salad"}, {"alias": "wraps", "title": "Wraps"}], "rating": 5.0, "coordinates": {"latitude": 42.10301, "longitude": -72.59173}, "transactions": [], "location": {"address1": "1500 Main St", "address2": "", "address3": "", "city": "Springfield", "zip_code": "01115", "country": "US", "state": "MA", "display_address": ["1500 Main St", "Springfield, MA 01115"]}, "phone": "+14137327559", "display_phone": "(413) 732-7559", "distance": 590.3980719754336}, {"id": "RKBNGeAW8_BWebflMuJNtg", "alias": "chef-waynes-cajun-on-the-go-springfield", "name": "Chef Wayne's Cajun on the Go", "image_url": "https://s3-media3.fl.yelpcdn.com/bphoto/B4ielqUVcaT_9fwNFAcUgQ/o.jpg", "is_closed": false, "url": "https://www.yelp.com/biz/chef-waynes-cajun-on-the-go-springfield?adjust_creative=wVJJqwOt_3apsoGmwgRWnw&utm_campaign=yelp_api_v3&utm_medium=api_v3_business_search&utm_source=wVJJqwOt_3apsoGmwgRWnw", "review_count": 2, "categories": [{"alias": "cajun", "title": "Cajun/Creole"}], "rating": 4.5, "coordinates": {"latitude": 42.106107, "longitude": -72.590905}, "transactions": ["pickup", "delivery"], "location": {"address1": "350 Worthington St", "address2": "", "address3": null, "city": "Springfield", "zip_code": "01103", "country": "US", "state": "MA", "display_address": ["350 Worthington St", "Springfield, MA 01103"]}, "phone": "+14134177050", "display_phone": "(413) 417-7050", "distance": 575.6276998933926}, {"id": "iD7ewYbUfBkkKfaLcm_QzA", "alias": "wicked-noodles-at-mgm-springfield-springfield", "name": "Wicked Noodles at MGM Springfield", "image_url": "https://s3-media3.fl.yelpcdn.com/bphoto/NgFLyQa-iIv_y_oCkeSq9g/o.jpg", "is_closed": false, "url": "https://www.yelp.com/biz/wicked-noodles-at-mgm-springfield-springfield?adjust_creative=wVJJqwOt_3apsoGmwgRWnw&utm_campaign=yelp_api_v3&utm_medium=api_v3_business_search&utm_source=wVJJqwOt_3apsoGmwgRWnw", "review_count": 23, "categories": [{"alias": "asianfusion", "title": "Asian Fusion"}, {"alias": "chinese", "title": "Chinese"}], "rating": 2.0, "coordinates": {"latitude": 42.0997326517027, "longitude": -72.5871610069352}, "transactions": [], "location": {"address1": "One Mgm Way", "address2": "", "address3": null, "city": "Springfield", "zip_code": "01103", "country": "US", "state": "MA", "display_address": ["One Mgm Way", "Springfield, MA 01103"]}, "phone": "+14132735000", "display_phone": "(413) 273-5000", "distance": 1119.5144215297933}, {"id": "tIDbnUn8gxTkIEYRfMkEtg", "alias": "le-greque-springfield", "name": "Le Greque", "image_url": "", "is_closed": false, "url": "https://www.yelp.com/biz/le-greque-springfield?adjust_creative=wVJJqwOt_3apsoGmwgRWnw&utm_campaign=yelp_api_v3&utm_medium=api_v3_business_search&utm_source=wVJJqwOt_3apsoGmwgRWnw", "review_count": 7, "categories": [{"alias": "greek", "title": "Greek"}], "rating": 5.0, "coordinates": {"latitude": 42.102406, "longitude": -72.591825}, "transactions": [], "price": "$", "location": {"address1": "1500 Main St", "address2": "", "address3": "", "city": "Springfield", "zip_code": "01115", "country": "US", "state": "MA", "display_address": ["1500 Main St", "Springfield, MA 01115"]}, "phone": "+14137367789", "display_phone": "(413) 736-7789", "distance": 633.4960409274831}, {"id": "32H7keN1CReV-ynzpVr2WA", "alias": "olympic-deli-restaurant-springfield", "name": "Olympic Deli Restaurant", "image_url": "https://s3-media3.fl.yelpcdn.com/bphoto/JNH0U6VnrsdiD3YMeM90dA/o.jpg", "is_closed": false, "url": "https://www.yelp.com/biz/olympic-deli-restaurant-springfield?adjust_creative=wVJJqwOt_3apsoGmwgRWnw&utm_campaign=yelp_api_v3&utm_medium=api_v3_business_search&utm_source=wVJJqwOt_3apsoGmwgRWnw", "review_count": 9, "categories": [{"alias": "puertorican", "title": "Puerto Rican"}, {"alias": "latin", "title": "Latin American"}, {"alias": "dominican", "title": "Dominican"}], "rating": 4.5, "coordinates": {"latitude": 42.1079940795898, "longitude": -72.5922317504883}, "transactions": ["pickup", "delivery"], "price": "$", "location": {"address1": "232 Chestnut St", "address2": "", "address3": "", "city": "Springfield", "zip_code": "01103", "country": "US", "state": "MA", "display_address": ["232 Chestnut St", "Springfield, MA 01103"]}, "phone": "+14137321600", "display_phone": "(413) 732-1600", "distance": 552.6588967986593}, {"id": "-12Aa1FrAJ3-ObSOIi-FAg", "alias": "blake-house-caf\u00e9-springfield", "name": "Blake House Caf\u00e9", "image_url": "https://s3-media1.fl.yelpcdn.com/bphoto/CmXjb2gzEKv_9fbEODrb4g/o.jpg", "is_closed": false, "url": "https://www.yelp.com/biz/blake-house-caf%C3%A9-springfield?adjust_creative=wVJJqwOt_3apsoGmwgRWnw&utm_campaign=yelp_api_v3&utm_medium=api_v3_business_search&utm_source=wVJJqwOt_3apsoGmwgRWnw", "review_count": 10, "categories": [{"alias": "cafes", "title": "Cafes"}], "rating": 4.0, "coordinates": {"latitude": 42.1046677431947, "longitude": -72.5866930101224}, "transactions": ["delivery"], "price": "$", "location": {"address1": "21 Edwards St", "address2": "", "address3": "", "city": "Springfield", "zip_code": "01103", "country": "US", "state": "MA", "display_address": ["21 Edwards St", "Springfield, MA 01103"]}, "phone": "+14137792199", "display_phone": "(413) 779-2199", "distance": 946.8912006225925}, {"id": "2R54SEWExk3s3ac5bcz4tg", "alias": "naismiths-pub-and-pretzel-springfield-2", "name": "Naismith's Pub & Pretzel", "image_url": "https://s3-media3.fl.yelpcdn.com/bphoto/BWys-rZoBfu4UgJBHqaN1w/o.jpg", "is_closed": false, "url": "https://www.yelp.com/biz/naismiths-pub-and-pretzel-springfield-2?adjust_creative=wVJJqwOt_3apsoGmwgRWnw&utm_campaign=yelp_api_v3&utm_medium=api_v3_business_search&utm_source=wVJJqwOt_3apsoGmwgRWnw", "review_count": 10, "categories": [{"alias": "pretzels", "title": "Pretzels"}, {"alias": "beerbar", "title": "Beer Bar"}, {"alias": "sandwiches", "title": "Sandwiches"}], "rating": 3.0, "coordinates": {"latitude": 42.1042300128922, "longitude": -72.5919300690293}, "transactions": ["delivery"], "location": {"address1": "211 Worthington St", "address2": "", "address3": null, "city": "Springfield", "zip_code": "01103", "country": "US", "state": "MA", "display_address": ["211 Worthington St", "Springfield, MA 01103"]}, "phone": "+14133424189", "display_phone": "(413) 342-4189", "distance": 533.631067922432}, {"id": "HqHRHeS8CK_aQd1mC_Tw0Q", "alias": "petra-lounge-springfield", "name": "Petra Lounge", "image_url": "https://s3-media2.fl.yelpcdn.com/bphoto/coApiUMjWZWHzhZ0XEt2uw/o.jpg", "is_closed": false, "url": "https://www.yelp.com/biz/petra-lounge-springfield?adjust_creative=wVJJqwOt_3apsoGmwgRWnw&utm_campaign=yelp_api_v3&utm_medium=api_v3_business_search&utm_source=wVJJqwOt_3apsoGmwgRWnw", "review_count": 39, "categories": [{"alias": "hookah_bars", "title": "Hookah Bars"}, {"alias": "lounges", "title": "Lounges"}, {"alias": "mediterranean", "title": "Mediterranean"}], "rating": 3.5, "coordinates": {"latitude": 42.10497, "longitude": -72.59181}, "transactions": ["pickup", "delivery"], "price": "$$", "location": {"address1": "270 Worthington St", "address2": null, "address3": "", "city": "Springfield", "zip_code": "01103", "country": "US", "state": "MA", "display_address": ["270 Worthington St", "Springfield, MA 01103"]}, "phone": "+14137870001", "display_phone": "(413) 787-0001", "distance": 538.2514566170183}, {"id": "616-oQCamCRDa5JhXQnBuw", "alias": "cantina-curbside-grill-springfield", "name": "Cantina Curbside Grill", "image_url": "https://s3-media3.fl.yelpcdn.com/bphoto/DmWL1gUNkbEH9PdiO9Or9g/o.jpg", "is_closed": false, "url": "https://www.yelp.com/biz/cantina-curbside-grill-springfield?adjust_creative=wVJJqwOt_3apsoGmwgRWnw&utm_campaign=yelp_api_v3&utm_medium=api_v3_business_search&utm_source=wVJJqwOt_3apsoGmwgRWnw", "review_count": 1, "categories": [{"alias": "latin", "title": "Latin American"}, {"alias": "foodtrucks", "title": "Food Trucks"}], "rating": 5.0, "coordinates": {"latitude": 42.1011632858, "longitude": -72.5874854261}, "transactions": [], "location": {"address1": null, "address2": null, "address3": null, "city": "Springfield", "zip_code": "01103", "country": "US", "state": "MA", "display_address": ["Springfield, MA 01103"]}, "phone": "+14134262604", "display_phone": "(413) 426-2604", "distance": 1009.8435703384041}, {"id": "F6ZYx6ibbWm6dA-kdg3W0w", "alias": "city-jakes-cafe-springfield", "name": "City Jake's Cafe", "image_url": "https://s3-media3.fl.yelpcdn.com/bphoto/v0eBo9KQC1DzlTX_WVOJ0w/o.jpg", "is_closed": false, "url": "https://www.yelp.com/biz/city-jakes-cafe-springfield?adjust_creative=wVJJqwOt_3apsoGmwgRWnw&utm_campaign=yelp_api_v3&utm_medium=api_v3_business_search&utm_source=wVJJqwOt_3apsoGmwgRWnw", "review_count": 42, "categories": [{"alias": "breakfast_brunch", "title": "Breakfast & Brunch"}, {"alias": "cafes", "title": "Cafes"}, {"alias": "sandwiches", "title": "Sandwiches"}], "rating": 4.5, "coordinates": {"latitude": 42.1036816388369, "longitude": -72.5926975160837}, "transactions": ["delivery"], "price": "$", "location": {"address1": "1573 Main St", "address2": "", "address3": "", "city": "Springfield", "zip_code": "01103", "country": "US", "state": "MA", "display_address": ["1573 Main St", "Springfield, MA 01103"]}, "phone": "+14137315077", "display_phone": "(413) 731-5077", "distance": 493.85823824626357}, {"id": "KDD6sQJSTOCbwxZkzZcS2w", "alias": "cornerstone-cafe-springfield", "name": "Cornerstone Cafe", "image_url": "https://s3-media1.fl.yelpcdn.com/bphoto/SiMbFPJCRcbvqjD34pWkQA/o.jpg", "is_closed": false, "url": "https://www.yelp.com/biz/cornerstone-cafe-springfield?adjust_creative=wVJJqwOt_3apsoGmwgRWnw&utm_campaign=yelp_api_v3&utm_medium=api_v3_business_search&utm_source=wVJJqwOt_3apsoGmwgRWnw", "review_count": 31, "categories": [{"alias": "cafes", "title": "Cafes"}, {"alias": "soup", "title": "Soup"}, {"alias": "breakfast_brunch", "title": "Breakfast & Brunch"}], "rating": 4.5, "coordinates": {"latitude": 42.102083, "longitude": -72.591225}, "transactions": [], "price": "$", "location": {"address1": "1414 Main St", "address2": "", "address3": "", "city": "Springfield", "zip_code": "01103", "country": "US", "state": "MA", "display_address": ["1414 Main St", "Springfield, MA 01103"]}, "phone": "+14137461025", "display_phone": "(413) 746-1025", "distance": 694.6508825533252}, {"id": "_qu6yaUvbmrQMkGr7Aiu0g", "alias": "palazzo-cafe-springfield", "name": "Palazzo Cafe", "image_url": "https://s3-media1.fl.yelpcdn.com/bphoto/7kehRbXrm76_76XXDRCCaA/o.jpg", "is_closed": false, "url": "https://www.yelp.com/biz/palazzo-cafe-springfield?adjust_creative=wVJJqwOt_3apsoGmwgRWnw&utm_campaign=yelp_api_v3&utm_medium=api_v3_business_search&utm_source=wVJJqwOt_3apsoGmwgRWnw", "review_count": 13, "categories": [{"alias": "italian", "title": "Italian"}, {"alias": "cafes", "title": "Cafes"}], "rating": 4.5, "coordinates": {"latitude": 42.1018104553223, "longitude": -72.5894775390625}, "transactions": [], "price": "$", "location": {"address1": "1350 Main St", "address2": null, "address3": null, "city": "Springfield", "zip_code": "01103", "country": "US", "state": "MA", "display_address": ["1350 Main St", "Springfield, MA 01103"]}, "phone": "+14137310011", "display_phone": "(413) 731-0011", "distance": 828.9648385466267}, {"id": "6kZOvn7G3w0IkF1sB4VH1Q", "alias": "picks-springfield-2", "name": "PICKS", "image_url": "https://s3-media2.fl.yelpcdn.com/bphoto/VG_BL7u-YrCn3wh2fQ5FsQ/o.jpg", "is_closed": false, "url": "https://www.yelp.com/biz/picks-springfield-2?adjust_creative=wVJJqwOt_3apsoGmwgRWnw&utm_campaign=yelp_api_v3&utm_medium=api_v3_business_search&utm_source=wVJJqwOt_3apsoGmwgRWnw", "review_count": 10, "categories": [{"alias": "tradamerican", "title": "American (Traditional)"}, {"alias": "steak", "title": "Steakhouses"}, {"alias": "burgers", "title": "Burgers"}], "rating": 3.0, "coordinates": {"latitude": 42.1018356, "longitude": -72.5893485}, "transactions": [], "location": {"address1": "1 Monarch Pl", "address2": "", "address3": "Sheraton Springfield Monarch Place Hotel", "city": "Springfield", "zip_code": "01144", "country": "US", "state": "MA", "display_address": ["1 Monarch Pl", "Sheraton Springfield Monarch Place Hotel", "Springfield, MA 01144"]}, "phone": "+14137811010", "display_phone": "(413) 781-1010", "distance": 839.4401640835204}, {"id": "jzpxqcPrUX7V5UHOXyHGVg", "alias": "la-taqueria-del-pueblo-springfield-4", "name": "La Taqueria del Pueblo", "image_url": "https://s3-media3.fl.yelpcdn.com/bphoto/Pb8mAfI9iaYQCLdxloKpUw/o.jpg", "is_closed": false, "url": "https://www.yelp.com/biz/la-taqueria-del-pueblo-springfield-4?adjust_creative=wVJJqwOt_3apsoGmwgRWnw&utm_campaign=yelp_api_v3&utm_medium=api_v3_business_search&utm_source=wVJJqwOt_3apsoGmwgRWnw", "review_count": 1, "categories": [{"alias": "foodtrucks", "title": "Food Trucks"}, {"alias": "mexican", "title": "Mexican"}, {"alias": "latin", "title": "Latin American"}], "rating": 5.0, "coordinates": {"latitude": 42.106259, "longitude": -72.599471}, "transactions": [], "location": {"address1": "Boylston St", "address2": "", "address3": null, "city": "Springfield", "zip_code": "01103", "country": "US", "state": "MA", "display_address": ["Boylston St", "Springfield, MA 01103"]}, "phone": "+18605157045", "display_phone": "(860) 515-7045", "distance": 129.84498367302902}, {"id": "McoHD38EztGmDdRjxmFFHA", "alias": "felixs-breakfast-and-sandwich-shop-springfield", "name": "Felix's Breakfast and Sandwich Shop", "image_url": "https://s3-media3.fl.yelpcdn.com/bphoto/V27h_wLUIG_uvRu5DMAiSw/o.jpg", "is_closed": false, "url": "https://www.yelp.com/biz/felixs-breakfast-and-sandwich-shop-springfield?adjust_creative=wVJJqwOt_3apsoGmwgRWnw&utm_campaign=yelp_api_v3&utm_medium=api_v3_business_search&utm_source=wVJJqwOt_3apsoGmwgRWnw", "review_count": 67, "categories": [{"alias": "sandwiches", "title": "Sandwiches"}, {"alias": "breakfast_brunch", "title": "Breakfast & Brunch"}], "rating": 4.0, "coordinates": {"latitude": 42.1065522201793, "longitude": -72.5954360788028}, "transactions": ["delivery"], "price": "$", "location": {"address1": "67 Liberty St", "address2": null, "address3": null, "city": "Springfield", "zip_code": "01103", "country": "US", "state": "MA", "display_address": ["67 Liberty St", "Springfield, MA 01103"]}, "phone": "+14133066010", "display_phone": "(413) 306-6010", "distance": 225.92822432743543}, {"id": "e2JAM_-r39YoBWTzJaRcYg", "alias": "felixs-baked-potatoes-springfield", "name": "Felix's Baked Potatoes", "image_url": "", "is_closed": false, "url": "https://www.yelp.com/biz/felixs-baked-potatoes-springfield?adjust_creative=wVJJqwOt_3apsoGmwgRWnw&utm_campaign=yelp_api_v3&utm_medium=api_v3_business_search&utm_source=wVJJqwOt_3apsoGmwgRWnw", "review_count": 2, "categories": [{"alias": "foodtrucks", "title": "Food Trucks"}, {"alias": "tradamerican", "title": "American (Traditional)"}], "rating": 5.0, "coordinates": {"latitude": 42.109637537703, "longitude": -72.602358291795}, "transactions": [], "location": {"address1": "St George Rd", "address2": null, "address3": null, "city": "Springfield", "zip_code": "01107", "country": "US", "state": "MA", "display_address": ["St George Rd", "Springfield, MA 01107"]}, "phone": "+14136571048", "display_phone": "(413) 657-1048", "distance": 561.651044631775}, {"id": "Zb7avzFyE9Js-LLqnBFYBQ", "alias": "crown-fried-chicken-and-pizza-springfield", "name": "Crown Fried Chicken and Pizza", "image_url": "https://s3-media4.fl.yelpcdn.com/bphoto/e_z7spe_z3CPehG6EL1Aag/o.jpg", "is_closed": false, "url": "https://www.yelp.com/biz/crown-fried-chicken-and-pizza-springfield?adjust_creative=wVJJqwOt_3apsoGmwgRWnw&utm_campaign=yelp_api_v3&utm_medium=api_v3_business_search&utm_source=wVJJqwOt_3apsoGmwgRWnw", "review_count": 4, "categories": [{"alias": "pizza", "title": "Pizza"}], "rating": 3.5, "coordinates": {"latitude": 42.1008338928223, "longitude": -72.5875396728516}, "transactions": [], "price": "$", "location": {"address1": "1208 Main St", "address2": "", "address3": "", "city": "Springfield", "zip_code": "01103", "country": "US", "state": "MA", "display_address": ["1208 Main St", "Springfield, MA 01103"]}, "phone": "+14137472147", "display_phone": "(413) 747-2147", "distance": 1037.1751107111834}, {"id": "ZS3kG6VXpHmHlLkpLxDe3A", "alias": "south-end-market-springfield", "name": "South End Market", "image_url": "https://s3-media2.fl.yelpcdn.com/bphoto/PtiK0CPeR4H_ACl0905yKA/o.jpg", "is_closed": false, "url": "https://www.yelp.com/biz/south-end-market-springfield?adjust_creative=wVJJqwOt_3apsoGmwgRWnw&utm_campaign=yelp_api_v3&utm_medium=api_v3_business_search&utm_source=wVJJqwOt_3apsoGmwgRWnw", "review_count": 12, "categories": [{"alias": "food_court", "title": "Food Court"}], "rating": 2.5, "coordinates": {"latitude": 42.0983764, "longitude": -72.5884723}, "transactions": [], "location": {"address1": "One MGM Way", "address2": null, "address3": null, "city": "Springfield", "zip_code": "01103", "country": "US", "state": "MA", "display_address": ["One MGM Way", "Springfield, MA 01103"]}, "phone": "+14132735000", "display_phone": "(413) 273-5000", "distance": 1149.9790939133443}, {"id": "2KfR4Pj1XBtXxrXZvn8F4Q", "alias": "currents-at-the-marriott-springfield", "name": "Currents at the Marriott", "image_url": "https://s3-media1.fl.yelpcdn.com/bphoto/rd14y-2qJyxioJ3B88xEHw/o.jpg", "is_closed": false, "url": "https://www.yelp.com/biz/currents-at-the-marriott-springfield?adjust_creative=wVJJqwOt_3apsoGmwgRWnw&utm_campaign=yelp_api_v3&utm_medium=api_v3_business_search&utm_source=wVJJqwOt_3apsoGmwgRWnw", "review_count": 10, "categories": [{"alias": "newamerican", "title": "American (New)"}, {"alias": "tradamerican", "title": "American (Traditional)"}, {"alias": "buffets", "title": "Buffets"}], "rating": 2.5, "coordinates": {"latitude": 42.10238, "longitude": -72.59196}, "transactions": [], "price": "$$", "location": {"address1": "1500 Main St", "address2": "", "address3": "", "city": "Springfield", "zip_code": "01115", "country": "US", "state": "MA", "display_address": ["1500 Main St", "Springfield, MA 01115"]}, "phone": "", "display_phone": "", "distance": 590.3980719754336}, {"id": "7oQJsNNyabE0iRYgmWNVCA", "alias": "sok-s-siam-springfield", "name": "Sok\u2019s Siam", "image_url": "https://s3-media2.fl.yelpcdn.com/bphoto/4EL37zl-FvGbWoPaIntP8g/o.jpg", "is_closed": false, "url": "https://www.yelp.com/biz/sok-s-siam-springfield?adjust_creative=wVJJqwOt_3apsoGmwgRWnw&utm_campaign=yelp_api_v3&utm_medium=api_v3_business_search&utm_source=wVJJqwOt_3apsoGmwgRWnw", "review_count": 1, "categories": [{"alias": "asianfusion", "title": "Asian Fusion"}], "rating": 1.0, "coordinates": {"latitude": 42.105094, "longitude": -72.591691}, "transactions": [], "location": {"address1": "272 Worthington St", "address2": null, "address3": "", "city": "Springfield", "zip_code": "01103", "country": "US", "state": "MA", "display_address": ["272 Worthington St", "Springfield, MA 01103"]}, "phone": "+14133639034", "display_phone": "(413) 363-9034", "distance": 544.079442892692}, {"id": "Mio0aA8qtoo0RG9VgLvAWw", "alias": "bills-diner-springfield", "name": "Bill's Diner", "image_url": "https://s3-media1.fl.yelpcdn.com/bphoto/4N2YeeVAIx_xHxLIahmIVw/o.jpg", "is_closed": false, "url": "https://www.yelp.com/biz/bills-diner-springfield?adjust_creative=wVJJqwOt_3apsoGmwgRWnw&utm_campaign=yelp_api_v3&utm_medium=api_v3_business_search&utm_source=wVJJqwOt_3apsoGmwgRWnw", "review_count": 10, "categories": [{"alias": "diners", "title": "Diners"}], "rating": 2.0, "coordinates": {"latitude": 42.0983764, "longitude": -72.5884723}, "transactions": [], "location": {"address1": "1 Mgm Way", "address2": "", "address3": null, "city": "Springfield", "zip_code": "01103", "country": "US", "state": "MA", "display_address": ["1 Mgm Way", "Springfield, MA 01103"]}, "phone": "+14132735000", "display_phone": "(413) 273-5000", "distance": 1204.7331784024193}, {"id": "ez-gML3qD_Og1noXwcXeEQ", "alias": "sweet-ideas-cafe-springfield-2", "name": "Sweet Ideas Cafe", "image_url": "https://s3-media2.fl.yelpcdn.com/bphoto/ErKPEySprM5BKMB1Ts2s7Q/o.jpg", "is_closed": false, "url": "https://www.yelp.com/biz/sweet-ideas-cafe-springfield-2?adjust_creative=wVJJqwOt_3apsoGmwgRWnw&utm_campaign=yelp_api_v3&utm_medium=api_v3_business_search&utm_source=wVJJqwOt_3apsoGmwgRWnw", "review_count": 7, "categories": [{"alias": "desserts", "title": "Desserts"}, {"alias": "coffee", "title": "Coffee & Tea"}, {"alias": "sandwiches", "title": "Sandwiches"}], "rating": 3.5, "coordinates": {"latitude": 42.102312, "longitude": -72.589434}, "transactions": ["pickup", "delivery"], "location": {"address1": "1365 Main St", "address2": "", "address3": "", "city": "Springfield", "zip_code": "01103", "country": "US", "state": "MA", "display_address": ["1365 Main St", "Springfield, MA 01103"]}, "phone": "+14132780400", "display_phone": "(413) 278-0400", "distance": 807.315590077989}, {"id": "7zrrKZ8ExDUyldA3Ppvwpw", "alias": "star-pizza-west-springfield", "name": "Star Pizza", "image_url": "https://s3-media3.fl.yelpcdn.com/bphoto/kSVWqGYdQmZiPF_ucpogtA/o.jpg", "is_closed": false, "url": "https://www.yelp.com/biz/star-pizza-west-springfield?adjust_creative=wVJJqwOt_3apsoGmwgRWnw&utm_campaign=yelp_api_v3&utm_medium=api_v3_business_search&utm_source=wVJJqwOt_3apsoGmwgRWnw", "review_count": 22, "categories": [{"alias": "pizza", "title": "Pizza"}], "rating": 3.5, "coordinates": {"latitude": 42.1008379, "longitude": -72.606327}, "transactions": ["pickup", "delivery"], "price": "$", "location": {"address1": "707 Main St", "address2": "", "address3": "", "city": "West Springfield", "zip_code": "01089", "country": "US", "state": "MA", "display_address": ["707 Main St", "West Springfield, MA 01089"]}, "phone": "+14137889999", "display_phone": "(413) 788-9999", "distance": 869.0252139161042}, {"id": "57OMzqv0t3t0mJhMBvxFuw", "alias": "topgolf-swing-suite-springfield", "name": "Topgolf Swing Suite", "image_url": "https://s3-media2.fl.yelpcdn.com/bphoto/81ITTgskSpiByP5Jw0mKqQ/o.jpg", "is_closed": false, "url": "https://www.yelp.com/biz/topgolf-swing-suite-springfield?adjust_creative=wVJJqwOt_3apsoGmwgRWnw&utm_campaign=yelp_api_v3&utm_medium=api_v3_business_search&utm_source=wVJJqwOt_3apsoGmwgRWnw", "review_count": 1, "categories": [{"alias": "tradamerican", "title": "American (Traditional)"}], "rating": 5.0, "coordinates": {"latitude": 42.0983764, "longitude": -72.5884723}, "transactions": [], "location": {"address1": "One Mgm Way", "address2": "", "address3": "MGM Springfield", "city": "Springfield", "zip_code": "01103", "country": "US", "state": "MA", "display_address": ["One Mgm Way", "MGM Springfield", "Springfield, MA 01103"]}, "phone": "+14132735000", "display_phone": "(413) 273-5000", "distance": 1149.9790939133443}, {"id": "FQ0movUHHPaLRt2rV7lCOQ", "alias": "premier-pizza-springfield", "name": "Premier Pizza", "image_url": "https://s3-media4.fl.yelpcdn.com/bphoto/Y91QEbeZMDeOJTk8A-S8yQ/o.jpg", "is_closed": false, "url": "https://www.yelp.com/biz/premier-pizza-springfield?adjust_creative=wVJJqwOt_3apsoGmwgRWnw&utm_campaign=yelp_api_v3&utm_medium=api_v3_business_search&utm_source=wVJJqwOt_3apsoGmwgRWnw", "review_count": 1, "categories": [{"alias": "pizza", "title": "Pizza"}], "rating": 4.0, "coordinates": {"latitude": 42.11313, "longitude": -72.60537}, "transactions": [], "location": {"address1": "2550 Main St", "address2": "", "address3": null, "city": "Springfield", "zip_code": "01107", "country": "US", "state": "MA", "display_address": ["2550 Main St", "Springfield, MA 01107"]}, "phone": "+14133177417", "display_phone": "(413) 317-7417", "distance": 1026.9822567145113}, {"id": "CpqY_tl5e4DkZFTNo6n2cw", "alias": "malecon-bar-and-restaurant-springfield", "name": "Malecon Bar & Restaurant", "image_url": "https://s3-media2.fl.yelpcdn.com/bphoto/NrztviHMd9uV7vxXu1kptw/o.jpg", "is_closed": false, "url": "https://www.yelp.com/biz/malecon-bar-and-restaurant-springfield?adjust_creative=wVJJqwOt_3apsoGmwgRWnw&utm_campaign=yelp_api_v3&utm_medium=api_v3_business_search&utm_source=wVJJqwOt_3apsoGmwgRWnw", "review_count": 6, "categories": [{"alias": "latin", "title": "Latin American"}, {"alias": "bars", "title": "Bars"}, {"alias": "dominican", "title": "Dominican"}], "rating": 2.0, "coordinates": {"latitude": 42.1054453, "longitude": -72.5888553}, "transactions": ["pickup", "delivery"], "location": {"address1": "137 Chestnut St", "address2": "", "address3": null, "city": "Springfield", "zip_code": "01103", "country": "US", "state": "MA", "display_address": ["137 Chestnut St", "Springfield, MA 01103"]}, "phone": "+14132858407", "display_phone": "(413) 285-8407", "distance": 744.738278406997}, {"id": "AblJb4CIIARlWyALbEP4YQ", "alias": "mvp-pub-at-the-sheraton-springfield", "name": "MVP Pub At The Sheraton", "image_url": "https://s3-media4.fl.yelpcdn.com/bphoto/uypbbPEgIHpi_sZVPxm-sQ/o.jpg", "is_closed": false, "url": "https://www.yelp.com/biz/mvp-pub-at-the-sheraton-springfield?adjust_creative=wVJJqwOt_3apsoGmwgRWnw&utm_campaign=yelp_api_v3&utm_medium=api_v3_business_search&utm_source=wVJJqwOt_3apsoGmwgRWnw", "review_count": 11, "categories": [{"alias": "sportsbars", "title": "Sports Bars"}, {"alias": "tradamerican", "title": "American (Traditional)"}], "rating": 2.5, "coordinates": {"latitude": 42.1021111233605, "longitude": -72.5908541679382}, "transactions": [], "price": "$$$", "location": {"address1": "1 Monarch Pl", "address2": "", "address3": "", "city": "Springfield", "zip_code": "01144", "country": "US", "state": "MA", "display_address": ["1 Monarch Pl", "Springfield, MA 01144"]}, "phone": "", "display_phone": "", "distance": 718.0504227528427}, {"id": "E-GBzX-_puSiAIQBHf5XTA", "alias": "holyoke-hummus-company-holyoke", "name": "Holyoke Hummus Company", "image_url": "https://s3-media2.fl.yelpcdn.com/bphoto/K-RvwwHMrU-8EFC9r_j1bw/o.jpg", "is_closed": false, "url": "https://www.yelp.com/biz/holyoke-hummus-company-holyoke?adjust_creative=wVJJqwOt_3apsoGmwgRWnw&utm_campaign=yelp_api_v3&utm_medium=api_v3_business_search&utm_source=wVJJqwOt_3apsoGmwgRWnw", "review_count": 65, "categories": [{"alias": "mideastern", "title": "Middle Eastern"}, {"alias": "foodtrucks", "title": "Food Trucks"}, {"alias": "breakfast_brunch", "title": "Breakfast & Brunch"}], "rating": 4.5, "coordinates": {"latitude": 42.206426, "longitude": -72.6086119}, "transactions": ["pickup", "delivery"], "price": "$", "location": {"address1": "285 High St", "address2": null, "address3": "", "city": "Holyoke", "zip_code": "01040", "country": "US", "state": "MA", "display_address": ["285 High St", "Holyoke, MA 01040"]}, "phone": "+14132251755", "display_phone": "(413) 225-1755", "distance": 11233.206798262128}, {"id": "JdgKU33JqMhfdAMu7nDh4Q", "alias": "ginos-pizza-and-grill-springfield", "name": "Gino's Pizza & Grill ", "image_url": "https://s3-media1.fl.yelpcdn.com/bphoto/ERc8oSo0OK8tsFLDHV-4iQ/o.jpg", "is_closed": false, "url": "https://www.yelp.com/biz/ginos-pizza-and-grill-springfield?adjust_creative=wVJJqwOt_3apsoGmwgRWnw&utm_campaign=yelp_api_v3&utm_medium=api_v3_business_search&utm_source=wVJJqwOt_3apsoGmwgRWnw", "review_count": 11, "categories": [{"alias": "pizza", "title": "Pizza"}, {"alias": "breakfast_brunch", "title": "Breakfast & Brunch"}, {"alias": "burgers", "title": "Burgers"}], "rating": 3.5, "coordinates": {"latitude": 42.1063801730792, "longitude": -72.5920973718166}, "transactions": ["pickup", "delivery"], "location": {"address1": "459 Dwight St", "address2": "", "address3": null, "city": "Springfield", "zip_code": "01103", "country": "US", "state": "MA", "display_address": ["459 Dwight St", "Springfield, MA 01103"]}, "phone": "+14137344466", "display_phone": "(413) 734-4466", "distance": 499.6597943152851}, {"id": "AtMj5OECGvNlpbwmy2SjRw", "alias": "sol-karibe-springfield", "name": "Sol Karibe", "image_url": "https://s3-media3.fl.yelpcdn.com/bphoto/83J9YWIUOTWd61Bi9G-llw/o.jpg", "is_closed": false, "url": "https://www.yelp.com/biz/sol-karibe-springfield?adjust_creative=wVJJqwOt_3apsoGmwgRWnw&utm_campaign=yelp_api_v3&utm_medium=api_v3_business_search&utm_source=wVJJqwOt_3apsoGmwgRWnw", "review_count": 10, "categories": [{"alias": "bars", "title": "Bars"}, {"alias": "hotdogs", "title": "Fast Food"}, {"alias": "sandwiches", "title": "Sandwiches"}], "rating": 3.0, "coordinates": {"latitude": 42.1012227, "longitude": -72.5876561}, "transactions": ["pickup", "delivery"], "price": "$", "location": {"address1": "1236 Main St", "address2": "", "address3": "", "city": "Springfield", "zip_code": "01103", "country": "US", "state": "MA", "display_address": ["1236 Main St", "Springfield, MA 01103"]}, "phone": "+14137371217", "display_phone": "(413) 737-1217", "distance": 994.3469121003671}, {"id": "0H-q3BIDpGnHGa1JA0jLLw", "alias": "paramount-pizza-springfield", "name": "Paramount Pizza", "image_url": "https://s3-media2.fl.yelpcdn.com/bphoto/ioS1fLWCXXO8y-NoJy7aRg/o.jpg", "is_closed": false, "url": "https://www.yelp.com/biz/paramount-pizza-springfield?adjust_creative=wVJJqwOt_3apsoGmwgRWnw&utm_campaign=yelp_api_v3&utm_medium=api_v3_business_search&utm_source=wVJJqwOt_3apsoGmwgRWnw", "review_count": 15, "categories": [{"alias": "pizza", "title": "Pizza"}], "rating": 2.5, "coordinates": {"latitude": 42.1044078469276, "longitude": -72.5941304862499}, "transactions": ["pickup", "delivery"], "price": "$", "location": {"address1": "1659 Main St", "address2": "", "address3": "", "city": "Springfield", "zip_code": "01103", "country": "US", "state": "MA", "display_address": ["1659 Main St", "Springfield, MA 01103"]}, "phone": "+14137330300", "display_phone": "(413) 733-0300", "distance": 359.2584088811941}, {"id": "kjGMjPUQ-VnoZbDET4cZHQ", "alias": "chandlers-springfield", "name": "chandlers", "image_url": "", "is_closed": false, "url": "https://www.yelp.com/biz/chandlers-springfield?adjust_creative=wVJJqwOt_3apsoGmwgRWnw&utm_campaign=yelp_api_v3&utm_medium=api_v3_business_search&utm_source=wVJJqwOt_3apsoGmwgRWnw", "review_count": 2, "categories": [{"alias": "steak", "title": "Steakhouses"}], "rating": 1.5, "coordinates": {"latitude": 42.1005692994099, "longitude": -72.5870595127344}, "transactions": [], "location": {"address1": "One Mgm Way", "address2": "", "address3": null, "city": "Springfield", "zip_code": "01103", "country": "US", "state": "MA", "display_address": ["One Mgm Way", "Springfield, MA 01103"]}, "phone": "", "display_phone": "", "distance": 1074.0370595757502}, {"id": "Vzx6JADtVXVHU5V9aKEUgQ", "alias": "hearth-grill-springfield", "name": "Hearth Grill", "image_url": "https://s3-media3.fl.yelpcdn.com/bphoto/gQjhQt9Ben_7sGRsg_3AaQ/o.jpg", "is_closed": false, "url": "https://www.yelp.com/biz/hearth-grill-springfield?adjust_creative=wVJJqwOt_3apsoGmwgRWnw&utm_campaign=yelp_api_v3&utm_medium=api_v3_business_search&utm_source=wVJJqwOt_3apsoGmwgRWnw", "review_count": 4, "categories": [{"alias": "tradamerican", "title": "American (Traditional)"}, {"alias": "breakfast_brunch", "title": "Breakfast & Brunch"}], "rating": 3.0, "coordinates": {"latitude": 42.0983764, "longitude": -72.5884723}, "transactions": [], "location": {"address1": "One Mgm Way", "address2": "", "address3": null, "city": "Springfield", "zip_code": "01103", "country": "US", "state": "MA", "display_address": ["One Mgm Way", "Springfield, MA 01103"]}, "phone": "+14132735000", "display_phone": "(413) 273-5000", "distance": 1149.9790939133443}, {"id": "xQSNfyCncvdUcdT5CMRtTg", "alias": "peters-grille-springfield", "name": "Peter's Grille", "image_url": "https://s3-media4.fl.yelpcdn.com/bphoto/gdlKt5Twh6UNzgFNNpbzbQ/o.jpg", "is_closed": false, "url": "https://www.yelp.com/biz/peters-grille-springfield?adjust_creative=wVJJqwOt_3apsoGmwgRWnw&utm_campaign=yelp_api_v3&utm_medium=api_v3_business_search&utm_source=wVJJqwOt_3apsoGmwgRWnw", "review_count": 1, "categories": [{"alias": "gyms", "title": "Gyms"}, {"alias": "hotels", "title": "Hotels"}, {"alias": "restaurants", "title": "Restaurants"}], "rating": 2.0, "coordinates": {"latitude": 42.1015230651729, "longitude": -72.5917822424865}, "transactions": [], "price": "$$", "location": {"address1": "1 Monarch Pl", "address2": "Ste 100", "address3": "", "city": "Springfield", "zip_code": "01144", "country": "US", "state": "MA", "display_address": ["1 Monarch Pl", "Ste 100", "Springfield, MA 01144"]}, "phone": "+14137811010", "display_phone": "(413) 781-1010", "distance": 724.6749071092104}, {"id": "G0Uu59n_62hM_jvl97AJeg", "alias": "north-end-pizzeria-and-seafood-springfield-2", "name": "North End Pizzeria And Seafood", "image_url": "https://s3-media1.fl.yelpcdn.com/bphoto/A4IyupFXiFIz6K7Rsd6LBg/o.jpg", "is_closed": false, "url": "https://www.yelp.com/biz/north-end-pizzeria-and-seafood-springfield-2?adjust_creative=wVJJqwOt_3apsoGmwgRWnw&utm_campaign=yelp_api_v3&utm_medium=api_v3_business_search&utm_source=wVJJqwOt_3apsoGmwgRWnw", "review_count": 6, "categories": [{"alias": "pizza", "title": "Pizza"}], "rating": 2.5, "coordinates": {"latitude": 42.1131287, "longitude": -72.6053696}, "transactions": ["delivery"], "location": {"address1": "2550 Main St", "address2": "", "address3": "", "city": "Springfield", "zip_code": "01107", "country": "US", "state": "MA", "display_address": ["2550 Main St", "Springfield, MA 01107"]}, "phone": "", "display_phone": "", "distance": 1026.9822567145113}, {"id": "bj1mjmubdCi4d5URL3y_gQ", "alias": "shakago-martini-and-piano-bar-springfield", "name": "Shakago Martini & Piano Bar", "image_url": "https://s3-media3.fl.yelpcdn.com/bphoto/NnkkqteajU8xuw77ALjs5g/o.jpg", "is_closed": false, "url": "https://www.yelp.com/biz/shakago-martini-and-piano-bar-springfield?adjust_creative=wVJJqwOt_3apsoGmwgRWnw&utm_campaign=yelp_api_v3&utm_medium=api_v3_business_search&utm_source=wVJJqwOt_3apsoGmwgRWnw", "review_count": 22, "categories": [{"alias": "newamerican", "title": "American (New)"}], "rating": 2.0, "coordinates": {"latitude": 42.1034549921751, "longitude": -72.5949110090733}, "transactions": ["delivery"], "price": "$$", "location": {"address1": "23 Hampden St", "address2": "", "address3": "", "city": "Springfield", "zip_code": "01103", "country": "US", "state": "MA", "display_address": ["23 Hampden St", "Springfield, MA 01103"]}, "phone": "+14137818885", "display_phone": "(413) 781-8885", "distance": 385.7003603091324}, {"id": "Yo3NSuPcG7ULdDU21BKOlw", "alias": "uno-restaurant-and-bar-springfield", "name": "Uno Restaurant & Bar", "image_url": "", "is_closed": false, "url": "https://www.yelp.com/biz/uno-restaurant-and-bar-springfield?adjust_creative=wVJJqwOt_3apsoGmwgRWnw&utm_campaign=yelp_api_v3&utm_medium=api_v3_business_search&utm_source=wVJJqwOt_3apsoGmwgRWnw", "review_count": 1, "categories": [{"alias": "pizza", "title": "Pizza"}], "rating": 2.0, "coordinates": {"latitude": 42.1028830111027, "longitude": -72.5939936935902}, "transactions": [], "location": {"address1": "1 Columbus Ctr", "address2": "", "address3": "", "city": "Springfield", "zip_code": "01103", "country": "US", "state": "MA", "display_address": ["1 Columbus Ctr", "Springfield, MA 01103"]}, "phone": "+14137331300", "display_phone": "(413) 733-1300", "distance": 514.8771486698733}, {"id": "9hBUK_Z9m3c7AQjtWY6e_w", "alias": "subway-springfield-191", "name": "Subway", "image_url": "https://s3-media1.fl.yelpcdn.com/bphoto/Q2n90l8IRChVe9F71gGVCA/o.jpg", "is_closed": false, "url": "https://www.yelp.com/biz/subway-springfield-191?adjust_creative=wVJJqwOt_3apsoGmwgRWnw&utm_campaign=yelp_api_v3&utm_medium=api_v3_business_search&utm_source=wVJJqwOt_3apsoGmwgRWnw", "review_count": 1, "categories": [{"alias": "sandwiches", "title": "Sandwiches"}], "rating": 5.0, "coordinates": {"latitude": 42.0973543114018, "longitude": -72.5860203129916}, "transactions": [], "price": "$", "location": {"address1": "1211 E Columbus Ave", "address2": null, "address3": null, "city": "Springfield", "zip_code": "01105", "country": "US", "state": "MA", "display_address": ["1211 E Columbus Ave", "Springfield, MA 01105"]}, "phone": "+14137367410", "display_phone": "(413) 736-7410", "distance": 1361.261292545957}, {"id": "FVCOg9jNhGO4uyoYIP_b0Q", "alias": "subway-west-springfield-5", "name": "Subway", "image_url": "https://s3-media2.fl.yelpcdn.com/bphoto/cr2TTGOIHIeZDLoCoqMHYA/o.jpg", "is_closed": false, "url": "https://www.yelp.com/biz/subway-west-springfield-5?adjust_creative=wVJJqwOt_3apsoGmwgRWnw&utm_campaign=yelp_api_v3&utm_medium=api_v3_business_search&utm_source=wVJJqwOt_3apsoGmwgRWnw", "review_count": 1, "categories": [{"alias": "sandwiches", "title": "Sandwiches"}], "rating": 4.0, "coordinates": {"latitude": 42.0965759914981, "longitude": -72.6029499053312}, "transactions": [], "price": "$", "location": {"address1": "356 Memorial Ave", "address2": null, "address3": null, "city": "West Springfield", "zip_code": "01089", "country": "US", "state": "MA", "display_address": ["356 Memorial Ave", "West Springfield, MA 01089"]}, "phone": "+14137880008", "display_phone": "(413) 788-0008", "distance": 1091.5627389629901}, {"id": "vbIrtNH7tgqgiE_sSfdbqQ", "alias": "mamma-mias-pizzeria-springfield", "name": "Mamma Mia's Pizzeria", "image_url": "", "is_closed": false, "url": "https://www.yelp.com/biz/mamma-mias-pizzeria-springfield?adjust_creative=wVJJqwOt_3apsoGmwgRWnw&utm_campaign=yelp_api_v3&utm_medium=api_v3_business_search&utm_source=wVJJqwOt_3apsoGmwgRWnw", "review_count": 4, "categories": [{"alias": "pizza", "title": "Pizza"}], "rating": 1.5, "coordinates": {"latitude": 42.10292, "longitude": -72.5908199}, "transactions": ["delivery"], "price": "$$", "location": {"address1": "1441 Main St", "address2": "", "address3": "", "city": "Springfield", "zip_code": "01103", "country": "US", "state": "MA", "display_address": ["1441 Main St", "Springfield, MA 01103"]}, "phone": "+14134390330", "display_phone": "(413) 439-0330", "distance": 698.1332635773596}, {"id": "nJ0SbaKmw3iX4WFOswydzQ", "alias": "mcdonalds-springfield-47", "name": "McDonald's", "image_url": "https://s3-media3.fl.yelpcdn.com/bphoto/c259VZyO9hHvXesyNpN0GA/o.jpg", "is_closed": false, "url": "https://www.yelp.com/biz/mcdonalds-springfield-47?adjust_creative=wVJJqwOt_3apsoGmwgRWnw&utm_campaign=yelp_api_v3&utm_medium=api_v3_business_search&utm_source=wVJJqwOt_3apsoGmwgRWnw", "review_count": 2, "categories": [{"alias": "burgers", "title": "Burgers"}, {"alias": "hotdogs", "title": "Fast Food"}, {"alias": "coffee", "title": "Coffee & Tea"}], "rating": 1.0, "coordinates": {"latitude": 42.1112787039254, "longitude": -72.6040318608284}, "transactions": ["delivery"], "price": "$", "location": {"address1": "2392 Main St", "address2": "", "address3": "", "city": "Springfield", "zip_code": "01107", "country": "US", "state": "MA", "display_address": ["2392 Main St", "Springfield, MA 01107"]}, "phone": "+14137812603", "display_phone": "(413) 781-2603", "distance": 790.3988900346183}, {"id": "Io4C5tUwnb_YzeaMXHBqBA", "alias": "shuckin-truck-narragansett-2", "name": "Shuckin Truck", "image_url": "https://s3-media2.fl.yelpcdn.com/bphoto/r7QRORfe9UYVS7GGzUm9DQ/o.jpg", "is_closed": false, "url": "https://www.yelp.com/biz/shuckin-truck-narragansett-2?adjust_creative=wVJJqwOt_3apsoGmwgRWnw&utm_campaign=yelp_api_v3&utm_medium=api_v3_business_search&utm_source=wVJJqwOt_3apsoGmwgRWnw", "review_count": 24, "categories": [{"alias": "foodtrucks", "title": "Food Trucks"}, {"alias": "seafood", "title": "Seafood"}], "rating": 4.5, "coordinates": {"latitude": 41.4274482727051, "longitude": -71.4597778320313}, "transactions": [], "price": "$$", "location": {"address1": "", "address2": "", "address3": "", "city": "Narragansett", "zip_code": "02882", "country": "US", "state": "RI", "display_address": ["Narragansett, RI 02882"]}, "phone": "+14017415953", "display_phone": "(401) 741-5953", "distance": 121022.15279814562}]