[{"id": "SJaZB5VlX3tfSYhEDipWJg", "alias": "grille-on-main-restaurant-and-bar-douglas", "name": "Grille on Main Restaurant & Bar", "image_url": "https://s3-media4.fl.yelpcdn.com/bphoto/vSeT1HkMBhv0ZZSWm8wsWw/o.jpg", "is_closed": false, "url": "https://www.yelp.com/biz/grille-on-main-restaurant-and-bar-douglas?adjust_creative=HdhkN5EEH6lAqE3kwhsHEQ&utm_campaign=yelp_api_v3&utm_medium=api_v3_business_search&utm_source=HdhkN5EEH6lAqE3kwhsHEQ", "review_count": 32, "categories": [{"alias": "bars", "title": "Bars"}, {"alias": "tradamerican", "title": "American (Traditional)"}], "rating": 3.5, "coordinates": {"latitude": 42.0728099023217, "longitude": -71.7128945626841}, "transactions": [], "price": "$$", "location": {"address1": "306 Main St", "address2": null, "address3": "", "city": "Douglas", "zip_code": "01516", "country": "US", "state": "MA", "display_address": ["306 Main St", "Douglas, MA 01516"]}, "phone": "+15084765661", "display_phone": "(508) 476-5661", "distance": 3731.1019842715928}, {"id": "aVeRFZGJ0ffXtaZp92X4Vw", "alias": "hot-wok-douglas-3", "name": "Hot Wok", "image_url": "https://s3-media2.fl.yelpcdn.com/bphoto/9mbPxJLgqR1T2kk1PW-FoQ/o.jpg", "is_closed": false, "url": "https://www.yelp.com/biz/hot-wok-douglas-3?adjust_creative=HdhkN5EEH6lAqE3kwhsHEQ&utm_campaign=yelp_api_v3&utm_medium=api_v3_business_search&utm_source=HdhkN5EEH6lAqE3kwhsHEQ", "review_count": 17, "categories": [{"alias": "chinese", "title": "Chinese"}], "rating": 3.0, "coordinates": {"latitude": 42.073264, "longitude": -71.711965}, "transactions": [], "price": "$$", "location": {"address1": "319 Main St", "address2": "", "address3": "", "city": "Douglas", "zip_code": "01516", "country": "US", "state": "MA", "display_address": ["319 Main St", "Douglas, MA 01516"]}, "phone": "+17744823388", "display_phone": "(774) 482-3388", "distance": 3759.6537112544843}, {"id": "4qt4QHtWtdL5MTj_otAjsA", "alias": "the-picket-fence-restaurant-douglas", "name": "The Picket Fence Restaurant", "image_url": "https://s3-media4.fl.yelpcdn.com/bphoto/ujJmAk8LVm-Kq4anIbo3PA/o.jpg", "is_closed": false, "url": "https://www.yelp.com/biz/the-picket-fence-restaurant-douglas?adjust_creative=HdhkN5EEH6lAqE3kwhsHEQ&utm_campaign=yelp_api_v3&utm_medium=api_v3_business_search&utm_source=HdhkN5EEH6lAqE3kwhsHEQ", "review_count": 30, "categories": [{"alias": "tradamerican", "title": "American (Traditional)"}, {"alias": "customcakes", "title": "Custom Cakes"}, {"alias": "cupcakes", "title": "Cupcakes"}], "rating": 4.0, "coordinates": {"latitude": 42.07298586522, "longitude": -71.7128923998244}, "transactions": [], "price": "$$", "location": {"address1": "338 Main St", "address2": null, "address3": null, "city": "Douglas", "zip_code": "01516", "country": "US", "state": "MA", "display_address": ["338 Main St", "Douglas, MA 01516"]}, "phone": "+15084767990", "display_phone": "(508) 476-7990", "distance": 3718.9029444983867}, {"id": "xVaaTuDNhQCB6tygRB2Vqw", "alias": "the-national-grill-sutton", "name": "The National Grill", "image_url": "https://s3-media3.fl.yelpcdn.com/bphoto/fM0fbN6GxgFETYvCpgZiFQ/o.jpg", "is_closed": false, "url": "https://www.yelp.com/biz/the-national-grill-sutton?adjust_creative=HdhkN5EEH6lAqE3kwhsHEQ&utm_campaign=yelp_api_v3&utm_medium=api_v3_business_search&utm_source=HdhkN5EEH6lAqE3kwhsHEQ", "review_count": 2, "categories": [{"alias": "tradamerican", "title": "American (Traditional)"}, {"alias": "burgers", "title": "Burgers"}, {"alias": "sandwiches", "title": "Sandwiches"}], "rating": 3.5, "coordinates": {"latitude": 42.120342, "longitude": -71.766884}, "transactions": [], "location": {"address1": "227 Putnam Hill Rd", "address2": "", "address3": "Blackstone National Golf Club", "city": "Sutton", "zip_code": "01590", "country": "US", "state": "MA", "display_address": ["227 Putnam Hill Rd", "Blackstone National Golf Club", "Sutton, MA 01590"]}, "phone": "+15088652111", "display_phone": "(508) 865-2111", "distance": 3318.631743148973}, {"id": "V7oq2Lo6fXER-uhV11IBaw", "alias": "harrys-famous-pizza-douglas", "name": "Harry's Famous Pizza", "image_url": "https://s3-media1.fl.yelpcdn.com/bphoto/xdmS0_OyR5zHpinMdv0S2g/o.jpg", "is_closed": false, "url": "https://www.yelp.com/biz/harrys-famous-pizza-douglas?adjust_creative=HdhkN5EEH6lAqE3kwhsHEQ&utm_campaign=yelp_api_v3&utm_medium=api_v3_business_search&utm_source=HdhkN5EEH6lAqE3kwhsHEQ", "review_count": 11, "categories": [{"alias": "pizza", "title": "Pizza"}, {"alias": "sandwiches", "title": "Sandwiches"}, {"alias": "wraps", "title": "Wraps"}], "rating": 3.5, "coordinates": {"latitude": 42.073373, "longitude": -71.712334}, "transactions": [], "location": {"address1": "324 Main St", "address2": "", "address3": "", "city": "Douglas", "zip_code": "01516", "country": "US", "state": "MA", "display_address": ["324 Main St", "Douglas, MA 01516"]}, "phone": "+15084764444", "display_phone": "(508) 476-4444", "distance": 3728.182519379643}, {"id": "CXJ3N_eb_nr902pO_a3GLQ", "alias": "gregorys-pizzaria-and-restaurant-douglas", "name": "Gregory's Pizzaria & Restaurant", "image_url": "https://s3-media2.fl.yelpcdn.com/bphoto/7M3WV2AGjbWCip3b0qq3dw/o.jpg", "is_closed": false, "url": "https://www.yelp.com/biz/gregorys-pizzaria-and-restaurant-douglas?adjust_creative=HdhkN5EEH6lAqE3kwhsHEQ&utm_campaign=yelp_api_v3&utm_medium=api_v3_business_search&utm_source=HdhkN5EEH6lAqE3kwhsHEQ", "review_count": 22, "categories": [{"alias": "pizza", "title": "Pizza"}, {"alias": "salad", "title": "Salad"}, {"alias": "italian", "title": "Italian"}], "rating": 3.0, "coordinates": {"latitude": 42.072576, "longitude": -71.712729}, "transactions": [], "price": "$", "location": {"address1": "303 Main St", "address2": "", "address3": "", "city": "Douglas", "zip_code": "01516", "country": "US", "state": "MA", "display_address": ["303 Main St", "Douglas, MA 01516"]}, "phone": "+15084762552", "display_phone": "(508) 476-2552", "distance": 3758.149647242089}, {"id": "-sYJ-MazNcftszOn2bBNwA", "alias": "douglas-house-of-pizza-douglas-2", "name": "Douglas House of Pizza", "image_url": "https://s3-media4.fl.yelpcdn.com/bphoto/GYqQEtQ55F5AqezbLVBjLg/o.jpg", "is_closed": false, "url": "https://www.yelp.com/biz/douglas-house-of-pizza-douglas-2?adjust_creative=HdhkN5EEH6lAqE3kwhsHEQ&utm_campaign=yelp_api_v3&utm_medium=api_v3_business_search&utm_source=HdhkN5EEH6lAqE3kwhsHEQ", "review_count": 18, "categories": [{"alias": "pizza", "title": "Pizza"}], "rating": 2.5, "coordinates": {"latitude": 42.0726474766066, "longitude": -71.7132919785042}, "transactions": [], "price": "$$", "location": {"address1": "296 Main St", "address2": null, "address3": null, "city": "Douglas", "zip_code": "01516", "country": "US", "state": "MA", "display_address": ["296 Main St", "Douglas, MA 01516"]}, "phone": "+15084762100", "display_phone": "(508) 476-2100", "distance": 3717.2644675737706}, {"id": "ezpiAbjAVEdb5gzkbc19FQ", "alias": "subway-whitinsville-5", "name": "Subway", "image_url": "https://s3-media1.fl.yelpcdn.com/bphoto/5D26EA4ucXJfAKgkQPruTA/o.jpg", "is_closed": false, "url": "https://www.yelp.com/biz/subway-whitinsville-5?adjust_creative=HdhkN5EEH6lAqE3kwhsHEQ&utm_campaign=yelp_api_v3&utm_medium=api_v3_business_search&utm_source=HdhkN5EEH6lAqE3kwhsHEQ", "review_count": 6, "categories": [{"alias": "sandwiches", "title": "Sandwiches"}], "rating": 2.0, "coordinates": {"latitude": 42.1076898334229, "longitude": -71.7000950436261}, "transactions": [], "price": "$", "location": {"address1": "100 Valley Pkwy", "address2": null, "address3": null, "city": "Whitinsville", "zip_code": "01588", "country": "US", "state": "MA", "display_address": ["100 Valley Pkwy", "Whitinsville, MA 01588"]}, "phone": "+15082342440", "display_phone": "(508) 234-2440", "distance": 4229.459311644965}]