[{"id": "XNhx5nEGbXKE4k0xXLijbw", "alias": "110-grill-athol", "name": "110 Grill", "image_url": "https://s3-media3.fl.yelpcdn.com/bphoto/_HxS-NfOJAqo0PFSUoOUxQ/o.jpg", "is_closed": false, "url": "https://www.yelp.com/biz/110-grill-athol?adjust_creative=ywY5UnLZrNrRl2b93Ruy_g&utm_campaign=yelp_api_v3&utm_medium=api_v3_business_search&utm_source=ywY5UnLZrNrRl2b93Ruy_g", "review_count": 57, "categories": [{"alias": "newamerican", "title": "American (New)"}, {"alias": "tradamerican", "title": "American (Traditional)"}, {"alias": "bars", "title": "Bars"}], "rating": 4.0, "coordinates": {"latitude": 42.580767, "longitude": -72.187031}, "transactions": [], "price": "$$", "location": {"address1": "307 Market Dr", "address2": null, "address3": "", "city": "Athol", "zip_code": "01331", "country": "US", "state": "MA", "display_address": ["307 Market Dr", "Athol, MA 01331"]}, "phone": "+19788304601", "display_phone": "(978) 830-4601", "distance": 1980.0395882420803}, {"id": "PkUQS1Egv8vhxxJtDVjBaA", "alias": "asia-gourmet-athol", "name": "Asia Gourmet", "image_url": "https://s3-media1.fl.yelpcdn.com/bphoto/GjsJgR7BC4fSlGm2Eopppw/o.jpg", "is_closed": false, "url": "https://www.yelp.com/biz/asia-gourmet-athol?adjust_creative=ywY5UnLZrNrRl2b93Ruy_g&utm_campaign=yelp_api_v3&utm_medium=api_v3_business_search&utm_source=ywY5UnLZrNrRl2b93Ruy_g", "review_count": 7, "categories": [{"alias": "chinese", "title": "Chinese"}, {"alias": "sushi", "title": "Sushi Bars"}, {"alias": "thai", "title": "Thai"}], "rating": 3.0, "coordinates": {"latitude": 42.58012, "longitude": -72.18376}, "transactions": [], "location": {"address1": "144 Market Dr", "address2": "", "address3": null, "city": "Athol", "zip_code": "01331", "country": "US", "state": "MA", "display_address": ["144 Market Dr", "Athol, MA 01331"]}, "phone": "+19782493918", "display_phone": "(978) 249-3918", "distance": 1715.398934593231}, {"id": "q0qhifHcJgTSAWMVAy4O-w", "alias": "old-time-new-england-seafood-company-athol-2", "name": "Old Time New England Seafood Company", "image_url": "https://s3-media1.fl.yelpcdn.com/bphoto/Sp6PDSBoupOkUCeEtuHD-g/o.jpg", "is_closed": false, "url": "https://www.yelp.com/biz/old-time-new-england-seafood-company-athol-2?adjust_creative=ywY5UnLZrNrRl2b93Ruy_g&utm_campaign=yelp_api_v3&utm_medium=api_v3_business_search&utm_source=ywY5UnLZrNrRl2b93Ruy_g", "review_count": 20, "categories": [{"alias": "seafood", "title": "Seafood"}], "rating": 4.0, "coordinates": {"latitude": 42.5840096, "longitude": -72.204467}, "transactions": [], "price": "$$", "location": {"address1": "2294 Main St", "address2": "", "address3": "", "city": "Athol", "zip_code": "01331", "country": "US", "state": "MA", "display_address": ["2294 Main St", "Athol, MA 01331"]}, "phone": "+19782495373", "display_phone": "(978) 249-5373", "distance": 3077.1238399815147}, {"id": "lUxVsuNo5syFd_cxEplvaA", "alias": "herricks-tavern-orange", "name": "Herrick's Tavern", "image_url": "https://s3-media1.fl.yelpcdn.com/bphoto/mAHqpOXGI32xph2DHpHtHg/o.jpg", "is_closed": false, "url": "https://www.yelp.com/biz/herricks-tavern-orange?adjust_creative=ywY5UnLZrNrRl2b93Ruy_g&utm_campaign=yelp_api_v3&utm_medium=api_v3_business_search&utm_source=ywY5UnLZrNrRl2b93Ruy_g", "review_count": 49, "categories": [{"alias": "tradamerican", "title": "American (Traditional)"}, {"alias": "sportsbars", "title": "Sports Bars"}], "rating": 4.0, "coordinates": {"latitude": 42.5542299, "longitude": -72.28915}, "transactions": [], "price": "$$", "location": {"address1": "207 Daniel Shays Hwy", "address2": null, "address3": null, "city": "Orange", "zip_code": "01364", "country": "US", "state": "MA", "display_address": ["207 Daniel Shays Hwy", "Orange, MA 01364"]}, "phone": "+19785443902", "display_phone": "(978) 544-3902", "distance": 9145.679561963427}, {"id": "MsAsPmMTX5uPzvmVov6B9w", "alias": "king-phillip-restaurant-phillipston", "name": "King Phillip Restaurant", "image_url": "https://s3-media1.fl.yelpcdn.com/bphoto/Pl_gxkYhcpKQ_chGNyuoqw/o.jpg", "is_closed": false, "url": "https://www.yelp.com/biz/king-phillip-restaurant-phillipston?adjust_creative=ywY5UnLZrNrRl2b93Ruy_g&utm_campaign=yelp_api_v3&utm_medium=api_v3_business_search&utm_source=ywY5UnLZrNrRl2b93Ruy_g", "review_count": 46, "categories": [{"alias": "tradamerican", "title": "American (Traditional)"}], "rating": 3.0, "coordinates": {"latitude": 42.5698651, "longitude": -72.1321599}, "transactions": [], "price": "$$", "location": {"address1": "35 State Rd", "address2": "", "address3": "", "city": "Phillipston", "zip_code": "01331", "country": "US", "state": "MA", "display_address": ["35 State Rd", "Phillipston, MA 01331"]}, "phone": "+19782496300", "display_phone": "(978) 249-6300", "distance": 3873.9985660814305}, {"id": "mxWNNxba4bmQ5ke5wQsQdw", "alias": "boiler-bar-and-grille-orange-2", "name": "Boiler Bar & Grille", "image_url": "https://s3-media2.fl.yelpcdn.com/bphoto/SxpP3zjHjOUTLdGZ_FWCXw/o.jpg", "is_closed": false, "url": "https://www.yelp.com/biz/boiler-bar-and-grille-orange-2?adjust_creative=ywY5UnLZrNrRl2b93Ruy_g&utm_campaign=yelp_api_v3&utm_medium=api_v3_business_search&utm_source=ywY5UnLZrNrRl2b93Ruy_g", "review_count": 33, "categories": [{"alias": "bars", "title": "Bars"}, {"alias": "tradamerican", "title": "American (Traditional)"}, {"alias": "bbq", "title": "Barbeque"}], "rating": 3.0, "coordinates": {"latitude": 42.636516, "longitude": -72.247943}, "transactions": [], "price": "$$", "location": {"address1": "245 Tully Rd", "address2": "", "address3": "", "city": "Orange", "zip_code": "01364", "country": "US", "state": "MA", "display_address": ["245 Tully Rd", "Orange, MA 01364"]}, "phone": "+19782489700", "display_phone": "(978) 248-9700", "distance": 9849.02924079391}, {"id": "G_PPROO9ccur-m-GWzbZmA", "alias": "quabbin-woods-restaurant-petersham", "name": "Quabbin Woods Restaurant", "image_url": "https://s3-media3.fl.yelpcdn.com/bphoto/w6hsjy3EUcuAd17n0h42Eg/o.jpg", "is_closed": false, "url": "https://www.yelp.com/biz/quabbin-woods-restaurant-petersham?adjust_creative=ywY5UnLZrNrRl2b93Ruy_g&utm_campaign=yelp_api_v3&utm_medium=api_v3_business_search&utm_source=ywY5UnLZrNrRl2b93Ruy_g", "review_count": 15, "categories": [{"alias": "newamerican", "title": "American (New)"}, {"alias": "comfortfood", "title": "Comfort Food"}, {"alias": "burgers", "title": "Burgers"}], "rating": 4.0, "coordinates": {"latitude": 42.481931, "longitude": -72.183534}, "transactions": [], "price": "$", "location": {"address1": "8 Barre Rd", "address2": "Ste RT", "address3": "", "city": "Petersham", "zip_code": "01366", "country": "US", "state": "MA", "display_address": ["8 Barre Rd", "Ste RT", "Petersham, MA 01366"]}, "phone": "+19787243288", "display_phone": "(978) 724-3288", "distance": 9136.41522738417}, {"id": "t7FbgEITiEReUrTte9mJiw", "alias": "clamber-hill-inn-and-restaurant-petersham-2", "name": "Clamber Hill Inn & Restaurant", "image_url": "https://s3-media1.fl.yelpcdn.com/bphoto/7rAzCt1SCY2BB_WPoLwT_g/o.jpg", "is_closed": false, "url": "https://www.yelp.com/biz/clamber-hill-inn-and-restaurant-petersham-2?adjust_creative=ywY5UnLZrNrRl2b93Ruy_g&utm_campaign=yelp_api_v3&utm_medium=api_v3_business_search&utm_source=ywY5UnLZrNrRl2b93Ruy_g", "review_count": 11, "categories": [{"alias": "tradamerican", "title": "American (Traditional)"}, {"alias": "whiskeybars", "title": "Whiskey Bars"}, {"alias": "winetasteclasses", "title": "Wine Tasting Classes"}], "rating": 4.0, "coordinates": {"latitude": 42.5031579313361, "longitude": -72.1865090608826}, "transactions": [], "price": "$$$", "location": {"address1": "111 N Main St", "address2": "", "address3": "", "city": "Petersham", "zip_code": "01366", "country": "US", "state": "MA", "display_address": ["111 N Main St", "Petersham, MA 01366"]}, "phone": "+19787248800", "display_phone": "(978) 724-8800", "distance": 6797.2531327460565}, {"id": "Gfjq1BF0s1vocvs5GDBtiQ", "alias": "soup-on-the-fly-athol", "name": "Soup On The Fly", "image_url": "https://s3-media3.fl.yelpcdn.com/bphoto/pLSSAJEqXccZVoYjC3fxTg/o.jpg", "is_closed": false, "url": "https://www.yelp.com/biz/soup-on-the-fly-athol?adjust_creative=ywY5UnLZrNrRl2b93Ruy_g&utm_campaign=yelp_api_v3&utm_medium=api_v3_business_search&utm_source=ywY5UnLZrNrRl2b93Ruy_g", "review_count": 60, "categories": [{"alias": "breakfast_brunch", "title": "Breakfast & Brunch"}, {"alias": "soup", "title": "Soup"}, {"alias": "sandwiches", "title": "Sandwiches"}], "rating": 5.0, "coordinates": {"latitude": 42.5901547959732, "longitude": -72.216189316008}, "transactions": [], "price": "$$", "location": {"address1": "1493 Main St", "address2": "", "address3": "", "city": "Athol", "zip_code": "01331", "country": "US", "state": "MA", "display_address": ["1493 Main St", "Athol, MA 01331"]}, "phone": "+19788304633", "display_phone": "(978) 830-4633", "distance": 4220.726892108481}, {"id": "KIzGy3Vh5zYbB0AD3aV_6w", "alias": "village-grill-and-pizzeria-athol", "name": "Village Grill & Pizzeria", "image_url": "https://s3-media3.fl.yelpcdn.com/bphoto/mcattaeuVmzdUjgB3xs8_g/o.jpg", "is_closed": false, "url": "https://www.yelp.com/biz/village-grill-and-pizzeria-athol?adjust_creative=ywY5UnLZrNrRl2b93Ruy_g&utm_campaign=yelp_api_v3&utm_medium=api_v3_business_search&utm_source=ywY5UnLZrNrRl2b93Ruy_g", "review_count": 5, "categories": [{"alias": "pizza", "title": "Pizza"}, {"alias": "tradamerican", "title": "American (Traditional)"}, {"alias": "chicken_wings", "title": "Chicken Wings"}], "rating": 4.5, "coordinates": {"latitude": 42.5919225, "longitude": -72.2411213}, "transactions": [], "price": "$", "location": {"address1": "131 S Main St", "address2": "", "address3": "", "city": "Athol", "zip_code": "01331", "country": "US", "state": "MA", "display_address": ["131 S Main St", "Athol, MA 01331"]}, "phone": "+19785750058", "display_phone": "(978) 575-0058", "distance": 5971.6723670331185}, {"id": "C7ThqIKJfCAMEvReN7_MYg", "alias": "main-street-grill-athol", "name": "Main Street Grill", "image_url": "https://s3-media4.fl.yelpcdn.com/bphoto/qwvmLJSTR3M4l7j2Bg9Z6g/o.jpg", "is_closed": false, "url": "https://www.yelp.com/biz/main-street-grill-athol?adjust_creative=ywY5UnLZrNrRl2b93Ruy_g&utm_campaign=yelp_api_v3&utm_medium=api_v3_business_search&utm_source=ywY5UnLZrNrRl2b93Ruy_g", "review_count": 5, "categories": [{"alias": "tradamerican", "title": "American (Traditional)"}], "rating": 4.0, "coordinates": {"latitude": 42.5938164, "longitude": -72.2300407}, "transactions": [], "location": {"address1": "491 Main St", "address2": "", "address3": "", "city": "Athol", "zip_code": "01331", "country": "US", "state": "MA", "display_address": ["491 Main St", "Athol, MA 01331"]}, "phone": "+19788304374", "display_phone": "(978) 830-4374", "distance": 5345.613192906829}, {"id": "2MVvyKZRr98i4egs3LMHHw", "alias": "white-cloud-diner-orange", "name": "White Cloud Diner", "image_url": "https://s3-media3.fl.yelpcdn.com/bphoto/VLhBY2lGr9Xf6KzBoWteoA/o.jpg", "is_closed": false, "url": "https://www.yelp.com/biz/white-cloud-diner-orange?adjust_creative=ywY5UnLZrNrRl2b93Ruy_g&utm_campaign=yelp_api_v3&utm_medium=api_v3_business_search&utm_source=ywY5UnLZrNrRl2b93Ruy_g", "review_count": 13, "categories": [{"alias": "diners", "title": "Diners"}], "rating": 4.0, "coordinates": {"latitude": 42.5746688842773, "longitude": -72.2816772460938}, "transactions": [], "price": "$", "location": {"address1": "627 E River St", "address2": null, "address3": "", "city": "Orange", "zip_code": "01364", "country": "US", "state": "MA", "display_address": ["627 E River St", "Orange, MA 01364"]}, "phone": "+19785446821", "display_phone": "(978) 544-6821", "distance": 8520.839334123166}, {"id": "NSR3gnnaeCJfL99xif_PNQ", "alias": "petersham-country-store-petersham", "name": "Petersham Country Store", "image_url": "https://s3-media2.fl.yelpcdn.com/bphoto/MGNdpq_qs24ltsY9fBcmWQ/o.jpg", "is_closed": false, "url": "https://www.yelp.com/biz/petersham-country-store-petersham?adjust_creative=ywY5UnLZrNrRl2b93Ruy_g&utm_campaign=yelp_api_v3&utm_medium=api_v3_business_search&utm_source=ywY5UnLZrNrRl2b93Ruy_g", "review_count": 29, "categories": [{"alias": "grocery", "title": "Grocery"}, {"alias": "cafes", "title": "Cafes"}, {"alias": "artsandcrafts", "title": "Arts & Crafts"}], "rating": 4.5, "coordinates": {"latitude": 42.48871, "longitude": -72.18573}, "transactions": [], "price": "$$", "location": {"address1": "2 N Main St", "address2": "", "address3": "", "city": "Petersham", "zip_code": "01366", "country": "US", "state": "MA", "display_address": ["2 N Main St", "Petersham, MA 01366"]}, "phone": "+19787240000", "display_phone": "(978) 724-0000", "distance": 8397.301668860015}, {"id": "P3gCKTfiKvq8JhCiqI-XVg", "alias": "tea-garden-restaurant-athol", "name": "Tea Garden Restaurant", "image_url": "https://s3-media3.fl.yelpcdn.com/bphoto/YikdjBs7rlNRUh78y0HYEQ/o.jpg", "is_closed": false, "url": "https://www.yelp.com/biz/tea-garden-restaurant-athol?adjust_creative=ywY5UnLZrNrRl2b93Ruy_g&utm_campaign=yelp_api_v3&utm_medium=api_v3_business_search&utm_source=ywY5UnLZrNrRl2b93Ruy_g", "review_count": 12, "categories": [{"alias": "chinese", "title": "Chinese"}], "rating": 2.5, "coordinates": {"latitude": 42.5936470031738, "longitude": -72.2273483276367}, "transactions": [], "price": "$$", "location": {"address1": "631 Main St", "address2": null, "address3": null, "city": "Athol", "zip_code": "01331", "country": "US", "state": "MA", "display_address": ["631 Main St", "Athol, MA 01331"]}, "phone": "+19782498388", "display_phone": "(978) 249-8388", "distance": 5179.693787948156}, {"id": "3t_Qa1MxsD0KTBbvefT-hw", "alias": "great-wall-chinese-restaurant-templeton-2", "name": "Great Wall Chinese Restaurant", "image_url": "https://s3-media1.fl.yelpcdn.com/bphoto/xoVVGL1XAyzXWWCosHO5QQ/o.jpg", "is_closed": false, "url": "https://www.yelp.com/biz/great-wall-chinese-restaurant-templeton-2?adjust_creative=ywY5UnLZrNrRl2b93Ruy_g&utm_campaign=yelp_api_v3&utm_medium=api_v3_business_search&utm_source=ywY5UnLZrNrRl2b93Ruy_g", "review_count": 18, "categories": [{"alias": "chinese", "title": "Chinese"}], "rating": 4.0, "coordinates": {"latitude": 42.6069717, "longitude": -72.0744476}, "transactions": [], "price": "$$", "location": {"address1": "5 Central St", "address2": "", "address3": "", "city": "Templeton", "zip_code": "01436", "country": "US", "state": "MA", "display_address": ["5 Central St", "Templeton, MA 01436"]}, "phone": "+19789398600", "display_phone": "(978) 939-8600", "distance": 9787.76518716014}, {"id": "8UGk7xXWl2S1sukzncygOA", "alias": "friendly-town-pizza-athol", "name": "Friendly Town Pizza", "image_url": "https://s3-media2.fl.yelpcdn.com/bphoto/p3xHl6JjujdkBj7l85xrnw/o.jpg", "is_closed": false, "url": "https://www.yelp.com/biz/friendly-town-pizza-athol?adjust_creative=ywY5UnLZrNrRl2b93Ruy_g&utm_campaign=yelp_api_v3&utm_medium=api_v3_business_search&utm_source=ywY5UnLZrNrRl2b93Ruy_g", "review_count": 30, "categories": [{"alias": "pizza", "title": "Pizza"}], "rating": 4.5, "coordinates": {"latitude": 42.581438, "longitude": -72.261868}, "transactions": [], "price": "$$", "location": {"address1": "1604 S Main St", "address2": null, "address3": null, "city": "Athol", "zip_code": "01331", "country": "US", "state": "MA", "display_address": ["1604 S Main St", "Athol, MA 01331"]}, "phone": "+19782493651", "display_phone": "(978) 249-3651", "distance": 7072.184861618385}, {"id": "yeqwDdLvP_9693lzRpAPug", "alias": "zedas-athol", "name": "Zedas", "image_url": "https://s3-media2.fl.yelpcdn.com/bphoto/Vn1AWiq6c0ATtDW7Za8U8w/o.jpg", "is_closed": false, "url": "https://www.yelp.com/biz/zedas-athol?adjust_creative=ywY5UnLZrNrRl2b93Ruy_g&utm_campaign=yelp_api_v3&utm_medium=api_v3_business_search&utm_source=ywY5UnLZrNrRl2b93Ruy_g", "review_count": 11, "categories": [{"alias": "pizza", "title": "Pizza"}], "rating": 3.0, "coordinates": {"latitude": 42.5920096, "longitude": -72.2316385}, "transactions": [], "price": "$$", "location": {"address1": "11 Tunnel St", "address2": "", "address3": "", "city": "Athol", "zip_code": "01331", "country": "US", "state": "MA", "display_address": ["11 Tunnel St", "Athol, MA 01331"]}, "phone": "+19782499876", "display_phone": "(978) 249-9876", "distance": 5316.600863135626}, {"id": "421ECUnYmdE2Ct1Wm4O4gQ", "alias": "tea-house-orange", "name": "Tea House", "image_url": "https://s3-media1.fl.yelpcdn.com/bphoto/KvF3hIcpyxXCyvSXlCV0aQ/o.jpg", "is_closed": false, "url": "https://www.yelp.com/biz/tea-house-orange?adjust_creative=ywY5UnLZrNrRl2b93Ruy_g&utm_campaign=yelp_api_v3&utm_medium=api_v3_business_search&utm_source=ywY5UnLZrNrRl2b93Ruy_g", "review_count": 24, "categories": [{"alias": "chinese", "title": "Chinese"}], "rating": 3.0, "coordinates": {"latitude": 42.58773, "longitude": -72.2954}, "transactions": [], "price": "$$", "location": {"address1": "326 E Main St", "address2": "", "address3": "", "city": "Orange", "zip_code": "01364", "country": "US", "state": "MA", "display_address": ["326 E Main St", "Orange, MA 01364"]}, "phone": "+19785443802", "display_phone": "(978) 544-3802", "distance": 9907.079524826691}, {"id": "OOfG7vHmJhU1ii-XvDu1oA", "alias": "nicks-breakfast-and-lunch-athol", "name": "Nicks Breakfast and Lunch", "image_url": "https://s3-media3.fl.yelpcdn.com/bphoto/DkQ81_0J-azZTYh2pL_hfg/o.jpg", "is_closed": false, "url": "https://www.yelp.com/biz/nicks-breakfast-and-lunch-athol?adjust_creative=ywY5UnLZrNrRl2b93Ruy_g&utm_campaign=yelp_api_v3&utm_medium=api_v3_business_search&utm_source=ywY5UnLZrNrRl2b93Ruy_g", "review_count": 16, "categories": [{"alias": "breakfast_brunch", "title": "Breakfast & Brunch"}], "rating": 3.5, "coordinates": {"latitude": 42.5937958, "longitude": -72.228775}, "transactions": [], "price": "$$", "location": {"address1": "567 Main St", "address2": "", "address3": "", "city": "Athol", "zip_code": "01331", "country": "US", "state": "MA", "display_address": ["567 Main St", "Athol, MA 01331"]}, "phone": "+19782498400", "display_phone": "(978) 249-8400", "distance": 5240.38247169856}, {"id": "hce2WyKR6p9j0zGa3cl1lg", "alias": "wendys-athol", "name": "Wendy's", "image_url": "https://s3-media1.fl.yelpcdn.com/bphoto/eVXgbWFKJOuB6TAuoTftyw/o.jpg", "is_closed": false, "url": "https://www.yelp.com/biz/wendys-athol?adjust_creative=ywY5UnLZrNrRl2b93Ruy_g&utm_campaign=yelp_api_v3&utm_medium=api_v3_business_search&utm_source=ywY5UnLZrNrRl2b93Ruy_g", "review_count": 1, "categories": [{"alias": "burgers", "title": "Burgers"}, {"alias": "hotdogs", "title": "Fast Food"}], "rating": 1.0, "coordinates": {"latitude": 42.58012, "longitude": -72.18376}, "transactions": [], "location": {"address1": "56 Market Dr", "address2": null, "address3": null, "city": "Athol", "zip_code": "01331", "country": "US", "state": "MA", "display_address": ["56 Market Dr", "Athol, MA 01331"]}, "phone": "", "display_phone": "", "distance": 1851.4819005236382}, {"id": "OCz5muYPUncuu6_eTwY_aQ", "alias": "royalston-general-store-royalston", "name": "Royalston General Store", "image_url": "https://s3-media2.fl.yelpcdn.com/bphoto/dwJ29OIt0IIcgVpQOvnGPw/o.jpg", "is_closed": false, "url": "https://www.yelp.com/biz/royalston-general-store-royalston?adjust_creative=ywY5UnLZrNrRl2b93Ruy_g&utm_campaign=yelp_api_v3&utm_medium=api_v3_business_search&utm_source=ywY5UnLZrNrRl2b93Ruy_g", "review_count": 2, "categories": [{"alias": "breakfast_brunch", "title": "Breakfast & Brunch"}], "rating": 4.0, "coordinates": {"latitude": 42.63058, "longitude": -72.14802}, "transactions": [], "location": {"address1": "21 Main St", "address2": "", "address3": "", "city": "Royalston", "zip_code": "01368", "country": "US", "state": "MA", "display_address": ["21 Main St", "Royalston, MA 01368"]}, "phone": "+19782499798", "display_phone": "(978) 249-9798", "distance": 7813.099594626828}, {"id": "yiV75hVHG23qJ3ESA1MzRg", "alias": "202-grill-nos-age-orange", "name": "202 Grill Nos/Age", "image_url": "https://s3-media3.fl.yelpcdn.com/bphoto/opbKFoo58C8lRuy_kJ53VQ/o.jpg", "is_closed": false, "url": "https://www.yelp.com/biz/202-grill-nos-age-orange?adjust_creative=ywY5UnLZrNrRl2b93Ruy_g&utm_campaign=yelp_api_v3&utm_medium=api_v3_business_search&utm_source=ywY5UnLZrNrRl2b93Ruy_g", "review_count": 8, "categories": [{"alias": "tradamerican", "title": "American (Traditional)"}], "rating": 3.5, "coordinates": {"latitude": 42.55423, "longitude": -72.28915}, "transactions": [], "price": "$$$", "location": {"address1": "207 Daniel Shay Hwy", "address2": "Route 202", "address3": "", "city": "Orange", "zip_code": "01364", "country": "US", "state": "MA", "display_address": ["207 Daniel Shay Hwy", "Route 202", "Orange, MA 01364"]}, "phone": "+19785443902", "display_phone": "(978) 544-3902", "distance": 9145.679561963427}, {"id": "o1Xpz68xeOYNEvl132r79g", "alias": "domino-s-athol", "name": "Domino\u2019s", "image_url": "", "is_closed": false, "url": "https://www.yelp.com/biz/domino-s-athol?adjust_creative=ywY5UnLZrNrRl2b93Ruy_g&utm_campaign=yelp_api_v3&utm_medium=api_v3_business_search&utm_source=ywY5UnLZrNrRl2b93Ruy_g", "review_count": 1, "categories": [{"alias": "pizza", "title": "Pizza"}], "rating": 2.0, "coordinates": {"latitude": 42.593632, "longitude": -72.23293}, "transactions": [], "location": {"address1": "321 Main St", "address2": "", "address3": null, "city": "Athol", "zip_code": "01331", "country": "US", "state": "MA", "display_address": ["321 Main St", "Athol, MA 01331"]}, "phone": "+19783307676", "display_phone": "(978) 330-7676", "distance": 5520.970603989812}, {"id": "Kr3vRRhCDsLj6LY6OEaR5A", "alias": "king-phillip-motel-phillipston", "name": "King Phillip Motel", "image_url": "", "is_closed": false, "url": "https://www.yelp.com/biz/king-phillip-motel-phillipston?adjust_creative=ywY5UnLZrNrRl2b93Ruy_g&utm_campaign=yelp_api_v3&utm_medium=api_v3_business_search&utm_source=ywY5UnLZrNrRl2b93Ruy_g", "review_count": 3, "categories": [{"alias": "hotels", "title": "Hotels"}, {"alias": "restaurants", "title": "Restaurants"}], "rating": 3.0, "coordinates": {"latitude": 42.5698651, "longitude": -72.1321599}, "transactions": [], "location": {"address1": "35 State Rd", "address2": "", "address3": "", "city": "Phillipston", "zip_code": "01331", "country": "US", "state": "MA", "display_address": ["35 State Rd", "Phillipston, MA 01331"]}, "phone": "+19782495300", "display_phone": "(978) 249-5300", "distance": 3873.9985660814305}, {"id": "MUs396IkY6SHf4pI0l9gnA", "alias": "tool-town-pizza-athol", "name": "Tool Town Pizza", "image_url": "https://s3-media3.fl.yelpcdn.com/bphoto/UGHTbZneNVMJgB1e2ziCow/o.jpg", "is_closed": false, "url": "https://www.yelp.com/biz/tool-town-pizza-athol?adjust_creative=ywY5UnLZrNrRl2b93Ruy_g&utm_campaign=yelp_api_v3&utm_medium=api_v3_business_search&utm_source=ywY5UnLZrNrRl2b93Ruy_g", "review_count": 11, "categories": [{"alias": "pizza", "title": "Pizza"}, {"alias": "italian", "title": "Italian"}], "rating": 3.5, "coordinates": {"latitude": 42.595664, "longitude": -72.232418}, "transactions": [], "price": "$", "location": {"address1": "246 Exchange St", "address2": "", "address3": "", "city": "Athol", "zip_code": "01331", "country": "US", "state": "MA", "display_address": ["246 Exchange St", "Athol, MA 01331"]}, "phone": "+19782493366", "display_phone": "(978) 249-3366", "distance": 5625.791839126317}, {"id": "F4yelOONhwZOpJIDLvnHMQ", "alias": "nikis-pizza-athol", "name": "Niki's Pizza", "image_url": "https://s3-media3.fl.yelpcdn.com/bphoto/9wYpf3PUarCCpmLsrm2dNg/o.jpg", "is_closed": false, "url": "https://www.yelp.com/biz/nikis-pizza-athol?adjust_creative=ywY5UnLZrNrRl2b93Ruy_g&utm_campaign=yelp_api_v3&utm_medium=api_v3_business_search&utm_source=ywY5UnLZrNrRl2b93Ruy_g", "review_count": 5, "categories": [{"alias": "pizza", "title": "Pizza"}], "rating": 2.5, "coordinates": {"latitude": 42.58874, "longitude": -72.215375}, "transactions": [], "price": "$", "location": {"address1": "1261 Chestnut St", "address2": null, "address3": null, "city": "Athol", "zip_code": "01331", "country": "US", "state": "MA", "display_address": ["1261 Chestnut St", "Athol, MA 01331"]}, "phone": "+19782492500", "display_phone": "(978) 249-2500", "distance": 4064.659647867656}, {"id": "BTJ-cXSsKXrXtSrhPFqD8A", "alias": "eight-dragons-take-out-restaurant-athol", "name": "Eight Dragons Take-Out Restaurant", "image_url": "https://s3-media3.fl.yelpcdn.com/bphoto/zJLO1P1o6vR28A5g2tRc0w/o.jpg", "is_closed": false, "url": "https://www.yelp.com/biz/eight-dragons-take-out-restaurant-athol?adjust_creative=ywY5UnLZrNrRl2b93Ruy_g&utm_campaign=yelp_api_v3&utm_medium=api_v3_business_search&utm_source=ywY5UnLZrNrRl2b93Ruy_g", "review_count": 17, "categories": [{"alias": "chinese", "title": "Chinese"}, {"alias": "seafood", "title": "Seafood"}], "rating": 2.5, "coordinates": {"latitude": 42.593049, "longitude": -72.234464}, "transactions": [], "price": "$$", "location": {"address1": "32 Freedom St", "address2": "", "address3": "", "city": "Athol", "zip_code": "01331", "country": "US", "state": "MA", "display_address": ["32 Freedom St", "Athol, MA 01331"]}, "phone": "+19782492777", "display_phone": "(978) 249-2777", "distance": 5585.297837073231}, {"id": "RTLXoRUCWGbObYnKnRVZJg", "alias": "baldwinville-station-baldwinville", "name": "Baldwinville Station", "image_url": "https://s3-media1.fl.yelpcdn.com/bphoto/HXetzYz2BV8jltsAmMa1-g/o.jpg", "is_closed": false, "url": "https://www.yelp.com/biz/baldwinville-station-baldwinville?adjust_creative=ywY5UnLZrNrRl2b93Ruy_g&utm_campaign=yelp_api_v3&utm_medium=api_v3_business_search&utm_source=ywY5UnLZrNrRl2b93Ruy_g", "review_count": 18, "categories": [{"alias": "breakfast_brunch", "title": "Breakfast & Brunch"}, {"alias": "tradamerican", "title": "American (Traditional)"}], "rating": 3.5, "coordinates": {"latitude": 42.6078996849769, "longitude": -72.0744104798049}, "transactions": [], "price": "$", "location": {"address1": "9 Circle St", "address2": null, "address3": null, "city": "Baldwinville", "zip_code": "01436", "country": "US", "state": "MA", "display_address": ["9 Circle St", "Baldwinville, MA 01436"]}, "phone": "+19789394800", "display_phone": "(978) 939-4800", "distance": 9840.980214785386}, {"id": "R-vkZRm9n6wLsApICyGAaw", "alias": "athol-house-of-pizza-restaurant-and-bakery-athol", "name": "Athol House of Pizza Restaurant & Bakery", "image_url": "https://s3-media4.fl.yelpcdn.com/bphoto/3FRiTWJglhE7qOR6gZdMTw/o.jpg", "is_closed": false, "url": "https://www.yelp.com/biz/athol-house-of-pizza-restaurant-and-bakery-athol?adjust_creative=ywY5UnLZrNrRl2b93Ruy_g&utm_campaign=yelp_api_v3&utm_medium=api_v3_business_search&utm_source=ywY5UnLZrNrRl2b93Ruy_g", "review_count": 25, "categories": [{"alias": "bakeries", "title": "Bakeries"}, {"alias": "pizza", "title": "Pizza"}], "rating": 3.0, "coordinates": {"latitude": 42.594047, "longitude": -72.229459}, "transactions": [], "price": "$$", "location": {"address1": "522 Main St", "address2": null, "address3": "", "city": "Athol", "zip_code": "01331", "country": "US", "state": "MA", "display_address": ["522 Main St", "Athol, MA 01331"]}, "phone": "+19782493762", "display_phone": "(978) 249-3762", "distance": 5324.350656237867}, {"id": "Z6I1yY7uBkBmaLe1L_3VJQ", "alias": "taco-bell-athol-2", "name": "Taco Bell", "image_url": "https://s3-media2.fl.yelpcdn.com/bphoto/8PYbTsrS-GRRYMzbtp7Kaw/o.jpg", "is_closed": false, "url": "https://www.yelp.com/biz/taco-bell-athol-2?adjust_creative=ywY5UnLZrNrRl2b93Ruy_g&utm_campaign=yelp_api_v3&utm_medium=api_v3_business_search&utm_source=ywY5UnLZrNrRl2b93Ruy_g", "review_count": 1, "categories": [{"alias": "tacos", "title": "Tacos"}, {"alias": "hotdogs", "title": "Fast Food"}], "rating": 4.0, "coordinates": {"latitude": 42.58012, "longitude": -72.18376}, "transactions": [], "location": {"address1": "79 Market Dr", "address2": null, "address3": null, "city": "Athol", "zip_code": "01331", "country": "US", "state": "MA", "display_address": ["79 Market Dr", "Athol, MA 01331"]}, "phone": "", "display_phone": "", "distance": 1847.442300620398}, {"id": "iVk5L0JWf_92isJK9JWpwA", "alias": "village-pizza-and-subs-baldwinville-2", "name": "Village Pizza & Subs", "image_url": "https://s3-media2.fl.yelpcdn.com/bphoto/MccvnRH-t1sS0jyeKzBrCQ/o.jpg", "is_closed": false, "url": "https://www.yelp.com/biz/village-pizza-and-subs-baldwinville-2?adjust_creative=ywY5UnLZrNrRl2b93Ruy_g&utm_campaign=yelp_api_v3&utm_medium=api_v3_business_search&utm_source=ywY5UnLZrNrRl2b93Ruy_g", "review_count": 6, "categories": [{"alias": "pizza", "title": "Pizza"}, {"alias": "seafood", "title": "Seafood"}], "rating": 4.0, "coordinates": {"latitude": 42.60683, "longitude": -72.07494}, "transactions": [], "price": "$", "location": {"address1": "5 Elm St", "address2": "", "address3": "", "city": "Baldwinville", "zip_code": "01436", "country": "US", "state": "MA", "display_address": ["5 Elm St", "Baldwinville, MA 01436"]}, "phone": "+19789394401", "display_phone": "(978) 939-4401", "distance": 9743.74676992836}, {"id": "VIUwZgCQnwpbB2w2Xbr5CA", "alias": "annes-dairy-drive-in-orange", "name": "Anne's Dairy Drive-In", "image_url": "https://s3-media2.fl.yelpcdn.com/bphoto/-Z0ToiFKnU69bQkKByRxHQ/o.jpg", "is_closed": false, "url": "https://www.yelp.com/biz/annes-dairy-drive-in-orange?adjust_creative=ywY5UnLZrNrRl2b93Ruy_g&utm_campaign=yelp_api_v3&utm_medium=api_v3_business_search&utm_source=ywY5UnLZrNrRl2b93Ruy_g", "review_count": 31, "categories": [{"alias": "seafood", "title": "Seafood"}, {"alias": "icecream", "title": "Ice Cream & Frozen Yogurt"}], "rating": 4.0, "coordinates": {"latitude": 42.587263, "longitude": -72.292644}, "transactions": [], "price": "$", "location": {"address1": "360 E Main St", "address2": "", "address3": "", "city": "Orange", "zip_code": "01364", "country": "US", "state": "MA", "display_address": ["360 E Main St", "Orange, MA 01364"]}, "phone": "+19785442093", "display_phone": "(978) 544-2093", "distance": 9720.736471028235}, {"id": "RiVxyVtL8fxMb2kYP0zutA", "alias": "moms-country-kitchen-orange", "name": "Moms Country Kitchen", "image_url": "https://s3-media2.fl.yelpcdn.com/bphoto/3_oYhJcGjKqGj3iuDH_r1Q/o.jpg", "is_closed": false, "url": "https://www.yelp.com/biz/moms-country-kitchen-orange?adjust_creative=ywY5UnLZrNrRl2b93Ruy_g&utm_campaign=yelp_api_v3&utm_medium=api_v3_business_search&utm_source=ywY5UnLZrNrRl2b93Ruy_g", "review_count": 2, "categories": [{"alias": "breakfast_brunch", "title": "Breakfast & Brunch"}], "rating": 1.0, "coordinates": {"latitude": 42.58912, "longitude": -72.29988}, "transactions": [], "location": {"address1": "217 E Main St", "address2": "", "address3": null, "city": "Orange", "zip_code": "01364", "country": "US", "state": "MA", "display_address": ["217 E Main St", "Orange, MA 01364"]}, "phone": "+19789393233", "display_phone": "(978) 939-3233", "distance": 10298.606007561952}, {"id": "M5aNw3UEOPiibQ_zBw_Ohg", "alias": "lees-hot-dog-stand-baldwinville", "name": "Lee's Hot Dog Stand", "image_url": "https://s3-media4.fl.yelpcdn.com/bphoto/J3cQ7PZ1EOSmKIgQ-UpBRw/o.jpg", "is_closed": false, "url": "https://www.yelp.com/biz/lees-hot-dog-stand-baldwinville?adjust_creative=ywY5UnLZrNrRl2b93Ruy_g&utm_campaign=yelp_api_v3&utm_medium=api_v3_business_search&utm_source=ywY5UnLZrNrRl2b93Ruy_g", "review_count": 5, "categories": [{"alias": "restaurants", "title": "Restaurants"}], "rating": 2.5, "coordinates": {"latitude": 42.60635, "longitude": -72.072093}, "transactions": [], "price": "$", "location": {"address1": "31 Central St", "address2": "", "address3": "", "city": "Baldwinville", "zip_code": "01436", "country": "US", "state": "MA", "display_address": ["31 Central St", "Baldwinville, MA 01436"]}, "phone": "+19789395346", "display_phone": "(978) 939-5346", "distance": 9923.433240857588}, {"id": "7ccuuvYz9PAUMZ-2VVBZZw", "alias": "pizza-factory-orange", "name": "Pizza Factory", "image_url": "https://s3-media3.fl.yelpcdn.com/bphoto/bb8FyfINlCRnHsfbwKu_jA/o.jpg", "is_closed": false, "url": "https://www.yelp.com/biz/pizza-factory-orange?adjust_creative=ywY5UnLZrNrRl2b93Ruy_g&utm_campaign=yelp_api_v3&utm_medium=api_v3_business_search&utm_source=ywY5UnLZrNrRl2b93Ruy_g", "review_count": 5, "categories": [{"alias": "pizza", "title": "Pizza"}], "rating": 3.0, "coordinates": {"latitude": 42.59063, "longitude": -72.31046}, "transactions": [], "price": "$", "location": {"address1": "11 W Main St", "address2": "", "address3": "", "city": "Orange", "zip_code": "01364", "country": "US", "state": "MA", "display_address": ["11 W Main St", "Orange, MA 01364"]}, "phone": "+19785445818", "display_phone": "(978) 544-5818", "distance": 11176.662217559287}, {"id": "LyHOEwOxC1AhaI3WcWvHHw", "alias": "subway-athol-4", "name": "Subway", "image_url": "https://s3-media2.fl.yelpcdn.com/bphoto/Nx4UlEcn3DY-iWlOIEh7Pw/o.jpg", "is_closed": false, "url": "https://www.yelp.com/biz/subway-athol-4?adjust_creative=ywY5UnLZrNrRl2b93Ruy_g&utm_campaign=yelp_api_v3&utm_medium=api_v3_business_search&utm_source=ywY5UnLZrNrRl2b93Ruy_g", "review_count": 1, "categories": [{"alias": "sandwiches", "title": "Sandwiches"}], "rating": 1.0, "coordinates": {"latitude": 42.5844830027347, "longitude": -72.2049929815626}, "transactions": [], "price": "$", "location": {"address1": "2250 Main St", "address2": "", "address3": "", "city": "Athol", "zip_code": "01331", "country": "US", "state": "MA", "display_address": ["2250 Main St", "Athol, MA 01331"]}, "phone": "+19782495001", "display_phone": "(978) 249-5001", "distance": 3126.524941123497}, {"id": "JsyervcPMfFnRwRbtdsIAg", "alias": "the-pizza-barn-baldwinville", "name": "The Pizza Barn", "image_url": "https://s3-media1.fl.yelpcdn.com/bphoto/Ce7-bTdAMVVbfEbue3hUog/o.jpg", "is_closed": false, "url": "https://www.yelp.com/biz/the-pizza-barn-baldwinville?adjust_creative=ywY5UnLZrNrRl2b93Ruy_g&utm_campaign=yelp_api_v3&utm_medium=api_v3_business_search&utm_source=ywY5UnLZrNrRl2b93Ruy_g", "review_count": 5, "categories": [{"alias": "pizza", "title": "Pizza"}, {"alias": "italian", "title": "Italian"}, {"alias": "mediterranean", "title": "Mediterranean"}], "rating": 2.0, "coordinates": {"latitude": 42.60673, "longitude": -72.07426}, "transactions": [], "price": "$$", "location": {"address1": "9 Central St", "address2": "", "address3": "", "city": "Baldwinville", "zip_code": "01436", "country": "US", "state": "MA", "display_address": ["9 Central St", "Baldwinville, MA 01436"]}, "phone": "+19789392156", "display_phone": "(978) 939-2156", "distance": 9801.121110926879}, {"id": "U4ZdIbDtIlwXYbEzzDtiCQ", "alias": "mcdonalds-athol", "name": "McDonald's", "image_url": "https://s3-media1.fl.yelpcdn.com/bphoto/FSBdlAPNx4Un2ivWTJTteA/o.jpg", "is_closed": false, "url": "https://www.yelp.com/biz/mcdonalds-athol?adjust_creative=ywY5UnLZrNrRl2b93Ruy_g&utm_campaign=yelp_api_v3&utm_medium=api_v3_business_search&utm_source=ywY5UnLZrNrRl2b93Ruy_g", "review_count": 16, "categories": [{"alias": "burgers", "title": "Burgers"}, {"alias": "hotdogs", "title": "Fast Food"}, {"alias": "coffee", "title": "Coffee & Tea"}], "rating": 2.5, "coordinates": {"latitude": 42.5814984273631, "longitude": -72.2548806667328}, "transactions": [], "price": "$", "location": {"address1": "100 Brookside Rd", "address2": "", "address3": "", "city": "Athol", "zip_code": "01331", "country": "US", "state": "MA", "display_address": ["100 Brookside Rd", "Athol, MA 01331"]}, "phone": "+19782499866", "display_phone": "(978) 249-9866", "distance": 6525.763441018534}, {"id": "WY4tfGTemDlVoqEA7TnZLw", "alias": "subway-orange-65", "name": "Subway", "image_url": "https://s3-media1.fl.yelpcdn.com/bphoto/yHsfwTIjg-rqZZxw4IC2Ww/o.jpg", "is_closed": false, "url": "https://www.yelp.com/biz/subway-orange-65?adjust_creative=ywY5UnLZrNrRl2b93Ruy_g&utm_campaign=yelp_api_v3&utm_medium=api_v3_business_search&utm_source=ywY5UnLZrNrRl2b93Ruy_g", "review_count": 3, "categories": [{"alias": "sandwiches", "title": "Sandwiches"}], "rating": 3.0, "coordinates": {"latitude": 42.5906842536539, "longitude": -72.309052020203}, "transactions": [], "price": "$", "location": {"address1": "12 E Main St", "address2": null, "address3": null, "city": "Orange", "zip_code": "01364", "country": "US", "state": "MA", "display_address": ["12 E Main St", "Orange, MA 01364"]}, "phone": "+19785442498", "display_phone": "(978) 544-2498", "distance": 11069.204716575574}]