[{"id": "EjmoByvU0tm0QJaFe6EA6Q", "alias": "bread-basket-russell", "name": "Bread Basket", "image_url": "https://s3-media3.fl.yelpcdn.com/bphoto/ocWZQw9hDfydLXdpIv6d6Q/o.jpg", "is_closed": false, "url": "https://www.yelp.com/biz/bread-basket-russell?adjust_creative=asslzE1UV0XuKI953B1vtw&utm_campaign=yelp_api_v3&utm_medium=api_v3_business_search&utm_source=asslzE1UV0XuKI953B1vtw", "review_count": 11, "categories": [{"alias": "bakeries", "title": "Bakeries"}, {"alias": "sandwiches", "title": "Sandwiches"}, {"alias": "desserts", "title": "Desserts"}], "rating": 5.0, "coordinates": {"latitude": 42.16665, "longitude": -72.860528}, "transactions": [], "price": "$", "location": {"address1": "815 Blandford Rd", "address2": null, "address3": null, "city": "Russell", "zip_code": "01071", "country": "US", "state": "MA", "display_address": ["815 Blandford Rd", "Russell, MA 01071"]}, "phone": "+14138620044", "display_phone": "(413) 862-0044", "distance": 561.865866690655}, {"id": "cdlN_aSJOn0EDVexGo0v5g", "alias": "comfort-kitchen-and-bar-huntington-2", "name": "Comfort Kitchen and Bar", "image_url": "https://s3-media2.fl.yelpcdn.com/bphoto/iKDnV5pwo5kA3mJBjTyPeQ/o.jpg", "is_closed": false, "url": "https://www.yelp.com/biz/comfort-kitchen-and-bar-huntington-2?adjust_creative=asslzE1UV0XuKI953B1vtw&utm_campaign=yelp_api_v3&utm_medium=api_v3_business_search&utm_source=asslzE1UV0XuKI953B1vtw", "review_count": 36, "categories": [{"alias": "bars", "title": "Bars"}, {"alias": "tradamerican", "title": "American (Traditional)"}], "rating": 4.5, "coordinates": {"latitude": 42.2348748399165, "longitude": -72.8799170197082}, "transactions": [], "price": "$$", "location": {"address1": "4 Main St", "address2": "", "address3": null, "city": "Huntington", "zip_code": "01050", "country": "US", "state": "MA", "display_address": ["4 Main St", "Huntington, MA 01050"]}, "phone": "+14132073011", "display_phone": "(413) 207-3011", "distance": 7623.870367232796}, {"id": "8w4W6zR1PESowk4u_aLYIg", "alias": "russell-inn-russell", "name": "Russell Inn", "image_url": "https://s3-media3.fl.yelpcdn.com/bphoto/KL8hMD_bTwenuL1D9cYS1w/o.jpg", "is_closed": false, "url": "https://www.yelp.com/biz/russell-inn-russell?adjust_creative=asslzE1UV0XuKI953B1vtw&utm_campaign=yelp_api_v3&utm_medium=api_v3_business_search&utm_source=asslzE1UV0XuKI953B1vtw", "review_count": 39, "categories": [{"alias": "hotels", "title": "Hotels"}, {"alias": "newamerican", "title": "American (New)"}, {"alias": "lounges", "title": "Lounges"}], "rating": 3.5, "coordinates": {"latitude": 42.163813860793, "longitude": -72.8284650158691}, "transactions": [], "price": "$$", "location": {"address1": "65 Westfield Rd", "address2": "", "address3": "", "city": "Russell", "zip_code": "01071", "country": "US", "state": "MA", "display_address": ["65 Westfield Rd", "Russell, MA 01071"]}, "phone": "+14138623608", "display_phone": "(413) 862-3608", "distance": 2217.5514263653904}, {"id": "L23iQ-ONcUb0edZeJJX_nA", "alias": "chester-common-table-chester", "name": "Chester Common Table", "image_url": "https://s3-media4.fl.yelpcdn.com/bphoto/DAStUuP7cBK4DbiHf3HhTQ/o.jpg", "is_closed": false, "url": "https://www.yelp.com/biz/chester-common-table-chester?adjust_creative=asslzE1UV0XuKI953B1vtw&utm_campaign=yelp_api_v3&utm_medium=api_v3_business_search&utm_source=asslzE1UV0XuKI953B1vtw", "review_count": 32, "categories": [{"alias": "comfortfood", "title": "Comfort Food"}, {"alias": "tradamerican", "title": "American (Traditional)"}], "rating": 4.5, "coordinates": {"latitude": 42.280002, "longitude": -72.980058}, "transactions": [], "price": "$$", "location": {"address1": "30 Main St", "address2": null, "address3": "", "city": "Chester", "zip_code": "01011", "country": "US", "state": "MA", "display_address": ["30 Main St", "Chester, MA 01011"]}, "phone": "+14133541076", "display_phone": "(413) 354-1076", "distance": 16106.533012941414}, {"id": "PtDrRhB6DJDwua5LdVWKNQ", "alias": "emmas-everyday-gourmet-westfield", "name": "Emma's Everyday Gourmet", "image_url": "https://s3-media2.fl.yelpcdn.com/bphoto/K75RtAGP4uS4ASBVjzPCRQ/o.jpg", "is_closed": false, "url": "https://www.yelp.com/biz/emmas-everyday-gourmet-westfield?adjust_creative=asslzE1UV0XuKI953B1vtw&utm_campaign=yelp_api_v3&utm_medium=api_v3_business_search&utm_source=asslzE1UV0XuKI953B1vtw", "review_count": 83, "categories": [{"alias": "italian", "title": "Italian"}], "rating": 4.5, "coordinates": {"latitude": 42.12351, "longitude": -72.75134}, "transactions": ["delivery"], "price": "$$", "location": {"address1": "45 Washington St", "address2": "", "address3": "", "city": "Westfield", "zip_code": "01085", "country": "US", "state": "MA", "display_address": ["45 Washington St", "Westfield, MA 01085"]}, "phone": "+14136423221", "display_phone": "(413) 642-3221", "distance": 9879.648299617475}, {"id": "QVEN-pSCAMvJr9K-ikBYZQ", "alias": "westwood-restaurant-and-pub-westfield", "name": "Westwood Restaurant and Pub", "image_url": "https://s3-media4.fl.yelpcdn.com/bphoto/Fb7BFmRjkg-d9gTaa6jRKg/o.jpg", "is_closed": false, "url": "https://www.yelp.com/biz/westwood-restaurant-and-pub-westfield?adjust_creative=asslzE1UV0XuKI953B1vtw&utm_campaign=yelp_api_v3&utm_medium=api_v3_business_search&utm_source=asslzE1UV0XuKI953B1vtw", "review_count": 87, "categories": [{"alias": "newamerican", "title": "American (New)"}, {"alias": "pubs", "title": "Pubs"}], "rating": 4.0, "coordinates": {"latitude": 42.1316153, "longitude": -72.7440194}, "transactions": ["delivery"], "price": "$$", "location": {"address1": "94 N Elm St", "address2": "", "address3": "", "city": "Westfield", "zip_code": "01085", "country": "US", "state": "MA", "display_address": ["94 N Elm St", "Westfield, MA 01085"]}, "phone": "+14135646963", "display_phone": "(413) 564-6963", "distance": 10006.740767004023}, {"id": "tKqf75fMPHTj85dyeSIZxQ", "alias": "blandford-country-store-and-cafe-blandford", "name": "Blandford Country Store & Cafe", "image_url": "", "is_closed": false, "url": "https://www.yelp.com/biz/blandford-country-store-and-cafe-blandford?adjust_creative=asslzE1UV0XuKI953B1vtw&utm_campaign=yelp_api_v3&utm_medium=api_v3_business_search&utm_source=asslzE1UV0XuKI953B1vtw", "review_count": 3, "categories": [{"alias": "restaurants", "title": "Restaurants"}], "rating": 4.5, "coordinates": {"latitude": 42.17962, "longitude": -72.92412}, "transactions": [], "location": {"address1": "98 Main St", "address2": "", "address3": "", "city": "Blandford", "zip_code": "01008", "country": "US", "state": "MA", "display_address": ["98 Main St", "Blandford, MA 01008"]}, "phone": "+14138482600", "display_phone": "(413) 848-2600", "distance": 5865.984000496785}, {"id": "ZiHnY5W-l_08UP9XuLkjQQ", "alias": "santiago-family-restaurant-westfield", "name": "Santiago Family Restaurant", "image_url": "https://s3-media2.fl.yelpcdn.com/bphoto/dQvWCSS7lXhGE8e2KwTsLQ/o.jpg", "is_closed": false, "url": "https://www.yelp.com/biz/santiago-family-restaurant-westfield?adjust_creative=asslzE1UV0XuKI953B1vtw&utm_campaign=yelp_api_v3&utm_medium=api_v3_business_search&utm_source=asslzE1UV0XuKI953B1vtw", "review_count": 130, "categories": [{"alias": "spanish", "title": "Spanish"}, {"alias": "latin", "title": "Latin American"}], "rating": 5.0, "coordinates": {"latitude": 42.1244010925293, "longitude": -72.7496871948242}, "transactions": ["delivery"], "price": "$$", "location": {"address1": "34 Franklin St", "address2": "", "address3": "", "city": "Westfield", "zip_code": "01085", "country": "US", "state": "MA", "display_address": ["34 Franklin St", "Westfield, MA 01085"]}, "phone": "+14135620210", "display_phone": "(413) 562-0210", "distance": 9943.979719301014}, {"id": "wrtX2ZzygWcN6PPLIJAZwA", "alias": "the-rapids-bar-and-grill-huntington-2", "name": "The Rapids Bar & Grill", "image_url": "https://s3-media3.fl.yelpcdn.com/bphoto/mlUj7X36KYNNjEEXZuNv-Q/o.jpg", "is_closed": false, "url": "https://www.yelp.com/biz/the-rapids-bar-and-grill-huntington-2?adjust_creative=asslzE1UV0XuKI953B1vtw&utm_campaign=yelp_api_v3&utm_medium=api_v3_business_search&utm_source=asslzE1UV0XuKI953B1vtw", "review_count": 15, "categories": [{"alias": "tradamerican", "title": "American (Traditional)"}, {"alias": "bars", "title": "Bars"}], "rating": 3.5, "coordinates": {"latitude": 42.27658, "longitude": -72.86391}, "transactions": [], "price": "$$", "location": {"address1": "200 Worthington Rd", "address2": null, "address3": "", "city": "Huntington", "zip_code": "01050", "country": "US", "state": "MA", "display_address": ["200 Worthington Rd", "Huntington, MA 01050"]}, "phone": "+14136673300", "display_phone": "(413) 667-3300", "distance": 12048.98570333273}, {"id": "AuMVaEI5r5iP4I5Vs_iM6g", "alias": "skyline-beer-company-westfield", "name": "Skyline Beer Company", "image_url": "https://s3-media1.fl.yelpcdn.com/bphoto/i1CTaxwUqFsqQw4XnhOs8w/o.jpg", "is_closed": false, "url": "https://www.yelp.com/biz/skyline-beer-company-westfield?adjust_creative=asslzE1UV0XuKI953B1vtw&utm_campaign=yelp_api_v3&utm_medium=api_v3_business_search&utm_source=asslzE1UV0XuKI953B1vtw", "review_count": 5, "categories": [{"alias": "beerbar", "title": "Beer Bar"}, {"alias": "breweries", "title": "Breweries"}, {"alias": "wraps", "title": "Wraps"}], "rating": 3.5, "coordinates": {"latitude": 42.10701483, "longitude": -72.764182}, "transactions": [], "location": {"address1": "98 Southwick Rd", "address2": "", "address3": null, "city": "Westfield", "zip_code": "01085", "country": "US", "state": "MA", "display_address": ["98 Southwick Rd", "Westfield, MA 01085"]}, "phone": "+14133783333", "display_phone": "(413) 378-3333", "distance": 10091.141981202807}, {"id": "fzabRje-Jg3lWBOSiaUvww", "alias": "coco-and-the-cellar-bar-easthampton", "name": "Coco & The Cellar Bar", "image_url": "https://s3-media1.fl.yelpcdn.com/bphoto/sg2LpP1aREsIfsIyfja_AA/o.jpg", "is_closed": false, "url": "https://www.yelp.com/biz/coco-and-the-cellar-bar-easthampton?adjust_creative=asslzE1UV0XuKI953B1vtw&utm_campaign=yelp_api_v3&utm_medium=api_v3_business_search&utm_source=asslzE1UV0XuKI953B1vtw", "review_count": 196, "categories": [{"alias": "newamerican", "title": "American (New)"}, {"alias": "bars", "title": "Bars"}], "rating": 4.5, "coordinates": {"latitude": 42.2704507067608, "longitude": -72.6726743214659}, "transactions": ["delivery"], "price": "$$", "location": {"address1": "95 Main St", "address2": "", "address3": "", "city": "Easthampton", "zip_code": "01027", "country": "US", "state": "MA", "display_address": ["95 Main St", "Easthampton, MA 01027"]}, "phone": "+14132035321", "display_phone": "(413) 203-5321", "distance": 18747.328729075958}, {"id": "k1pXWAALNVVotH5WhHvOIA", "alias": "casa-di-lisa-feeding-hills", "name": "Casa Di Lisa", "image_url": "https://s3-media2.fl.yelpcdn.com/bphoto/86zSNTDmJUpSxRn0Hb_xIQ/o.jpg", "is_closed": false, "url": "https://www.yelp.com/biz/casa-di-lisa-feeding-hills?adjust_creative=asslzE1UV0XuKI953B1vtw&utm_campaign=yelp_api_v3&utm_medium=api_v3_business_search&utm_source=asslzE1UV0XuKI953B1vtw", "review_count": 41, "categories": [{"alias": "seafood", "title": "Seafood"}, {"alias": "wine_bars", "title": "Wine Bars"}, {"alias": "italian", "title": "Italian"}], "rating": 3.5, "coordinates": {"latitude": 42.0751495, "longitude": -72.655571}, "transactions": ["restaurant_reservation", "delivery"], "price": "$$", "location": {"address1": "801 Springfield St", "address2": null, "address3": null, "city": "Feeding Hills", "zip_code": "01030", "country": "US", "state": "MA", "display_address": ["801 Springfield St", "Feeding Hills, MA 01030"]}, "phone": "+14137861900", "display_phone": "(413) 786-1900", "distance": 19435.677595581245}, {"id": "KoovhR9aNO7ZNjIpAmR2Ag", "alias": "two-rivers-burrito-co-westfield", "name": "Two Rivers Burrito Co", "image_url": "https://s3-media3.fl.yelpcdn.com/bphoto/q_3xxv8ojNOUuaVOMJWYaA/o.jpg", "is_closed": false, "url": "https://www.yelp.com/biz/two-rivers-burrito-co-westfield?adjust_creative=asslzE1UV0XuKI953B1vtw&utm_campaign=yelp_api_v3&utm_medium=api_v3_business_search&utm_source=asslzE1UV0XuKI953B1vtw", "review_count": 161, "categories": [{"alias": "mexican", "title": "Mexican"}, {"alias": "newamerican", "title": "American (New)"}, {"alias": "tex-mex", "title": "Tex-Mex"}], "rating": 4.5, "coordinates": {"latitude": 42.1219372299061, "longitude": -72.7491059463501}, "transactions": ["delivery"], "price": "$", "location": {"address1": "36 Elm St", "address2": "", "address3": "", "city": "Westfield", "zip_code": "01085", "country": "US", "state": "MA", "display_address": ["36 Elm St", "Westfield, MA 01085"]}, "phone": "+14135795469", "display_phone": "(413) 579-5469", "distance": 10138.103563768564}, {"id": "VazvqfJnJ1Rv7K0pDBfE0w", "alias": "tuckers-restaurant-southwick-2", "name": "Tucker's Restaurant", "image_url": "https://s3-media4.fl.yelpcdn.com/bphoto/yyAUXCzOJezQrCJkQUotfA/o.jpg", "is_closed": false, "url": "https://www.yelp.com/biz/tuckers-restaurant-southwick-2?adjust_creative=asslzE1UV0XuKI953B1vtw&utm_campaign=yelp_api_v3&utm_medium=api_v3_business_search&utm_source=asslzE1UV0XuKI953B1vtw", "review_count": 19, "categories": [{"alias": "newamerican", "title": "American (New)"}, {"alias": "venues", "title": "Venues & Event Spaces"}, {"alias": "wine_bars", "title": "Wine Bars"}], "rating": 3.5, "coordinates": {"latitude": 42.0647039134398, "longitude": -72.7647228702056}, "transactions": ["delivery"], "price": "$$", "location": {"address1": "625 College Hwy", "address2": null, "address3": null, "city": "Southwick", "zip_code": "01077", "country": "US", "state": "MA", "display_address": ["625 College Hwy", "Southwick, MA 01077"]}, "phone": "+14135690120", "display_phone": "(413) 569-0120", "distance": 13753.819232913946}, {"id": "Tsn4XujhdnJodhxQ6XPEZg", "alias": "alessios-pizza-westfield", "name": "Alessio's Pizza", "image_url": "https://s3-media3.fl.yelpcdn.com/bphoto/TIi_e7HhPv2GTkFuUfvZsQ/o.jpg", "is_closed": false, "url": "https://www.yelp.com/biz/alessios-pizza-westfield?adjust_creative=asslzE1UV0XuKI953B1vtw&utm_campaign=yelp_api_v3&utm_medium=api_v3_business_search&utm_source=asslzE1UV0XuKI953B1vtw", "review_count": 39, "categories": [{"alias": "pizza", "title": "Pizza"}, {"alias": "italian", "title": "Italian"}], "rating": 4.0, "coordinates": {"latitude": 42.14824, "longitude": -72.72926}, "transactions": ["pickup", "delivery"], "price": "$$", "location": {"address1": "280 Southampton Rd", "address2": "", "address3": "", "city": "Westfield", "zip_code": "01085", "country": "US", "state": "MA", "display_address": ["280 Southampton Rd", "Westfield, MA 01085"]}, "phone": "+14135624600", "display_phone": "(413) 562-4600", "distance": 10573.14821579218}, {"id": "CcYuuW_19VKLig_kgDyWjQ", "alias": "poh-keh-bowl-easthampton", "name": "POH-keh Bowl", "image_url": "https://s3-media4.fl.yelpcdn.com/bphoto/HAcH5s7HDPPmAhxrcyntIg/o.jpg", "is_closed": false, "url": "https://www.yelp.com/biz/poh-keh-bowl-easthampton?adjust_creative=asslzE1UV0XuKI953B1vtw&utm_campaign=yelp_api_v3&utm_medium=api_v3_business_search&utm_source=asslzE1UV0XuKI953B1vtw", "review_count": 1, "categories": [{"alias": "hawaiian", "title": "Hawaiian"}, {"alias": "bubbletea", "title": "Bubble Tea"}], "rating": 5.0, "coordinates": {"latitude": 42.26854, "longitude": -72.6709034}, "transactions": [], "location": {"address1": "49 Union St", "address2": null, "address3": "", "city": "Easthampton", "zip_code": "01027", "country": "US", "state": "MA", "display_address": ["49 Union St", "Easthampton, MA 01027"]}, "phone": "+14132032553", "display_phone": "(413) 203-2553", "distance": 18738.04861138051}, {"id": "fkJH2B0PDmFmzrpci5RurQ", "alias": "7bs-bar-and-grill-westfield", "name": "7B's Bar & Grill", "image_url": "https://s3-media4.fl.yelpcdn.com/bphoto/fLRT9PVueJFuR-l_NDAkEA/o.jpg", "is_closed": false, "url": "https://www.yelp.com/biz/7bs-bar-and-grill-westfield?adjust_creative=asslzE1UV0XuKI953B1vtw&utm_campaign=yelp_api_v3&utm_medium=api_v3_business_search&utm_source=asslzE1UV0XuKI953B1vtw", "review_count": 75, "categories": [{"alias": "burgers", "title": "Burgers"}, {"alias": "bars", "title": "Bars"}, {"alias": "sandwiches", "title": "Sandwiches"}], "rating": 4.0, "coordinates": {"latitude": 42.1835665125337, "longitude": -72.7268451651987}, "transactions": ["delivery"], "price": "$$", "location": {"address1": "1152 Southampton Rd", "address2": "", "address3": "", "city": "Westfield", "zip_code": "01085", "country": "US", "state": "MA", "display_address": ["1152 Southampton Rd", "Westfield, MA 01085"]}, "phone": "+14135795310", "display_phone": "(413) 579-5310", "distance": 10640.936433815428}, {"id": "9liFsX4ASC-aulosutlblQ", "alias": "mi-ranchito-tex-mex-westfield", "name": "Mi Ranchito Tex Mex", "image_url": "https://s3-media3.fl.yelpcdn.com/bphoto/oA1NsN_d4acQuw1Yrh6VSw/o.jpg", "is_closed": false, "url": "https://www.yelp.com/biz/mi-ranchito-tex-mex-westfield?adjust_creative=asslzE1UV0XuKI953B1vtw&utm_campaign=yelp_api_v3&utm_medium=api_v3_business_search&utm_source=asslzE1UV0XuKI953B1vtw", "review_count": 20, "categories": [{"alias": "mexican", "title": "Mexican"}, {"alias": "tex-mex", "title": "Tex-Mex"}], "rating": 4.0, "coordinates": {"latitude": 42.12576, "longitude": -72.75269}, "transactions": ["delivery"], "price": "$", "location": {"address1": "69 Franklin St", "address2": "", "address3": "", "city": "Westfield", "zip_code": "01085", "country": "US", "state": "MA", "display_address": ["69 Franklin St", "Westfield, MA 01085"]}, "phone": "+14135681150", "display_phone": "(413) 568-1150", "distance": 9668.554756319942}, {"id": "E0JSl9ZF_hJgQ1c-Uw1CaA", "alias": "the-good-table-westfield-2", "name": "The Good Table", "image_url": "https://s3-media2.fl.yelpcdn.com/bphoto/1nVJ4_GHMQQ1QxpCfPEkhw/o.jpg", "is_closed": false, "url": "https://www.yelp.com/biz/the-good-table-westfield-2?adjust_creative=asslzE1UV0XuKI953B1vtw&utm_campaign=yelp_api_v3&utm_medium=api_v3_business_search&utm_source=asslzE1UV0XuKI953B1vtw", "review_count": 69, "categories": [{"alias": "breakfast_brunch", "title": "Breakfast & Brunch"}], "rating": 4.5, "coordinates": {"latitude": 42.121251, "longitude": -72.749693}, "transactions": ["delivery"], "price": "$", "location": {"address1": "12 School St", "address2": "", "address3": "", "city": "Westfield", "zip_code": "01085", "country": "US", "state": "MA", "display_address": ["12 School St", "Westfield, MA 01085"]}, "phone": "+14136425527", "display_phone": "(413) 642-5527", "distance": 10136.429331073474}, {"id": "SY9D4nep9NB7cvhfBYapyQ", "alias": "delaneys-market-westfield", "name": "Delaney's Market", "image_url": "https://s3-media2.fl.yelpcdn.com/bphoto/Ss5RdoPKkM39WEPvDcnjHg/o.jpg", "is_closed": false, "url": "https://www.yelp.com/biz/delaneys-market-westfield?adjust_creative=asslzE1UV0XuKI953B1vtw&utm_campaign=yelp_api_v3&utm_medium=api_v3_business_search&utm_source=asslzE1UV0XuKI953B1vtw", "review_count": 1, "categories": [{"alias": "delis", "title": "Delis"}, {"alias": "desserts", "title": "Desserts"}, {"alias": "beer_and_wine", "title": "Beer, Wine & Spirits"}], "rating": 3.0, "coordinates": {"latitude": 42.1120487442122, "longitude": -72.720509134233}, "transactions": [], "location": {"address1": "587 E Main St", "address2": "Unit 120", "address3": null, "city": "Westfield", "zip_code": "01085", "country": "US", "state": "MA", "display_address": ["587 E Main St", "Unit 120", "Westfield, MA 01085"]}, "phone": "+14132616240", "display_phone": "(413) 261-6240", "distance": 12728.799659247697}, {"id": "PLFZ7fQzDzYrze-oe-pkEQ", "alias": "la-veracruzana-easthampton", "name": "La Veracruzana", "image_url": "https://s3-media2.fl.yelpcdn.com/bphoto/Gcf6FJh0ivRzeVhUtJK-xA/o.jpg", "is_closed": false, "url": "https://www.yelp.com/biz/la-veracruzana-easthampton?adjust_creative=asslzE1UV0XuKI953B1vtw&utm_campaign=yelp_api_v3&utm_medium=api_v3_business_search&utm_source=asslzE1UV0XuKI953B1vtw", "review_count": 26, "categories": [{"alias": "mexican", "title": "Mexican"}], "rating": 4.5, "coordinates": {"latitude": 42.26934, "longitude": -72.67123}, "transactions": ["delivery"], "price": "$$", "location": {"address1": "31 Union St", "address2": "", "address3": null, "city": "Easthampton", "zip_code": "01027", "country": "US", "state": "MA", "display_address": ["31 Union St", "Easthampton, MA 01027"]}, "phone": "+14132035415", "display_phone": "(413) 203-5415", "distance": 18764.525165738232}, {"id": "625FRIW_XeYQDooSanOH4w", "alias": "montgomery-grille-montgomery", "name": "Montgomery Grille", "image_url": "https://s3-media2.fl.yelpcdn.com/bphoto/6BeBWORyJKlyOFhaCubisg/o.jpg", "is_closed": false, "url": "https://www.yelp.com/biz/montgomery-grille-montgomery?adjust_creative=asslzE1UV0XuKI953B1vtw&utm_campaign=yelp_api_v3&utm_medium=api_v3_business_search&utm_source=asslzE1UV0XuKI953B1vtw", "review_count": 6, "categories": [{"alias": "tradamerican", "title": "American (Traditional)"}, {"alias": "mexican", "title": "Mexican"}, {"alias": "breakfast_brunch", "title": "Breakfast & Brunch"}], "rating": 5.0, "coordinates": {"latitude": 42.206230173471, "longitude": -72.8008604049683}, "transactions": [], "location": {"address1": "46 Main Rd", "address2": "", "address3": "", "city": "Montgomery", "zip_code": "01085", "country": "US", "state": "MA", "display_address": ["46 Main Rd", "Montgomery, MA 01085"]}, "phone": "+14138623663", "display_phone": "(413) 862-3663", "distance": 6056.528585409555}, {"id": "dszOlLrMfHdrsDTfV6YzCg", "alias": "knox-trail-inn-otis-2", "name": "Knox Trail Inn", "image_url": "https://s3-media4.fl.yelpcdn.com/bphoto/Q0tfwOgbXD_uuosWWW5ZYw/o.jpg", "is_closed": false, "url": "https://www.yelp.com/biz/knox-trail-inn-otis-2?adjust_creative=asslzE1UV0XuKI953B1vtw&utm_campaign=yelp_api_v3&utm_medium=api_v3_business_search&utm_source=asslzE1UV0XuKI953B1vtw", "review_count": 25, "categories": [{"alias": "pizza", "title": "Pizza"}, {"alias": "pubs", "title": "Pubs"}, {"alias": "tradamerican", "title": "American (Traditional)"}], "rating": 3.5, "coordinates": {"latitude": 42.17358, "longitude": -73.03564}, "transactions": [], "price": "$$", "location": {"address1": "1898 E Otis Rd", "address2": null, "address3": null, "city": "Otis", "zip_code": "01253", "country": "US", "state": "MA", "display_address": ["1898 E Otis Rd", "Otis, MA 01253"]}, "phone": "+14132694400", "display_phone": "(413) 269-4400", "distance": 14920.565817550201}, {"id": "2QYXfo90aHXZ1yVe3Bm4DQ", "alias": "little-truc-easthampton", "name": "Little Truc", "image_url": "https://s3-media3.fl.yelpcdn.com/bphoto/HlA6NLrH4WJqvylBAS-gVg/o.jpg", "is_closed": false, "url": "https://www.yelp.com/biz/little-truc-easthampton?adjust_creative=asslzE1UV0XuKI953B1vtw&utm_campaign=yelp_api_v3&utm_medium=api_v3_business_search&utm_source=asslzE1UV0XuKI953B1vtw", "review_count": 3, "categories": [{"alias": "foodtrucks", "title": "Food Trucks"}, {"alias": "asianfusion", "title": "Asian Fusion"}], "rating": 5.0, "coordinates": {"latitude": 42.2744661849982, "longitude": -72.6592728561672}, "transactions": [], "location": {"address1": "180 Pleasant St", "address2": "", "address3": null, "city": "Easthampton", "zip_code": "01027", "country": "US", "state": "MA", "display_address": ["180 Pleasant St", "Easthampton, MA 01027"]}, "phone": "+14132827520", "display_phone": "(413) 282-7520", "distance": 19899.298821021544}, {"id": "YzzLI9_BrwEZnRHP7iuQVQ", "alias": "ninis-itialian-ristorante-easthampton", "name": "Nini's Itialian Ristorante", "image_url": "https://s3-media4.fl.yelpcdn.com/bphoto/h2ktKo5b652dhx7yKD0R5Q/o.jpg", "is_closed": false, "url": "https://www.yelp.com/biz/ninis-itialian-ristorante-easthampton?adjust_creative=asslzE1UV0XuKI953B1vtw&utm_campaign=yelp_api_v3&utm_medium=api_v3_business_search&utm_source=asslzE1UV0XuKI953B1vtw", "review_count": 46, "categories": [{"alias": "italian", "title": "Italian"}, {"alias": "seafood", "title": "Seafood"}], "rating": 4.0, "coordinates": {"latitude": 42.2638958037146, "longitude": -72.6638027036164}, "transactions": [], "price": "$$", "location": {"address1": "124 Cottage St", "address2": "", "address3": "", "city": "Easthampton", "zip_code": "01027", "country": "US", "state": "MA", "display_address": ["124 Cottage St", "Easthampton, MA 01027"]}, "phone": "+14135270149", "display_phone": "(413) 527-0149", "distance": 18920.198007405284}, {"id": "xs-qCnj3jge-jZO_ynZEqA", "alias": "yummi-noodle-westfield", "name": "Yummi Noodle", "image_url": "https://s3-media3.fl.yelpcdn.com/bphoto/NBU1J1KEreZlmTtF1kRlvQ/o.jpg", "is_closed": false, "url": "https://www.yelp.com/biz/yummi-noodle-westfield?adjust_creative=asslzE1UV0XuKI953B1vtw&utm_campaign=yelp_api_v3&utm_medium=api_v3_business_search&utm_source=asslzE1UV0XuKI953B1vtw", "review_count": 20, "categories": [{"alias": "chinese", "title": "Chinese"}, {"alias": "soup", "title": "Soup"}, {"alias": "noodles", "title": "Noodles"}], "rating": 4.0, "coordinates": {"latitude": 42.123887, "longitude": -72.748365}, "transactions": ["pickup", "delivery"], "location": {"address1": "160 Elm St", "address2": null, "address3": "", "city": "Westfield", "zip_code": "01085", "country": "US", "state": "MA", "display_address": ["160 Elm St", "Westfield, MA 01085"]}, "phone": "+14135795935", "display_phone": "(413) 579-5935", "distance": 10080.859772974622}, {"id": "Hu57Hg5qRwIsmZyNPz8WDA", "alias": "alo-saigon-westfield", "name": "Alo Saigon", "image_url": "https://s3-media4.fl.yelpcdn.com/bphoto/87CBbfIp-NCajpjymxHoFA/o.jpg", "is_closed": false, "url": "https://www.yelp.com/biz/alo-saigon-westfield?adjust_creative=asslzE1UV0XuKI953B1vtw&utm_campaign=yelp_api_v3&utm_medium=api_v3_business_search&utm_source=asslzE1UV0XuKI953B1vtw", "review_count": 96, "categories": [{"alias": "vietnamese", "title": "Vietnamese"}, {"alias": "bubbletea", "title": "Bubble Tea"}, {"alias": "soup", "title": "Soup"}], "rating": 4.5, "coordinates": {"latitude": 42.123119354248, "longitude": -72.7487716674805}, "transactions": ["delivery"], "price": "$$", "location": {"address1": "116 Elm St", "address2": "", "address3": "", "city": "Westfield", "zip_code": "01085", "country": "US", "state": "MA", "display_address": ["116 Elm St", "Westfield, MA 01085"]}, "phone": "+14136426515", "display_phone": "(413) 642-6515", "distance": 10095.225369613421}, {"id": "xrUfix7BCUzzfKi0208DMw", "alias": "the-rail-trail-ale-house-southwick", "name": "The Rail Trail Ale House", "image_url": "https://s3-media2.fl.yelpcdn.com/bphoto/nZ_sE51HZReJ9EB7s_09MQ/o.jpg", "is_closed": false, "url": "https://www.yelp.com/biz/the-rail-trail-ale-house-southwick?adjust_creative=asslzE1UV0XuKI953B1vtw&utm_campaign=yelp_api_v3&utm_medium=api_v3_business_search&utm_source=asslzE1UV0XuKI953B1vtw", "review_count": 2, "categories": [{"alias": "burgers", "title": "Burgers"}, {"alias": "hotdogs", "title": "Fast Food"}, {"alias": "pizza", "title": "Pizza"}], "rating": 5.0, "coordinates": {"latitude": 42.04578, "longitude": -72.76284}, "transactions": [], "location": {"address1": "23 Point Grove Rd", "address2": null, "address3": "", "city": "Southwick", "zip_code": "01077", "country": "US", "state": "MA", "display_address": ["23 Point Grove Rd", "Southwick, MA 01077"]}, "phone": "+14139980555", "display_phone": "(413) 998-0555", "distance": 15646.38215702536}, {"id": "RB6vzkkZZlDvwfFjneuKLA", "alias": "daily-operation-easthampton", "name": "Daily Operation", "image_url": "https://s3-media3.fl.yelpcdn.com/bphoto/9FSVkuklZiev4-72MAh9_g/o.jpg", "is_closed": false, "url": "https://www.yelp.com/biz/daily-operation-easthampton?adjust_creative=asslzE1UV0XuKI953B1vtw&utm_campaign=yelp_api_v3&utm_medium=api_v3_business_search&utm_source=asslzE1UV0XuKI953B1vtw", "review_count": 70, "categories": [{"alias": "newamerican", "title": "American (New)"}, {"alias": "asianfusion", "title": "Asian Fusion"}], "rating": 4.5, "coordinates": {"latitude": 42.26461, "longitude": -72.66719}, "transactions": ["delivery"], "price": "$$", "location": {"address1": "42 Cottage St", "address2": null, "address3": "", "city": "Easthampton", "zip_code": "01027", "country": "US", "state": "MA", "display_address": ["42 Cottage St", "Easthampton, MA 01027"]}, "phone": "+14132031541", "display_phone": "(413) 203-1541", "distance": 18758.86400314585}, {"id": "3zm39Lkl4M3lPfKk4N8arA", "alias": "cpc-craft-meats-and-smokehouse-southwick", "name": "CPC Craft Meats & Smokehouse", "image_url": "https://s3-media4.fl.yelpcdn.com/bphoto/JuswsbUo6bxZuWCUM3GjuA/o.jpg", "is_closed": false, "url": "https://www.yelp.com/biz/cpc-craft-meats-and-smokehouse-southwick?adjust_creative=asslzE1UV0XuKI953B1vtw&utm_campaign=yelp_api_v3&utm_medium=api_v3_business_search&utm_source=asslzE1UV0XuKI953B1vtw", "review_count": 11, "categories": [{"alias": "bbq", "title": "Barbeque"}], "rating": 4.0, "coordinates": {"latitude": 42.01985, "longitude": -72.771102}, "transactions": [], "location": {"address1": "108 Congamond Rd", "address2": "", "address3": null, "city": "Southwick", "zip_code": "01077", "country": "US", "state": "MA", "display_address": ["108 Congamond Rd", "Southwick, MA 01077"]}, "phone": "+14139983467", "display_phone": "(413) 998-3467", "distance": 17949.85652609274}, {"id": "GRyFsI7kzp6LCXF5-aXrkA", "alias": "tavern-restaurant-westfield-westfield", "name": "Tavern Restaurant Westfield", "image_url": "https://s3-media3.fl.yelpcdn.com/bphoto/HmokDBWdfHXvAKPNFlt3tg/o.jpg", "is_closed": false, "url": "https://www.yelp.com/biz/tavern-restaurant-westfield-westfield?adjust_creative=asslzE1UV0XuKI953B1vtw&utm_campaign=yelp_api_v3&utm_medium=api_v3_business_search&utm_source=asslzE1UV0XuKI953B1vtw", "review_count": 70, "categories": [{"alias": "tradamerican", "title": "American (Traditional)"}], "rating": 3.5, "coordinates": {"latitude": 42.1207075712155, "longitude": -72.7482569217682}, "transactions": ["delivery"], "price": "$$", "location": {"address1": "2 Broad St", "address2": "", "address3": "", "city": "Westfield", "zip_code": "01085", "country": "US", "state": "MA", "display_address": ["2 Broad St", "Westfield, MA 01085"]}, "phone": "+14135620335", "display_phone": "(413) 562-0335", "distance": 10268.980086655767}, {"id": "YX9WlOS0UfQA8BEuegEw2A", "alias": "granville-country-store-granville", "name": "Granville Country Store", "image_url": "https://s3-media3.fl.yelpcdn.com/bphoto/RCnkxzc6kIDKQx2XA7uUzA/o.jpg", "is_closed": false, "url": "https://www.yelp.com/biz/granville-country-store-granville?adjust_creative=asslzE1UV0XuKI953B1vtw&utm_campaign=yelp_api_v3&utm_medium=api_v3_business_search&utm_source=asslzE1UV0XuKI953B1vtw", "review_count": 29, "categories": [{"alias": "convenience", "title": "Convenience Stores"}, {"alias": "delis", "title": "Delis"}], "rating": 4.0, "coordinates": {"latitude": 42.0661592438345, "longitude": -72.8618863520456}, "transactions": [], "price": "$$", "location": {"address1": "11 Granby Rd", "address2": "", "address3": "", "city": "Granville", "zip_code": "01034", "country": "US", "state": "MA", "display_address": ["11 Granby Rd", "Granville, MA 01034"]}, "phone": "+14133578555", "display_phone": "(413) 357-8555", "distance": 11446.82763052294}, {"id": "9LrxgQh9i7vmsFqGmz5B9Q", "alias": "norwich-lake-farm-and-sugar-barn-restaurant-huntington", "name": "Norwich Lake Farm and Sugar Barn Restaurant", "image_url": "https://s3-media1.fl.yelpcdn.com/bphoto/sWWUQk2ZbqD_GBJa2JjCTQ/o.jpg", "is_closed": false, "url": "https://www.yelp.com/biz/norwich-lake-farm-and-sugar-barn-restaurant-huntington?adjust_creative=asslzE1UV0XuKI953B1vtw&utm_campaign=yelp_api_v3&utm_medium=api_v3_business_search&utm_source=asslzE1UV0XuKI953B1vtw", "review_count": 2, "categories": [{"alias": "breakfast_brunch", "title": "Breakfast & Brunch"}], "rating": 5.0, "coordinates": {"latitude": 42.3006329582653, "longitude": -72.8408531472087}, "transactions": [], "location": {"address1": "87 Searle Rd", "address2": "", "address3": null, "city": "Huntington", "zip_code": "01050", "country": "US", "state": "MA", "display_address": ["87 Searle Rd", "Huntington, MA 01050"]}, "phone": "+14136678830", "display_phone": "(413) 667-8830", "distance": 14684.625514086994}, {"id": "041FcnVkbuqjklvZ6enXVA", "alias": "mission-cantina-easthampton", "name": "Mission Cantina", "image_url": "https://s3-media1.fl.yelpcdn.com/bphoto/RUcIkpNHR0LcuzdYuMuOAA/o.jpg", "is_closed": false, "url": "https://www.yelp.com/biz/mission-cantina-easthampton?adjust_creative=asslzE1UV0XuKI953B1vtw&utm_campaign=yelp_api_v3&utm_medium=api_v3_business_search&utm_source=asslzE1UV0XuKI953B1vtw", "review_count": 3, "categories": [{"alias": "cocktailbars", "title": "Cocktail Bars"}, {"alias": "mexican", "title": "Mexican"}, {"alias": "beerbar", "title": "Beer Bar"}], "rating": 5.0, "coordinates": {"latitude": 42.264485, "longitude": -72.666748}, "transactions": ["pickup", "delivery"], "location": {"address1": "58 Cottage St", "address2": "", "address3": null, "city": "Easthampton", "zip_code": "01027", "country": "US", "state": "MA", "display_address": ["58 Cottage St", "Easthampton, MA 01027"]}, "phone": "+14132035121", "display_phone": "(413) 203-5121", "distance": 18760.21897960139}, {"id": "nNCyiuwE-xtBc2H-vV9aDw", "alias": "debs-hot-dog-stand-granville", "name": "Deb's Hot Dog Stand", "image_url": "https://s3-media4.fl.yelpcdn.com/bphoto/wWE5qQEk5YvdWA0RDcew0Q/o.jpg", "is_closed": false, "url": "https://www.yelp.com/biz/debs-hot-dog-stand-granville?adjust_creative=asslzE1UV0XuKI953B1vtw&utm_campaign=yelp_api_v3&utm_medium=api_v3_business_search&utm_source=asslzE1UV0XuKI953B1vtw", "review_count": 3, "categories": [{"alias": "foodstands", "title": "Food Stands"}], "rating": 5.0, "coordinates": {"latitude": 42.0782279968262, "longitude": -72.9402923583984}, "transactions": [], "location": {"address1": "1542 Main Rd", "address2": "", "address3": null, "city": "Granville", "zip_code": "01034", "country": "US", "state": "MA", "display_address": ["1542 Main Rd", "Granville, MA 01034"]}, "phone": "", "display_phone": "", "distance": 12406.05197236932}, {"id": "vF5dqRU3uWLeCgklux66aw", "alias": "pancake-sundaes-diner-and-bakery-westfield", "name": "Pancake Sundaes Diner & Bakery", "image_url": "https://s3-media2.fl.yelpcdn.com/bphoto/ksIciYrHNind0aZDpLu7Gw/o.jpg", "is_closed": false, "url": "https://www.yelp.com/biz/pancake-sundaes-diner-and-bakery-westfield?adjust_creative=asslzE1UV0XuKI953B1vtw&utm_campaign=yelp_api_v3&utm_medium=api_v3_business_search&utm_source=asslzE1UV0XuKI953B1vtw", "review_count": 47, "categories": [{"alias": "breakfast_brunch", "title": "Breakfast & Brunch"}, {"alias": "diners", "title": "Diners"}, {"alias": "bakeries", "title": "Bakeries"}], "rating": 4.0, "coordinates": {"latitude": 42.12615, "longitude": -72.74787}, "transactions": ["delivery"], "price": "$$", "location": {"address1": "266 Elm St", "address2": null, "address3": "", "city": "Westfield", "zip_code": "01085", "country": "US", "state": "MA", "display_address": ["266 Elm St", "Westfield, MA 01085"]}, "phone": "+14135726832", "display_phone": "(413) 572-6832", "distance": 10003.152919262844}, {"id": "2jPTv_JPiUoJy2sYrUw-4w", "alias": "hutghi-s-at-the-nook-westfield", "name": "Hutghi\u2019s at the Nook", "image_url": "https://s3-media4.fl.yelpcdn.com/bphoto/G74Vom8_J9q7dQ1vT5iFpw/o.jpg", "is_closed": false, "url": "https://www.yelp.com/biz/hutghi-s-at-the-nook-westfield?adjust_creative=asslzE1UV0XuKI953B1vtw&utm_campaign=yelp_api_v3&utm_medium=api_v3_business_search&utm_source=asslzE1UV0XuKI953B1vtw", "review_count": 7, "categories": [{"alias": "lounges", "title": "Lounges"}, {"alias": "tapasmallplates", "title": "Tapas/Small Plates"}, {"alias": "cocktailbars", "title": "Cocktail Bars"}], "rating": 4.5, "coordinates": {"latitude": 42.1242563457667, "longitude": -72.7484419359153}, "transactions": [], "location": {"address1": "8 Franklin St", "address2": "", "address3": null, "city": "Westfield", "zip_code": "01085", "country": "US", "state": "MA", "display_address": ["8 Franklin St", "Westfield, MA 01085"]}, "phone": "+14136263774", "display_phone": "(413) 626-3774", "distance": 10054.970075242683}, {"id": "yyJUlX-SO79I00b9-UvhrA", "alias": "the-hideaway-lounge-easthampton", "name": "The Hideaway Lounge", "image_url": "https://s3-media4.fl.yelpcdn.com/bphoto/0r1rQ515bTOZHeXFG_wsKA/o.jpg", "is_closed": false, "url": "https://www.yelp.com/biz/the-hideaway-lounge-easthampton?adjust_creative=asslzE1UV0XuKI953B1vtw&utm_campaign=yelp_api_v3&utm_medium=api_v3_business_search&utm_source=asslzE1UV0XuKI953B1vtw", "review_count": 59, "categories": [{"alias": "lounges", "title": "Lounges"}, {"alias": "tradamerican", "title": "American (Traditional)"}], "rating": 4.0, "coordinates": {"latitude": 42.272495, "longitude": -72.663742}, "transactions": ["delivery"], "price": "$$", "location": {"address1": "116 Pleasant St", "address2": "", "address3": "", "city": "Easthampton", "zip_code": "01027", "country": "US", "state": "MA", "display_address": ["116 Pleasant St", "Easthampton, MA 01027"]}, "phone": "+14135278811", "display_phone": "(413) 527-8811", "distance": 19402.592929066766}, {"id": "zrEUclnnkMS5CT-fDtw6gA", "alias": "golden-peacock-chinese-westfield", "name": "Golden Peacock Chinese", "image_url": "https://s3-media1.fl.yelpcdn.com/bphoto/kamUm_QY-GlDI776E4NODg/o.jpg", "is_closed": false, "url": "https://www.yelp.com/biz/golden-peacock-chinese-westfield?adjust_creative=asslzE1UV0XuKI953B1vtw&utm_campaign=yelp_api_v3&utm_medium=api_v3_business_search&utm_source=asslzE1UV0XuKI953B1vtw", "review_count": 18, "categories": [{"alias": "chinese", "title": "Chinese"}], "rating": 4.0, "coordinates": {"latitude": 42.177134, "longitude": -72.691292}, "transactions": ["delivery"], "price": "$$", "location": {"address1": "1029 N Rd", "address2": "Ste 7", "address3": "", "city": "Westfield", "zip_code": "01085", "country": "US", "state": "MA", "display_address": ["1029 N Rd", "Ste 7", "Westfield, MA 01085"]}, "phone": "+14135338207", "display_phone": "(413) 533-8207", "distance": 13477.321927593777}, {"id": "pdASGneAlX6whC5rD31fmw", "alias": "soks-runway-westfield", "name": "SOK'S Runway", "image_url": "https://s3-media1.fl.yelpcdn.com/bphoto/yPuq45Qvi2eIt7frfVzg5g/o.jpg", "is_closed": false, "url": "https://www.yelp.com/biz/soks-runway-westfield?adjust_creative=asslzE1UV0XuKI953B1vtw&utm_campaign=yelp_api_v3&utm_medium=api_v3_business_search&utm_source=asslzE1UV0XuKI953B1vtw", "review_count": 21, "categories": [{"alias": "newamerican", "title": "American (New)"}, {"alias": "asianfusion", "title": "Asian Fusion"}, {"alias": "cocktailbars", "title": "Cocktail Bars"}], "rating": 4.0, "coordinates": {"latitude": 42.16121, "longitude": -72.71349}, "transactions": ["delivery"], "price": "$$", "location": {"address1": "110 Airport Rd", "address2": "", "address3": null, "city": "Westfield", "zip_code": "01085", "country": "US", "state": "MA", "display_address": ["110 Airport Rd", "Westfield, MA 01085"]}, "phone": "+14136423219", "display_phone": "(413) 642-3219", "distance": 11158.125961570506}, {"id": "b9TX7xue5tmqZq7wTtVxxg", "alias": "tavern-on-the-hill-easthampton", "name": "Tavern on the Hill", "image_url": "https://s3-media4.fl.yelpcdn.com/bphoto/2U9nKkyaCKtV6PC60fiuBg/o.jpg", "is_closed": false, "url": "https://www.yelp.com/biz/tavern-on-the-hill-easthampton?adjust_creative=asslzE1UV0XuKI953B1vtw&utm_campaign=yelp_api_v3&utm_medium=api_v3_business_search&utm_source=asslzE1UV0XuKI953B1vtw", "review_count": 109, "categories": [{"alias": "tradamerican", "title": "American (Traditional)"}, {"alias": "bars", "title": "Bars"}, {"alias": "bbq", "title": "Barbeque"}], "rating": 3.0, "coordinates": {"latitude": 42.237602, "longitude": -72.652183}, "transactions": [], "price": "$$", "location": {"address1": "100 Mountain Rd", "address2": "", "address3": "", "city": "Easthampton", "zip_code": "01027", "country": "US", "state": "MA", "display_address": ["100 Mountain Rd", "Easthampton, MA 01027"]}, "phone": "+14134931700", "display_phone": "(413) 493-1700", "distance": 18326.804216489047}, {"id": "zve1Aq9cbhXNcFZFH4Afmg", "alias": "pasquales-italian-family-restaurant-and-pizza-westfield", "name": "Pasquale's Italian Family Restaurant & Pizza", "image_url": "https://s3-media2.fl.yelpcdn.com/bphoto/E-8AWmL1rLjU_wz1q32cZg/o.jpg", "is_closed": false, "url": "https://www.yelp.com/biz/pasquales-italian-family-restaurant-and-pizza-westfield?adjust_creative=asslzE1UV0XuKI953B1vtw&utm_campaign=yelp_api_v3&utm_medium=api_v3_business_search&utm_source=asslzE1UV0XuKI953B1vtw", "review_count": 40, "categories": [{"alias": "pizza", "title": "Pizza"}, {"alias": "italian", "title": "Italian"}], "rating": 3.5, "coordinates": {"latitude": 42.1268186820568, "longitude": -72.7477997280986}, "transactions": [], "price": "$$", "location": {"address1": "288 Elm St", "address2": "", "address3": "", "city": "Westfield", "zip_code": "01085", "country": "US", "state": "MA", "display_address": ["288 Elm St", "Westfield, MA 01085"]}, "phone": "+14135625009", "display_phone": "(413) 562-5009", "distance": 9963.761730859265}, {"id": "JFcr8qbSIcDuxWzxoCPskw", "alias": "franklin-house-southwick", "name": "Franklin House", "image_url": "", "is_closed": false, "url": "https://www.yelp.com/biz/franklin-house-southwick?adjust_creative=asslzE1UV0XuKI953B1vtw&utm_campaign=yelp_api_v3&utm_medium=api_v3_business_search&utm_source=asslzE1UV0XuKI953B1vtw", "review_count": 2, "categories": [{"alias": "tradamerican", "title": "American (Traditional)"}], "rating": 4.5, "coordinates": {"latitude": 42.01914, "longitude": -72.76839}, "transactions": [], "location": {"address1": "127 Congamond Rd", "address2": "", "address3": null, "city": "Southwick", "zip_code": "01077", "country": "US", "state": "MA", "display_address": ["127 Congamond Rd", "Southwick, MA 01077"]}, "phone": "+14135696314", "display_phone": "(413) 569-6314", "distance": 18113.52651528565}, {"id": "wqCC8QJ_nNUoiz3Y89kBTw", "alias": "amys-place-easthampton", "name": "Amy's Place", "image_url": "https://s3-media3.fl.yelpcdn.com/bphoto/omuMN7CDuNmuaNsR1vSv_w/o.jpg", "is_closed": false, "url": "https://www.yelp.com/biz/amys-place-easthampton?adjust_creative=asslzE1UV0XuKI953B1vtw&utm_campaign=yelp_api_v3&utm_medium=api_v3_business_search&utm_source=asslzE1UV0XuKI953B1vtw", "review_count": 36, "categories": [{"alias": "pubs", "title": "Pubs"}, {"alias": "newamerican", "title": "American (New)"}], "rating": 4.0, "coordinates": {"latitude": 42.26421, "longitude": -72.66587}, "transactions": ["delivery"], "price": "$$", "location": {"address1": "80 Cottage St", "address2": "", "address3": "", "city": "Easthampton", "zip_code": "01027", "country": "US", "state": "MA", "display_address": ["80 Cottage St", "Easthampton, MA 01027"]}, "phone": "+14135279333", "display_phone": "(413) 527-9333", "distance": 18815.37006532061}, {"id": "5AyoYkXx5oL20ln10LKS5Q", "alias": "se7ens-sports-bar-and-grill-easthampton", "name": "Se7ens Sports Bar & Grill", "image_url": "https://s3-media4.fl.yelpcdn.com/bphoto/hvkdQfYlanVGYbAINnuTiQ/o.jpg", "is_closed": false, "url": "https://www.yelp.com/biz/se7ens-sports-bar-and-grill-easthampton?adjust_creative=asslzE1UV0XuKI953B1vtw&utm_campaign=yelp_api_v3&utm_medium=api_v3_business_search&utm_source=asslzE1UV0XuKI953B1vtw", "review_count": 6, "categories": [{"alias": "sportsbars", "title": "Sports Bars"}, {"alias": "tradamerican", "title": "American (Traditional)"}], "rating": 4.5, "coordinates": {"latitude": 42.26476, "longitude": -72.66583}, "transactions": [], "location": {"address1": "75 Cottage St", "address2": null, "address3": "", "city": "Easthampton", "zip_code": "01027", "country": "US", "state": "MA", "display_address": ["75 Cottage St", "Easthampton, MA 01027"]}, "phone": "+14135271477", "display_phone": "(413) 527-1477", "distance": 18826.65418725712}, {"id": "GUft10qbwpxzThU3l_yQ5g", "alias": "the-hangar-pub-and-grill-westfield-westfield", "name": "The Hangar Pub and Grill - Westfield", "image_url": "https://s3-media2.fl.yelpcdn.com/bphoto/OqDAl40mPSOI45pYQGKRAA/o.jpg", "is_closed": false, "url": "https://www.yelp.com/biz/the-hangar-pub-and-grill-westfield-westfield?adjust_creative=asslzE1UV0XuKI953B1vtw&utm_campaign=yelp_api_v3&utm_medium=api_v3_business_search&utm_source=asslzE1UV0XuKI953B1vtw", "review_count": 92, "categories": [{"alias": "pubs", "title": "Pubs"}, {"alias": "sportsbars", "title": "Sports Bars"}, {"alias": "tradamerican", "title": "American (Traditional)"}], "rating": 3.5, "coordinates": {"latitude": 42.12166, "longitude": -72.75006}, "transactions": ["pickup", "delivery"], "price": "$$", "location": {"address1": "29 School St", "address2": "", "address3": "", "city": "Westfield", "zip_code": "01085", "country": "US", "state": "MA", "display_address": ["29 School St", "Westfield, MA 01085"]}, "phone": "+14135629464", "display_phone": "(413) 562-9464", "distance": 10080.052793076084}, {"id": "5HeBUKMSh8MHAEcK3-XIFA", "alias": "wok-on-water-southwick", "name": "Wok on Water", "image_url": "https://s3-media2.fl.yelpcdn.com/bphoto/h-tNlAP82e82XJ9xJ5PwNw/o.jpg", "is_closed": false, "url": "https://www.yelp.com/biz/wok-on-water-southwick?adjust_creative=asslzE1UV0XuKI953B1vtw&utm_campaign=yelp_api_v3&utm_medium=api_v3_business_search&utm_source=asslzE1UV0XuKI953B1vtw", "review_count": 22, "categories": [{"alias": "asianfusion", "title": "Asian Fusion"}, {"alias": "cocktailbars", "title": "Cocktail Bars"}, {"alias": "tapas", "title": "Tapas Bars"}], "rating": 4.0, "coordinates": {"latitude": 42.041237, "longitude": -72.756134}, "transactions": ["delivery"], "location": {"address1": "101 Point Grove Rd", "address2": "", "address3": null, "city": "Southwick", "zip_code": "01077", "country": "US", "state": "MA", "display_address": ["101 Point Grove Rd", "Southwick, MA 01077"]}, "phone": "+14135699651", "display_phone": "(413) 569-9651", "distance": 16354.158489404515}, {"id": "RbUXu0Dr79pTDSjOUFH-hA", "alias": "the-ranch-pub-house-southwick", "name": "The Ranch Pub House", "image_url": "https://s3-media3.fl.yelpcdn.com/bphoto/ox6c6Z0E8zleHskJxaRVBg/o.jpg", "is_closed": false, "url": "https://www.yelp.com/biz/the-ranch-pub-house-southwick?adjust_creative=asslzE1UV0XuKI953B1vtw&utm_campaign=yelp_api_v3&utm_medium=api_v3_business_search&utm_source=asslzE1UV0XuKI953B1vtw", "review_count": 2, "categories": [{"alias": "tradamerican", "title": "American (Traditional)"}, {"alias": "pubs", "title": "Pubs"}, {"alias": "sportsbars", "title": "Sports Bars"}], "rating": 3.0, "coordinates": {"latitude": 42.0847895, "longitude": -72.7736336}, "transactions": [], "price": "$$", "location": {"address1": "65 Sunny Side Rd", "address2": null, "address3": "", "city": "Southwick", "zip_code": "01077", "country": "US", "state": "MA", "display_address": ["65 Sunny Side Rd", "Southwick, MA 01077"]}, "phone": "+14135699333", "display_phone": "(413) 569-9333", "distance": 11490.034149378946}, {"id": "jNh6V1sIVF2dv9v3dsj4fw", "alias": "the-launch-southwick-2", "name": "The Launch", "image_url": "https://s3-media3.fl.yelpcdn.com/bphoto/9StIi1AiIvtOKWwM7KiYKA/o.jpg", "is_closed": false, "url": "https://www.yelp.com/biz/the-launch-southwick-2?adjust_creative=asslzE1UV0XuKI953B1vtw&utm_campaign=yelp_api_v3&utm_medium=api_v3_business_search&utm_source=asslzE1UV0XuKI953B1vtw", "review_count": 42, "categories": [{"alias": "breakfast_brunch", "title": "Breakfast & Brunch"}, {"alias": "burgers", "title": "Burgers"}, {"alias": "sandwiches", "title": "Sandwiches"}], "rating": 5.0, "coordinates": {"latitude": 42.04295, "longitude": -72.75892}, "transactions": ["delivery"], "location": {"address1": "81 Point Grove Rd", "address2": "", "address3": null, "city": "Southwick", "zip_code": "01077", "country": "US", "state": "MA", "display_address": ["81 Point Grove Rd", "Southwick, MA 01077"]}, "phone": "+14139983548", "display_phone": "(413) 998-3548", "distance": 16078.98313755202}, {"id": "7TrTL0gUhz_HsNmPVodHHA", "alias": "shortstop-bar-and-grill-westfield", "name": "Shortstop Bar & Grill", "image_url": "https://s3-media2.fl.yelpcdn.com/bphoto/vmjfIYelNcyVrpBUX7Wz7Q/o.jpg", "is_closed": false, "url": "https://www.yelp.com/biz/shortstop-bar-and-grill-westfield?adjust_creative=asslzE1UV0XuKI953B1vtw&utm_campaign=yelp_api_v3&utm_medium=api_v3_business_search&utm_source=asslzE1UV0XuKI953B1vtw", "review_count": 82, "categories": [{"alias": "sportsbars", "title": "Sports Bars"}, {"alias": "newamerican", "title": "American (New)"}], "rating": 3.0, "coordinates": {"latitude": 42.1097732575367, "longitude": -72.7099312581689}, "transactions": ["delivery"], "price": "$$", "location": {"address1": "99 Springfield Rd", "address2": null, "address3": "", "city": "Westfield", "zip_code": "01085", "country": "US", "state": "MA", "display_address": ["99 Springfield Rd", "Westfield, MA 01085"]}, "phone": "+14136426370", "display_phone": "(413) 642-6370", "distance": 13613.206814630175}, {"id": "b4ug5qe_WsEk6Apg5w_9bA", "alias": "richards-grinders-westfield", "name": "Richard's Grinders", "image_url": "https://s3-media4.fl.yelpcdn.com/bphoto/KORkeVSoyuftbGpIBaYYjQ/o.jpg", "is_closed": false, "url": "https://www.yelp.com/biz/richards-grinders-westfield?adjust_creative=asslzE1UV0XuKI953B1vtw&utm_campaign=yelp_api_v3&utm_medium=api_v3_business_search&utm_source=asslzE1UV0XuKI953B1vtw", "review_count": 16, "categories": [{"alias": "cafes", "title": "Cafes"}, {"alias": "delis", "title": "Delis"}, {"alias": "sandwiches", "title": "Sandwiches"}], "rating": 4.5, "coordinates": {"latitude": 42.11346, "longitude": -72.7133999}, "transactions": ["delivery"], "price": "$", "location": {"address1": "420 Union St", "address2": "", "address3": "", "city": "Westfield", "zip_code": "01085", "country": "US", "state": "MA", "display_address": ["420 Union St", "Westfield, MA 01085"]}, "phone": "+14135629600", "display_phone": "(413) 562-9600", "distance": 13196.76107521787}, {"id": "sVmGXhFYNg0RMBTMNHm8uA", "alias": "pho-boston-florence", "name": "Pho Boston", "image_url": "https://s3-media2.fl.yelpcdn.com/bphoto/LmBrswGF2GaX6dGy34fG0Q/o.jpg", "is_closed": false, "url": "https://www.yelp.com/biz/pho-boston-florence?adjust_creative=asslzE1UV0XuKI953B1vtw&utm_campaign=yelp_api_v3&utm_medium=api_v3_business_search&utm_source=asslzE1UV0XuKI953B1vtw", "review_count": 26, "categories": [{"alias": "vietnamese", "title": "Vietnamese"}], "rating": 4.0, "coordinates": {"latitude": 42.320845, "longitude": -72.66416}, "transactions": ["delivery"], "location": {"address1": "311 Riverside Dr", "address2": "", "address3": null, "city": "Florence", "zip_code": "01062", "country": "US", "state": "MA", "display_address": ["311 Riverside Dr", "Florence, MA 01062"]}, "phone": "+14135704702", "display_phone": "(413) 570-4702", "distance": 23035.41668506717}, {"id": "xI-cP_d_HDTf2PutrKFWTg", "alias": "yankee-village-restaurant-westfield", "name": "Yankee Village Restaurant", "image_url": "https://s3-media4.fl.yelpcdn.com/bphoto/2HbClrnsRqu_h46mb7TN_w/o.jpg", "is_closed": false, "url": "https://www.yelp.com/biz/yankee-village-restaurant-westfield?adjust_creative=asslzE1UV0XuKI953B1vtw&utm_campaign=yelp_api_v3&utm_medium=api_v3_business_search&utm_source=asslzE1UV0XuKI953B1vtw", "review_count": 11, "categories": [{"alias": "newamerican", "title": "American (New)"}], "rating": 3.5, "coordinates": {"latitude": 42.1085356, "longitude": -72.7648185}, "transactions": ["delivery"], "price": "$", "location": {"address1": "63 Southwick Rd", "address2": "", "address3": "", "city": "Westfield", "zip_code": "01085", "country": "US", "state": "MA", "display_address": ["63 Southwick Rd", "Westfield, MA 01085"]}, "phone": "+14135721224", "display_phone": "(413) 572-1224", "distance": 9956.795780416873}, {"id": "aPSmJfy16tIFj2atsgH0ag", "alias": "take-five-feeding-hills", "name": "Take Five", "image_url": "https://s3-media4.fl.yelpcdn.com/bphoto/rzFgun5XBrGhDW6tWDI94g/o.jpg", "is_closed": false, "url": "https://www.yelp.com/biz/take-five-feeding-hills?adjust_creative=asslzE1UV0XuKI953B1vtw&utm_campaign=yelp_api_v3&utm_medium=api_v3_business_search&utm_source=asslzE1UV0XuKI953B1vtw", "review_count": 34, "categories": [{"alias": "bars", "title": "Bars"}, {"alias": "italian", "title": "Italian"}, {"alias": "seafood", "title": "Seafood"}], "rating": 4.0, "coordinates": {"latitude": 42.07232, "longitude": -72.66053}, "transactions": ["delivery"], "price": "$$", "location": {"address1": "944 Springfield St", "address2": "", "address3": "", "city": "Feeding Hills", "zip_code": "01030", "country": "US", "state": "MA", "display_address": ["944 Springfield St", "Feeding Hills, MA 01030"]}, "phone": "+14137860962", "display_phone": "(413) 786-0962", "distance": 19277.77154199154}, {"id": "uhI0q5g8AYGOFGVio7Cj_g", "alias": "glendale-grill-easthampton", "name": "Glendale Grill", "image_url": "https://s3-media3.fl.yelpcdn.com/bphoto/cw_oipGC8ot7einHDkO5Qg/o.jpg", "is_closed": false, "url": "https://www.yelp.com/biz/glendale-grill-easthampton?adjust_creative=asslzE1UV0XuKI953B1vtw&utm_campaign=yelp_api_v3&utm_medium=api_v3_business_search&utm_source=asslzE1UV0XuKI953B1vtw", "review_count": 27, "categories": [{"alias": "tradamerican", "title": "American (Traditional)"}], "rating": 3.5, "coordinates": {"latitude": 42.2649067, "longitude": -72.6880527}, "transactions": ["delivery"], "price": "$$", "location": {"address1": "65 Glendale S", "address2": "", "address3": "", "city": "Easthampton", "zip_code": "01027", "country": "US", "state": "MA", "display_address": ["65 Glendale S", "Easthampton, MA 01027"]}, "phone": "+14132032300", "display_phone": "(413) 203-2300", "distance": 17367.592753015164}, {"id": "Sv0ItBszllG1Ochdh3H99g", "alias": "glory-of-india-easthampton", "name": "Glory of India", "image_url": "https://s3-media2.fl.yelpcdn.com/bphoto/s3iyt5vq2cHPpOb7ONAi1w/o.jpg", "is_closed": false, "url": "https://www.yelp.com/biz/glory-of-india-easthampton?adjust_creative=asslzE1UV0XuKI953B1vtw&utm_campaign=yelp_api_v3&utm_medium=api_v3_business_search&utm_source=asslzE1UV0XuKI953B1vtw", "review_count": 72, "categories": [{"alias": "indpak", "title": "Indian"}], "rating": 4.0, "coordinates": {"latitude": 42.2694, "longitude": -72.67131}, "transactions": ["delivery"], "price": "$$", "location": {"address1": "29 Union St", "address2": "", "address3": "", "city": "Easthampton", "zip_code": "01027", "country": "US", "state": "MA", "display_address": ["29 Union St", "Easthampton, MA 01027"]}, "phone": "+14135279100", "display_phone": "(413) 527-9100", "distance": 18765.488011024994}, {"id": "lgmse49W68w4gJS-qNPWQw", "alias": "galaxy-easthampton", "name": "Galaxy", "image_url": "https://s3-media3.fl.yelpcdn.com/bphoto/BPBdQPvZBbFUpoiAvEP4JA/o.jpg", "is_closed": false, "url": "https://www.yelp.com/biz/galaxy-easthampton?adjust_creative=asslzE1UV0XuKI953B1vtw&utm_campaign=yelp_api_v3&utm_medium=api_v3_business_search&utm_source=asslzE1UV0XuKI953B1vtw", "review_count": 84, "categories": [{"alias": "cocktailbars", "title": "Cocktail Bars"}, {"alias": "newamerican", "title": "American (New)"}, {"alias": "salad", "title": "Salad"}], "rating": 3.5, "coordinates": {"latitude": 42.2707822, "longitude": -72.6721996}, "transactions": ["delivery"], "price": "$$", "location": {"address1": "60 Main St", "address2": "", "address3": "", "city": "Easthampton", "zip_code": "01027", "country": "US", "state": "MA", "display_address": ["60 Main St", "Easthampton, MA 01027"]}, "phone": "+14132032011", "display_phone": "(413) 203-2011", "distance": 18800.703055516216}, {"id": "PEnqmmNhzHEMrLHBT-wauA", "alias": "soups-on-westfield", "name": "Soups On", "image_url": "https://s3-media1.fl.yelpcdn.com/bphoto/_iKA-Os77wbW_iRZJpfF1g/o.jpg", "is_closed": false, "url": "https://www.yelp.com/biz/soups-on-westfield?adjust_creative=asslzE1UV0XuKI953B1vtw&utm_campaign=yelp_api_v3&utm_medium=api_v3_business_search&utm_source=asslzE1UV0XuKI953B1vtw", "review_count": 58, "categories": [{"alias": "soup", "title": "Soup"}, {"alias": "cafes", "title": "Cafes"}, {"alias": "sandwiches", "title": "Sandwiches"}], "rating": 4.0, "coordinates": {"latitude": 42.12997, "longitude": -72.74391}, "transactions": ["delivery"], "price": "$", "location": {"address1": "16 Union Ave", "address2": "", "address3": "", "city": "Westfield", "zip_code": "01085", "country": "US", "state": "MA", "display_address": ["16 Union Ave", "Westfield, MA 01085"]}, "phone": "+14135620648", "display_phone": "(413) 562-0648", "distance": 10070.09675657591}, {"id": "E11EY59SdtiyWeQbbFTSBg", "alias": "the-back-room-bar-and-grill-agawam", "name": "The Back Room Bar And Grill", "image_url": "https://s3-media3.fl.yelpcdn.com/bphoto/MdGQLGzITweNOyCNdd-KZA/o.jpg", "is_closed": false, "url": "https://www.yelp.com/biz/the-back-room-bar-and-grill-agawam?adjust_creative=asslzE1UV0XuKI953B1vtw&utm_campaign=yelp_api_v3&utm_medium=api_v3_business_search&utm_source=asslzE1UV0XuKI953B1vtw", "review_count": 81, "categories": [{"alias": "tradamerican", "title": "American (Traditional)"}, {"alias": "beerbar", "title": "Beer Bar"}], "rating": 4.5, "coordinates": {"latitude": 42.074577910205, "longitude": -72.6565357831051}, "transactions": ["delivery"], "price": "$$", "location": {"address1": "827 Springfield St", "address2": "", "address3": null, "city": "Agawam", "zip_code": "01030", "country": "US", "state": "MA", "display_address": ["827 Springfield St", "Agawam, MA 01030"]}, "phone": "+14133424266", "display_phone": "(413) 342-4266", "distance": 19406.30945071343}, {"id": "FRZsoIol_jO7-XZjado4mA", "alias": "riffs-joint-easthampton", "name": "Riff's Joint", "image_url": "https://s3-media3.fl.yelpcdn.com/bphoto/s9ggJGtS2XIuG5Y4_RO0Kg/o.jpg", "is_closed": false, "url": "https://www.yelp.com/biz/riffs-joint-easthampton?adjust_creative=asslzE1UV0XuKI953B1vtw&utm_campaign=yelp_api_v3&utm_medium=api_v3_business_search&utm_source=asslzE1UV0XuKI953B1vtw", "review_count": 199, "categories": [{"alias": "burgers", "title": "Burgers"}, {"alias": "cheesesteaks", "title": "Cheesesteaks"}, {"alias": "pizza", "title": "Pizza"}], "rating": 4.0, "coordinates": {"latitude": 42.272241, "longitude": -72.664456}, "transactions": ["delivery"], "price": "$$", "location": {"address1": "116 Pleasant St", "address2": "Ste 158", "address3": "", "city": "Easthampton", "zip_code": "01027", "country": "US", "state": "MA", "display_address": ["116 Pleasant St", "Ste 158", "Easthampton, MA 01027"]}, "phone": "+14135278811", "display_phone": "(413) 527-8811", "distance": 19408.974803092384}, {"id": "WA6tAaFTexpzcwiFPxjwtw", "alias": "feng-ye-westfield", "name": "Feng Ye", "image_url": "https://s3-media2.fl.yelpcdn.com/bphoto/w94V6fbisnRUzstKPNKc_A/o.jpg", "is_closed": false, "url": "https://www.yelp.com/biz/feng-ye-westfield?adjust_creative=asslzE1UV0XuKI953B1vtw&utm_campaign=yelp_api_v3&utm_medium=api_v3_business_search&utm_source=asslzE1UV0XuKI953B1vtw", "review_count": 9, "categories": [{"alias": "chinese", "title": "Chinese"}, {"alias": "japanese", "title": "Japanese"}], "rating": 4.0, "coordinates": {"latitude": 42.12494, "longitude": -72.74769}, "transactions": ["pickup", "delivery"], "location": {"address1": "205 Elm St", "address2": null, "address3": "", "city": "Westfield", "zip_code": "01085", "country": "US", "state": "MA", "display_address": ["205 Elm St", "Westfield, MA 01085"]}, "phone": "+14135795351", "display_phone": "(413) 579-5351", "distance": 10071.231575161491}, {"id": "sKOPB6eJ5ARyJB6KoTAy6A", "alias": "family-pizza-and-grinder-westfield", "name": "Family Pizza & Grinder", "image_url": "https://s3-media1.fl.yelpcdn.com/bphoto/W7zhISY_LjlHxo8f-pdddg/o.jpg", "is_closed": false, "url": "https://www.yelp.com/biz/family-pizza-and-grinder-westfield?adjust_creative=asslzE1UV0XuKI953B1vtw&utm_campaign=yelp_api_v3&utm_medium=api_v3_business_search&utm_source=asslzE1UV0XuKI953B1vtw", "review_count": 28, "categories": [{"alias": "sandwiches", "title": "Sandwiches"}, {"alias": "pizza", "title": "Pizza"}], "rating": 4.5, "coordinates": {"latitude": 42.1265477, "longitude": -72.7470919}, "transactions": [], "price": "$", "location": {"address1": "281 Elm St", "address2": "", "address3": "", "city": "Westfield", "zip_code": "01085", "country": "US", "state": "MA", "display_address": ["281 Elm St", "Westfield, MA 01085"]}, "phone": "+14135627434", "display_phone": "(413) 562-7434", "distance": 10031.833869072421}, {"id": "9AF-q3Ff8RYC2X378KojGA", "alias": "captain-jacks-roadside-shack-easthampton", "name": "Captain Jack's Roadside Shack", "image_url": "https://s3-media2.fl.yelpcdn.com/bphoto/rBNFE6ArFTpytI00V8EmqQ/o.jpg", "is_closed": false, "url": "https://www.yelp.com/biz/captain-jacks-roadside-shack-easthampton?adjust_creative=asslzE1UV0XuKI953B1vtw&utm_campaign=yelp_api_v3&utm_medium=api_v3_business_search&utm_source=asslzE1UV0XuKI953B1vtw", "review_count": 150, "categories": [{"alias": "seafood", "title": "Seafood"}, {"alias": "sandwiches", "title": "Sandwiches"}, {"alias": "burgers", "title": "Burgers"}], "rating": 4.0, "coordinates": {"latitude": 42.287661, "longitude": -72.663165}, "transactions": ["delivery"], "price": "$$", "location": {"address1": "228 Northampton St", "address2": "", "address3": "", "city": "Easthampton", "zip_code": "01027", "country": "US", "state": "MA", "display_address": ["228 Northampton St", "Easthampton, MA 01027"]}, "phone": "+14132035367", "display_phone": "(413) 203-5367", "distance": 20550.176428648945}, {"id": "nrLxUbJiQd6De_8yx7_jIQ", "alias": "crazy-arepas-springfield", "name": "Crazy Arepas", "image_url": "https://s3-media2.fl.yelpcdn.com/bphoto/xBRYNve2vxH1M1iG5Gm4lQ/o.jpg", "is_closed": false, "url": "https://www.yelp.com/biz/crazy-arepas-springfield?adjust_creative=asslzE1UV0XuKI953B1vtw&utm_campaign=yelp_api_v3&utm_medium=api_v3_business_search&utm_source=asslzE1UV0XuKI953B1vtw", "review_count": 3, "categories": [{"alias": "foodtrucks", "title": "Food Trucks"}, {"alias": "spanish", "title": "Spanish"}, {"alias": "tradamerican", "title": "American (Traditional)"}], "rating": 5.0, "coordinates": {"latitude": 42.1191, "longitude": -72.55044}, "transactions": [], "location": {"address1": null, "address2": null, "address3": null, "city": "Springfield", "zip_code": "01109", "country": "US", "state": "MA", "display_address": ["Springfield, MA 01109"]}, "phone": "+14138888083", "display_phone": "(413) 888-8083", "distance": 25595.200800127946}, {"id": "Eza-9btbwfRjI5bDXWra6w", "alias": "el-forastero-agawam", "name": "El Forastero", "image_url": "https://s3-media2.fl.yelpcdn.com/bphoto/AdzXrZ7LfqHrxTvS5lrzLQ/o.jpg", "is_closed": false, "url": "https://www.yelp.com/biz/el-forastero-agawam?adjust_creative=asslzE1UV0XuKI953B1vtw&utm_campaign=yelp_api_v3&utm_medium=api_v3_business_search&utm_source=asslzE1UV0XuKI953B1vtw", "review_count": 100, "categories": [{"alias": "mexican", "title": "Mexican"}, {"alias": "bars", "title": "Bars"}], "rating": 4.0, "coordinates": {"latitude": 42.0794913, "longitude": -72.6789735}, "transactions": ["delivery"], "price": "$$", "location": {"address1": "360 N Westfield St", "address2": "", "address3": "", "city": "Agawam", "zip_code": "01030", "country": "US", "state": "MA", "display_address": ["360 N Westfield St", "Agawam, MA 01030"]}, "phone": "+14134553297", "display_phone": "(413) 455-3297", "distance": 17562.102613597417}, {"id": "_fbnH1lHAzDKswzdn8J2yg", "alias": "noras-restaurant-southwick-2", "name": "Nora's Restaurant", "image_url": "https://s3-media1.fl.yelpcdn.com/bphoto/GzxzEDuPRLt2g43SLq550A/o.jpg", "is_closed": false, "url": "https://www.yelp.com/biz/noras-restaurant-southwick-2?adjust_creative=asslzE1UV0XuKI953B1vtw&utm_campaign=yelp_api_v3&utm_medium=api_v3_business_search&utm_source=asslzE1UV0XuKI953B1vtw", "review_count": 42, "categories": [{"alias": "bars", "title": "Bars"}, {"alias": "newamerican", "title": "American (New)"}], "rating": 3.5, "coordinates": {"latitude": 42.0415878295898, "longitude": -72.7553100585938}, "transactions": ["delivery"], "price": "$$$", "location": {"address1": "106 Point Grove Rd", "address2": "", "address3": "", "city": "Southwick", "zip_code": "01077", "country": "US", "state": "MA", "display_address": ["106 Point Grove Rd", "Southwick, MA 01077"]}, "phone": "+14135699585", "display_phone": "(413) 569-9585", "distance": 16357.204448760885}, {"id": "LevKAQ3UmcMwkowaVt2keQ", "alias": "ray-rays-cafe-easthampton-2", "name": "Ray Ray's Cafe", "image_url": "https://s3-media4.fl.yelpcdn.com/bphoto/_d_mTfvtArbprRzCBTRDdg/o.jpg", "is_closed": false, "url": "https://www.yelp.com/biz/ray-rays-cafe-easthampton-2?adjust_creative=asslzE1UV0XuKI953B1vtw&utm_campaign=yelp_api_v3&utm_medium=api_v3_business_search&utm_source=asslzE1UV0XuKI953B1vtw", "review_count": 1, "categories": [{"alias": "sandwiches", "title": "Sandwiches"}, {"alias": "cafes", "title": "Cafes"}, {"alias": "salad", "title": "Salad"}], "rating": 5.0, "coordinates": {"latitude": 42.264428, "longitude": -72.665666}, "transactions": ["delivery"], "location": {"address1": "82 Cottage St", "address2": null, "address3": "", "city": "Easthampton", "zip_code": "01027", "country": "US", "state": "MA", "display_address": ["82 Cottage St", "Easthampton, MA 01027"]}, "phone": "", "display_phone": "", "distance": 18826.30545457203}, {"id": "NLXXr9wHtj7dQGVIF1pDrQ", "alias": "log-cabin-holyoke", "name": "Log Cabin", "image_url": "https://s3-media1.fl.yelpcdn.com/bphoto/6lb4qvbaXklFQXA-4THKaQ/o.jpg", "is_closed": false, "url": "https://www.yelp.com/biz/log-cabin-holyoke?adjust_creative=asslzE1UV0XuKI953B1vtw&utm_campaign=yelp_api_v3&utm_medium=api_v3_business_search&utm_source=asslzE1UV0XuKI953B1vtw", "review_count": 37, "categories": [{"alias": "tradamerican", "title": "American (Traditional)"}], "rating": 4.0, "coordinates": {"latitude": 42.23617, "longitude": -72.65188}, "transactions": [], "price": "$$$", "location": {"address1": "500 Easthampton Rd", "address2": "", "address3": "", "city": "Holyoke", "zip_code": "01040", "country": "US", "state": "MA", "display_address": ["500 Easthampton Rd", "Holyoke, MA 01040"]}, "phone": "+14135355077", "display_phone": "(413) 535-5077", "distance": 18309.38567910525}, {"id": "IyBj2FvSK3nBOj6_a4gZsA", "alias": "kaisen-feeding-hills", "name": "Kaisen", "image_url": "https://s3-media4.fl.yelpcdn.com/bphoto/rNNS3eTaLkE350AF3XFolw/o.jpg", "is_closed": false, "url": "https://www.yelp.com/biz/kaisen-feeding-hills?adjust_creative=asslzE1UV0XuKI953B1vtw&utm_campaign=yelp_api_v3&utm_medium=api_v3_business_search&utm_source=asslzE1UV0XuKI953B1vtw", "review_count": 15, "categories": [{"alias": "sushi", "title": "Sushi Bars"}, {"alias": "asianfusion", "title": "Asian Fusion"}, {"alias": "japanese", "title": "Japanese"}], "rating": 4.5, "coordinates": {"latitude": 42.066485, "longitude": -72.675749}, "transactions": [], "price": "$$", "location": {"address1": "1325 Springfield St", "address2": "Unit 5", "address3": "", "city": "Feeding Hills", "zip_code": "01030", "country": "US", "state": "MA", "display_address": ["1325 Springfield St", "Unit 5", "Feeding Hills, MA 01030"]}, "phone": "+14132098554", "display_phone": "(413) 209-8554", "distance": 18639.87711399503}, {"id": "C8sZqgLpXgUAD4FoLwND9w", "alias": "gristmill-cafe-southwick", "name": "Gristmill Cafe", "image_url": "https://s3-media2.fl.yelpcdn.com/bphoto/q-OwIksCabt6QFQE-jkMjA/o.jpg", "is_closed": false, "url": "https://www.yelp.com/biz/gristmill-cafe-southwick?adjust_creative=asslzE1UV0XuKI953B1vtw&utm_campaign=yelp_api_v3&utm_medium=api_v3_business_search&utm_source=asslzE1UV0XuKI953B1vtw", "review_count": 8, "categories": [{"alias": "breakfast_brunch", "title": "Breakfast & Brunch"}, {"alias": "tradamerican", "title": "American (Traditional)"}], "rating": 4.5, "coordinates": {"latitude": 42.063179, "longitude": -72.7645921}, "transactions": ["delivery"], "location": {"address1": "610 College Hwy", "address2": "", "address3": null, "city": "Southwick", "zip_code": "01077", "country": "US", "state": "MA", "display_address": ["610 College Hwy", "Southwick, MA 01077"]}, "phone": "+14135693000", "display_phone": "(413) 569-3000", "distance": 13937.408849418407}, {"id": "91PW7jAXOm8YJV449Qr-yQ", "alias": "kisara-japanese-and-korean-restaurant-easthampton", "name": "Kisara Japanese & Korean Restaurant", "image_url": "https://s3-media3.fl.yelpcdn.com/bphoto/0BiDE2eIVW7YNYOiIcch6Q/o.jpg", "is_closed": false, "url": "https://www.yelp.com/biz/kisara-japanese-and-korean-restaurant-easthampton?adjust_creative=asslzE1UV0XuKI953B1vtw&utm_campaign=yelp_api_v3&utm_medium=api_v3_business_search&utm_source=asslzE1UV0XuKI953B1vtw", "review_count": 120, "categories": [{"alias": "sushi", "title": "Sushi Bars"}, {"alias": "korean", "title": "Korean"}, {"alias": "japanese", "title": "Japanese"}], "rating": 4.0, "coordinates": {"latitude": 42.2646721669469, "longitude": -72.6659128365786}, "transactions": ["delivery"], "price": "$$", "location": {"address1": "88 Cottage St", "address2": "", "address3": null, "city": "Easthampton", "zip_code": "01027", "country": "US", "state": "MA", "display_address": ["88 Cottage St", "Easthampton, MA 01027"]}, "phone": "+14132032095", "display_phone": "(413) 203-2095", "distance": 18824.833546285514}, {"id": "XqIn43rbVwYglfSI9aO5JA", "alias": "roma-restaurant-southwick", "name": "Roma Restaurant", "image_url": "https://s3-media4.fl.yelpcdn.com/bphoto/gSFBPiW0WScKZ2H57qbAYw/o.jpg", "is_closed": false, "url": "https://www.yelp.com/biz/roma-restaurant-southwick?adjust_creative=asslzE1UV0XuKI953B1vtw&utm_campaign=yelp_api_v3&utm_medium=api_v3_business_search&utm_source=asslzE1UV0XuKI953B1vtw", "review_count": 34, "categories": [{"alias": "pizza", "title": "Pizza"}], "rating": 2.5, "coordinates": {"latitude": 42.0605, "longitude": -72.76873}, "transactions": ["delivery"], "price": "$$", "location": {"address1": "561 College Hwy", "address2": "", "address3": "", "city": "Southwick", "zip_code": "01077", "country": "US", "state": "MA", "display_address": ["561 College Hwy", "Southwick, MA 01077"]}, "phone": "+14135696315", "display_phone": "(413) 569-6315", "distance": 14068.584475891992}, {"id": "ST2IKt3aNPnw5cfvMbfspQ", "alias": "paisanos-southampton-2", "name": "Paisanos", "image_url": "https://s3-media3.fl.yelpcdn.com/bphoto/BP4-no5DSUgpkqNaaQpRfw/o.jpg", "is_closed": false, "url": "https://www.yelp.com/biz/paisanos-southampton-2?adjust_creative=asslzE1UV0XuKI953B1vtw&utm_campaign=yelp_api_v3&utm_medium=api_v3_business_search&utm_source=asslzE1UV0XuKI953B1vtw", "review_count": 45, "categories": [{"alias": "pizza", "title": "Pizza"}, {"alias": "italian", "title": "Italian"}], "rating": 3.5, "coordinates": {"latitude": 42.2382105429036, "longitude": -72.7205873717075}, "transactions": ["delivery"], "price": "$$", "location": {"address1": "136 College Hwy", "address2": "", "address3": "", "city": "Southampton", "zip_code": "01073", "country": "US", "state": "MA", "display_address": ["136 College Hwy", "Southampton, MA 01073"]}, "phone": "+14135278900", "display_phone": "(413) 527-8900", "distance": 13449.85068393239}, {"id": "E-GBzX-_puSiAIQBHf5XTA", "alias": "holyoke-hummus-company-holyoke", "name": "Holyoke Hummus Company", "image_url": "https://s3-media2.fl.yelpcdn.com/bphoto/K-RvwwHMrU-8EFC9r_j1bw/o.jpg", "is_closed": false, "url": "https://www.yelp.com/biz/holyoke-hummus-company-holyoke?adjust_creative=asslzE1UV0XuKI953B1vtw&utm_campaign=yelp_api_v3&utm_medium=api_v3_business_search&utm_source=asslzE1UV0XuKI953B1vtw", "review_count": 65, "categories": [{"alias": "mideastern", "title": "Middle Eastern"}, {"alias": "foodtrucks", "title": "Food Trucks"}, {"alias": "breakfast_brunch", "title": "Breakfast & Brunch"}], "rating": 4.5, "coordinates": {"latitude": 42.206426, "longitude": -72.6086119}, "transactions": ["pickup", "delivery"], "price": "$", "location": {"address1": "285 High St", "address2": null, "address3": "", "city": "Holyoke", "zip_code": "01040", "country": "US", "state": "MA", "display_address": ["285 High St", "Holyoke, MA 01040"]}, "phone": "+14132251755", "display_phone": "(413) 225-1755", "distance": 20679.552029896724}, {"id": "GPgKneOO10H82T-2r4Yxng", "alias": "new-corner-variety-store-westfield", "name": "New Corner Variety Store", "image_url": "https://s3-media2.fl.yelpcdn.com/bphoto/U-_wJRXlwBjwV9mGENzExA/o.jpg", "is_closed": false, "url": "https://www.yelp.com/biz/new-corner-variety-store-westfield?adjust_creative=asslzE1UV0XuKI953B1vtw&utm_campaign=yelp_api_v3&utm_medium=api_v3_business_search&utm_source=asslzE1UV0XuKI953B1vtw", "review_count": 3, "categories": [{"alias": "delis", "title": "Delis"}, {"alias": "meats", "title": "Meat Shops"}], "rating": 4.5, "coordinates": {"latitude": 42.13439, "longitude": -72.74617}, "transactions": [], "location": {"address1": "2 Crown St", "address2": "", "address3": "", "city": "Westfield", "zip_code": "01085", "country": "US", "state": "MA", "display_address": ["2 Crown St", "Westfield, MA 01085"]}, "phone": "+14135682294", "display_phone": "(413) 568-2294", "distance": 9717.594600162553}, {"id": "MTzTTIUF_uMQp2P0WaZgpg", "alias": "tung-shing-dragon-westfield", "name": "Tung Shing Dragon", "image_url": "https://s3-media4.fl.yelpcdn.com/bphoto/VFJA7H-_qkWlRcc5JcyCjA/o.jpg", "is_closed": false, "url": "https://www.yelp.com/biz/tung-shing-dragon-westfield?adjust_creative=asslzE1UV0XuKI953B1vtw&utm_campaign=yelp_api_v3&utm_medium=api_v3_business_search&utm_source=asslzE1UV0XuKI953B1vtw", "review_count": 20, "categories": [{"alias": "chinese", "title": "Chinese"}], "rating": 3.5, "coordinates": {"latitude": 42.125347, "longitude": -72.753719}, "transactions": ["delivery"], "price": "$$", "location": {"address1": "76 Franklin St", "address2": "", "address3": "", "city": "Westfield", "zip_code": "01085", "country": "US", "state": "MA", "display_address": ["76 Franklin St", "Westfield, MA 01085"]}, "phone": "+14135724522", "display_phone": "(413) 572-4522", "distance": 9617.39697880629}, {"id": "KlooJx4jsR0RDFY7qf5FBQ", "alias": "edgewood-golf-course-restaurant-southwick", "name": "Edgewood Golf Course Restaurant", "image_url": "", "is_closed": false, "url": "https://www.yelp.com/biz/edgewood-golf-course-restaurant-southwick?adjust_creative=asslzE1UV0XuKI953B1vtw&utm_campaign=yelp_api_v3&utm_medium=api_v3_business_search&utm_source=asslzE1UV0XuKI953B1vtw", "review_count": 2, "categories": [{"alias": "restaurants", "title": "Restaurants"}], "rating": 4.0, "coordinates": {"latitude": 42.0416877418756, "longitude": -72.7671906352043}, "transactions": [], "price": "$", "location": {"address1": "161 Sheep Pasture Rd", "address2": "", "address3": "", "city": "Southwick", "zip_code": "01077", "country": "US", "state": "MA", "display_address": ["161 Sheep Pasture Rd", "Southwick, MA 01077"]}, "phone": "+14135695401", "display_phone": "(413) 569-5401", "distance": 15959.684918727204}, {"id": "3_3dq9Xv89QSsbyL9W3f7Q", "alias": "whip-city-brew-westfield", "name": "Whip City Brew", "image_url": "https://s3-media1.fl.yelpcdn.com/bphoto/qjHot0PunT2EAW0oqK64TQ/o.jpg", "is_closed": false, "url": "https://www.yelp.com/biz/whip-city-brew-westfield?adjust_creative=asslzE1UV0XuKI953B1vtw&utm_campaign=yelp_api_v3&utm_medium=api_v3_business_search&utm_source=asslzE1UV0XuKI953B1vtw", "review_count": 21, "categories": [{"alias": "bars", "title": "Bars"}, {"alias": "tradamerican", "title": "American (Traditional)"}], "rating": 3.0, "coordinates": {"latitude": 42.1370964050293, "longitude": -72.7386932373047}, "transactions": [], "price": "$", "location": {"address1": "287 N Elm St", "address2": "", "address3": "", "city": "Westfield", "zip_code": "01085", "country": "US", "state": "MA", "display_address": ["287 N Elm St", "Westfield, MA 01085"]}, "phone": "+14135640149", "display_phone": "(413) 564-0149", "distance": 10183.857645808726}, {"id": "6Hoe3eqdjxzW9LHZYAdJHQ", "alias": "ks-restaurant-westfield", "name": "K's Restaurant", "image_url": "https://s3-media1.fl.yelpcdn.com/bphoto/FfUKb-1jrlHhl3ouu-lLYA/o.jpg", "is_closed": false, "url": "https://www.yelp.com/biz/ks-restaurant-westfield?adjust_creative=asslzE1UV0XuKI953B1vtw&utm_campaign=yelp_api_v3&utm_medium=api_v3_business_search&utm_source=asslzE1UV0XuKI953B1vtw", "review_count": 93, "categories": [{"alias": "japanese", "title": "Japanese"}, {"alias": "sushi", "title": "Sushi Bars"}], "rating": 4.0, "coordinates": {"latitude": 42.1139984130859, "longitude": -72.7247543334961}, "transactions": ["pickup", "delivery"], "price": "$$", "location": {"address1": "318 E Main St", "address2": "", "address3": "", "city": "Westfield", "zip_code": "01085", "country": "US", "state": "MA", "display_address": ["318 E Main St", "Westfield, MA 01085"]}, "phone": "+14135683886", "display_phone": "(413) 568-3886", "distance": 12307.182720837507}, {"id": "NekS6dj2Oaz0MSRDsaUt2Q", "alias": "janiks-pierogi-cafe-and-juice-bar-westfield", "name": "Janik's Pierogi Cafe & Juice Bar", "image_url": "https://s3-media3.fl.yelpcdn.com/bphoto/7GeDUCwrBFh3VBV8NcWK2g/o.jpg", "is_closed": false, "url": "https://www.yelp.com/biz/janiks-pierogi-cafe-and-juice-bar-westfield?adjust_creative=asslzE1UV0XuKI953B1vtw&utm_campaign=yelp_api_v3&utm_medium=api_v3_business_search&utm_source=asslzE1UV0XuKI953B1vtw", "review_count": 37, "categories": [{"alias": "juicebars", "title": "Juice Bars & Smoothies"}, {"alias": "polish", "title": "Polish"}, {"alias": "breakfast_brunch", "title": "Breakfast & Brunch"}], "rating": 4.5, "coordinates": {"latitude": 42.1209283, "longitude": -72.7473749}, "transactions": ["delivery"], "price": "$$", "location": {"address1": "38-40 Main St", "address2": "", "address3": "", "city": "Westfield", "zip_code": "01085", "country": "US", "state": "MA", "display_address": ["38-40 Main St", "Westfield, MA 01085"]}, "phone": "+14135795620", "display_phone": "(413) 579-5620", "distance": 10306.777896957365}, {"id": "8G2C6pDPclfoGHk9gVmu_Q", "alias": "west-lake-gourmet-chinese-restaurant-southampton", "name": "West Lake Gourmet Chinese Restaurant", "image_url": "https://s3-media2.fl.yelpcdn.com/bphoto/nKCivoq17DpEBQu72Du6hw/o.jpg", "is_closed": false, "url": "https://www.yelp.com/biz/west-lake-gourmet-chinese-restaurant-southampton?adjust_creative=asslzE1UV0XuKI953B1vtw&utm_campaign=yelp_api_v3&utm_medium=api_v3_business_search&utm_source=asslzE1UV0XuKI953B1vtw", "review_count": 15, "categories": [{"alias": "chinese", "title": "Chinese"}], "rating": 3.5, "coordinates": {"latitude": 42.252496, "longitude": -72.697897}, "transactions": [], "price": "$$", "location": {"address1": "15 College Hwy", "address2": "", "address3": "", "city": "Southampton", "zip_code": "01073", "country": "US", "state": "MA", "display_address": ["15 College Hwy", "Southampton, MA 01073"]}, "phone": "+14135275207", "display_phone": "(413) 527-5207", "distance": 15892.16363176997}, {"id": "PIAU2nZyrxObZKLXumxNzQ", "alias": "zanto-southwick", "name": "Zanto", "image_url": "https://s3-media1.fl.yelpcdn.com/bphoto/sGny9w7M97NLitrTpwif-w/o.jpg", "is_closed": false, "url": "https://www.yelp.com/biz/zanto-southwick?adjust_creative=asslzE1UV0XuKI953B1vtw&utm_campaign=yelp_api_v3&utm_medium=api_v3_business_search&utm_source=asslzE1UV0XuKI953B1vtw", "review_count": 38, "categories": [{"alias": "pizza", "title": "Pizza"}, {"alias": "italian", "title": "Italian"}, {"alias": "tradamerican", "title": "American (Traditional)"}], "rating": 4.0, "coordinates": {"latitude": 42.06218, "longitude": -72.76549}, "transactions": ["delivery"], "price": "$$", "location": {"address1": "587 College Hwy", "address2": "", "address3": "", "city": "Southwick", "zip_code": "01077", "country": "US", "state": "MA", "display_address": ["587 College Hwy", "Southwick, MA 01077"]}, "phone": "+14135690164", "display_phone": "(413) 569-0164", "distance": 13959.736959174283}, {"id": "ARnHCxfth45qbu5AU2g3Og", "alias": "classic-pizza-chester", "name": "Classic Pizza", "image_url": "https://s3-media3.fl.yelpcdn.com/bphoto/eAl51P7XAPmveVMWETkH2g/o.jpg", "is_closed": false, "url": "https://www.yelp.com/biz/classic-pizza-chester?adjust_creative=asslzE1UV0XuKI953B1vtw&utm_campaign=yelp_api_v3&utm_medium=api_v3_business_search&utm_source=asslzE1UV0XuKI953B1vtw", "review_count": 8, "categories": [{"alias": "pizza", "title": "Pizza"}], "rating": 3.5, "coordinates": {"latitude": 42.2799491882324, "longitude": -72.9793853759766}, "transactions": [], "price": "$$", "location": {"address1": "29 Main St", "address2": "", "address3": "", "city": "Chester", "zip_code": "01011", "country": "US", "state": "MA", "display_address": ["29 Main St", "Chester, MA 01011"]}, "phone": "+14133546554", "display_phone": "(413) 354-6554", "distance": 16077.41421024765}, {"id": "ul6vXu2dme-HiMN5mE6JvQ", "alias": "cocochi-asian-cuisine-feeding-hills", "name": "Cocochi Asian Cuisine", "image_url": "https://s3-media3.fl.yelpcdn.com/bphoto/_ZCezlVtpZGVKpyNNYsBTA/o.jpg", "is_closed": false, "url": "https://www.yelp.com/biz/cocochi-asian-cuisine-feeding-hills?adjust_creative=asslzE1UV0XuKI953B1vtw&utm_campaign=yelp_api_v3&utm_medium=api_v3_business_search&utm_source=asslzE1UV0XuKI953B1vtw", "review_count": 30, "categories": [{"alias": "sushi", "title": "Sushi Bars"}, {"alias": "asianfusion", "title": "Asian Fusion"}], "rating": 4.5, "coordinates": {"latitude": 42.0767417, "longitude": -72.654345}, "transactions": ["delivery"], "price": "$", "location": {"address1": "760 Springfield St", "address2": null, "address3": "", "city": "Feeding Hills", "zip_code": "01030", "country": "US", "state": "MA", "display_address": ["760 Springfield St", "Feeding Hills, MA 01030"]}, "phone": "+14137862777", "display_phone": "(413) 786-2777", "distance": 19423.308914453864}, {"id": "w8Ei4KseWaa6O9ox73Oyfw", "alias": "mikel-coffee-southampton", "name": "Mikel Coffee", "image_url": "https://s3-media1.fl.yelpcdn.com/bphoto/M9qrqmeBR1hum_AcoYdMEg/o.jpg", "is_closed": false, "url": "https://www.yelp.com/biz/mikel-coffee-southampton?adjust_creative=asslzE1UV0XuKI953B1vtw&utm_campaign=yelp_api_v3&utm_medium=api_v3_business_search&utm_source=asslzE1UV0XuKI953B1vtw", "review_count": 11, "categories": [{"alias": "cafes", "title": "Cafes"}], "rating": 4.5, "coordinates": {"latitude": 42.252372, "longitude": -72.69815}, "transactions": [], "location": {"address1": "15 College Hwy", "address2": null, "address3": null, "city": "Southampton", "zip_code": "01073", "country": "US", "state": "MA", "display_address": ["15 College Hwy", "Southampton, MA 01073"]}, "phone": "+14132032442", "display_phone": "(413) 203-2442", "distance": 15867.207780067294}, {"id": "d9qvLBCLy24LQNzQLvZ_kA", "alias": "small-oven-easthampton", "name": "Small Oven", "image_url": "https://s3-media3.fl.yelpcdn.com/bphoto/sNGGFarpN9RwCxpggJ35bw/o.jpg", "is_closed": false, "url": "https://www.yelp.com/biz/small-oven-easthampton?adjust_creative=asslzE1UV0XuKI953B1vtw&utm_campaign=yelp_api_v3&utm_medium=api_v3_business_search&utm_source=asslzE1UV0XuKI953B1vtw", "review_count": 106, "categories": [{"alias": "bakeries", "title": "Bakeries"}, {"alias": "cafes", "title": "Cafes"}], "rating": 4.5, "coordinates": {"latitude": 42.2690437804995, "longitude": -72.6715128868818}, "transactions": ["delivery"], "price": "$$", "location": {"address1": "36 Union St", "address2": "", "address3": "", "city": "Easthampton", "zip_code": "01027", "country": "US", "state": "MA", "display_address": ["36 Union St", "Easthampton, MA 01027"]}, "phone": "+14135271785", "display_phone": "(413) 527-1785", "distance": 18730.545965843703}, {"id": "T3bFCUMtiac0dmH4N2JVAg", "alias": "moes-southwest-grill-westfield", "name": "Moe's Southwest Grill", "image_url": "https://s3-media4.fl.yelpcdn.com/bphoto/iWLOJt9kTN0nUHxygiG6Qw/o.jpg", "is_closed": false, "url": "https://www.yelp.com/biz/moes-southwest-grill-westfield?adjust_creative=asslzE1UV0XuKI953B1vtw&utm_campaign=yelp_api_v3&utm_medium=api_v3_business_search&utm_source=asslzE1UV0XuKI953B1vtw", "review_count": 14, "categories": [{"alias": "tex-mex", "title": "Tex-Mex"}, {"alias": "mexican", "title": "Mexican"}], "rating": 3.5, "coordinates": {"latitude": 42.1138997, "longitude": -72.7265659}, "transactions": [], "price": "$", "location": {"address1": "301 E Main St", "address2": null, "address3": null, "city": "Westfield", "zip_code": "01085", "country": "US", "state": "MA", "display_address": ["301 E Main St", "Westfield, MA 01085"]}, "phone": "+14135795712", "display_phone": "(413) 579-5712", "distance": 12193.443435825193}, {"id": "QHDPhHU0ORgudmbLGBrnBQ", "alias": "el-comalito-easthampton", "name": "El Comalito", "image_url": "https://s3-media4.fl.yelpcdn.com/bphoto/qNKieMy7XCTnLVDiC8M-HA/o.jpg", "is_closed": false, "url": "https://www.yelp.com/biz/el-comalito-easthampton?adjust_creative=asslzE1UV0XuKI953B1vtw&utm_campaign=yelp_api_v3&utm_medium=api_v3_business_search&utm_source=asslzE1UV0XuKI953B1vtw", "review_count": 40, "categories": [{"alias": "salvadoran", "title": "Salvadoran"}, {"alias": "tacos", "title": "Tacos"}, {"alias": "salad", "title": "Salad"}], "rating": 3.5, "coordinates": {"latitude": 42.28109, "longitude": -72.6711468}, "transactions": ["delivery"], "location": {"address1": "126 Northampton St", "address2": "", "address3": null, "city": "Easthampton", "zip_code": "01027", "country": "US", "state": "MA", "display_address": ["126 Northampton St", "Easthampton, MA 01027"]}, "phone": "+14132035186", "display_phone": "(413) 203-5186", "distance": 19578.255854719893}, {"id": "y5KWUtvx_BzkXwK1IYvzug", "alias": "summer-house-southwick", "name": "Summer House", "image_url": "https://s3-media3.fl.yelpcdn.com/bphoto/V6ucOhTsTvIFI0Zb3xYrgw/o.jpg", "is_closed": false, "url": "https://www.yelp.com/biz/summer-house-southwick?adjust_creative=asslzE1UV0XuKI953B1vtw&utm_campaign=yelp_api_v3&utm_medium=api_v3_business_search&utm_source=asslzE1UV0XuKI953B1vtw", "review_count": 51, "categories": [{"alias": "icecream", "title": "Ice Cream & Frozen Yogurt"}, {"alias": "tradamerican", "title": "American (Traditional)"}, {"alias": "burgers", "title": "Burgers"}], "rating": 4.0, "coordinates": {"latitude": 42.05895, "longitude": -72.76672}, "transactions": [], "price": "$", "location": {"address1": "552 College Hwy", "address2": "", "address3": "", "city": "Southwick", "zip_code": "01077", "country": "US", "state": "MA", "display_address": ["552 College Hwy", "Southwick, MA 01077"]}, "phone": "+14135693581", "display_phone": "(413) 569-3581", "distance": 14200.60147151447}, {"id": "3fC8DGIB4-8cWikX3XdA_Q", "alias": "main-garden-feeding-hills", "name": "Main Garden", "image_url": "https://s3-media3.fl.yelpcdn.com/bphoto/UU9QCLUKaAkWYVKTrYPmtQ/o.jpg", "is_closed": false, "url": "https://www.yelp.com/biz/main-garden-feeding-hills?adjust_creative=asslzE1UV0XuKI953B1vtw&utm_campaign=yelp_api_v3&utm_medium=api_v3_business_search&utm_source=asslzE1UV0XuKI953B1vtw", "review_count": 21, "categories": [{"alias": "chinese", "title": "Chinese"}], "rating": 4.5, "coordinates": {"latitude": 42.067401, "longitude": -72.679996}, "transactions": ["pickup", "delivery"], "location": {"address1": "28 Southwick St", "address2": "", "address3": null, "city": "Feeding Hills", "zip_code": "01030", "country": "US", "state": "MA", "display_address": ["28 Southwick St", "Feeding Hills, MA 01030"]}, "phone": "+14137861234", "display_phone": "(413) 786-1234", "distance": 18291.750539642086}, {"id": "59_DlgjMJyx6DcU-cXyXjw", "alias": "dragon-house-feeding-hills", "name": "Dragon House", "image_url": "", "is_closed": false, "url": "https://www.yelp.com/biz/dragon-house-feeding-hills?adjust_creative=asslzE1UV0XuKI953B1vtw&utm_campaign=yelp_api_v3&utm_medium=api_v3_business_search&utm_source=asslzE1UV0XuKI953B1vtw", "review_count": 2, "categories": [{"alias": "restaurants", "title": "Restaurants"}], "rating": 4.5, "coordinates": {"latitude": 42.0767403, "longitude": -72.6543427}, "transactions": ["delivery"], "location": {"address1": "760 Springfield St", "address2": null, "address3": null, "city": "Feeding Hills", "zip_code": "01030", "country": "US", "state": "MA", "display_address": ["760 Springfield St", "Feeding Hills, MA 01030"]}, "phone": "+14137868888", "display_phone": "(413) 786-8888", "distance": 19423.308914453864}, {"id": "fDnZGo3bxmQlMZo3m2T96w", "alias": "katies-country-store-east-otis", "name": "Katie's Country Store", "image_url": "https://s3-media3.fl.yelpcdn.com/bphoto/0XMo7glsemhUEwtfjwZuAQ/o.jpg", "is_closed": false, "url": "https://www.yelp.com/biz/katies-country-store-east-otis?adjust_creative=asslzE1UV0XuKI953B1vtw&utm_campaign=yelp_api_v3&utm_medium=api_v3_business_search&utm_source=asslzE1UV0XuKI953B1vtw", "review_count": 6, "categories": [{"alias": "grocery", "title": "Grocery"}, {"alias": "burgers", "title": "Burgers"}, {"alias": "sandwiches", "title": "Sandwiches"}], "rating": 3.5, "coordinates": {"latitude": 42.1731642, "longitude": -73.034965}, "transactions": [], "price": "$$", "location": {"address1": "1922 E Otis Rd", "address2": "", "address3": "", "city": "East Otis", "zip_code": "01029", "country": "US", "state": "MA", "display_address": ["1922 E Otis Rd", "East Otis, MA 01029"]}, "phone": "+14132694211", "display_phone": "(413) 269-4211", "distance": 14882.876926627961}, {"id": "yHCDRz8Cc3hd0RjXN9TCog", "alias": "strums-deli-and-meats-holyoke", "name": "Strums Deli and Meats", "image_url": "https://s3-media2.fl.yelpcdn.com/bphoto/qBEa_acY9w8t5r0Iy-nPXg/o.jpg", "is_closed": false, "url": "https://www.yelp.com/biz/strums-deli-and-meats-holyoke?adjust_creative=asslzE1UV0XuKI953B1vtw&utm_campaign=yelp_api_v3&utm_medium=api_v3_business_search&utm_source=asslzE1UV0XuKI953B1vtw", "review_count": 12, "categories": [{"alias": "meats", "title": "Meat Shops"}, {"alias": "delis", "title": "Delis"}], "rating": 4.0, "coordinates": {"latitude": 42.1868016, "longitude": -72.6499354}, "transactions": ["delivery"], "price": "$$", "location": {"address1": "502 Westfield Rd", "address2": "", "address3": "", "city": "Holyoke", "zip_code": "01040", "country": "US", "state": "MA", "display_address": ["502 Westfield Rd", "Holyoke, MA 01040"]}, "phone": "+14135328020", "display_phone": "(413) 532-8020", "distance": 16969.88221167631}, {"id": "mHA-Vrq7cgnsFODSvZqHuA", "alias": "steves-sugar-shack-westhampton", "name": "Steve's Sugar Shack", "image_url": "", "is_closed": false, "url": "https://www.yelp.com/biz/steves-sugar-shack-westhampton?adjust_creative=asslzE1UV0XuKI953B1vtw&utm_campaign=yelp_api_v3&utm_medium=api_v3_business_search&utm_source=asslzE1UV0XuKI953B1vtw", "review_count": 2, "categories": [{"alias": "breakfast_brunch", "title": "Breakfast & Brunch"}], "rating": 5.0, "coordinates": {"latitude": 42.307695, "longitude": -72.77132}, "transactions": [], "location": {"address1": "34 N Rd", "address2": "", "address3": null, "city": "Westhampton", "zip_code": "01027", "country": "US", "state": "MA", "display_address": ["34 N Rd", "Westhampton, MA 01027"]}, "phone": "+14135270294", "display_phone": "(413) 527-0294", "distance": 16877.275583636398}, {"id": "HdfjH-3hXOuqMnQtRmVd_Q", "alias": "crepes-tea-house-southwick", "name": "Crepes Tea House", "image_url": "https://s3-media1.fl.yelpcdn.com/bphoto/viJU3ht4GnMzkXAXFza4oQ/o.jpg", "is_closed": false, "url": "https://www.yelp.com/biz/crepes-tea-house-southwick?adjust_creative=asslzE1UV0XuKI953B1vtw&utm_campaign=yelp_api_v3&utm_medium=api_v3_business_search&utm_source=asslzE1UV0XuKI953B1vtw", "review_count": 24, "categories": [{"alias": "modern_european", "title": "Modern European"}, {"alias": "tea", "title": "Tea Rooms"}, {"alias": "breakfast_brunch", "title": "Breakfast & Brunch"}], "rating": 4.5, "coordinates": {"latitude": 42.06621, "longitude": -72.73641}, "transactions": ["pickup", "delivery"], "location": {"address1": "157 Feeding Hills Rd", "address2": null, "address3": "", "city": "Southwick", "zip_code": "01077", "country": "US", "state": "MA", "display_address": ["157 Feeding Hills Rd", "Southwick, MA 01077"]}, "phone": "+14134377440", "display_phone": "(413) 437-7440", "distance": 15009.40663211602}, {"id": "hIHNUMU6jlL1hyr2tu_0SA", "alias": "congamond-pizza-southwick", "name": "Congamond Pizza", "image_url": "https://s3-media3.fl.yelpcdn.com/bphoto/ochrIo_XfIdbYwdAjKV2WQ/o.jpg", "is_closed": false, "url": "https://www.yelp.com/biz/congamond-pizza-southwick?adjust_creative=asslzE1UV0XuKI953B1vtw&utm_campaign=yelp_api_v3&utm_medium=api_v3_business_search&utm_source=asslzE1UV0XuKI953B1vtw", "review_count": 16, "categories": [{"alias": "pizza", "title": "Pizza"}, {"alias": "italian", "title": "Italian"}], "rating": 4.0, "coordinates": {"latitude": 42.0198593139648, "longitude": -72.7712173461914}, "transactions": [], "location": {"address1": "108 Congamond Rd", "address2": "", "address3": "", "city": "Southwick", "zip_code": "01077", "country": "US", "state": "MA", "display_address": ["108 Congamond Rd", "Southwick, MA 01077"]}, "phone": "+14135690000", "display_phone": "(413) 569-0000", "distance": 17940.9788322943}, {"id": "g_Z91F4sXjvoPPum7nSa7A", "alias": "village-pizza-restaurant-southwick", "name": "Village Pizza Restaurant", "image_url": "https://s3-media3.fl.yelpcdn.com/bphoto/fbqXe4QFXIrkMblsKZ6LFA/o.jpg", "is_closed": false, "url": "https://www.yelp.com/biz/village-pizza-restaurant-southwick?adjust_creative=asslzE1UV0XuKI953B1vtw&utm_campaign=yelp_api_v3&utm_medium=api_v3_business_search&utm_source=asslzE1UV0XuKI953B1vtw", "review_count": 18, "categories": [{"alias": "pizza", "title": "Pizza"}], "rating": 3.0, "coordinates": {"latitude": 42.057816, "longitude": -72.768672}, "transactions": ["delivery"], "price": "$$", "location": {"address1": "515 College Hwy", "address2": "", "address3": "", "city": "Southwick", "zip_code": "01077", "country": "US", "state": "MA", "display_address": ["515 College Hwy", "Southwick, MA 01077"]}, "phone": "+14135693160", "display_phone": "(413) 569-3160", "distance": 14240.810730928826}, {"id": "KY4Whh3UVSZQ8mm9XSxTeA", "alias": "mrs-mitchells-kitchen-holyoke", "name": "Mrs. Mitchell's Kitchen", "image_url": "https://s3-media1.fl.yelpcdn.com/bphoto/C_fxb5xRx72M6CpcvIdcww/o.jpg", "is_closed": false, "url": "https://www.yelp.com/biz/mrs-mitchells-kitchen-holyoke?adjust_creative=asslzE1UV0XuKI953B1vtw&utm_campaign=yelp_api_v3&utm_medium=api_v3_business_search&utm_source=asslzE1UV0XuKI953B1vtw", "review_count": 33, "categories": [{"alias": "irish", "title": "Irish"}, {"alias": "tradamerican", "title": "American (Traditional)"}, {"alias": "coffee", "title": "Coffee & Tea"}], "rating": 3.5, "coordinates": {"latitude": 42.1871758, "longitude": -72.6501541}, "transactions": ["delivery"], "price": "$", "location": {"address1": "514 Westfield Rd", "address2": "", "address3": "", "city": "Holyoke", "zip_code": "01040", "country": "US", "state": "MA", "display_address": ["514 Westfield Rd", "Holyoke, MA 01040"]}, "phone": "+14133228816", "display_phone": "(413) 322-8816", "distance": 16948.136753695188}, {"id": "GBeWGwKZu_URwU1tl17VRQ", "alias": "new-main-moon-chinese-restaurant-southwick", "name": "New Main Moon Chinese Restaurant", "image_url": "https://s3-media1.fl.yelpcdn.com/bphoto/H7vsIe3-zFWWfOyGs_tM_w/o.jpg", "is_closed": false, "url": "https://www.yelp.com/biz/new-main-moon-chinese-restaurant-southwick?adjust_creative=asslzE1UV0XuKI953B1vtw&utm_campaign=yelp_api_v3&utm_medium=api_v3_business_search&utm_source=asslzE1UV0XuKI953B1vtw", "review_count": 34, "categories": [{"alias": "chinese", "title": "Chinese"}], "rating": 3.5, "coordinates": {"latitude": 42.063179, "longitude": -72.7645921}, "transactions": [], "price": "$", "location": {"address1": "610 College Hwy", "address2": "", "address3": "", "city": "Southwick", "zip_code": "01077", "country": "US", "state": "MA", "display_address": ["610 College Hwy", "Southwick, MA 01077"]}, "phone": "+14135691234", "display_phone": "(413) 569-1234", "distance": 13937.408849418407}, {"id": "fl5p-AmuNg1OqMAq0_8x6A", "alias": "buns-on-wheels-easthampton", "name": "Buns On Wheels", "image_url": "https://s3-media1.fl.yelpcdn.com/bphoto/WatvNt3_cotolRsu80jsDQ/o.jpg", "is_closed": false, "url": "https://www.yelp.com/biz/buns-on-wheels-easthampton?adjust_creative=asslzE1UV0XuKI953B1vtw&utm_campaign=yelp_api_v3&utm_medium=api_v3_business_search&utm_source=asslzE1UV0XuKI953B1vtw", "review_count": 2, "categories": [{"alias": "foodtrucks", "title": "Food Trucks"}, {"alias": "tradamerican", "title": "American (Traditional)"}], "rating": 4.0, "coordinates": {"latitude": 42.2724233425073, "longitude": -72.6713797822595}, "transactions": [], "price": "$", "location": {"address1": "82-98 Lyman Ave", "address2": "", "address3": "", "city": "Easthampton", "zip_code": "01027", "country": "US", "state": "MA", "display_address": ["82-98 Lyman Ave", "Easthampton, MA 01027"]}, "phone": "", "display_phone": "", "distance": 18964.633178941534}, {"id": "wGMb0UHJg7OtJSZ0dD7qvg", "alias": "mcdonalds-blandford-4", "name": "McDonald's", "image_url": "https://s3-media4.fl.yelpcdn.com/bphoto/pjUOJQaJPKc12XOIG90l6g/o.jpg", "is_closed": false, "url": "https://www.yelp.com/biz/mcdonalds-blandford-4?adjust_creative=asslzE1UV0XuKI953B1vtw&utm_campaign=yelp_api_v3&utm_medium=api_v3_business_search&utm_source=asslzE1UV0XuKI953B1vtw", "review_count": 3, "categories": [{"alias": "coffee", "title": "Coffee & Tea"}, {"alias": "burgers", "title": "Burgers"}, {"alias": "hotdogs", "title": "Fast Food"}], "rating": 1.5, "coordinates": {"latitude": 42.1954836, "longitude": -72.9326521}, "transactions": [], "price": "$", "location": {"address1": "50 Massachusetts Tpke", "address2": null, "address3": null, "city": "Blandford", "zip_code": "01008", "country": "US", "state": "MA", "display_address": ["50 Massachusetts Tpke", "Blandford, MA 01008"]}, "phone": "+14138482284", "display_phone": "(413) 848-2284", "distance": 7085.810543551985}, {"id": "MqtuEay7-hmWJAdPsh_b_A", "alias": "the-waters-fine-goods-coffee-easthampton", "name": "The Water's Fine Goods + Coffee", "image_url": "https://s3-media1.fl.yelpcdn.com/bphoto/s--bIRFRNx9Q-cgtcS4WKw/o.jpg", "is_closed": false, "url": "https://www.yelp.com/biz/the-waters-fine-goods-coffee-easthampton?adjust_creative=asslzE1UV0XuKI953B1vtw&utm_campaign=yelp_api_v3&utm_medium=api_v3_business_search&utm_source=asslzE1UV0XuKI953B1vtw", "review_count": 4, "categories": [{"alias": "cafes", "title": "Cafes"}, {"alias": "giftshops", "title": "Gift Shops"}], "rating": 5.0, "coordinates": {"latitude": 42.2649118272765, "longitude": -72.6679227871144}, "transactions": [], "location": {"address1": "20 Cottage St", "address2": "", "address3": null, "city": "Easthampton", "zip_code": "01027", "country": "US", "state": "MA", "display_address": ["20 Cottage St", "Easthampton, MA 01027"]}, "phone": "+14132035447", "display_phone": "(413) 203-5447", "distance": 18703.70513941361}, {"id": "98NOrHpP8oM6MDcIbgM02g", "alias": "maple-leaf-bar-and-grill-westfield", "name": "Maple Leaf Bar & Grill", "image_url": "https://s3-media2.fl.yelpcdn.com/bphoto/xmBIe0wvLF2wBespwchHWw/o.jpg", "is_closed": false, "url": "https://www.yelp.com/biz/maple-leaf-bar-and-grill-westfield?adjust_creative=asslzE1UV0XuKI953B1vtw&utm_campaign=yelp_api_v3&utm_medium=api_v3_business_search&utm_source=asslzE1UV0XuKI953B1vtw", "review_count": 14, "categories": [{"alias": "bars", "title": "Bars"}, {"alias": "burgers", "title": "Burgers"}], "rating": 3.0, "coordinates": {"latitude": 42.1230392456055, "longitude": -72.7492218017578}, "transactions": [], "price": "$$", "location": {"address1": "11 Arnold St", "address2": "", "address3": "", "city": "Westfield", "zip_code": "01085", "country": "US", "state": "MA", "display_address": ["11 Arnold St", "Westfield, MA 01085"]}, "phone": "+14135625068", "display_phone": "(413) 562-5068", "distance": 10069.811596908254}, {"id": "1mCxwfmgVggWataJ7UtyuQ", "alias": "elm-pizza-westfield", "name": "Elm Pizza", "image_url": "https://s3-media3.fl.yelpcdn.com/bphoto/67wmtlGmlAVNPctejI1_3Q/o.jpg", "is_closed": false, "url": "https://www.yelp.com/biz/elm-pizza-westfield?adjust_creative=asslzE1UV0XuKI953B1vtw&utm_campaign=yelp_api_v3&utm_medium=api_v3_business_search&utm_source=asslzE1UV0XuKI953B1vtw", "review_count": 13, "categories": [{"alias": "pizza", "title": "Pizza"}, {"alias": "sandwiches", "title": "Sandwiches"}], "rating": 3.5, "coordinates": {"latitude": 42.13082, "longitude": -72.74529}, "transactions": ["delivery"], "price": "$$", "location": {"address1": "38 N Elm St", "address2": "", "address3": "", "city": "Westfield", "zip_code": "01085", "country": "US", "state": "MA", "display_address": ["38 N Elm St", "Westfield, MA 01085"]}, "phone": "+14135682020", "display_phone": "(413) 568-2020", "distance": 9947.89156441603}, {"id": "3ZuZ0ymo8eiMPGN5_4F0VQ", "alias": "red-riding-hoods-basket-cafe-southwick-2", "name": "Red Riding Hood's Basket Cafe", "image_url": "https://s3-media2.fl.yelpcdn.com/bphoto/uygV8vs5wAlPrjwzeIubsA/o.jpg", "is_closed": false, "url": "https://www.yelp.com/biz/red-riding-hoods-basket-cafe-southwick-2?adjust_creative=asslzE1UV0XuKI953B1vtw&utm_campaign=yelp_api_v3&utm_medium=api_v3_business_search&utm_source=asslzE1UV0XuKI953B1vtw", "review_count": 25, "categories": [{"alias": "cafes", "title": "Cafes"}, {"alias": "breakfast_brunch", "title": "Breakfast & Brunch"}, {"alias": "juicebars", "title": "Juice Bars & Smoothies"}], "rating": 4.0, "coordinates": {"latitude": 42.019861, "longitude": -72.771215}, "transactions": [], "price": "$", "location": {"address1": "108 Congamond Rd", "address2": "Ste 130", "address3": null, "city": "Southwick", "zip_code": "01077", "country": "US", "state": "MA", "display_address": ["108 Congamond Rd", "Ste 130", "Southwick, MA 01077"]}, "phone": "+14135692300", "display_phone": "(413) 569-2300", "distance": 17940.9788322943}, {"id": "jW38JcbztI3CzGRwLwfzeQ", "alias": "dynasty-gourmet-easthampton", "name": "Dynasty Gourmet", "image_url": "https://s3-media2.fl.yelpcdn.com/bphoto/YHhOWtG_nJl69AAkaY28vQ/o.jpg", "is_closed": false, "url": "https://www.yelp.com/biz/dynasty-gourmet-easthampton?adjust_creative=asslzE1UV0XuKI953B1vtw&utm_campaign=yelp_api_v3&utm_medium=api_v3_business_search&utm_source=asslzE1UV0XuKI953B1vtw", "review_count": 13, "categories": [{"alias": "chinese", "title": "Chinese"}], "rating": 3.5, "coordinates": {"latitude": 42.26906, "longitude": -72.672}, "transactions": ["delivery"], "location": {"address1": "32 Union St", "address2": "", "address3": "", "city": "Easthampton", "zip_code": "01027", "country": "US", "state": "MA", "display_address": ["32 Union St", "Easthampton, MA 01027"]}, "phone": "+14135290171", "display_phone": "(413) 529-0171", "distance": 18701.01583285679}, {"id": "4vwW9_fI6hktjy8KkhYr1Q", "alias": "boston-bay-pizza-westfield", "name": "Boston Bay Pizza", "image_url": "https://s3-media4.fl.yelpcdn.com/bphoto/nFUZ6UJP80RHJoGDl7BPyw/o.jpg", "is_closed": false, "url": "https://www.yelp.com/biz/boston-bay-pizza-westfield?adjust_creative=asslzE1UV0XuKI953B1vtw&utm_campaign=yelp_api_v3&utm_medium=api_v3_business_search&utm_source=asslzE1UV0XuKI953B1vtw", "review_count": 8, "categories": [{"alias": "pizza", "title": "Pizza"}], "rating": 4.0, "coordinates": {"latitude": 42.122183, "longitude": -72.748415}, "transactions": ["delivery"], "price": "$", "location": {"address1": "73 Elm St", "address2": null, "address3": null, "city": "Westfield", "zip_code": "01085", "country": "US", "state": "MA", "display_address": ["73 Elm St", "Westfield, MA 01085"]}, "phone": "+14135720099", "display_phone": "(413) 572-0099", "distance": 10172.938503882468}, {"id": "dQV3LpK8w42ZrvMogf-Yfg", "alias": "silver-spoon-restaurant-easthampton", "name": "Silver Spoon Restaurant", "image_url": "https://s3-media3.fl.yelpcdn.com/bphoto/IT12dKxOjtUP8MiTYlxkBA/o.jpg", "is_closed": false, "url": "https://www.yelp.com/biz/silver-spoon-restaurant-easthampton?adjust_creative=asslzE1UV0XuKI953B1vtw&utm_campaign=yelp_api_v3&utm_medium=api_v3_business_search&utm_source=asslzE1UV0XuKI953B1vtw", "review_count": 74, "categories": [{"alias": "diners", "title": "Diners"}, {"alias": "breakfast_brunch", "title": "Breakfast & Brunch"}, {"alias": "tradamerican", "title": "American (Traditional)"}], "rating": 4.0, "coordinates": {"latitude": 42.270737312599, "longitude": -72.6724829875412}, "transactions": ["delivery"], "price": "$", "location": {"address1": "73 Main St", "address2": "", "address3": "", "city": "Easthampton", "zip_code": "01027", "country": "US", "state": "MA", "display_address": ["73 Main St", "Easthampton, MA 01027"]}, "phone": "+14135273363", "display_phone": "(413) 527-3363", "distance": 18779.07439457144}, {"id": "TDxS5w9gIksx2VCjPopx6w", "alias": "99-restaurant-and-pub-westfield", "name": "99 Restaurant & Pub", "image_url": "https://s3-media1.fl.yelpcdn.com/bphoto/cuC-I2ou7uv-jg9MH0axtQ/o.jpg", "is_closed": false, "url": "https://www.yelp.com/biz/99-restaurant-and-pub-westfield?adjust_creative=asslzE1UV0XuKI953B1vtw&utm_campaign=yelp_api_v3&utm_medium=api_v3_business_search&utm_source=asslzE1UV0XuKI953B1vtw", "review_count": 22, "categories": [{"alias": "tradamerican", "title": "American (Traditional)"}, {"alias": "pubs", "title": "Pubs"}], "rating": 3.5, "coordinates": {"latitude": 42.11362, "longitude": -72.72241}, "transactions": [], "price": "$$", "location": {"address1": "342 E Main St", "address2": "", "address3": "", "city": "Westfield", "zip_code": "01085", "country": "US", "state": "MA", "display_address": ["342 E Main St", "Westfield, MA 01085"]}, "phone": "+14135621399", "display_phone": "(413) 562-1399", "distance": 12521.967346425126}, {"id": "pKljBz3SKdWcFpRfkEP3sQ", "alias": "911-burgers-and-dogs-feeding-hills", "name": "911 Burgers & Dogs", "image_url": "https://s3-media3.fl.yelpcdn.com/bphoto/Ws-7ZeiaNejgb08jFOaNpQ/o.jpg", "is_closed": false, "url": "https://www.yelp.com/biz/911-burgers-and-dogs-feeding-hills?adjust_creative=asslzE1UV0XuKI953B1vtw&utm_campaign=yelp_api_v3&utm_medium=api_v3_business_search&utm_source=asslzE1UV0XuKI953B1vtw", "review_count": 15, "categories": [{"alias": "hotdogs", "title": "Fast Food"}], "rating": 4.0, "coordinates": {"latitude": 42.10264, "longitude": -72.69114}, "transactions": [], "price": "$", "location": {"address1": "1157 N Westfield St", "address2": "", "address3": "", "city": "Feeding Hills", "zip_code": "01030", "country": "US", "state": "MA", "display_address": ["1157 N Westfield St", "Feeding Hills, MA 01030"]}, "phone": "+14137866800", "display_phone": "(413) 786-6800", "distance": 15337.321367199309}, {"id": "BpAyDg26jMIPVX5qWlZUxQ", "alias": "d-and-js-hash-house-southwick", "name": "D&J's Hash House", "image_url": "https://s3-media1.fl.yelpcdn.com/bphoto/nWC-ltLnwVVDSXRFyK8fVw/o.jpg", "is_closed": false, "url": "https://www.yelp.com/biz/d-and-js-hash-house-southwick?adjust_creative=asslzE1UV0XuKI953B1vtw&utm_campaign=yelp_api_v3&utm_medium=api_v3_business_search&utm_source=asslzE1UV0XuKI953B1vtw", "review_count": 39, "categories": [{"alias": "breakfast_brunch", "title": "Breakfast & Brunch"}, {"alias": "burgers", "title": "Burgers"}], "rating": 3.5, "coordinates": {"latitude": 42.0852923936762, "longitude": -72.7651793422864}, "transactions": [], "price": "$$", "location": {"address1": "784 College Hwy", "address2": "", "address3": "", "city": "Southwick", "zip_code": "01077", "country": "US", "state": "MA", "display_address": ["784 College Hwy", "Southwick, MA 01077"]}, "phone": "+14138316082", "display_phone": "(413) 831-6082", "distance": 11864.14645523745}, {"id": "3nJ4YUaH4VjJo9WJWWMnhA", "alias": "mill-180-park-easthampton-2", "name": "Mill 180 Park", "image_url": "https://s3-media3.fl.yelpcdn.com/bphoto/Kg5xSGhCSFukePrVPJ8mHQ/o.jpg", "is_closed": false, "url": "https://www.yelp.com/biz/mill-180-park-easthampton-2?adjust_creative=asslzE1UV0XuKI953B1vtw&utm_campaign=yelp_api_v3&utm_medium=api_v3_business_search&utm_source=asslzE1UV0XuKI953B1vtw", "review_count": 52, "categories": [{"alias": "newamerican", "title": "American (New)"}, {"alias": "venues", "title": "Venues & Event Spaces"}, {"alias": "bars", "title": "Bars"}], "rating": 3.0, "coordinates": {"latitude": 42.2747649, "longitude": -72.6600492}, "transactions": [], "price": "$", "location": {"address1": "180 Pleasant St", "address2": "Ste 217", "address3": null, "city": "Easthampton", "zip_code": "01027", "country": "US", "state": "MA", "display_address": ["180 Pleasant St", "Ste 217", "Easthampton, MA 01027"]}, "phone": "+14132031687", "display_phone": "(413) 203-1687", "distance": 19821.97114224711}, {"id": "0xzdlKRS9-Y6luBNLhEuQA", "alias": "d-angelo-sandwich-shops-westfield", "name": "D'angelo Sandwich Shops", "image_url": "https://s3-media3.fl.yelpcdn.com/bphoto/MOjVY8ffF49hkOmeSq2YaQ/o.jpg", "is_closed": false, "url": "https://www.yelp.com/biz/d-angelo-sandwich-shops-westfield?adjust_creative=asslzE1UV0XuKI953B1vtw&utm_campaign=yelp_api_v3&utm_medium=api_v3_business_search&utm_source=asslzE1UV0XuKI953B1vtw", "review_count": 7, "categories": [{"alias": "sandwiches", "title": "Sandwiches"}], "rating": 2.5, "coordinates": {"latitude": 42.1139183044434, "longitude": -72.7275314331055}, "transactions": ["delivery"], "price": "$$", "location": {"address1": "291 E Main St", "address2": "", "address3": "", "city": "Westfield", "zip_code": "01085", "country": "US", "state": "MA", "display_address": ["291 E Main St", "Westfield, MA 01085"]}, "phone": "+14135621514", "display_phone": "(413) 562-1514", "distance": 12134.63089853742}, {"id": "7UPmRyGiYI-_H5aWK-rkqw", "alias": "millies-kitchen-westfield", "name": "Millie's Kitchen", "image_url": "https://s3-media1.fl.yelpcdn.com/bphoto/OkaYCVROB9H_0AyoGarrmA/o.jpg", "is_closed": false, "url": "https://www.yelp.com/biz/millies-kitchen-westfield?adjust_creative=asslzE1UV0XuKI953B1vtw&utm_campaign=yelp_api_v3&utm_medium=api_v3_business_search&utm_source=asslzE1UV0XuKI953B1vtw", "review_count": 8, "categories": [{"alias": "pizza", "title": "Pizza"}, {"alias": "sandwiches", "title": "Sandwiches"}, {"alias": "delis", "title": "Delis"}], "rating": 4.5, "coordinates": {"latitude": 42.1769992, "longitude": -72.6913415}, "transactions": ["delivery"], "price": "$", "location": {"address1": "1029 N Rd", "address2": "", "address3": null, "city": "Westfield", "zip_code": "01085", "country": "US", "state": "MA", "display_address": ["1029 N Rd", "Westfield, MA 01085"]}, "phone": "+14135325300", "display_phone": "(413) 532-5300", "distance": 13472.262899222296}, {"id": "INclXbI2-TU_D0CRWClJfQ", "alias": "santorini-pizzeria-n-restaurant-westfield", "name": "Santorini Pizzeria N Restaurant", "image_url": "https://s3-media3.fl.yelpcdn.com/bphoto/zyZwC3KbthC1VdosijCuBw/o.jpg", "is_closed": false, "url": "https://www.yelp.com/biz/santorini-pizzeria-n-restaurant-westfield?adjust_creative=asslzE1UV0XuKI953B1vtw&utm_campaign=yelp_api_v3&utm_medium=api_v3_business_search&utm_source=asslzE1UV0XuKI953B1vtw", "review_count": 22, "categories": [{"alias": "italian", "title": "Italian"}, {"alias": "pizza", "title": "Pizza"}], "rating": 3.0, "coordinates": {"latitude": 42.1709869820965, "longitude": -72.726903752404}, "transactions": ["delivery"], "price": "$", "location": {"address1": "930 Southampton Rd", "address2": "", "address3": "", "city": "Westfield", "zip_code": "01085", "country": "US", "state": "MA", "display_address": ["930 Southampton Rd", "Westfield, MA 01085"]}, "phone": "+14135721022", "display_phone": "(413) 572-1022", "distance": 10514.82469094274}, {"id": "7WcO9LZyhcQcQo_qWKrm2w", "alias": "china-star-westfield", "name": "China Star", "image_url": "https://s3-media1.fl.yelpcdn.com/bphoto/50_daF0KIVehPHv7KUYa-A/o.jpg", "is_closed": false, "url": "https://www.yelp.com/biz/china-star-westfield?adjust_creative=asslzE1UV0XuKI953B1vtw&utm_campaign=yelp_api_v3&utm_medium=api_v3_business_search&utm_source=asslzE1UV0XuKI953B1vtw", "review_count": 15, "categories": [{"alias": "chinese", "title": "Chinese"}, {"alias": "buffets", "title": "Buffets"}], "rating": 3.0, "coordinates": {"latitude": 42.1093406677246, "longitude": -72.7643814086914}, "transactions": ["delivery"], "price": "$", "location": {"address1": "36 Southwick Rd", "address2": "", "address3": "", "city": "Westfield", "zip_code": "01085", "country": "US", "state": "MA", "display_address": ["36 Southwick Rd", "Westfield, MA 01085"]}, "phone": "+14135689698", "display_phone": "(413) 568-9698", "distance": 9954.404653627133}, {"id": "1ARTh9M8gPmHgZxWsUJgew", "alias": "golden-china-pan-easthampton", "name": "Golden China Pan", "image_url": "https://s3-media2.fl.yelpcdn.com/bphoto/B_SggkPcRRokHdgOkX1FnA/o.jpg", "is_closed": false, "url": "https://www.yelp.com/biz/golden-china-pan-easthampton?adjust_creative=asslzE1UV0XuKI953B1vtw&utm_campaign=yelp_api_v3&utm_medium=api_v3_business_search&utm_source=asslzE1UV0XuKI953B1vtw", "review_count": 35, "categories": [{"alias": "chinese", "title": "Chinese"}], "rating": 3.5, "coordinates": {"latitude": 42.2664455041139, "longitude": -72.6701871880798}, "transactions": ["delivery"], "price": "$", "location": {"address1": "98 Union St", "address2": "", "address3": "", "city": "Easthampton", "zip_code": "01027", "country": "US", "state": "MA", "display_address": ["98 Union St", "Easthampton, MA 01027"]}, "phone": "+14135275888", "display_phone": "(413) 527-5888", "distance": 18649.311506107373}, {"id": "Q5GWdipUWMJomzgGx8SYoA", "alias": "leos-gallery-deli-westfield", "name": "Leo's Gallery Deli", "image_url": "https://s3-media4.fl.yelpcdn.com/bphoto/Sh1dpI6E6ZHqAgr9oLZOdw/o.jpg", "is_closed": false, "url": "https://www.yelp.com/biz/leos-gallery-deli-westfield?adjust_creative=asslzE1UV0XuKI953B1vtw&utm_campaign=yelp_api_v3&utm_medium=api_v3_business_search&utm_source=asslzE1UV0XuKI953B1vtw", "review_count": 8, "categories": [{"alias": "delis", "title": "Delis"}, {"alias": "tradamerican", "title": "American (Traditional)"}, {"alias": "sandwiches", "title": "Sandwiches"}], "rating": 3.5, "coordinates": {"latitude": 42.121242, "longitude": -72.7489103}, "transactions": ["delivery"], "price": "$", "location": {"address1": "3 Main St", "address2": "", "address3": "", "city": "Westfield", "zip_code": "01085", "country": "US", "state": "MA", "display_address": ["3 Main St", "Westfield, MA 01085"]}, "phone": "+14135682586", "display_phone": "(413) 568-2586", "distance": 10191.995206946913}, {"id": "2Hxb37Ezwblm7x8czP40Vg", "alias": "outlook-farm-country-store-westhampton", "name": "Outlook Farm Country Store", "image_url": "https://s3-media3.fl.yelpcdn.com/bphoto/SzYQtgjZ-aGwS34mPU9vxQ/o.jpg", "is_closed": false, "url": "https://www.yelp.com/biz/outlook-farm-country-store-westhampton?adjust_creative=asslzE1UV0XuKI953B1vtw&utm_campaign=yelp_api_v3&utm_medium=api_v3_business_search&utm_source=asslzE1UV0XuKI953B1vtw", "review_count": 33, "categories": [{"alias": "bedbreakfast", "title": "Bed & Breakfast"}, {"alias": "meats", "title": "Meat Shops"}, {"alias": "sandwiches", "title": "Sandwiches"}], "rating": 3.5, "coordinates": {"latitude": 42.287347, "longitude": -72.7613498}, "transactions": [], "price": "$", "location": {"address1": "136 Main Rd", "address2": "", "address3": "", "city": "Westhampton", "zip_code": "01027", "country": "US", "state": "MA", "display_address": ["136 Main Rd", "Westhampton, MA 01027"]}, "phone": "+14135299388", "display_phone": "(413) 529-9388", "distance": 15214.83813672852}, {"id": "KKtvGPtMcIizZwV-HTfewQ", "alias": "valley-pizza-westfield", "name": "Valley Pizza", "image_url": "https://s3-media3.fl.yelpcdn.com/bphoto/0crtrmBB8OcTkgt5HOjyhA/o.jpg", "is_closed": false, "url": "https://www.yelp.com/biz/valley-pizza-westfield?adjust_creative=asslzE1UV0XuKI953B1vtw&utm_campaign=yelp_api_v3&utm_medium=api_v3_business_search&utm_source=asslzE1UV0XuKI953B1vtw", "review_count": 14, "categories": [{"alias": "pizza", "title": "Pizza"}], "rating": 3.0, "coordinates": {"latitude": 42.12474, "longitude": -72.7491}, "transactions": ["delivery"], "location": {"address1": "31B Franklin St", "address2": null, "address3": null, "city": "Westfield", "zip_code": "01085", "country": "US", "state": "MA", "display_address": ["31B Franklin St", "Westfield, MA 01085"]}, "phone": "+14134850066", "display_phone": "(413) 485-0066", "distance": 9983.39885074748}, {"id": "Os3U8olEG3F4BIDCjXLpCQ", "alias": "tong-sing-chinese-restaurant-easthampton", "name": "Tong Sing Chinese Restaurant", "image_url": "https://s3-media3.fl.yelpcdn.com/bphoto/7qaW2Gp8gwffF-pbWV808A/o.jpg", "is_closed": false, "url": "https://www.yelp.com/biz/tong-sing-chinese-restaurant-easthampton?adjust_creative=asslzE1UV0XuKI953B1vtw&utm_campaign=yelp_api_v3&utm_medium=api_v3_business_search&utm_source=asslzE1UV0XuKI953B1vtw", "review_count": 19, "categories": [{"alias": "chinese", "title": "Chinese"}], "rating": 3.0, "coordinates": {"latitude": 42.281145, "longitude": -72.670897}, "transactions": ["delivery"], "price": "$", "location": {"address1": "126 Northampton St", "address2": "Ste I", "address3": "", "city": "Easthampton", "zip_code": "01027", "country": "US", "state": "MA", "display_address": ["126 Northampton St", "Ste I", "Easthampton, MA 01027"]}, "phone": "+14135273080", "display_phone": "(413) 527-3080", "distance": 19598.005429008994}, {"id": "88rFs5UlVfacm3LW4ifs2Q", "alias": "tollis-pizzeria-and-deli-feeding-hills", "name": "Tolli's Pizzeria & Deli", "image_url": "https://s3-media1.fl.yelpcdn.com/bphoto/PnyK2RqFLQQ_6anVL8c4SA/o.jpg", "is_closed": false, "url": "https://www.yelp.com/biz/tollis-pizzeria-and-deli-feeding-hills?adjust_creative=asslzE1UV0XuKI953B1vtw&utm_campaign=yelp_api_v3&utm_medium=api_v3_business_search&utm_source=asslzE1UV0XuKI953B1vtw", "review_count": 28, "categories": [{"alias": "pizza", "title": "Pizza"}, {"alias": "italian", "title": "Italian"}], "rating": 4.0, "coordinates": {"latitude": 42.06728, "longitude": -72.67971}, "transactions": ["delivery"], "price": "$$", "location": {"address1": "4 Southwick St", "address2": "", "address3": null, "city": "Feeding Hills", "zip_code": "01030", "country": "US", "state": "MA", "display_address": ["4 Southwick St", "Feeding Hills, MA 01030"]}, "phone": "+14137868418", "display_phone": "(413) 786-8418", "distance": 18318.625426573144}, {"id": "a5MSc3hCiNECKbn5wfb4bw", "alias": "antonios-pizza-and-wings-easthampton", "name": "Antonio's Pizza and Wings", "image_url": "https://s3-media4.fl.yelpcdn.com/bphoto/TFvWK8veMoU5FRCSr-yBhg/o.jpg", "is_closed": false, "url": "https://www.yelp.com/biz/antonios-pizza-and-wings-easthampton?adjust_creative=asslzE1UV0XuKI953B1vtw&utm_campaign=yelp_api_v3&utm_medium=api_v3_business_search&utm_source=asslzE1UV0XuKI953B1vtw", "review_count": 77, "categories": [{"alias": "chicken_wings", "title": "Chicken Wings"}, {"alias": "pizza", "title": "Pizza"}], "rating": 3.5, "coordinates": {"latitude": 42.2709022, "longitude": -72.6723462}, "transactions": ["delivery"], "price": "$", "location": {"address1": "71 Main St", "address2": "", "address3": "", "city": "Easthampton", "zip_code": "01027", "country": "US", "state": "MA", "display_address": ["71 Main St", "Easthampton, MA 01027"]}, "phone": "+14135278383", "display_phone": "(413) 527-8383", "distance": 18778.655423691038}, {"id": "3D4q1KmoFXwUUGseonIIQg", "alias": "brunos-pizzeria-feeding-hills", "name": "Bruno's Pizzeria", "image_url": "https://s3-media1.fl.yelpcdn.com/bphoto/HCi48s50CWkXAztHq3px3g/o.jpg", "is_closed": false, "url": "https://www.yelp.com/biz/brunos-pizzeria-feeding-hills?adjust_creative=asslzE1UV0XuKI953B1vtw&utm_campaign=yelp_api_v3&utm_medium=api_v3_business_search&utm_source=asslzE1UV0XuKI953B1vtw", "review_count": 14, "categories": [{"alias": "pizza", "title": "Pizza"}], "rating": 4.5, "coordinates": {"latitude": 42.0752436, "longitude": -72.6558214}, "transactions": ["delivery"], "price": "$$", "location": {"address1": "807 Springfield St", "address2": "", "address3": "", "city": "Feeding Hills", "zip_code": "01030", "country": "US", "state": "MA", "display_address": ["807 Springfield St", "Feeding Hills, MA 01030"]}, "phone": "+14137868717", "display_phone": "(413) 786-8717", "distance": 19424.043985934477}, {"id": "VzziYtDR9pbfre0le3uIRA", "alias": "dinos-pizza-restaurant-holyoke", "name": "Dino's Pizza Restaurant", "image_url": "https://s3-media2.fl.yelpcdn.com/bphoto/dgFPR-1UVKh_pJnqC2GLRA/o.jpg", "is_closed": false, "url": "https://www.yelp.com/biz/dinos-pizza-restaurant-holyoke?adjust_creative=asslzE1UV0XuKI953B1vtw&utm_campaign=yelp_api_v3&utm_medium=api_v3_business_search&utm_source=asslzE1UV0XuKI953B1vtw", "review_count": 19, "categories": [{"alias": "pizza", "title": "Pizza"}, {"alias": "indpak", "title": "Indian"}], "rating": 3.0, "coordinates": {"latitude": 42.1862259, "longitude": -72.6508179}, "transactions": ["delivery"], "price": "$$", "location": {"address1": "615 Homestead Ave", "address2": null, "address3": null, "city": "Holyoke", "zip_code": "01040", "country": "US", "state": "MA", "display_address": ["615 Homestead Ave", "Holyoke, MA 01040"]}, "phone": "+14133156590", "display_phone": "(413) 315-6590", "distance": 16860.96199799217}, {"id": "zCRfZ1u5nHIHwqzE2X5Pdg", "alias": "dominos-pizza-westfield-3", "name": "Domino's Pizza", "image_url": "https://s3-media3.fl.yelpcdn.com/bphoto/NRgiA9Ke_aj2zpv6zltJNg/o.jpg", "is_closed": false, "url": "https://www.yelp.com/biz/dominos-pizza-westfield-3?adjust_creative=asslzE1UV0XuKI953B1vtw&utm_campaign=yelp_api_v3&utm_medium=api_v3_business_search&utm_source=asslzE1UV0XuKI953B1vtw", "review_count": 5, "categories": [{"alias": "pizza", "title": "Pizza"}], "rating": 2.5, "coordinates": {"latitude": 42.1210152, "longitude": -72.7477829}, "transactions": [], "price": "$", "location": {"address1": "26 Main St", "address2": "", "address3": "", "city": "Westfield", "zip_code": "01085", "country": "US", "state": "MA", "display_address": ["26 Main St", "Westfield, MA 01085"]}, "phone": "+14135624411", "display_phone": "(413) 562-4411", "distance": 10276.558309689843}, {"id": "-fNjIY41as4eBe0SYjjbPg", "alias": "mannys-pizza-and-grinders-holyoke", "name": "Manny's Pizza & Grinders", "image_url": "https://s3-media2.fl.yelpcdn.com/bphoto/MnVwY9rMVsUFKdlVndCcEw/o.jpg", "is_closed": false, "url": "https://www.yelp.com/biz/mannys-pizza-and-grinders-holyoke?adjust_creative=asslzE1UV0XuKI953B1vtw&utm_campaign=yelp_api_v3&utm_medium=api_v3_business_search&utm_source=asslzE1UV0XuKI953B1vtw", "review_count": 28, "categories": [{"alias": "pizza", "title": "Pizza"}, {"alias": "greek", "title": "Greek"}, {"alias": "salad", "title": "Salad"}], "rating": 3.5, "coordinates": {"latitude": 42.1872781, "longitude": -72.6498022}, "transactions": ["delivery"], "price": "$", "location": {"address1": "510 Westfield Rd", "address2": "", "address3": "", "city": "Holyoke", "zip_code": "01040", "country": "US", "state": "MA", "display_address": ["510 Westfield Rd", "Holyoke, MA 01040"]}, "phone": "+14135324550", "display_phone": "(413) 532-4550", "distance": 16969.979408384275}, {"id": "GtL1D9N0eA0UuR4Hcu164Q", "alias": "gigis-pizzeria-westfield", "name": "Gigi's Pizzeria", "image_url": "https://s3-media1.fl.yelpcdn.com/bphoto/M0vDf-TJ87xCq7W3HXt0Yg/o.jpg", "is_closed": false, "url": "https://www.yelp.com/biz/gigis-pizzeria-westfield?adjust_creative=asslzE1UV0XuKI953B1vtw&utm_campaign=yelp_api_v3&utm_medium=api_v3_business_search&utm_source=asslzE1UV0XuKI953B1vtw", "review_count": 22, "categories": [{"alias": "pizza", "title": "Pizza"}, {"alias": "salad", "title": "Salad"}], "rating": 1.5, "coordinates": {"latitude": 42.0985981822014, "longitude": -72.7632819861174}, "transactions": ["delivery"], "price": "$$", "location": {"address1": "358 Southwick Rd", "address2": "", "address3": "", "city": "Westfield", "zip_code": "01085", "country": "US", "state": "MA", "display_address": ["358 Southwick Rd", "Westfield, MA 01085"]}, "phone": "+14135620887", "display_phone": "(413) 562-0887", "distance": 10894.419419177055}, {"id": "VwNxlo2shUPyewUj9oKw4A", "alias": "subway-westfield-23", "name": "Subway", "image_url": "https://s3-media1.fl.yelpcdn.com/bphoto/_SoRVl7urOE_0MQB2Sou9g/o.jpg", "is_closed": false, "url": "https://www.yelp.com/biz/subway-westfield-23?adjust_creative=asslzE1UV0XuKI953B1vtw&utm_campaign=yelp_api_v3&utm_medium=api_v3_business_search&utm_source=asslzE1UV0XuKI953B1vtw", "review_count": 2, "categories": [{"alias": "sandwiches", "title": "Sandwiches"}], "rating": 3.0, "coordinates": {"latitude": 42.1401703394751, "longitude": -72.7334066}, "transactions": [], "price": "$", "location": {"address1": "439 N Elm St", "address2": "", "address3": "", "city": "Westfield", "zip_code": "01085", "country": "US", "state": "MA", "display_address": ["439 N Elm St", "Westfield, MA 01085"]}, "phone": "+14135628438", "display_phone": "(413) 562-8438", "distance": 10479.67951975341}, {"id": "eg1bG_BFDy61vwzEu3S0_g", "alias": "jjs-soft-serve-and-more-feeding-hills", "name": "JJ's Soft Serve and More", "image_url": "https://s3-media3.fl.yelpcdn.com/bphoto/QQNoVkZQ_JNhhWEAtnVbOg/o.jpg", "is_closed": false, "url": "https://www.yelp.com/biz/jjs-soft-serve-and-more-feeding-hills?adjust_creative=asslzE1UV0XuKI953B1vtw&utm_campaign=yelp_api_v3&utm_medium=api_v3_business_search&utm_source=asslzE1UV0XuKI953B1vtw", "review_count": 7, "categories": [{"alias": "icecream", "title": "Ice Cream & Frozen Yogurt"}, {"alias": "juicebars", "title": "Juice Bars & Smoothies"}, {"alias": "hotdog", "title": "Hot Dogs"}], "rating": 5.0, "coordinates": {"latitude": 42.0787763, "longitude": -72.6785333}, "transactions": ["delivery"], "price": "$$", "location": {"address1": "336 North Westfield St", "address2": "", "address3": "", "city": "Feeding Hills", "zip_code": "01030", "country": "US", "state": "MA", "display_address": ["336 North Westfield St", "Feeding Hills, MA 01030"]}, "phone": "+14132099832", "display_phone": "(413) 209-9832", "distance": 17637.18038606545}, {"id": "0rVn2K7cuT6T967aalrrjA", "alias": "easthampton-village-pizza-easthampton", "name": "Easthampton Village Pizza", "image_url": "https://s3-media4.fl.yelpcdn.com/bphoto/jmX6LGU6BAu5l9gdHK0OtQ/o.jpg", "is_closed": false, "url": "https://www.yelp.com/biz/easthampton-village-pizza-easthampton?adjust_creative=asslzE1UV0XuKI953B1vtw&utm_campaign=yelp_api_v3&utm_medium=api_v3_business_search&utm_source=asslzE1UV0XuKI953B1vtw", "review_count": 19, "categories": [{"alias": "pizza", "title": "Pizza"}], "rating": 3.5, "coordinates": {"latitude": 42.2663566, "longitude": -72.6698095}, "transactions": ["delivery"], "price": "$", "location": {"address1": "100 Union St", "address2": "", "address3": "", "city": "Easthampton", "zip_code": "01027", "country": "US", "state": "MA", "display_address": ["100 Union St", "Easthampton, MA 01027"]}, "phone": "+14135273340", "display_phone": "(413) 527-3340", "distance": 18627.24417488878}, {"id": "e3xM2GfiPOBhELUlOifoCw", "alias": "moolicious-ice-cream-southwick", "name": "Moolicious Ice Cream", "image_url": "https://s3-media3.fl.yelpcdn.com/bphoto/NnaOdyv93DP11hsyvNvHlA/o.jpg", "is_closed": false, "url": "https://www.yelp.com/biz/moolicious-ice-cream-southwick?adjust_creative=asslzE1UV0XuKI953B1vtw&utm_campaign=yelp_api_v3&utm_medium=api_v3_business_search&utm_source=asslzE1UV0XuKI953B1vtw", "review_count": 25, "categories": [{"alias": "icecream", "title": "Ice Cream & Frozen Yogurt"}, {"alias": "desserts", "title": "Desserts"}, {"alias": "burgers", "title": "Burgers"}], "rating": 4.0, "coordinates": {"latitude": 42.0637190557264, "longitude": -72.7198791503906}, "transactions": ["delivery"], "price": "$", "location": {"address1": "258 Feedinghills Rd", "address2": null, "address3": null, "city": "Southwick", "zip_code": "01077", "country": "US", "state": "MA", "display_address": ["258 Feedinghills Rd", "Southwick, MA 01077"]}, "phone": "+14135691700", "display_phone": "(413) 569-1700", "distance": 16129.38892696189}, {"id": "8MWkw8ZzxPSyOvRoFJbu5w", "alias": "papa-george-easthampton", "name": "Papa George", "image_url": "https://s3-media3.fl.yelpcdn.com/bphoto/W_k87v1uZ79sYdTp-YwbNw/o.jpg", "is_closed": false, "url": "https://www.yelp.com/biz/papa-george-easthampton?adjust_creative=asslzE1UV0XuKI953B1vtw&utm_campaign=yelp_api_v3&utm_medium=api_v3_business_search&utm_source=asslzE1UV0XuKI953B1vtw", "review_count": 16, "categories": [{"alias": "pizza", "title": "Pizza"}], "rating": 3.5, "coordinates": {"latitude": 42.28091, "longitude": -72.66924}, "transactions": ["delivery"], "price": "$", "location": {"address1": "135 Northampton St", "address2": "Ste D", "address3": null, "city": "Easthampton", "zip_code": "01027", "country": "US", "state": "MA", "display_address": ["135 Northampton St", "Ste D", "Easthampton, MA 01027"]}, "phone": "+14135278222", "display_phone": "(413) 527-8222", "distance": 19689.4561791399}, {"id": "R2JCabKs7-Fvhw184b_LPA", "alias": "wings-over-westfield-westfield", "name": "Wings Over Westfield", "image_url": "https://s3-media2.fl.yelpcdn.com/bphoto/DwMIsLSFSipaJ__B9cUhsw/o.jpg", "is_closed": false, "url": "https://www.yelp.com/biz/wings-over-westfield-westfield?adjust_creative=asslzE1UV0XuKI953B1vtw&utm_campaign=yelp_api_v3&utm_medium=api_v3_business_search&utm_source=asslzE1UV0XuKI953B1vtw", "review_count": 2, "categories": [{"alias": "chicken_wings", "title": "Chicken Wings"}, {"alias": "hotdogs", "title": "Fast Food"}, {"alias": "sandwiches", "title": "Sandwiches"}], "rating": 1.5, "coordinates": {"latitude": 42.121638, "longitude": -72.750222}, "transactions": [], "location": {"address1": "29 School St", "address2": null, "address3": null, "city": "Westfield", "zip_code": "01085", "country": "US", "state": "MA", "display_address": ["29 School St", "Westfield, MA 01085"]}, "phone": "+14135629464", "display_phone": "(413) 562-9464", "distance": 10080.052793076084}, {"id": "hxdHPpQiXXibDst2GYzhTg", "alias": "panda-house-westfield", "name": "Panda House", "image_url": "https://s3-media4.fl.yelpcdn.com/bphoto/2aU7FzB10XHorUW_Pp4mBQ/o.jpg", "is_closed": false, "url": "https://www.yelp.com/biz/panda-house-westfield?adjust_creative=asslzE1UV0XuKI953B1vtw&utm_campaign=yelp_api_v3&utm_medium=api_v3_business_search&utm_source=asslzE1UV0XuKI953B1vtw", "review_count": 31, "categories": [{"alias": "chinese", "title": "Chinese"}], "rating": 3.0, "coordinates": {"latitude": 42.1119163757847, "longitude": -72.7200491792913}, "transactions": ["delivery"], "price": "$$", "location": {"address1": "589 E Main St", "address2": "", "address3": "", "city": "Westfield", "zip_code": "01085", "country": "US", "state": "MA", "display_address": ["589 E Main St", "Westfield, MA 01085"]}, "phone": "+14135729816", "display_phone": "(413) 572-9816", "distance": 12769.033878800092}, {"id": "BZ3NZeta65lK-8rsB5KuUg", "alias": "pasticceria-italia-southwick-2", "name": "Pasticceria Italia", "image_url": "https://s3-media1.fl.yelpcdn.com/bphoto/xyKXAt6NpPP8ewpXpMrcJA/o.jpg", "is_closed": false, "url": "https://www.yelp.com/biz/pasticceria-italia-southwick-2?adjust_creative=asslzE1UV0XuKI953B1vtw&utm_campaign=yelp_api_v3&utm_medium=api_v3_business_search&utm_source=asslzE1UV0XuKI953B1vtw", "review_count": 14, "categories": [{"alias": "delis", "title": "Delis"}, {"alias": "sandwiches", "title": "Sandwiches"}, {"alias": "bakeries", "title": "Bakeries"}], "rating": 3.0, "coordinates": {"latitude": 42.0629339737052, "longitude": -72.7636916321636}, "transactions": [], "price": "$$", "location": {"address1": "610 College Hwy", "address2": null, "address3": null, "city": "Southwick", "zip_code": "01077", "country": "US", "state": "MA", "display_address": ["610 College Hwy", "Southwick, MA 01077"]}, "phone": "+14135692250", "display_phone": "(413) 569-2250", "distance": 13965.57028057713}, {"id": "Ih17NKWk7pb2yJX3HGw4aw", "alias": "new-king-yen-too-southwick", "name": "New King Yen Too", "image_url": "https://s3-media3.fl.yelpcdn.com/bphoto/eeBmesfC6oraz27zXm_9RQ/o.jpg", "is_closed": false, "url": "https://www.yelp.com/biz/new-king-yen-too-southwick?adjust_creative=asslzE1UV0XuKI953B1vtw&utm_campaign=yelp_api_v3&utm_medium=api_v3_business_search&utm_source=asslzE1UV0XuKI953B1vtw", "review_count": 16, "categories": [{"alias": "chinese", "title": "Chinese"}], "rating": 2.5, "coordinates": {"latitude": 42.067104, "longitude": -72.764068}, "transactions": ["delivery"], "price": "$$", "location": {"address1": "648 College Hwy", "address2": "", "address3": "", "city": "Southwick", "zip_code": "01077", "country": "US", "state": "MA", "display_address": ["648 College Hwy", "Southwick, MA 01077"]}, "phone": "+14135699888", "display_phone": "(413) 569-9888", "distance": 13559.195465253477}, {"id": "RZhvmr8VR7OK4rcm4FTJFQ", "alias": "pizza-towne-westfield", "name": "Pizza Towne", "image_url": "https://s3-media2.fl.yelpcdn.com/bphoto/86GPZTO97Ga7gAy8zoGtZg/o.jpg", "is_closed": false, "url": "https://www.yelp.com/biz/pizza-towne-westfield?adjust_creative=asslzE1UV0XuKI953B1vtw&utm_campaign=yelp_api_v3&utm_medium=api_v3_business_search&utm_source=asslzE1UV0XuKI953B1vtw", "review_count": 13, "categories": [{"alias": "pizza", "title": "Pizza"}, {"alias": "salad", "title": "Salad"}, {"alias": "soup", "title": "Soup"}], "rating": 3.5, "coordinates": {"latitude": 42.1202062, "longitude": -72.7442932}, "transactions": ["delivery", "pickup"], "price": "$$", "location": {"address1": "80 Main St", "address2": "", "address3": "", "city": "Westfield", "zip_code": "01085", "country": "US", "state": "MA", "display_address": ["80 Main St", "Westfield, MA 01085"]}, "phone": "+14135683940", "display_phone": "(413) 568-3940", "distance": 10565.50113646647}, {"id": "1ktEPo1WxTPUk5WdNGdzaA", "alias": "subway-southampton-7", "name": "Subway", "image_url": "https://s3-media2.fl.yelpcdn.com/bphoto/uYuTee3lvW_R1fsLhyYKJQ/o.jpg", "is_closed": false, "url": "https://www.yelp.com/biz/subway-southampton-7?adjust_creative=asslzE1UV0XuKI953B1vtw&utm_campaign=yelp_api_v3&utm_medium=api_v3_business_search&utm_source=asslzE1UV0XuKI953B1vtw", "review_count": 2, "categories": [{"alias": "sandwiches", "title": "Sandwiches"}], "rating": 3.0, "coordinates": {"latitude": 42.23645, "longitude": -72.7241}, "transactions": [], "price": "$", "location": {"address1": "161 College Hwy", "address2": "", "address3": "", "city": "Southampton", "zip_code": "01073", "country": "US", "state": "MA", "display_address": ["161 College Hwy", "Southampton, MA 01073"]}, "phone": "+14135271199", "display_phone": "(413) 527-1199", "distance": 13103.437986202496}, {"id": "kL-FqrnTERfQUpzlsKIrgw", "alias": "bella-roma-pizza-westfield-2", "name": "Bella Roma Pizza", "image_url": "https://s3-media3.fl.yelpcdn.com/bphoto/ZvcRpI_uNTQv0hJNEzityg/o.jpg", "is_closed": false, "url": "https://www.yelp.com/biz/bella-roma-pizza-westfield-2?adjust_creative=asslzE1UV0XuKI953B1vtw&utm_campaign=yelp_api_v3&utm_medium=api_v3_business_search&utm_source=asslzE1UV0XuKI953B1vtw", "review_count": 32, "categories": [{"alias": "newamerican", "title": "American (New)"}, {"alias": "pizza", "title": "Pizza"}], "rating": 3.0, "coordinates": {"latitude": 42.1088089, "longitude": -72.7648151}, "transactions": ["delivery", "pickup"], "price": "$", "location": {"address1": "57 Southwick Rd", "address2": null, "address3": "", "city": "Westfield", "zip_code": "01085", "country": "US", "state": "MA", "display_address": ["57 Southwick Rd", "Westfield, MA 01085"]}, "phone": "+14136425656", "display_phone": "(413) 642-5656", "distance": 9938.430632206055}, {"id": "3Z90M9iHtYd6ZsnMx_YoCA", "alias": "village-pizza-restaurant-southwick-2", "name": "Village Pizza Restaurant", "image_url": "", "is_closed": false, "url": "https://www.yelp.com/biz/village-pizza-restaurant-southwick-2?adjust_creative=asslzE1UV0XuKI953B1vtw&utm_campaign=yelp_api_v3&utm_medium=api_v3_business_search&utm_source=asslzE1UV0XuKI953B1vtw", "review_count": 1, "categories": [{"alias": "italian", "title": "Italian"}, {"alias": "pizza", "title": "Pizza"}], "rating": 4.0, "coordinates": {"latitude": 42.0574951, "longitude": -72.768158}, "transactions": [], "location": {"address1": "521 College Hwy", "address2": null, "address3": null, "city": "Southwick", "zip_code": "01077", "country": "US", "state": "MA", "display_address": ["521 College Hwy", "Southwick, MA 01077"]}, "phone": "+14135693403", "display_phone": "(413) 569-3403", "distance": 14217.735098873778}, {"id": "0FTnQVUd21aKC0zUMasMOA", "alias": "pizza-house-easthampton", "name": "Pizza House", "image_url": "", "is_closed": false, "url": "https://www.yelp.com/biz/pizza-house-easthampton?adjust_creative=asslzE1UV0XuKI953B1vtw&utm_campaign=yelp_api_v3&utm_medium=api_v3_business_search&utm_source=asslzE1UV0XuKI953B1vtw", "review_count": 6, "categories": [{"alias": "pizza", "title": "Pizza"}, {"alias": "italian", "title": "Italian"}], "rating": 2.0, "coordinates": {"latitude": 42.2680795937777, "longitude": -72.6708557456732}, "transactions": ["delivery"], "price": "$$", "location": {"address1": "66 Union St", "address2": "", "address3": "", "city": "Easthampton", "zip_code": "01027", "country": "US", "state": "MA", "display_address": ["66 Union St", "Easthampton, MA 01027"]}, "phone": "+14135271320", "display_phone": "(413) 527-1320", "distance": 18706.326099405018}, {"id": "N8d2NjFotjN7PK_BVc70pA", "alias": "applebees-grill-bar-westfield", "name": "Applebee's Grill + Bar", "image_url": "https://s3-media2.fl.yelpcdn.com/bphoto/3lhPLpgSpLNFQaadKWKClw/o.jpg", "is_closed": false, "url": "https://www.yelp.com/biz/applebees-grill-bar-westfield?adjust_creative=asslzE1UV0XuKI953B1vtw&utm_campaign=yelp_api_v3&utm_medium=api_v3_business_search&utm_source=asslzE1UV0XuKI953B1vtw", "review_count": 42, "categories": [{"alias": "tradamerican", "title": "American (Traditional)"}, {"alias": "sportsbars", "title": "Sports Bars"}, {"alias": "burgers", "title": "Burgers"}], "rating": 3.0, "coordinates": {"latitude": 42.113163, "longitude": -72.72366}, "transactions": ["delivery"], "price": "$$", "location": {"address1": "441 E Main St", "address2": "", "address3": "", "city": "Westfield", "zip_code": "01085", "country": "US", "state": "MA", "display_address": ["441 E Main St", "Westfield, MA 01085"]}, "phone": "+14135640343", "display_phone": "(413) 564-0343", "distance": 12441.726325242378}, {"id": "VocCpICIlPD_WO9y98Vgtw", "alias": "easthampton-diner-easthampton", "name": "Easthampton Diner", "image_url": "https://s3-media2.fl.yelpcdn.com/bphoto/Vx_aMi1xTGXxqD8L3rBKag/o.jpg", "is_closed": false, "url": "https://www.yelp.com/biz/easthampton-diner-easthampton?adjust_creative=asslzE1UV0XuKI953B1vtw&utm_campaign=yelp_api_v3&utm_medium=api_v3_business_search&utm_source=asslzE1UV0XuKI953B1vtw", "review_count": 32, "categories": [{"alias": "diners", "title": "Diners"}, {"alias": "breakfast_brunch", "title": "Breakfast & Brunch"}, {"alias": "pizza", "title": "Pizza"}], "rating": 3.0, "coordinates": {"latitude": 42.26656, "longitude": -72.66925}, "transactions": ["delivery"], "price": "$$", "location": {"address1": "117 Union St", "address2": "", "address3": "", "city": "Easthampton", "zip_code": "01027", "country": "US", "state": "MA", "display_address": ["117 Union St", "Easthampton, MA 01027"]}, "phone": "+14135270855", "display_phone": "(413) 527-0855", "distance": 18706.137038672474}, {"id": "Rn2-QMw-eJrhzYEgON_Odg", "alias": "tandem-bagel-company-easthampton", "name": "Tandem Bagel Company", "image_url": "https://s3-media1.fl.yelpcdn.com/bphoto/u4MWAnyZzK5AGZxEe8Ua7g/o.jpg", "is_closed": false, "url": "https://www.yelp.com/biz/tandem-bagel-company-easthampton?adjust_creative=asslzE1UV0XuKI953B1vtw&utm_campaign=yelp_api_v3&utm_medium=api_v3_business_search&utm_source=asslzE1UV0XuKI953B1vtw", "review_count": 86, "categories": [{"alias": "bagels", "title": "Bagels"}, {"alias": "breakfast_brunch", "title": "Breakfast & Brunch"}], "rating": 4.5, "coordinates": {"latitude": 42.2668239458347, "longitude": -72.6711308354225}, "transactions": ["delivery"], "price": "$", "location": {"address1": "9 Railroad St", "address2": "", "address3": "", "city": "Easthampton", "zip_code": "01027", "country": "US", "state": "MA", "display_address": ["9 Railroad St", "Easthampton, MA 01027"]}, "phone": "+14132035591", "display_phone": "(413) 203-5591", "distance": 18610.67155396264}, {"id": "J0BGjdVn8DRjfWcNGn_WVA", "alias": "mcdonalds-blandford-3", "name": "McDonald's", "image_url": "https://s3-media1.fl.yelpcdn.com/bphoto/J1bCYvv57ylU6zkDLAEnHw/o.jpg", "is_closed": false, "url": "https://www.yelp.com/biz/mcdonalds-blandford-3?adjust_creative=asslzE1UV0XuKI953B1vtw&utm_campaign=yelp_api_v3&utm_medium=api_v3_business_search&utm_source=asslzE1UV0XuKI953B1vtw", "review_count": 11, "categories": [{"alias": "burgers", "title": "Burgers"}, {"alias": "hotdogs", "title": "Fast Food"}, {"alias": "coffee", "title": "Coffee & Tea"}], "rating": 2.0, "coordinates": {"latitude": 42.194427, "longitude": -72.93425}, "transactions": [], "price": "$", "location": {"address1": "50 North St", "address2": "", "address3": "", "city": "Blandford", "zip_code": "01008", "country": "US", "state": "MA", "display_address": ["50 North St", "Blandford, MA 01008"]}, "phone": "+14138482518", "display_phone": "(413) 848-2518", "distance": 7158.487671277045}, {"id": "U7r7Jppujp-R9E5M_ufUWw", "alias": "friendlys-westfield", "name": "Friendly's", "image_url": "https://s3-media4.fl.yelpcdn.com/bphoto/3XO3gGLXpYj0qXXqMmtdqQ/o.jpg", "is_closed": false, "url": "https://www.yelp.com/biz/friendlys-westfield?adjust_creative=asslzE1UV0XuKI953B1vtw&utm_campaign=yelp_api_v3&utm_medium=api_v3_business_search&utm_source=asslzE1UV0XuKI953B1vtw", "review_count": 33, "categories": [{"alias": "icecream", "title": "Ice Cream & Frozen Yogurt"}, {"alias": "burgers", "title": "Burgers"}, {"alias": "tradamerican", "title": "American (Traditional)"}], "rating": 2.0, "coordinates": {"latitude": 42.14184, "longitude": -72.7323399}, "transactions": ["delivery"], "price": "$", "location": {"address1": "21 Southampton Rd", "address2": null, "address3": null, "city": "Westfield", "zip_code": "01085", "country": "US", "state": "MA", "display_address": ["21 Southampton Rd", "Westfield, MA 01085"]}, "phone": "+14135620625", "display_phone": "(413) 562-0625", "distance": 10486.772736600737}, {"id": "5SWR_EnAxkezg4ceUB19ag", "alias": "ginos-pizza-and-grill-feeding-hills", "name": "Gino's Pizza and Grill", "image_url": "https://s3-media3.fl.yelpcdn.com/bphoto/_DDlCFV-WTlJj7aJnZuVHw/o.jpg", "is_closed": false, "url": "https://www.yelp.com/biz/ginos-pizza-and-grill-feeding-hills?adjust_creative=asslzE1UV0XuKI953B1vtw&utm_campaign=yelp_api_v3&utm_medium=api_v3_business_search&utm_source=asslzE1UV0XuKI953B1vtw", "review_count": 10, "categories": [{"alias": "pizza", "title": "Pizza"}, {"alias": "italian", "title": "Italian"}], "rating": 3.0, "coordinates": {"latitude": 42.079656, "longitude": -72.678339}, "transactions": ["delivery", "pickup"], "location": {"address1": "360 N Westfield St", "address2": "Unit 8", "address3": "", "city": "Feeding Hills", "zip_code": "01030", "country": "US", "state": "MA", "display_address": ["360 N Westfield St", "Unit 8", "Feeding Hills, MA 01030"]}, "phone": "+14137894466", "display_phone": "(413) 789-4466", "distance": 17594.894130549947}, {"id": "pxzxHZK35FlY1AXtoqx0KQ", "alias": "on-the-hill-restaurant-feeding-hills", "name": "On The Hill Restaurant", "image_url": "https://s3-media2.fl.yelpcdn.com/bphoto/eqXWJi2G2zU1F3fMSlYwPg/o.jpg", "is_closed": false, "url": "https://www.yelp.com/biz/on-the-hill-restaurant-feeding-hills?adjust_creative=asslzE1UV0XuKI953B1vtw&utm_campaign=yelp_api_v3&utm_medium=api_v3_business_search&utm_source=asslzE1UV0XuKI953B1vtw", "review_count": 24, "categories": [{"alias": "coffee", "title": "Coffee & Tea"}, {"alias": "tradamerican", "title": "American (Traditional)"}, {"alias": "breakfast_brunch", "title": "Breakfast & Brunch"}], "rating": 4.0, "coordinates": {"latitude": 42.0667543, "longitude": -72.6806684}, "transactions": ["delivery"], "price": "$", "location": {"address1": "37 Southwick St", "address2": "", "address3": "", "city": "Feeding Hills", "zip_code": "01030", "country": "US", "state": "MA", "display_address": ["37 Southwick St", "Feeding Hills, MA 01030"]}, "phone": "+14137862252", "display_phone": "(413) 786-2252", "distance": 18332.636477734322}, {"id": "K4FaQnNE-QFAPJdKRmFK7g", "alias": "five-guys-westfield-4", "name": "Five Guys", "image_url": "https://s3-media2.fl.yelpcdn.com/bphoto/VTZ-04xdr9ukBkqBr0GMWw/o.jpg", "is_closed": false, "url": "https://www.yelp.com/biz/five-guys-westfield-4?adjust_creative=asslzE1UV0XuKI953B1vtw&utm_campaign=yelp_api_v3&utm_medium=api_v3_business_search&utm_source=asslzE1UV0XuKI953B1vtw", "review_count": 15, "categories": [{"alias": "hotdogs", "title": "Fast Food"}, {"alias": "burgers", "title": "Burgers"}], "rating": 4.5, "coordinates": {"latitude": 42.11315, "longitude": -72.7234299}, "transactions": ["delivery"], "price": "$", "location": {"address1": "437 E Main St", "address2": "", "address3": "", "city": "Westfield", "zip_code": "01085", "country": "US", "state": "MA", "display_address": ["437 E Main St", "Westfield, MA 01085"]}, "phone": "+14136425669", "display_phone": "(413) 642-5669", "distance": 12709.876212415285}, {"id": "ON0INzwLTAeckQNNGr6WQg", "alias": "real-china-westfield", "name": "Real China", "image_url": "", "is_closed": false, "url": "https://www.yelp.com/biz/real-china-westfield?adjust_creative=asslzE1UV0XuKI953B1vtw&utm_campaign=yelp_api_v3&utm_medium=api_v3_business_search&utm_source=asslzE1UV0XuKI953B1vtw", "review_count": 3, "categories": [{"alias": "chinese", "title": "Chinese"}], "rating": 1.5, "coordinates": {"latitude": 42.123119354248, "longitude": -72.7487716674805}, "transactions": [], "location": {"address1": "116 Elm St", "address2": "", "address3": "", "city": "Westfield", "zip_code": "01085", "country": "US", "state": "MA", "display_address": ["116 Elm St", "Westfield, MA 01085"]}, "phone": "+14135689991", "display_phone": "(413) 568-9991", "distance": 10095.225369613421}, {"id": "nIu2EkBxbxBbmO9cGJhaKw", "alias": "subway-feeding-hills-4", "name": "Subway", "image_url": "https://s3-media2.fl.yelpcdn.com/bphoto/OYt42GsoynqxJE16Y73zxQ/o.jpg", "is_closed": false, "url": "https://www.yelp.com/biz/subway-feeding-hills-4?adjust_creative=asslzE1UV0XuKI953B1vtw&utm_campaign=yelp_api_v3&utm_medium=api_v3_business_search&utm_source=asslzE1UV0XuKI953B1vtw", "review_count": 3, "categories": [{"alias": "sandwiches", "title": "Sandwiches"}], "rating": 3.5, "coordinates": {"latitude": 42.0672400764412, "longitude": -72.6781712}, "transactions": [], "price": "$", "location": {"address1": "6 N Westfield St", "address2": "", "address3": "", "city": "Feeding Hills", "zip_code": "01030", "country": "US", "state": "MA", "display_address": ["6 N Westfield St", "Feeding Hills, MA 01030"]}, "phone": "+14137861537", "display_phone": "(413) 786-1537", "distance": 18421.38516752937}, {"id": "8jBw_nCso9mbHzPRBtleOQ", "alias": "subway-westfield-24", "name": "Subway", "image_url": "https://s3-media2.fl.yelpcdn.com/bphoto/JfqHmox_64puDeJUi97Txg/o.jpg", "is_closed": false, "url": "https://www.yelp.com/biz/subway-westfield-24?adjust_creative=asslzE1UV0XuKI953B1vtw&utm_campaign=yelp_api_v3&utm_medium=api_v3_business_search&utm_source=asslzE1UV0XuKI953B1vtw", "review_count": 3, "categories": [{"alias": "sandwiches", "title": "Sandwiches"}], "rating": 2.5, "coordinates": {"latitude": 42.121195, "longitude": -72.74789}, "transactions": ["pickup", "delivery"], "price": "$", "location": {"address1": "24 Main St", "address2": "", "address3": "", "city": "Westfield", "zip_code": "01085", "country": "US", "state": "MA", "display_address": ["24 Main St", "Westfield, MA 01085"]}, "phone": "+14135686130", "display_phone": "(413) 568-6130", "distance": 10268.066198692019}, {"id": "fruKmXZY1tao07hOhJWtCA", "alias": "subway-southwick-2", "name": "Subway", "image_url": "https://s3-media2.fl.yelpcdn.com/bphoto/DryypQt7QGRq3xI5TJG_kw/o.jpg", "is_closed": false, "url": "https://www.yelp.com/biz/subway-southwick-2?adjust_creative=asslzE1UV0XuKI953B1vtw&utm_campaign=yelp_api_v3&utm_medium=api_v3_business_search&utm_source=asslzE1UV0XuKI953B1vtw", "review_count": 3, "categories": [{"alias": "sandwiches", "title": "Sandwiches"}], "rating": 2.5, "coordinates": {"latitude": 42.0585870849823, "longitude": -72.7677816536254}, "transactions": [], "price": "$", "location": {"address1": "535 College Hwy", "address2": "", "address3": "", "city": "Southwick", "zip_code": "01077", "country": "US", "state": "MA", "display_address": ["535 College Hwy", "Southwick, MA 01077"]}, "phone": "+14135690869", "display_phone": "(413) 569-0869", "distance": 14203.275503331924}, {"id": "gMOo83Nmfu8xUxFYPQ6EyQ", "alias": "little-georges-west-springfield", "name": "Little Georges", "image_url": "https://s3-media1.fl.yelpcdn.com/bphoto/PJW0TIhn9wcJzv4r51f2Ow/o.jpg", "is_closed": false, "url": "https://www.yelp.com/biz/little-georges-west-springfield?adjust_creative=asslzE1UV0XuKI953B1vtw&utm_campaign=yelp_api_v3&utm_medium=api_v3_business_search&utm_source=asslzE1UV0XuKI953B1vtw", "review_count": 61, "categories": [{"alias": "breakfast_brunch", "title": "Breakfast & Brunch"}, {"alias": "sandwiches", "title": "Sandwiches"}, {"alias": "tradamerican", "title": "American (Traditional)"}], "rating": 4.0, "coordinates": {"latitude": 42.10774094673, "longitude": -72.6883686209164}, "transactions": ["delivery"], "price": "$", "location": {"address1": "2648 Westfield St", "address2": "", "address3": "", "city": "West Springfield", "zip_code": "01089", "country": "US", "state": "MA", "display_address": ["2648 Westfield St", "West Springfield, MA 01089"]}, "phone": "+14137882120", "display_phone": "(413) 788-2120", "distance": 15293.321960222562}, {"id": "WDxcXM1Q15ARre45VzrcJA", "alias": "taco-bell-westfield-2", "name": "Taco Bell", "image_url": "https://s3-media3.fl.yelpcdn.com/bphoto/gmCu_RCVKVqzEuxyovDM_g/o.jpg", "is_closed": false, "url": "https://www.yelp.com/biz/taco-bell-westfield-2?adjust_creative=asslzE1UV0XuKI953B1vtw&utm_campaign=yelp_api_v3&utm_medium=api_v3_business_search&utm_source=asslzE1UV0XuKI953B1vtw", "review_count": 7, "categories": [{"alias": "hotdogs", "title": "Fast Food"}, {"alias": "tacos", "title": "Tacos"}], "rating": 2.5, "coordinates": {"latitude": 42.114715, "longitude": -72.730921}, "transactions": ["delivery"], "price": "$", "location": {"address1": "231 E. Main St.", "address2": null, "address3": null, "city": "Westfield", "zip_code": "01085", "country": "US", "state": "MA", "display_address": ["231 E. Main St.", "Westfield, MA 01085"]}, "phone": "+14135680153", "display_phone": "(413) 568-0153", "distance": 11837.567684840536}, {"id": "Q7uRpKfGZKHeAwqKfrAEWQ", "alias": "burger-king-westfield-3", "name": "Burger King", "image_url": "https://s3-media3.fl.yelpcdn.com/bphoto/QATQHHXtiQVJFVCoA6oSYQ/o.jpg", "is_closed": false, "url": "https://www.yelp.com/biz/burger-king-westfield-3?adjust_creative=asslzE1UV0XuKI953B1vtw&utm_campaign=yelp_api_v3&utm_medium=api_v3_business_search&utm_source=asslzE1UV0XuKI953B1vtw", "review_count": 7, "categories": [{"alias": "hotdogs", "title": "Fast Food"}, {"alias": "burgers", "title": "Burgers"}], "rating": 1.5, "coordinates": {"latitude": 42.120805, "longitude": -72.74555}, "transactions": [], "price": "$", "location": {"address1": "72 Main Street", "address2": "", "address3": "", "city": "Westfield", "zip_code": "01085", "country": "US", "state": "MA", "display_address": ["72 Main Street", "Westfield, MA 01085"]}, "phone": "", "display_phone": "", "distance": 10454.365975087187}, {"id": "_xZJINoydCk_h6waCMP2iQ", "alias": "wendys-westfield-5", "name": "Wendy's", "image_url": "https://s3-media3.fl.yelpcdn.com/bphoto/RsDvUqOOYIFYF4c9QS5dMA/o.jpg", "is_closed": false, "url": "https://www.yelp.com/biz/wendys-westfield-5?adjust_creative=asslzE1UV0XuKI953B1vtw&utm_campaign=yelp_api_v3&utm_medium=api_v3_business_search&utm_source=asslzE1UV0XuKI953B1vtw", "review_count": 4, "categories": [{"alias": "burgers", "title": "Burgers"}, {"alias": "hotdogs", "title": "Fast Food"}], "rating": 2.0, "coordinates": {"latitude": 42.14155, "longitude": -72.734026}, "transactions": [], "price": "$", "location": {"address1": "2-6 South Hampton Road", "address2": "", "address3": "", "city": "Westfield", "zip_code": "01085", "country": "US", "state": "MA", "display_address": ["2-6 South Hampton Road", "Westfield, MA 01085"]}, "phone": "+14135624953", "display_phone": "(413) 562-4953", "distance": 10384.920848280686}, {"id": "4hpk-dP4FvxAYbOQBFGx6A", "alias": "mt-joe-to-go-holyoke", "name": "Mt. Joe To Go", "image_url": "https://s3-media2.fl.yelpcdn.com/bphoto/A_LljHsYoAFD9ap_iaC65Q/o.jpg", "is_closed": false, "url": "https://www.yelp.com/biz/mt-joe-to-go-holyoke?adjust_creative=asslzE1UV0XuKI953B1vtw&utm_campaign=yelp_api_v3&utm_medium=api_v3_business_search&utm_source=asslzE1UV0XuKI953B1vtw", "review_count": 15, "categories": [{"alias": "coffee", "title": "Coffee & Tea"}, {"alias": "sandwiches", "title": "Sandwiches"}, {"alias": "hotdogs", "title": "Fast Food"}], "rating": 3.5, "coordinates": {"latitude": 42.2361640930176, "longitude": -72.6518630981445}, "transactions": ["delivery"], "price": "$", "location": {"address1": "500 Easthampton Rd", "address2": "", "address3": "", "city": "Holyoke", "zip_code": "01040", "country": "US", "state": "MA", "display_address": ["500 Easthampton Rd", "Holyoke, MA 01040"]}, "phone": "+14134270538", "display_phone": "(413) 427-0538", "distance": 18285.008582516108}, {"id": "svxhraRigqzE-dnh4AmC7Q", "alias": "wendys-feeding-hills", "name": "Wendy's", "image_url": "https://s3-media2.fl.yelpcdn.com/bphoto/csI3jum7_DpMuv0vQg72NA/o.jpg", "is_closed": false, "url": "https://www.yelp.com/biz/wendys-feeding-hills?adjust_creative=asslzE1UV0XuKI953B1vtw&utm_campaign=yelp_api_v3&utm_medium=api_v3_business_search&utm_source=asslzE1UV0XuKI953B1vtw", "review_count": 4, "categories": [{"alias": "hotdogs", "title": "Fast Food"}, {"alias": "burgers", "title": "Burgers"}], "rating": 3.5, "coordinates": {"latitude": 42.0674554391139, "longitude": -72.6766946626819}, "transactions": ["delivery"], "price": "$", "location": {"address1": "1340 Springfield Street", "address2": "", "address3": "", "city": "Feeding Hills", "zip_code": "01030", "country": "US", "state": "MA", "display_address": ["1340 Springfield Street", "Feeding Hills, MA 01030"]}, "phone": "+14137860483", "display_phone": "(413) 786-0483", "distance": 18503.02780643919}, {"id": "ht6EYMSC6JRsGGMZW2S3xg", "alias": "subway-westfield-17", "name": "Subway", "image_url": "https://s3-media3.fl.yelpcdn.com/bphoto/fTUhM0AGXZubGYHOBkwCHw/o.jpg", "is_closed": false, "url": "https://www.yelp.com/biz/subway-westfield-17?adjust_creative=asslzE1UV0XuKI953B1vtw&utm_campaign=yelp_api_v3&utm_medium=api_v3_business_search&utm_source=asslzE1UV0XuKI953B1vtw", "review_count": 1, "categories": [{"alias": "sandwiches", "title": "Sandwiches"}], "rating": 2.0, "coordinates": {"latitude": 42.1089876710362, "longitude": -72.708329828836}, "transactions": [], "price": "$", "location": {"address1": "141 Springfield Rd", "address2": null, "address3": null, "city": "Westfield", "zip_code": "01085", "country": "US", "state": "MA", "display_address": ["141 Springfield Rd", "Westfield, MA 01085"]}, "phone": "+14135621891", "display_phone": "(413) 562-1891", "distance": 13771.094130800473}, {"id": "R-MH3-C5PPjimeODmZZlgg", "alias": "wendys-westfield-4", "name": "Wendy's", "image_url": "https://s3-media1.fl.yelpcdn.com/bphoto/zf9K2FlcMn2ml-EmwHWY6w/o.jpg", "is_closed": false, "url": "https://www.yelp.com/biz/wendys-westfield-4?adjust_creative=asslzE1UV0XuKI953B1vtw&utm_campaign=yelp_api_v3&utm_medium=api_v3_business_search&utm_source=asslzE1UV0XuKI953B1vtw", "review_count": 8, "categories": [{"alias": "burgers", "title": "Burgers"}, {"alias": "hotdogs", "title": "Fast Food"}], "rating": 1.5, "coordinates": {"latitude": 42.14164, "longitude": -72.73406}, "transactions": [], "price": "$", "location": {"address1": "6 Southampton Rd", "address2": "", "address3": "", "city": "Westfield", "zip_code": "01085", "country": "US", "state": "MA", "display_address": ["6 Southampton Rd", "Westfield, MA 01085"]}, "phone": "+14135624903", "display_phone": "(413) 562-4903", "distance": 10382.201299401271}, {"id": "Lkem9fPW8K4OiaB2imk2vA", "alias": "mcdonalds-easthampton", "name": "McDonald's", "image_url": "https://s3-media2.fl.yelpcdn.com/bphoto/ioiLRI272eK9TtFkrGeJ9Q/o.jpg", "is_closed": false, "url": "https://www.yelp.com/biz/mcdonalds-easthampton?adjust_creative=asslzE1UV0XuKI953B1vtw&utm_campaign=yelp_api_v3&utm_medium=api_v3_business_search&utm_source=asslzE1UV0XuKI953B1vtw", "review_count": 4, "categories": [{"alias": "hotdogs", "title": "Fast Food"}, {"alias": "burgers", "title": "Burgers"}, {"alias": "coffee", "title": "Coffee & Tea"}], "rating": 1.5, "coordinates": {"latitude": 42.27989, "longitude": -72.670322}, "transactions": [], "price": "$", "location": {"address1": "121 N Hampton St", "address2": "", "address3": "", "city": "Easthampton", "zip_code": "01027", "country": "US", "state": "MA", "display_address": ["121 N Hampton St", "Easthampton, MA 01027"]}, "phone": "+14135275526", "display_phone": "(413) 527-5526", "distance": 19546.29490732421}, {"id": "DlPnnZEEgJGPpeOJ4ykORw", "alias": "mcdonalds-westfield-9", "name": "McDonald's", "image_url": "https://s3-media3.fl.yelpcdn.com/bphoto/YIP3yQvUG_APFCzW8UJDgQ/o.jpg", "is_closed": false, "url": "https://www.yelp.com/biz/mcdonalds-westfield-9?adjust_creative=asslzE1UV0XuKI953B1vtw&utm_campaign=yelp_api_v3&utm_medium=api_v3_business_search&utm_source=asslzE1UV0XuKI953B1vtw", "review_count": 5, "categories": [{"alias": "coffee", "title": "Coffee & Tea"}, {"alias": "burgers", "title": "Burgers"}, {"alias": "hotdogs", "title": "Fast Food"}], "rating": 2.0, "coordinates": {"latitude": 42.13425, "longitude": -72.74169}, "transactions": ["delivery"], "price": "$", "location": {"address1": "182 N Elm St", "address2": null, "address3": null, "city": "Westfield", "zip_code": "01085", "country": "US", "state": "MA", "display_address": ["182 N Elm St", "Westfield, MA 01085"]}, "phone": "+14135683595", "display_phone": "(413) 568-3595", "distance": 10073.108899790986}, {"id": "JqmMQsuIH913f-CzdxEA0g", "alias": "wendys-westfield", "name": "Wendy's", "image_url": "https://s3-media1.fl.yelpcdn.com/bphoto/uuKab8GqENEmm4ldPRVKwg/o.jpg", "is_closed": false, "url": "https://www.yelp.com/biz/wendys-westfield?adjust_creative=asslzE1UV0XuKI953B1vtw&utm_campaign=yelp_api_v3&utm_medium=api_v3_business_search&utm_source=asslzE1UV0XuKI953B1vtw", "review_count": 5, "categories": [{"alias": "burgers", "title": "Burgers"}, {"alias": "hotdogs", "title": "Fast Food"}], "rating": 1.5, "coordinates": {"latitude": 42.141613, "longitude": -72.734779}, "transactions": ["delivery"], "price": "$", "location": {"address1": "2 Southampton Rd", "address2": "", "address3": "", "city": "Westfield", "zip_code": "01085", "country": "US", "state": "MA", "display_address": ["2 Southampton Rd", "Westfield, MA 01085"]}, "phone": "+14135620860", "display_phone": "(413) 562-0860", "distance": 10323.515158323386}, {"id": "uYFlgK3FYZVvJp7fLlW8pg", "alias": "dominos-pizza-easthampton", "name": "Domino's Pizza", "image_url": "https://s3-media1.fl.yelpcdn.com/bphoto/A0qLun2Pk1I1cjLFtB6q9w/o.jpg", "is_closed": false, "url": "https://www.yelp.com/biz/dominos-pizza-easthampton?adjust_creative=asslzE1UV0XuKI953B1vtw&utm_campaign=yelp_api_v3&utm_medium=api_v3_business_search&utm_source=asslzE1UV0XuKI953B1vtw", "review_count": 11, "categories": [{"alias": "pizza", "title": "Pizza"}, {"alias": "chicken_wings", "title": "Chicken Wings"}, {"alias": "sandwiches", "title": "Sandwiches"}], "rating": 3.0, "coordinates": {"latitude": 42.2701416015625, "longitude": -72.6714477539062}, "transactions": [], "price": "$", "location": {"address1": "11 Union St", "address2": "", "address3": "", "city": "Easthampton", "zip_code": "01027", "country": "US", "state": "MA", "display_address": ["11 Union St", "Easthampton, MA 01027"]}, "phone": "+14135270821", "display_phone": "(413) 527-0821", "distance": 18841.48035372787}, {"id": "x3QhrUHTm2fFYOz2im2DBw", "alias": "subway-easthampton-4", "name": "Subway", "image_url": "https://s3-media4.fl.yelpcdn.com/bphoto/sFwdfv9MO7_ObJtd_nZvMw/o.jpg", "is_closed": false, "url": "https://www.yelp.com/biz/subway-easthampton-4?adjust_creative=asslzE1UV0XuKI953B1vtw&utm_campaign=yelp_api_v3&utm_medium=api_v3_business_search&utm_source=asslzE1UV0XuKI953B1vtw", "review_count": 6, "categories": [{"alias": "sandwiches", "title": "Sandwiches"}], "rating": 3.0, "coordinates": {"latitude": 42.2689640757231, "longitude": -72.672240811946}, "transactions": ["pickup", "delivery"], "price": "$", "location": {"address1": "32 Union St", "address2": "", "address3": "", "city": "Easthampton", "zip_code": "01027", "country": "US", "state": "MA", "display_address": ["32 Union St", "Easthampton, MA 01027"]}, "phone": "+14135276110", "display_phone": "(413) 527-6110", "distance": 18677.094487342285}, {"id": "XLF_GSIai_kDCqFhnP_SbA", "alias": "mcdonalds-westfield-5", "name": "McDonald's", "image_url": "https://s3-media3.fl.yelpcdn.com/bphoto/Arpex7IkHgiY8L88kZ4HBA/o.jpg", "is_closed": false, "url": "https://www.yelp.com/biz/mcdonalds-westfield-5?adjust_creative=asslzE1UV0XuKI953B1vtw&utm_campaign=yelp_api_v3&utm_medium=api_v3_business_search&utm_source=asslzE1UV0XuKI953B1vtw", "review_count": 6, "categories": [{"alias": "burgers", "title": "Burgers"}, {"alias": "hotdogs", "title": "Fast Food"}, {"alias": "coffee", "title": "Coffee & Tea"}], "rating": 2.0, "coordinates": {"latitude": 42.113688, "longitude": -72.726888}, "transactions": ["delivery"], "price": "$", "location": {"address1": "299 E Main", "address2": null, "address3": null, "city": "Westfield", "zip_code": "01085", "country": "US", "state": "MA", "display_address": ["299 E Main", "Westfield, MA 01085"]}, "phone": "+14135623428", "display_phone": "(413) 562-3428", "distance": 12182.154440655118}, {"id": "23XtXxtR6xTPzZnSEZFOzg", "alias": "mcdonalds-southwick", "name": "McDonald's", "image_url": "https://s3-media2.fl.yelpcdn.com/bphoto/qykzPStqHalePMeDddmpeA/o.jpg", "is_closed": false, "url": "https://www.yelp.com/biz/mcdonalds-southwick?adjust_creative=asslzE1UV0XuKI953B1vtw&utm_campaign=yelp_api_v3&utm_medium=api_v3_business_search&utm_source=asslzE1UV0XuKI953B1vtw", "review_count": 2, "categories": [{"alias": "burgers", "title": "Burgers"}, {"alias": "hotdogs", "title": "Fast Food"}, {"alias": "coffee", "title": "Coffee & Tea"}], "rating": 1.0, "coordinates": {"latitude": 42.02572, "longitude": -72.78568}, "transactions": [], "price": "$", "location": {"address1": "214 College Hwy", "address2": "", "address3": "", "city": "Southwick", "zip_code": "01077", "country": "US", "state": "MA", "display_address": ["214 College Hwy", "Southwick, MA 01077"]}, "phone": "+14135690540", "display_phone": "(413) 569-0540", "distance": 16905.524238205948}, {"id": "uAsX05YvKYKX7XMqdYFNZQ", "alias": "lobstercraft-fairfield-3", "name": "LobsterCraft", "image_url": "https://s3-media2.fl.yelpcdn.com/bphoto/DnyEPuomFzB1F68FecbYfQ/o.jpg", "is_closed": false, "url": "https://www.yelp.com/biz/lobstercraft-fairfield-3?adjust_creative=asslzE1UV0XuKI953B1vtw&utm_campaign=yelp_api_v3&utm_medium=api_v3_business_search&utm_source=asslzE1UV0XuKI953B1vtw", "review_count": 77, "categories": [{"alias": "foodtrucks", "title": "Food Trucks"}, {"alias": "seafood", "title": "Seafood"}], "rating": 4.5, "coordinates": {"latitude": 41.140451, "longitude": -73.264689}, "transactions": ["pickup"], "price": "$$", "location": {"address1": "1891 Post Rd", "address2": null, "address3": "", "city": "Fairfield", "zip_code": "06824", "country": "US", "state": "CT", "display_address": ["1891 Post Rd", "Fairfield, CT 06824"]}, "phone": "+12039565656", "display_phone": "(203) 956-5656", "distance": 119334.34612004465}, {"id": "qqA8YX58xnmEXLyanHfdUg", "alias": "stufd-food-truck-brooklyn", "name": "Stuf'd Food Truck", "image_url": "https://s3-media2.fl.yelpcdn.com/bphoto/_Wn0i-tLIOFinw8BPAqxPA/o.jpg", "is_closed": false, "url": "https://www.yelp.com/biz/stufd-food-truck-brooklyn?adjust_creative=asslzE1UV0XuKI953B1vtw&utm_campaign=yelp_api_v3&utm_medium=api_v3_business_search&utm_source=asslzE1UV0XuKI953B1vtw", "review_count": 4, "categories": [{"alias": "sandwiches", "title": "Sandwiches"}, {"alias": "foodtrucks", "title": "Food Trucks"}], "rating": 4.0, "coordinates": {"latitude": 40.7124539, "longitude": -73.9287374}, "transactions": [], "location": {"address1": "178 Varick Ave", "address2": "", "address3": null, "city": "Brooklyn", "zip_code": "11237", "country": "US", "state": "NY", "display_address": ["178 Varick Ave", "Brooklyn, NY 11237"]}, "phone": "+18457091808", "display_phone": "(845) 709-1808", "distance": 185058.85176334667}]