[{"id": "Hz8ENDohZ-ZY2MooPz8-Eg", "alias": "spruce-corner-restaurant-goshen", "name": "Spruce Corner Restaurant", "image_url": "https://s3-media3.fl.yelpcdn.com/bphoto/Vf9B0rulKSpqtTS-E_lQrA/o.jpg", "is_closed": false, "url": "https://www.yelp.com/biz/spruce-corner-restaurant-goshen?adjust_creative=HdhkN5EEH6lAqE3kwhsHEQ&utm_campaign=yelp_api_v3&utm_medium=api_v3_business_search&utm_source=HdhkN5EEH6lAqE3kwhsHEQ", "review_count": 11, "categories": [{"alias": "tradamerican", "title": "American (Traditional)"}], "rating": 4.0, "coordinates": {"latitude": 42.45618, "longitude": -72.832747}, "transactions": [], "price": "$$", "location": {"address1": "188 Berkshire Trl W", "address2": "", "address3": "", "city": "Goshen", "zip_code": "01032", "country": "US", "state": "MA", "display_address": ["188 Berkshire Trl W", "Goshen, MA 01032"]}, "phone": "+14132683188", "display_phone": "(413) 268-3188", "distance": 2732.7824822376256}, {"id": "IRDbtfi_STNrrinh1V3csg", "alias": "the-rabbit-hole-worthington-3", "name": "The Rabbit Hole", "image_url": "https://s3-media1.fl.yelpcdn.com/bphoto/EdhUcHZXdrg_qRpOyqAsSw/o.jpg", "is_closed": false, "url": "https://www.yelp.com/biz/the-rabbit-hole-worthington-3?adjust_creative=HdhkN5EEH6lAqE3kwhsHEQ&utm_campaign=yelp_api_v3&utm_medium=api_v3_business_search&utm_source=HdhkN5EEH6lAqE3kwhsHEQ", "review_count": 5, "categories": [{"alias": "newamerican", "title": "American (New)"}], "rating": 4.0, "coordinates": {"latitude": 42.40078, "longitude": -72.93759}, "transactions": [], "location": {"address1": "144 Huntington Rd", "address2": null, "address3": "", "city": "Worthington", "zip_code": "01098", "country": "US", "state": "MA", "display_address": ["144 Huntington Rd", "Worthington, MA 01098"]}, "phone": "+14132380144", "display_phone": "(413) 238-0144", "distance": 11669.263598498548}, {"id": "1FDg-B7ddSPoZirUJXsdtQ", "alias": "the-ashfield-lake-house-ashfield", "name": "The Ashfield Lake House", "image_url": "https://s3-media4.fl.yelpcdn.com/bphoto/YK6BItbmmR7rbQZzniZojQ/o.jpg", "is_closed": false, "url": "https://www.yelp.com/biz/the-ashfield-lake-house-ashfield?adjust_creative=HdhkN5EEH6lAqE3kwhsHEQ&utm_campaign=yelp_api_v3&utm_medium=api_v3_business_search&utm_source=HdhkN5EEH6lAqE3kwhsHEQ", "review_count": 38, "categories": [{"alias": "bars", "title": "Bars"}, {"alias": "tradamerican", "title": "American (Traditional)"}, {"alias": "comfortfood", "title": "Comfort Food"}], "rating": 3.0, "coordinates": {"latitude": 42.53083, "longitude": -72.8026299}, "transactions": [], "price": "$$", "location": {"address1": "141 Buckland Rd", "address2": "", "address3": "", "city": "Ashfield", "zip_code": "01330", "country": "US", "state": "MA", "display_address": ["141 Buckland Rd", "Ashfield, MA 01330"]}, "phone": "+14136280158", "display_phone": "(413) 628-0158", "distance": 9949.69906770905}, {"id": "wqQ-cLMbLmxzc_p4jjDSxw", "alias": "the-old-creamery-cummington-2", "name": "The Old Creamery", "image_url": "https://s3-media3.fl.yelpcdn.com/bphoto/suPv8fzXhQdsR8elaUVfzg/o.jpg", "is_closed": false, "url": "https://www.yelp.com/biz/the-old-creamery-cummington-2?adjust_creative=HdhkN5EEH6lAqE3kwhsHEQ&utm_campaign=yelp_api_v3&utm_medium=api_v3_business_search&utm_source=HdhkN5EEH6lAqE3kwhsHEQ", "review_count": 31, "categories": [{"alias": "grocery", "title": "Grocery"}, {"alias": "bakeries", "title": "Bakeries"}, {"alias": "sandwiches", "title": "Sandwiches"}], "rating": 4.5, "coordinates": {"latitude": 42.464115, "longitude": -72.90535}, "transactions": [], "price": "$$", "location": {"address1": "445 Berkshire Trl", "address2": "", "address3": "", "city": "Cummington", "zip_code": "01026", "country": "US", "state": "MA", "display_address": ["445 Berkshire Trl", "Cummington, MA 01026"]}, "phone": "+14136345560", "display_phone": "(413) 634-5560", "distance": 8510.681076507391}, {"id": "jilRIDbiEEtDhi4hnV6Oug", "alias": "local-burgy-williamsburg", "name": "Local Burgy", "image_url": "https://s3-media2.fl.yelpcdn.com/bphoto/V9kmP6sTF9MSAXbNKLptZw/o.jpg", "is_closed": false, "url": "https://www.yelp.com/biz/local-burgy-williamsburg?adjust_creative=HdhkN5EEH6lAqE3kwhsHEQ&utm_campaign=yelp_api_v3&utm_medium=api_v3_business_search&utm_source=HdhkN5EEH6lAqE3kwhsHEQ", "review_count": 23, "categories": [{"alias": "bbq", "title": "Barbeque"}, {"alias": "foodstands", "title": "Food Stands"}, {"alias": "burgers", "title": "Burgers"}], "rating": 4.5, "coordinates": {"latitude": 42.3818416889538, "longitude": -72.7114339380672}, "transactions": [], "price": "$$", "location": {"address1": "93 Main St", "address2": "", "address3": null, "city": "Williamsburg", "zip_code": "01039", "country": "US", "state": "MA", "display_address": ["93 Main St", "Williamsburg, MA 01039"]}, "phone": "+14132688300", "display_phone": "(413) 268-8300", "distance": 10211.210698140241}, {"id": "rCi5XRAlbjFJBD05OWfR1A", "alias": "velvet-restaurant-worthington-2", "name": "Velvet Restaurant", "image_url": "https://s3-media3.fl.yelpcdn.com/bphoto/UlVYHq_A04HTAXFdC6ALBA/o.jpg", "is_closed": false, "url": "https://www.yelp.com/biz/velvet-restaurant-worthington-2?adjust_creative=HdhkN5EEH6lAqE3kwhsHEQ&utm_campaign=yelp_api_v3&utm_medium=api_v3_business_search&utm_source=HdhkN5EEH6lAqE3kwhsHEQ", "review_count": 6, "categories": [{"alias": "bars", "title": "Bars"}, {"alias": "newamerican", "title": "American (New)"}], "rating": 4.0, "coordinates": {"latitude": 42.40855, "longitude": -72.94236}, "transactions": [], "location": {"address1": "113 Ridge Rd", "address2": null, "address3": "", "city": "Worthington", "zip_code": "01098", "country": "US", "state": "MA", "display_address": ["113 Ridge Rd", "Worthington, MA 01098"]}, "phone": "+14132384492", "display_phone": "(413) 238-4492", "distance": 11733.882134242856}, {"id": "rHXDd-R9ztUJxKRMj2Ziqw", "alias": "goshen-snack-bar-williamsburg", "name": "Goshen Snack Bar", "image_url": "", "is_closed": false, "url": "https://www.yelp.com/biz/goshen-snack-bar-williamsburg?adjust_creative=HdhkN5EEH6lAqE3kwhsHEQ&utm_campaign=yelp_api_v3&utm_medium=api_v3_business_search&utm_source=HdhkN5EEH6lAqE3kwhsHEQ", "review_count": 1, "categories": [{"alias": "hotdogs", "title": "Fast Food"}], "rating": 5.0, "coordinates": {"latitude": 42.443226, "longitude": -72.815647}, "transactions": [], "location": {"address1": "47 Ball Rd", "address2": null, "address3": null, "city": "Williamsburg", "zip_code": "01096", "country": "US", "state": "MA", "display_address": ["47 Ball Rd", "Williamsburg, MA 01096"]}, "phone": "+14132689240", "display_phone": "(413) 268-9240", "distance": 793.4515189174354}, {"id": "z-6kOs2txOoFTZfVDxd42g", "alias": "highbrow-northampton-2", "name": "HighBrow", "image_url": "https://s3-media2.fl.yelpcdn.com/bphoto/ycxh2Avdfs-k6S66b_O8gw/o.jpg", "is_closed": false, "url": "https://www.yelp.com/biz/highbrow-northampton-2?adjust_creative=HdhkN5EEH6lAqE3kwhsHEQ&utm_campaign=yelp_api_v3&utm_medium=api_v3_business_search&utm_source=HdhkN5EEH6lAqE3kwhsHEQ", "review_count": 46, "categories": [{"alias": "pizza", "title": "Pizza"}, {"alias": "newamerican", "title": "American (New)"}, {"alias": "beer_and_wine", "title": "Beer, Wine & Spirits"}], "rating": 4.5, "coordinates": {"latitude": 42.31741, "longitude": -72.63153}, "transactions": ["delivery"], "price": "$$", "location": {"address1": "12 Crafts Ave", "address2": null, "address3": "", "city": "Northampton", "zip_code": "01060", "country": "US", "state": "MA", "display_address": ["12 Crafts Ave", "Northampton, MA 01060"]}, "phone": "+14135861468", "display_phone": "(413) 586-1468", "distance": 19890.4379578656}, {"id": "_19rex6zqPyQgsSAgqsFYg", "alias": "williamsburg-snack-bar-haydenville", "name": "Williamsburg Snack Bar", "image_url": "https://s3-media2.fl.yelpcdn.com/bphoto/2sme__nhtRSb_ViggNHK9g/o.jpg", "is_closed": false, "url": "https://www.yelp.com/biz/williamsburg-snack-bar-haydenville?adjust_creative=HdhkN5EEH6lAqE3kwhsHEQ&utm_campaign=yelp_api_v3&utm_medium=api_v3_business_search&utm_source=HdhkN5EEH6lAqE3kwhsHEQ", "review_count": 59, "categories": [{"alias": "sandwiches", "title": "Sandwiches"}], "rating": 4.5, "coordinates": {"latitude": 42.380499, "longitude": -72.707228}, "transactions": [], "price": "$", "location": {"address1": "109 Main St", "address2": "", "address3": "", "city": "Haydenville", "zip_code": "01039", "country": "US", "state": "MA", "display_address": ["109 Main St", "Haydenville, MA 01039"]}, "phone": "+14132687556", "display_phone": "(413) 268-7556", "distance": 10571.89117720684}, {"id": "_9sO066L6e1kjQRf2jzd7g", "alias": "countrypie-pizza-company-ashfield", "name": "Countrypie Pizza Company", "image_url": "https://s3-media2.fl.yelpcdn.com/bphoto/YIZ24sof1VTPO1xtqCK6cg/o.jpg", "is_closed": false, "url": "https://www.yelp.com/biz/countrypie-pizza-company-ashfield?adjust_creative=HdhkN5EEH6lAqE3kwhsHEQ&utm_campaign=yelp_api_v3&utm_medium=api_v3_business_search&utm_source=HdhkN5EEH6lAqE3kwhsHEQ", "review_count": 30, "categories": [{"alias": "pizza", "title": "Pizza"}], "rating": 4.5, "coordinates": {"latitude": 42.526902, "longitude": -72.794253}, "transactions": [], "price": "$", "location": {"address1": "343 Main St", "address2": "", "address3": "", "city": "Ashfield", "zip_code": "01330", "country": "US", "state": "MA", "display_address": ["343 Main St", "Ashfield, MA 01330"]}, "phone": "+14136284488", "display_phone": "(413) 628-4488", "distance": 9591.879922638384}, {"id": "E0BNgyLQy3WUwFSnMLaQpA", "alias": "high-hopes-farm-worthington", "name": "High Hopes Farm", "image_url": "https://s3-media2.fl.yelpcdn.com/bphoto/VlgVhYdSvdonXZaV59JGtQ/o.jpg", "is_closed": false, "url": "https://www.yelp.com/biz/high-hopes-farm-worthington?adjust_creative=HdhkN5EEH6lAqE3kwhsHEQ&utm_campaign=yelp_api_v3&utm_medium=api_v3_business_search&utm_source=HdhkN5EEH6lAqE3kwhsHEQ", "review_count": 4, "categories": [{"alias": "breakfast_brunch", "title": "Breakfast & Brunch"}], "rating": 5.0, "coordinates": {"latitude": 42.3418042, "longitude": -72.8882095}, "transactions": [], "price": "$$", "location": {"address1": "1132 Huntington Rd", "address2": "", "address3": "", "city": "Worthington", "zip_code": "01098", "country": "US", "state": "MA", "display_address": ["1132 Huntington Rd", "Worthington, MA 01098"]}, "phone": "+14132385919", "display_phone": "(413) 238-5919", "distance": 12936.259494324004}, {"id": "35kzCz1iaCkTaJU63sDVaw", "alias": "smithsonian-cafe-and-chowder-house-west-hatfield", "name": "Smithsonian Cafe and Chowder House", "image_url": "https://s3-media4.fl.yelpcdn.com/bphoto/C4k2O-DbgIRb9ljmxwlHbg/o.jpg", "is_closed": false, "url": "https://www.yelp.com/biz/smithsonian-cafe-and-chowder-house-west-hatfield?adjust_creative=HdhkN5EEH6lAqE3kwhsHEQ&utm_campaign=yelp_api_v3&utm_medium=api_v3_business_search&utm_source=HdhkN5EEH6lAqE3kwhsHEQ", "review_count": 75, "categories": [{"alias": "tradamerican", "title": "American (Traditional)"}], "rating": 4.5, "coordinates": {"latitude": 42.3671380235461, "longitude": -72.6379209011793}, "transactions": ["delivery"], "price": "$", "location": {"address1": "1 W St", "address2": "", "address3": "", "city": "West Hatfield", "zip_code": "01088", "country": "US", "state": "MA", "display_address": ["1 W St", "West Hatfield, MA 01088"]}, "phone": "+14132475157", "display_phone": "(413) 247-5157", "distance": 16095.895781459665}, {"id": "1SuRjphJzX8b9mhicrjGSA", "alias": "the-waxwing-hatfield", "name": "The Waxwing", "image_url": "https://s3-media2.fl.yelpcdn.com/bphoto/QWAmNTvZfp7mBBSPK0Camw/o.jpg", "is_closed": false, "url": "https://www.yelp.com/biz/the-waxwing-hatfield?adjust_creative=HdhkN5EEH6lAqE3kwhsHEQ&utm_campaign=yelp_api_v3&utm_medium=api_v3_business_search&utm_source=HdhkN5EEH6lAqE3kwhsHEQ", "review_count": 1, "categories": [{"alias": "seafood", "title": "Seafood"}, {"alias": "mediterranean", "title": "Mediterranean"}, {"alias": "cocktailbars", "title": "Cocktail Bars"}], "rating": 5.0, "coordinates": {"latitude": 42.37246, "longitude": -72.63478}, "transactions": [], "location": {"address1": "34 West St", "address2": "", "address3": null, "city": "Hatfield", "zip_code": "01088", "country": "US", "state": "MA", "display_address": ["34 West St", "Hatfield, MA 01088"]}, "phone": "+14132476113", "display_phone": "(413) 247-6113", "distance": 16027.948894515725}, {"id": "aw0FDqkiYDIE33KmHW7YHQ", "alias": "listons-bar-and-grill-worthington", "name": "Listons Bar & Grill", "image_url": "https://s3-media2.fl.yelpcdn.com/bphoto/Zw2va6P_vOdum1skN8J6cQ/o.jpg", "is_closed": false, "url": "https://www.yelp.com/biz/listons-bar-and-grill-worthington?adjust_creative=HdhkN5EEH6lAqE3kwhsHEQ&utm_campaign=yelp_api_v3&utm_medium=api_v3_business_search&utm_source=HdhkN5EEH6lAqE3kwhsHEQ", "review_count": 7, "categories": [{"alias": "sportsbars", "title": "Sports Bars"}, {"alias": "tradamerican", "title": "American (Traditional)"}], "rating": 4.5, "coordinates": {"latitude": 42.42713, "longitude": -72.95322}, "transactions": [], "location": {"address1": "324 Old North Rd Rte 143", "address2": "", "address3": null, "city": "Worthington", "zip_code": "01098", "country": "US", "state": "MA", "display_address": ["324 Old North Rd Rte 143", "Worthington, MA 01098"]}, "phone": "+14132385353", "display_phone": "(413) 238-5353", "distance": 12152.406289387514}, {"id": "8J_jggFBM3m4-9a8PwoGWA", "alias": "progression-brewing-company-northampton", "name": "Progression Brewing Company", "image_url": "https://s3-media3.fl.yelpcdn.com/bphoto/tNyOKN8hZg3HUa_UtIqyXw/o.jpg", "is_closed": false, "url": "https://www.yelp.com/biz/progression-brewing-company-northampton?adjust_creative=HdhkN5EEH6lAqE3kwhsHEQ&utm_campaign=yelp_api_v3&utm_medium=api_v3_business_search&utm_source=HdhkN5EEH6lAqE3kwhsHEQ", "review_count": 37, "categories": [{"alias": "newamerican", "title": "American (New)"}, {"alias": "breweries", "title": "Breweries"}], "rating": 4.0, "coordinates": {"latitude": 42.318713529645, "longitude": -72.6270833562579}, "transactions": [], "price": "$$", "location": {"address1": "9 Pearl St", "address2": "", "address3": null, "city": "Northampton", "zip_code": "01060", "country": "US", "state": "MA", "display_address": ["9 Pearl St", "Northampton, MA 01060"]}, "phone": "+14133413517", "display_phone": "(413) 341-3517", "distance": 20056.75411888567}, {"id": "bfNy4CK-UWtNIIfzVXeZ-A", "alias": "wolfies-restaurant-south-deerfield", "name": "Wolfie's Restaurant", "image_url": "https://s3-media2.fl.yelpcdn.com/bphoto/6mdshhOQiXEPBs8xUe9O7A/o.jpg", "is_closed": false, "url": "https://www.yelp.com/biz/wolfies-restaurant-south-deerfield?adjust_creative=HdhkN5EEH6lAqE3kwhsHEQ&utm_campaign=yelp_api_v3&utm_medium=api_v3_business_search&utm_source=HdhkN5EEH6lAqE3kwhsHEQ", "review_count": 92, "categories": [{"alias": "tradamerican", "title": "American (Traditional)"}, {"alias": "bars", "title": "Bars"}, {"alias": "chicken_wings", "title": "Chicken Wings"}], "rating": 3.5, "coordinates": {"latitude": 42.4768333435059, "longitude": -72.6083679199219}, "transactions": ["delivery"], "price": "$$", "location": {"address1": "52 S Main St", "address2": "", "address3": "", "city": "South Deerfield", "zip_code": "01373", "country": "US", "state": "MA", "display_address": ["52 S Main St", "South Deerfield, MA 01373"]}, "phone": "+14136657068", "display_phone": "(413) 665-7068", "distance": 16722.88119199745}, {"id": "75CHObb-0bxspwAaWcHsyw", "alias": "the-whately-inn-whately", "name": "The Whately Inn", "image_url": "https://s3-media3.fl.yelpcdn.com/bphoto/TkyLjBwFpK2kdenqUkKi0g/o.jpg", "is_closed": false, "url": "https://www.yelp.com/biz/the-whately-inn-whately?adjust_creative=HdhkN5EEH6lAqE3kwhsHEQ&utm_campaign=yelp_api_v3&utm_medium=api_v3_business_search&utm_source=HdhkN5EEH6lAqE3kwhsHEQ", "review_count": 59, "categories": [{"alias": "french", "title": "French"}, {"alias": "tradamerican", "title": "American (Traditional)"}], "rating": 3.5, "coordinates": {"latitude": 42.4398746, "longitude": -72.6349179}, "transactions": [], "price": "$$$", "location": {"address1": "193 Chestnut Plain Rd", "address2": "", "address3": "", "city": "Whately", "zip_code": "01093", "country": "US", "state": "MA", "display_address": ["193 Chestnut Plain Rd", "Whately, MA 01093"]}, "phone": "+14136653044", "display_phone": "(413) 665-3044", "distance": 14072.133425584307}, {"id": "BxLkvKAw-rWIuH7O5A5SDg", "alias": "amanouz-cafe-northampton", "name": "Amanouz Cafe", "image_url": "https://s3-media1.fl.yelpcdn.com/bphoto/8V6w0Pl7Q6zx8k2xDuc9MA/o.jpg", "is_closed": false, "url": "https://www.yelp.com/biz/amanouz-cafe-northampton?adjust_creative=HdhkN5EEH6lAqE3kwhsHEQ&utm_campaign=yelp_api_v3&utm_medium=api_v3_business_search&utm_source=HdhkN5EEH6lAqE3kwhsHEQ", "review_count": 284, "categories": [{"alias": "moroccan", "title": "Moroccan"}, {"alias": "mediterranean", "title": "Mediterranean"}], "rating": 4.5, "coordinates": {"latitude": 42.3196, "longitude": -72.62906}, "transactions": ["pickup", "delivery"], "price": "$", "location": {"address1": "44 Main St", "address2": "", "address3": "", "city": "Northampton", "zip_code": "01060", "country": "US", "state": "MA", "display_address": ["44 Main St", "Northampton, MA 01060"]}, "phone": "+14135859128", "display_phone": "(413) 585-9128", "distance": 19873.32916568312}, {"id": "TIm9N1EDtxj_WR95fwR5Ow", "alias": "a-1-hilltown-pizza-williamsburg", "name": "A-1 Hilltown Pizza", "image_url": "https://s3-media3.fl.yelpcdn.com/bphoto/SjPcoIjB8ZpuMJKMc9pyhw/o.jpg", "is_closed": false, "url": "https://www.yelp.com/biz/a-1-hilltown-pizza-williamsburg?adjust_creative=HdhkN5EEH6lAqE3kwhsHEQ&utm_campaign=yelp_api_v3&utm_medium=api_v3_business_search&utm_source=HdhkN5EEH6lAqE3kwhsHEQ", "review_count": 12, "categories": [{"alias": "pizza", "title": "Pizza"}], "rating": 3.5, "coordinates": {"latitude": 42.391134, "longitude": -72.724329}, "transactions": [], "price": "$$", "location": {"address1": "35 Main St", "address2": "", "address3": "", "city": "Williamsburg", "zip_code": "01096", "country": "US", "state": "MA", "display_address": ["35 Main St", "Williamsburg, MA 01096"]}, "phone": "+14132680202", "display_phone": "(413) 268-0202", "distance": 8735.89325356582}, {"id": "WmWAHNNParZLErd98SEbJw", "alias": "scottis-leeds", "name": "Scotti's", "image_url": "https://s3-media3.fl.yelpcdn.com/bphoto/mwt8mVvPDZ04OQgj4owpZw/o.jpg", "is_closed": false, "url": "https://www.yelp.com/biz/scottis-leeds?adjust_creative=HdhkN5EEH6lAqE3kwhsHEQ&utm_campaign=yelp_api_v3&utm_medium=api_v3_business_search&utm_source=HdhkN5EEH6lAqE3kwhsHEQ", "review_count": 27, "categories": [{"alias": "tradamerican", "title": "American (Traditional)"}, {"alias": "icecream", "title": "Ice Cream & Frozen Yogurt"}], "rating": 4.5, "coordinates": {"latitude": 42.352636, "longitude": -72.691094}, "transactions": ["delivery"], "price": "$", "location": {"address1": "90 Haydenville Rd", "address2": "", "address3": "", "city": "Leeds", "zip_code": "01053", "country": "US", "state": "MA", "display_address": ["90 Haydenville Rd", "Leeds, MA 01053"]}, "phone": "+14135865567", "display_phone": "(413) 586-5567", "distance": 13657.025871004193}, {"id": "wkIOjcec-3uGidfIXcOpJA", "alias": "elmers-store-restaurant-ashfield", "name": "Elmer's Store Restaurant", "image_url": "https://s3-media3.fl.yelpcdn.com/bphoto/2AgISV-Z2E7y_ISdmkzroA/o.jpg", "is_closed": false, "url": "https://www.yelp.com/biz/elmers-store-restaurant-ashfield?adjust_creative=HdhkN5EEH6lAqE3kwhsHEQ&utm_campaign=yelp_api_v3&utm_medium=api_v3_business_search&utm_source=HdhkN5EEH6lAqE3kwhsHEQ", "review_count": 45, "categories": [{"alias": "breakfast_brunch", "title": "Breakfast & Brunch"}, {"alias": "bars", "title": "Bars"}], "rating": 4.0, "coordinates": {"latitude": 42.5261756, "longitude": -72.7924932}, "transactions": [], "price": "$$", "location": {"address1": "396 Main St", "address2": null, "address3": "", "city": "Ashfield", "zip_code": "01330", "country": "US", "state": "MA", "display_address": ["396 Main St", "Ashfield, MA 01330"]}, "phone": "+14136284003", "display_phone": "(413) 628-4003", "distance": 9523.091150390424}, {"id": "9LrxgQh9i7vmsFqGmz5B9Q", "alias": "norwich-lake-farm-and-sugar-barn-restaurant-huntington", "name": "Norwich Lake Farm and Sugar Barn Restaurant", "image_url": "https://s3-media1.fl.yelpcdn.com/bphoto/sWWUQk2ZbqD_GBJa2JjCTQ/o.jpg", "is_closed": false, "url": "https://www.yelp.com/biz/norwich-lake-farm-and-sugar-barn-restaurant-huntington?adjust_creative=HdhkN5EEH6lAqE3kwhsHEQ&utm_campaign=yelp_api_v3&utm_medium=api_v3_business_search&utm_source=HdhkN5EEH6lAqE3kwhsHEQ", "review_count": 2, "categories": [{"alias": "breakfast_brunch", "title": "Breakfast & Brunch"}], "rating": 5.0, "coordinates": {"latitude": 42.3006329582653, "longitude": -72.8408531472087}, "transactions": [], "location": {"address1": "87 Searle Rd", "address2": "", "address3": null, "city": "Huntington", "zip_code": "01050", "country": "US", "state": "MA", "display_address": ["87 Searle Rd", "Huntington, MA 01050"]}, "phone": "+14136678830", "display_phone": "(413) 667-8830", "distance": 15878.90766385392}, {"id": "BaMC0nhGOuZyy7y9T8I47g", "alias": "wurst-haus-northampton", "name": "Wurst Haus", "image_url": "https://s3-media3.fl.yelpcdn.com/bphoto/Lnz1ycj8JDl4mvrke_pYnQ/o.jpg", "is_closed": false, "url": "https://www.yelp.com/biz/wurst-haus-northampton?adjust_creative=HdhkN5EEH6lAqE3kwhsHEQ&utm_campaign=yelp_api_v3&utm_medium=api_v3_business_search&utm_source=HdhkN5EEH6lAqE3kwhsHEQ", "review_count": 3, "categories": [{"alias": "newamerican", "title": "American (New)"}, {"alias": "german", "title": "German"}, {"alias": "burgers", "title": "Burgers"}], "rating": 3.5, "coordinates": {"latitude": 42.3191232135204, "longitude": -72.629424}, "transactions": [], "location": {"address1": "27 Pleasant St", "address2": "", "address3": null, "city": "Northampton", "zip_code": "01060", "country": "US", "state": "MA", "display_address": ["27 Pleasant St", "Northampton, MA 01060"]}, "phone": "+14133413680", "display_phone": "(413) 341-3680", "distance": 19884.85217609184}, {"id": "2jbnnI5522q_T0pl-MuJXA", "alias": "bueno-y-sano-south-deerfield", "name": "Bueno Y Sano", "image_url": "https://s3-media1.fl.yelpcdn.com/bphoto/LGK_mCBWcVAPyyIenMDuBw/o.jpg", "is_closed": false, "url": "https://www.yelp.com/biz/bueno-y-sano-south-deerfield?adjust_creative=HdhkN5EEH6lAqE3kwhsHEQ&utm_campaign=yelp_api_v3&utm_medium=api_v3_business_search&utm_source=HdhkN5EEH6lAqE3kwhsHEQ", "review_count": 2, "categories": [{"alias": "mexican", "title": "Mexican"}], "rating": 5.0, "coordinates": {"latitude": 42.477567, "longitude": -72.608631}, "transactions": [], "location": {"address1": "3 Elm Streeet", "address2": null, "address3": "", "city": "South Deerfield", "zip_code": "01373", "country": "US", "state": "MA", "display_address": ["3 Elm Streeet", "South Deerfield, MA 01373"]}, "phone": "+14136654241", "display_phone": "(413) 665-4241", "distance": 16721.392926764292}, {"id": "YbZg252i3vJ9wmf-gsgUog", "alias": "panda-garden-williamsburg", "name": "Panda Garden", "image_url": "https://s3-media1.fl.yelpcdn.com/bphoto/GR__trIJi5zuhynUKh7owA/o.jpg", "is_closed": false, "url": "https://www.yelp.com/biz/panda-garden-williamsburg?adjust_creative=HdhkN5EEH6lAqE3kwhsHEQ&utm_campaign=yelp_api_v3&utm_medium=api_v3_business_search&utm_source=HdhkN5EEH6lAqE3kwhsHEQ", "review_count": 29, "categories": [{"alias": "chinese", "title": "Chinese"}], "rating": 3.0, "coordinates": {"latitude": 42.4294774979353, "longitude": -72.7925515919924}, "transactions": ["pickup", "delivery"], "price": "$$", "location": {"address1": "49 Main St", "address2": "", "address3": "", "city": "Williamsburg", "zip_code": "01096", "country": "US", "state": "MA", "display_address": ["49 Main St", "Williamsburg, MA 01096"]}, "phone": "+14132688811", "display_phone": "(413) 268-8811", "distance": 9010.348656970686}, {"id": "RjcmsCplUC_ZFvaJb2nfMA", "alias": "gianni-figs-ristorante-deerfield", "name": "Gianni Fig's Ristorante", "image_url": "https://s3-media1.fl.yelpcdn.com/bphoto/SWZ-jpqvOAfR3OM4KI_rLg/o.jpg", "is_closed": false, "url": "https://www.yelp.com/biz/gianni-figs-ristorante-deerfield?adjust_creative=HdhkN5EEH6lAqE3kwhsHEQ&utm_campaign=yelp_api_v3&utm_medium=api_v3_business_search&utm_source=HdhkN5EEH6lAqE3kwhsHEQ", "review_count": 30, "categories": [{"alias": "italian", "title": "Italian"}], "rating": 4.0, "coordinates": {"latitude": 42.4775047039286, "longitude": -72.609119691213}, "transactions": ["delivery"], "location": {"address1": "6 Elm St", "address2": "", "address3": null, "city": "Deerfield", "zip_code": "01373", "country": "US", "state": "MA", "display_address": ["6 Elm St", "Deerfield, MA 01373"]}, "phone": "+14133505940", "display_phone": "(413) 350-5940", "distance": 16680.82724307366}, {"id": "QBdFoCiVYe2ZTwmTH8nIdQ", "alias": "damn-yankees-bbq-south-deerfield", "name": "Damn Yankees BBQ", "image_url": "https://s3-media1.fl.yelpcdn.com/bphoto/E-hdAq7izmIS7zdo860Org/o.jpg", "is_closed": false, "url": "https://www.yelp.com/biz/damn-yankees-bbq-south-deerfield?adjust_creative=HdhkN5EEH6lAqE3kwhsHEQ&utm_campaign=yelp_api_v3&utm_medium=api_v3_business_search&utm_source=HdhkN5EEH6lAqE3kwhsHEQ", "review_count": 25, "categories": [{"alias": "bbq", "title": "Barbeque"}], "rating": 3.5, "coordinates": {"latitude": 42.477924, "longitude": -72.61121}, "transactions": [], "price": "$$", "location": {"address1": "20 Elm St", "address2": "", "address3": "", "city": "South Deerfield", "zip_code": "01373", "country": "US", "state": "MA", "display_address": ["20 Elm St", "South Deerfield, MA 01373"]}, "phone": "+14132729347", "display_phone": "(413) 272-9347", "distance": 16525.936844090556}, {"id": "pSPnC1hcf-CO-uMQJF0NQQ", "alias": "bba-deli-market-south-deerfield", "name": "BBA Deli Market", "image_url": "https://s3-media3.fl.yelpcdn.com/bphoto/G0HZIKIZczmS5vnYNRPpdw/o.jpg", "is_closed": false, "url": "https://www.yelp.com/biz/bba-deli-market-south-deerfield?adjust_creative=HdhkN5EEH6lAqE3kwhsHEQ&utm_campaign=yelp_api_v3&utm_medium=api_v3_business_search&utm_source=HdhkN5EEH6lAqE3kwhsHEQ", "review_count": 21, "categories": [{"alias": "delis", "title": "Delis"}, {"alias": "polish", "title": "Polish"}, {"alias": "gourmet", "title": "Specialty Food"}], "rating": 4.5, "coordinates": {"latitude": 42.472156, "longitude": -72.608634}, "transactions": ["delivery"], "price": "$", "location": {"address1": "39 Thayer St", "address2": "", "address3": "", "city": "South Deerfield", "zip_code": "01373", "country": "US", "state": "MA", "display_address": ["39 Thayer St", "South Deerfield, MA 01373"]}, "phone": "+14136659171", "display_phone": "(413) 665-9171", "distance": 16553.288983225935}, {"id": "ZKUPDRb212aHYFMxrssEJA", "alias": "homestead-northampton-2", "name": "Homestead.", "image_url": "https://s3-media3.fl.yelpcdn.com/bphoto/7H3Z10N2-HV3vBhgTlCCtA/o.jpg", "is_closed": false, "url": "https://www.yelp.com/biz/homestead-northampton-2?adjust_creative=HdhkN5EEH6lAqE3kwhsHEQ&utm_campaign=yelp_api_v3&utm_medium=api_v3_business_search&utm_source=HdhkN5EEH6lAqE3kwhsHEQ", "review_count": 72, "categories": [{"alias": "newamerican", "title": "American (New)"}, {"alias": "italian", "title": "Italian"}, {"alias": "cocktailbars", "title": "Cocktail Bars"}], "rating": 4.0, "coordinates": {"latitude": 42.3199679328172, "longitude": -72.6285998420788}, "transactions": ["delivery"], "price": "$$", "location": {"address1": "7 Strong Ave", "address2": "", "address3": null, "city": "Northampton", "zip_code": "01060", "country": "US", "state": "MA", "display_address": ["7 Strong Ave", "Northampton, MA 01060"]}, "phone": "+14135860502", "display_phone": "(413) 586-0502", "distance": 19870.505733766568}, {"id": "spyVCMiTpnS418CQiy_b9Q", "alias": "bombay-royale-northampton", "name": "Bombay Royale", "image_url": "https://s3-media1.fl.yelpcdn.com/bphoto/zlVJjsRqTEbCJsmqwL9_NA/o.jpg", "is_closed": false, "url": "https://www.yelp.com/biz/bombay-royale-northampton?adjust_creative=HdhkN5EEH6lAqE3kwhsHEQ&utm_campaign=yelp_api_v3&utm_medium=api_v3_business_search&utm_source=HdhkN5EEH6lAqE3kwhsHEQ", "review_count": 194, "categories": [{"alias": "indpak", "title": "Indian"}, {"alias": "vegan", "title": "Vegan"}, {"alias": "buffets", "title": "Buffets"}], "rating": 4.5, "coordinates": {"latitude": 42.3167408799557, "longitude": -72.6318416704081}, "transactions": ["delivery"], "price": "$$", "location": {"address1": "1 Roundhouse Plz", "address2": "Ste 4", "address3": "", "city": "Northampton", "zip_code": "01060", "country": "US", "state": "MA", "display_address": ["1 Roundhouse Plz", "Ste 4", "Northampton, MA 01060"]}, "phone": "+14133413537", "display_phone": "(413) 341-3537", "distance": 19923.356764328175}, {"id": "iDO-jAnFDtnFN91GGBgEgA", "alias": "florence-pie-bar-florence", "name": "Florence Pie Bar", "image_url": "https://s3-media2.fl.yelpcdn.com/bphoto/iIk06LczykXi56RayaV0RA/o.jpg", "is_closed": false, "url": "https://www.yelp.com/biz/florence-pie-bar-florence?adjust_creative=HdhkN5EEH6lAqE3kwhsHEQ&utm_campaign=yelp_api_v3&utm_medium=api_v3_business_search&utm_source=HdhkN5EEH6lAqE3kwhsHEQ", "review_count": 82, "categories": [{"alias": "cafes", "title": "Cafes"}, {"alias": "bakeries", "title": "Bakeries"}, {"alias": "desserts", "title": "Desserts"}], "rating": 4.0, "coordinates": {"latitude": 42.334936, "longitude": -72.667399}, "transactions": ["delivery"], "price": "$", "location": {"address1": "17 Main St", "address2": "", "address3": "", "city": "Florence", "zip_code": "01062", "country": "US", "state": "MA", "display_address": ["17 Main St", "Florence, MA 01062"]}, "phone": "+14133413283", "display_phone": "(413) 341-3283", "distance": 16425.517298201583}, {"id": "gf47Yv8PnATBDgkZ6rBI-w", "alias": "strawbale-cafe-westhampton-4", "name": "Strawbale Cafe", "image_url": "https://s3-media4.fl.yelpcdn.com/bphoto/Nvl_epjAp9rcnQwhjocLXg/o.jpg", "is_closed": false, "url": "https://www.yelp.com/biz/strawbale-cafe-westhampton-4?adjust_creative=HdhkN5EEH6lAqE3kwhsHEQ&utm_campaign=yelp_api_v3&utm_medium=api_v3_business_search&utm_source=HdhkN5EEH6lAqE3kwhsHEQ", "review_count": 30, "categories": [{"alias": "breakfast_brunch", "title": "Breakfast & Brunch"}, {"alias": "cafes", "title": "Cafes"}, {"alias": "bakeries", "title": "Bakeries"}], "rating": 4.5, "coordinates": {"latitude": 42.323103, "longitude": -72.754566}, "transactions": [], "price": "$$", "location": {"address1": "188 N Rd", "address2": "", "address3": "Hanging Mountain Farm", "city": "Westhampton", "zip_code": "01027", "country": "US", "state": "MA", "display_address": ["188 N Rd", "Hanging Mountain Farm", "Westhampton, MA 01027"]}, "phone": "+14135273210", "display_phone": "(413) 527-3210", "distance": 13799.115892692394}, {"id": "sVmGXhFYNg0RMBTMNHm8uA", "alias": "pho-boston-florence", "name": "Pho Boston", "image_url": "https://s3-media2.fl.yelpcdn.com/bphoto/LmBrswGF2GaX6dGy34fG0Q/o.jpg", "is_closed": false, "url": "https://www.yelp.com/biz/pho-boston-florence?adjust_creative=HdhkN5EEH6lAqE3kwhsHEQ&utm_campaign=yelp_api_v3&utm_medium=api_v3_business_search&utm_source=HdhkN5EEH6lAqE3kwhsHEQ", "review_count": 25, "categories": [{"alias": "vietnamese", "title": "Vietnamese"}], "rating": 4.0, "coordinates": {"latitude": 42.320845, "longitude": -72.66416}, "transactions": ["delivery"], "location": {"address1": "311 Riverside Dr", "address2": "", "address3": null, "city": "Florence", "zip_code": "01062", "country": "US", "state": "MA", "display_address": ["311 Riverside Dr", "Florence, MA 01062"]}, "phone": "+14135704702", "display_phone": "(413) 570-4702", "distance": 17760.547520293225}, {"id": "aBiCOJoljrSfA6gZZ8Qg2w", "alias": "oliver-smith-restaurant-northampton", "name": "Oliver Smith Restaurant", "image_url": "https://s3-media4.fl.yelpcdn.com/bphoto/RkGDHtzrQFak8S9j8Jr3Fg/o.jpg", "is_closed": false, "url": "https://www.yelp.com/biz/oliver-smith-restaurant-northampton?adjust_creative=HdhkN5EEH6lAqE3kwhsHEQ&utm_campaign=yelp_api_v3&utm_medium=api_v3_business_search&utm_source=HdhkN5EEH6lAqE3kwhsHEQ", "review_count": 1, "categories": [{"alias": "tradamerican", "title": "American (Traditional)"}, {"alias": "buffets", "title": "Buffets"}], "rating": 5.0, "coordinates": {"latitude": 42.331199, "longitude": -72.659231}, "transactions": [], "location": {"address1": "80 Locust St", "address2": "", "address3": "", "city": "Northampton", "zip_code": "01060", "country": "US", "state": "MA", "display_address": ["80 Locust St", "Northampton, MA 01060"]}, "phone": "+14135871432", "display_phone": "(413) 587-1432", "distance": 17191.851399031464}, {"id": "O-cuf9gqctm096VCcM79Lg", "alias": "conway-inn-conway", "name": "Conway Inn", "image_url": "https://s3-media2.fl.yelpcdn.com/bphoto/PkYRlRCqQCTdb2bqT10Y3A/o.jpg", "is_closed": false, "url": "https://www.yelp.com/biz/conway-inn-conway?adjust_creative=HdhkN5EEH6lAqE3kwhsHEQ&utm_campaign=yelp_api_v3&utm_medium=api_v3_business_search&utm_source=HdhkN5EEH6lAqE3kwhsHEQ", "review_count": 6, "categories": [{"alias": "bars", "title": "Bars"}, {"alias": "pizza", "title": "Pizza"}], "rating": 4.5, "coordinates": {"latitude": 42.5087199, "longitude": -72.69772}, "transactions": [], "price": "$", "location": {"address1": "43 Main", "address2": "", "address3": "", "city": "Conway", "zip_code": "01341", "country": "US", "state": "MA", "display_address": ["43 Main", "Conway, MA 01341"]}, "phone": "+14133694428", "display_phone": "(413) 369-4428", "distance": 11657.378109688212}, {"id": "EWCyLEMETdIUFOmwMSRxTQ", "alias": "mesa-verde-greenfield", "name": "Mesa Verde", "image_url": "https://s3-media4.fl.yelpcdn.com/bphoto/ok7I_ZBW8l4NdmeyyBtLBw/o.jpg", "is_closed": false, "url": "https://www.yelp.com/biz/mesa-verde-greenfield?adjust_creative=HdhkN5EEH6lAqE3kwhsHEQ&utm_campaign=yelp_api_v3&utm_medium=api_v3_business_search&utm_source=HdhkN5EEH6lAqE3kwhsHEQ", "review_count": 141, "categories": [{"alias": "mexican", "title": "Mexican"}], "rating": 4.0, "coordinates": {"latitude": 42.587334, "longitude": -72.602582}, "transactions": ["delivery"], "price": "$", "location": {"address1": "10 Fiske Ave", "address2": "", "address3": "", "city": "Greenfield", "zip_code": "01301", "country": "US", "state": "MA", "display_address": ["10 Fiske Ave", "Greenfield, MA 01301"]}, "phone": "+14137722531", "display_phone": "(413) 772-2531", "distance": 23309.499416810166}, {"id": "5kNSVF1ZIFz1yu9U4r2bzw", "alias": "bakers-country-store-conway", "name": "Bakers Country Store", "image_url": "", "is_closed": false, "url": "https://www.yelp.com/biz/bakers-country-store-conway?adjust_creative=HdhkN5EEH6lAqE3kwhsHEQ&utm_campaign=yelp_api_v3&utm_medium=api_v3_business_search&utm_source=HdhkN5EEH6lAqE3kwhsHEQ", "review_count": 1, "categories": [{"alias": "breakfast_brunch", "title": "Breakfast & Brunch"}], "rating": 1.0, "coordinates": {"latitude": 42.50851, "longitude": -72.701994}, "transactions": [], "location": {"address1": "101 River St", "address2": "", "address3": "", "city": "Conway", "zip_code": "01341", "country": "US", "state": "MA", "display_address": ["101 River St", "Conway, MA 01341"]}, "phone": "+14133694936", "display_phone": "(413) 369-4936", "distance": 11376.322380504835}, {"id": "NE3t2ECJh8NDDsUbrlhwYQ", "alias": "mollisons-windy-hill-sugar-shack-worthington", "name": "Mollison's Windy Hill Sugar Shack", "image_url": "https://s3-media4.fl.yelpcdn.com/bphoto/4qQPuYhpx4YYjIR2a6o29A/o.jpg", "is_closed": false, "url": "https://www.yelp.com/biz/mollisons-windy-hill-sugar-shack-worthington?adjust_creative=HdhkN5EEH6lAqE3kwhsHEQ&utm_campaign=yelp_api_v3&utm_medium=api_v3_business_search&utm_source=HdhkN5EEH6lAqE3kwhsHEQ", "review_count": 2, "categories": [{"alias": "breakfast_brunch", "title": "Breakfast & Brunch"}], "rating": 4.5, "coordinates": {"latitude": 42.394454581771, "longitude": -72.9491633361976}, "transactions": [], "price": "$", "location": {"address1": "1 W Sam Hill Rd", "address2": "", "address3": "", "city": "Worthington", "zip_code": "01098", "country": "US", "state": "MA", "display_address": ["1 W Sam Hill Rd", "Worthington, MA 01098"]}, "phone": "+14132385869", "display_phone": "(413) 238-5869", "distance": 12818.223783096364}, {"id": "QG0drESFSFC-fICafjJbeA", "alias": "williams-sugar-house-deerfield", "name": "Williams Sugar House", "image_url": "https://s3-media1.fl.yelpcdn.com/bphoto/j_AOHIXm4lellRljT1Dmfg/o.jpg", "is_closed": false, "url": "https://www.yelp.com/biz/williams-sugar-house-deerfield?adjust_creative=HdhkN5EEH6lAqE3kwhsHEQ&utm_campaign=yelp_api_v3&utm_medium=api_v3_business_search&utm_source=HdhkN5EEH6lAqE3kwhsHEQ", "review_count": 7, "categories": [{"alias": "newamerican", "title": "American (New)"}], "rating": 4.0, "coordinates": {"latitude": 42.5378105789423, "longitude": -72.6030052453279}, "transactions": [], "price": "$$", "location": {"address1": "491 Greenfield Rd", "address2": "", "address3": "", "city": "Deerfield", "zip_code": "01342", "country": "US", "state": "MA", "display_address": ["491 Greenfield Rd", "Deerfield, MA 01342"]}, "phone": "+14137735186", "display_phone": "(413) 773-5186", "distance": 19951.797751991715}, {"id": "yycn8BXeRWA-gVXoONyZoA", "alias": "eastside-grill-northampton", "name": "Eastside Grill", "image_url": "https://s3-media2.fl.yelpcdn.com/bphoto/D_Y4Mr0Q23MP7Z0QhdrO5w/o.jpg", "is_closed": false, "url": "https://www.yelp.com/biz/eastside-grill-northampton?adjust_creative=HdhkN5EEH6lAqE3kwhsHEQ&utm_campaign=yelp_api_v3&utm_medium=api_v3_business_search&utm_source=HdhkN5EEH6lAqE3kwhsHEQ", "review_count": 154, "categories": [{"alias": "steak", "title": "Steakhouses"}, {"alias": "tradamerican", "title": "American (Traditional)"}, {"alias": "cajun", "title": "Cajun/Creole"}], "rating": 3.5, "coordinates": {"latitude": 42.3196053170176, "longitude": -72.6283599810946}, "transactions": ["delivery"], "price": "$$", "location": {"address1": "19 Pearl St", "address2": "", "address3": "", "city": "Northampton", "zip_code": "01060", "country": "US", "state": "MA", "display_address": ["19 Pearl St", "Northampton, MA 01060"]}, "phone": "+14135863347", "display_phone": "(413) 586-3347", "distance": 19912.365606480605}, {"id": "FrfYCK8yxan_GTwCSG5S6A", "alias": "uya-restaurant-florence", "name": "UYA Restaurant", "image_url": "https://s3-media1.fl.yelpcdn.com/bphoto/kCFagPg2NUMet3r0kaLkcA/o.jpg", "is_closed": false, "url": "https://www.yelp.com/biz/uya-restaurant-florence?adjust_creative=HdhkN5EEH6lAqE3kwhsHEQ&utm_campaign=yelp_api_v3&utm_medium=api_v3_business_search&utm_source=HdhkN5EEH6lAqE3kwhsHEQ", "review_count": 40, "categories": [{"alias": "japanese", "title": "Japanese"}, {"alias": "poke", "title": "Poke"}, {"alias": "bubbletea", "title": "Bubble Tea"}], "rating": 4.5, "coordinates": {"latitude": 42.3351863, "longitude": -72.6705223}, "transactions": ["delivery"], "location": {"address1": "89 Main St", "address2": "Fl 1", "address3": "", "city": "Florence", "zip_code": "01062", "country": "US", "state": "MA", "display_address": ["89 Main St", "Fl 1", "Florence, MA 01062"]}, "phone": "+14135704734", "display_phone": "(413) 570-4734", "distance": 16228.05772176697}, {"id": "YTfiTaawGtWf9CX5a64UNQ", "alias": "ciesluks-market-south-deerfield", "name": "Ciesluk's Market", "image_url": "https://s3-media4.fl.yelpcdn.com/bphoto/kMtgDkcjeQBIp-1SVychMw/o.jpg", "is_closed": false, "url": "https://www.yelp.com/biz/ciesluks-market-south-deerfield?adjust_creative=HdhkN5EEH6lAqE3kwhsHEQ&utm_campaign=yelp_api_v3&utm_medium=api_v3_business_search&utm_source=HdhkN5EEH6lAqE3kwhsHEQ", "review_count": 5, "categories": [{"alias": "grocery", "title": "Grocery"}, {"alias": "bakeries", "title": "Bakeries"}, {"alias": "delis", "title": "Delis"}], "rating": 4.5, "coordinates": {"latitude": 42.47767, "longitude": -72.60843}, "transactions": [], "location": {"address1": "55C N Main St", "address2": null, "address3": "", "city": "South Deerfield", "zip_code": "01373", "country": "US", "state": "MA", "display_address": ["55C N Main St", "South Deerfield, MA 01373"]}, "phone": "+14133973574", "display_phone": "(413) 397-3574", "distance": 16752.595697877685}, {"id": "FPhpaFCxrKYbig2eTz8r6Q", "alias": "paul-and-elizabeths-northampton", "name": "Paul & Elizabeth's", "image_url": "https://s3-media1.fl.yelpcdn.com/bphoto/zSsGBPr4wX-lI-ZCtfRuig/o.jpg", "is_closed": false, "url": "https://www.yelp.com/biz/paul-and-elizabeths-northampton?adjust_creative=HdhkN5EEH6lAqE3kwhsHEQ&utm_campaign=yelp_api_v3&utm_medium=api_v3_business_search&utm_source=HdhkN5EEH6lAqE3kwhsHEQ", "review_count": 271, "categories": [{"alias": "seafood", "title": "Seafood"}, {"alias": "vegetarian", "title": "Vegetarian"}, {"alias": "soup", "title": "Soup"}], "rating": 4.0, "coordinates": {"latitude": 42.31834, "longitude": -72.63117}, "transactions": ["delivery"], "price": "$$", "location": {"address1": "150 Main St", "address2": "", "address3": "", "city": "Northampton", "zip_code": "01060", "country": "US", "state": "MA", "display_address": ["150 Main St", "Northampton, MA 01060"]}, "phone": "+14135844832", "display_phone": "(413) 584-4832", "distance": 19880.566576579426}, {"id": "l0NWu0BZldXF3jHhk9SDgQ", "alias": "el-greco-cafe-greenfield", "name": "El Greco Cafe", "image_url": "https://s3-media2.fl.yelpcdn.com/bphoto/FPblzw5Gsz41dTeeA7r32A/o.jpg", "is_closed": false, "url": "https://www.yelp.com/biz/el-greco-cafe-greenfield?adjust_creative=HdhkN5EEH6lAqE3kwhsHEQ&utm_campaign=yelp_api_v3&utm_medium=api_v3_business_search&utm_source=HdhkN5EEH6lAqE3kwhsHEQ", "review_count": 50, "categories": [{"alias": "greek", "title": "Greek"}, {"alias": "mediterranean", "title": "Mediterranean"}], "rating": 4.0, "coordinates": {"latitude": 42.587867, "longitude": -72.602179}, "transactions": ["delivery"], "price": "$", "location": {"address1": "233 Main St", "address2": "", "address3": "", "city": "Greenfield", "zip_code": "01301", "country": "US", "state": "MA", "display_address": ["233 Main St", "Greenfield, MA 01301"]}, "phone": "+14137742844", "display_phone": "(413) 774-2844", "distance": 23373.562537347592}, {"id": "TA3Dqs1bVBnD7Y0qYXpQyQ", "alias": "filos-greek-taverna-northampton", "name": "Filos Greek Taverna", "image_url": "https://s3-media4.fl.yelpcdn.com/bphoto/ZFUFSlX6_aXV-9alRvsmqQ/o.jpg", "is_closed": false, "url": "https://www.yelp.com/biz/filos-greek-taverna-northampton?adjust_creative=HdhkN5EEH6lAqE3kwhsHEQ&utm_campaign=yelp_api_v3&utm_medium=api_v3_business_search&utm_source=HdhkN5EEH6lAqE3kwhsHEQ", "review_count": 212, "categories": [{"alias": "greek", "title": "Greek"}, {"alias": "salad", "title": "Salad"}], "rating": 4.0, "coordinates": {"latitude": 42.3178238, "longitude": -72.6337045}, "transactions": ["delivery"], "price": "$$", "location": {"address1": "279 Main St", "address2": "", "address3": "", "city": "Northampton", "zip_code": "01060", "country": "US", "state": "MA", "display_address": ["279 Main St", "Northampton, MA 01060"]}, "phone": "+14135863456", "display_phone": "(413) 586-3456", "distance": 19729.55445368693}, {"id": "-3PgeuLlTJJraWG1NRAijw", "alias": "local-burger-northampton-2", "name": "Local Burger", "image_url": "https://s3-media4.fl.yelpcdn.com/bphoto/XfT1vA_N0CRXAQ3JcAHQVQ/o.jpg", "is_closed": false, "url": "https://www.yelp.com/biz/local-burger-northampton-2?adjust_creative=HdhkN5EEH6lAqE3kwhsHEQ&utm_campaign=yelp_api_v3&utm_medium=api_v3_business_search&utm_source=HdhkN5EEH6lAqE3kwhsHEQ", "review_count": 435, "categories": [{"alias": "burgers", "title": "Burgers"}], "rating": 4.0, "coordinates": {"latitude": 42.31989, "longitude": -72.62869}, "transactions": ["delivery"], "price": "$$", "location": {"address1": "16 Main St", "address2": "", "address3": "", "city": "Northampton", "zip_code": "01060", "country": "US", "state": "MA", "display_address": ["16 Main St", "Northampton, MA 01060"]}, "phone": "+14135865857", "display_phone": "(413) 586-5857", "distance": 19871.73804335475}, {"id": "KOegsIQ89HRclWRkLGZSzQ", "alias": "mulinos-northampton", "name": "Mulinos", "image_url": "https://s3-media3.fl.yelpcdn.com/bphoto/ClMMaa-hrXhArywLrDYUaw/o.jpg", "is_closed": false, "url": "https://www.yelp.com/biz/mulinos-northampton?adjust_creative=HdhkN5EEH6lAqE3kwhsHEQ&utm_campaign=yelp_api_v3&utm_medium=api_v3_business_search&utm_source=HdhkN5EEH6lAqE3kwhsHEQ", "review_count": 170, "categories": [{"alias": "italian", "title": "Italian"}], "rating": 4.0, "coordinates": {"latitude": 42.319131, "longitude": -72.627509}, "transactions": ["restaurant_reservation", "delivery"], "price": "$$", "location": {"address1": "41 Strong Ave", "address2": "Fl 2", "address3": "", "city": "Northampton", "zip_code": "01060", "country": "US", "state": "MA", "display_address": ["41 Strong Ave", "Fl 2", "Northampton, MA 01060"]}, "phone": "+14135868900", "display_phone": "(413) 586-8900", "distance": 19998.877074876098}, {"id": "shdRdjPzsHQn5SXhsT9bVw", "alias": "toms-hot-dog-whately", "name": "Tom's Hot Dog", "image_url": "https://s3-media1.fl.yelpcdn.com/bphoto/8sAD2sXoHiFeNzO598_MaQ/o.jpg", "is_closed": false, "url": "https://www.yelp.com/biz/toms-hot-dog-whately?adjust_creative=HdhkN5EEH6lAqE3kwhsHEQ&utm_campaign=yelp_api_v3&utm_medium=api_v3_business_search&utm_source=HdhkN5EEH6lAqE3kwhsHEQ", "review_count": 34, "categories": [{"alias": "hotdog", "title": "Hot Dogs"}, {"alias": "burgers", "title": "Burgers"}, {"alias": "soup", "title": "Soup"}], "rating": 4.0, "coordinates": {"latitude": 42.4235720399516, "longitude": -72.6222722370316}, "transactions": ["delivery"], "price": "$", "location": {"address1": "61 State Rd Rte 5 And 10", "address2": "", "address3": "", "city": "Whately", "zip_code": "01093", "country": "US", "state": "MA", "display_address": ["61 State Rd Rte 5 And 10", "Whately, MA 01093"]}, "phone": "+14136652931", "display_phone": "(413) 665-2931", "distance": 15236.941020039405}, {"id": "XlW8r4nHdym6B6VGNBc6QQ", "alias": "the-sierra-grille-northampton", "name": "The Sierra Grille", "image_url": "https://s3-media2.fl.yelpcdn.com/bphoto/xp9rTa3vdRUv3SSyP0BK2A/o.jpg", "is_closed": false, "url": "https://www.yelp.com/biz/the-sierra-grille-northampton?adjust_creative=HdhkN5EEH6lAqE3kwhsHEQ&utm_campaign=yelp_api_v3&utm_medium=api_v3_business_search&utm_source=HdhkN5EEH6lAqE3kwhsHEQ", "review_count": 278, "categories": [{"alias": "newamerican", "title": "American (New)"}, {"alias": "bars", "title": "Bars"}], "rating": 4.0, "coordinates": {"latitude": 42.319019317627, "longitude": -72.6276473999023}, "transactions": ["delivery"], "price": "$$", "location": {"address1": "41 Strong Ave", "address2": "", "address3": "", "city": "Northampton", "zip_code": "01060", "country": "US", "state": "MA", "display_address": ["41 Strong Ave", "Northampton, MA 01060"]}, "phone": "+14135841150", "display_phone": "(413) 584-1150", "distance": 19998.877074876098}, {"id": "7V3RX-SPaYFt5aytErDK0g", "alias": "the-red-bucket-sugar-shack-worthington", "name": "The Red Bucket Sugar Shack", "image_url": "https://s3-media4.fl.yelpcdn.com/bphoto/dbHPKnAevuDhxLkRQIYEDw/o.jpg", "is_closed": false, "url": "https://www.yelp.com/biz/the-red-bucket-sugar-shack-worthington?adjust_creative=HdhkN5EEH6lAqE3kwhsHEQ&utm_campaign=yelp_api_v3&utm_medium=api_v3_business_search&utm_source=HdhkN5EEH6lAqE3kwhsHEQ", "review_count": 9, "categories": [{"alias": "breakfast_brunch", "title": "Breakfast & Brunch"}, {"alias": "tradamerican", "title": "American (Traditional)"}], "rating": 4.0, "coordinates": {"latitude": 42.344486, "longitude": -72.919398}, "transactions": [], "price": "$", "location": {"address1": "584 Kinnebrook Rd", "address2": "", "address3": "", "city": "Worthington", "zip_code": "01098", "country": "US", "state": "MA", "display_address": ["584 Kinnebrook Rd", "Worthington, MA 01098"]}, "phone": "+14132387710", "display_phone": "(413) 238-7710", "distance": 14200.069127417519}, {"id": "EAUjVCdEDzoDeOJ8w24PeQ", "alias": "belly-of-the-beast-northampton", "name": "Belly Of The Beast", "image_url": "https://s3-media3.fl.yelpcdn.com/bphoto/AsZlRlZToBRX6CXj6uZj0A/o.jpg", "is_closed": false, "url": "https://www.yelp.com/biz/belly-of-the-beast-northampton?adjust_creative=HdhkN5EEH6lAqE3kwhsHEQ&utm_campaign=yelp_api_v3&utm_medium=api_v3_business_search&utm_source=HdhkN5EEH6lAqE3kwhsHEQ", "review_count": 83, "categories": [{"alias": "delis", "title": "Delis"}, {"alias": "gourmet", "title": "Specialty Food"}], "rating": 4.0, "coordinates": {"latitude": 42.3187, "longitude": -72.63146}, "transactions": ["delivery"], "price": "$$", "location": {"address1": "159 Main St", "address2": "", "address3": null, "city": "Northampton", "zip_code": "01060", "country": "US", "state": "MA", "display_address": ["159 Main St", "Northampton, MA 01060"]}, "phone": "+14137273040", "display_phone": "(413) 727-3040", "distance": 19798.066968648553}, {"id": "WH0CR-IGRBgt_eGLavvK9A", "alias": "the-deck-at-union-station-northampton", "name": "The Deck at Union Station", "image_url": "", "is_closed": false, "url": "https://www.yelp.com/biz/the-deck-at-union-station-northampton?adjust_creative=HdhkN5EEH6lAqE3kwhsHEQ&utm_campaign=yelp_api_v3&utm_medium=api_v3_business_search&utm_source=HdhkN5EEH6lAqE3kwhsHEQ", "review_count": 1, "categories": [{"alias": "tradamerican", "title": "American (Traditional)"}, {"alias": "sportsbars", "title": "Sports Bars"}], "rating": 5.0, "coordinates": {"latitude": 42.3188558186693, "longitude": -72.6269715959465}, "transactions": [], "location": {"address1": "125 A Pleasant St", "address2": "", "address3": null, "city": "Northampton", "zip_code": "01060", "country": "US", "state": "MA", "display_address": ["125 A Pleasant St", "Northampton, MA 01060"]}, "phone": "", "display_phone": "", "distance": 20052.75143901506}, {"id": "h33tLUMqn4OoS_WWpryfOQ", "alias": "whately-diner-whately-2", "name": "Whately Diner", "image_url": "https://s3-media4.fl.yelpcdn.com/bphoto/DBvU4Xihx_181DNp9oyR8w/o.jpg", "is_closed": false, "url": "https://www.yelp.com/biz/whately-diner-whately-2?adjust_creative=HdhkN5EEH6lAqE3kwhsHEQ&utm_campaign=yelp_api_v3&utm_medium=api_v3_business_search&utm_source=HdhkN5EEH6lAqE3kwhsHEQ", "review_count": 102, "categories": [{"alias": "diners", "title": "Diners"}, {"alias": "tradamerican", "title": "American (Traditional)"}], "rating": 3.0, "coordinates": {"latitude": 42.4640578, "longitude": -72.618024}, "transactions": ["delivery"], "price": "$$", "location": {"address1": "372 State Rd", "address2": "", "address3": "", "city": "Whately", "zip_code": "01093", "country": "US", "state": "MA", "display_address": ["372 State Rd", "Whately, MA 01093"]}, "phone": "+14136653696", "display_phone": "(413) 665-3696", "distance": 15663.27899550961}, {"id": "W4sLmaC91ain7-EIW6rJhg", "alias": "99-restaurants-greenfield", "name": "99 Restaurants", "image_url": "https://s3-media1.fl.yelpcdn.com/bphoto/O1tqImdbBB0XmapA_c5vUQ/o.jpg", "is_closed": false, "url": "https://www.yelp.com/biz/99-restaurants-greenfield?adjust_creative=HdhkN5EEH6lAqE3kwhsHEQ&utm_campaign=yelp_api_v3&utm_medium=api_v3_business_search&utm_source=HdhkN5EEH6lAqE3kwhsHEQ", "review_count": 38, "categories": [{"alias": "pubs", "title": "Pubs"}, {"alias": "tradamerican", "title": "American (Traditional)"}], "rating": 4.0, "coordinates": {"latitude": 42.586313, "longitude": -72.623546}, "transactions": [], "price": "$$", "location": {"address1": "17 Colrain Rd", "address2": null, "address3": null, "city": "Greenfield", "zip_code": "01301", "country": "US", "state": "MA", "display_address": ["17 Colrain Rd", "Greenfield, MA 01301"]}, "phone": "+14137759997", "display_phone": "(413) 775-9997", "distance": 22026.37486920854}, {"id": "e8ZEjMpyR0yUdEdBdlYiJQ", "alias": "new-golden-china-restaurant-south-deerfield", "name": "New Golden China Restaurant", "image_url": "https://s3-media3.fl.yelpcdn.com/bphoto/8wVKYBzZqtc0BHauql8UvA/o.jpg", "is_closed": false, "url": "https://www.yelp.com/biz/new-golden-china-restaurant-south-deerfield?adjust_creative=HdhkN5EEH6lAqE3kwhsHEQ&utm_campaign=yelp_api_v3&utm_medium=api_v3_business_search&utm_source=HdhkN5EEH6lAqE3kwhsHEQ", "review_count": 17, "categories": [{"alias": "chinese", "title": "Chinese"}], "rating": 3.5, "coordinates": {"latitude": 42.4765968322754, "longitude": -72.6094131469727}, "transactions": ["delivery"], "price": "$$", "location": {"address1": "45 S Main St", "address2": "", "address3": "", "city": "South Deerfield", "zip_code": "01373", "country": "US", "state": "MA", "display_address": ["45 S Main St", "South Deerfield, MA 01373"]}, "phone": "+14136653365", "display_phone": "(413) 665-3365", "distance": 16633.231297063045}, {"id": "UppMTlDwdP2G-BQEJntR6g", "alias": "caminito-steakhouse-northampton-2", "name": "Caminito Steakhouse", "image_url": "https://s3-media4.fl.yelpcdn.com/bphoto/FoiRofibtEe__sSTQQZ2yw/o.jpg", "is_closed": false, "url": "https://www.yelp.com/biz/caminito-steakhouse-northampton-2?adjust_creative=HdhkN5EEH6lAqE3kwhsHEQ&utm_campaign=yelp_api_v3&utm_medium=api_v3_business_search&utm_source=HdhkN5EEH6lAqE3kwhsHEQ", "review_count": 121, "categories": [{"alias": "argentine", "title": "Argentine"}, {"alias": "steak", "title": "Steakhouses"}, {"alias": "salad", "title": "Salad"}], "rating": 4.0, "coordinates": {"latitude": 42.31764, "longitude": -72.6312}, "transactions": ["delivery", "pickup"], "price": "$$$", "location": {"address1": "7 Old South St", "address2": "", "address3": "", "city": "Northampton", "zip_code": "01060", "country": "US", "state": "MA", "display_address": ["7 Old South St", "Northampton, MA 01060"]}, "phone": "+14133876387", "display_phone": "(413) 387-6387", "distance": 19902.188359425636}, {"id": "DMv1r_XMkNj7G0n0X0bodA", "alias": "main-street-bar-and-grille-greenfield", "name": "Main Street Bar and Grille", "image_url": "https://s3-media1.fl.yelpcdn.com/bphoto/_y80dYCee_tMYms2n3dWWg/o.jpg", "is_closed": false, "url": "https://www.yelp.com/biz/main-street-bar-and-grille-greenfield?adjust_creative=HdhkN5EEH6lAqE3kwhsHEQ&utm_campaign=yelp_api_v3&utm_medium=api_v3_business_search&utm_source=HdhkN5EEH6lAqE3kwhsHEQ", "review_count": 7, "categories": [{"alias": "tradamerican", "title": "American (Traditional)"}, {"alias": "bars", "title": "Bars"}, {"alias": "burgers", "title": "Burgers"}], "rating": 3.5, "coordinates": {"latitude": 42.58773, "longitude": -72.60579}, "transactions": ["delivery"], "price": "$$", "location": {"address1": "94 Main St", "address2": "", "address3": "", "city": "Greenfield", "zip_code": "01301", "country": "US", "state": "MA", "display_address": ["94 Main St", "Greenfield, MA 01301"]}, "phone": "+14137746388", "display_phone": "(413) 774-6388", "distance": 23148.108332747073}, {"id": "9Ui5x2OFuyWat5SC3f6CwA", "alias": "jjs-tavern-florence", "name": "JJ's Tavern", "image_url": "https://s3-media3.fl.yelpcdn.com/bphoto/DLn7-B5J_60C70Lhh6efQQ/o.jpg", "is_closed": false, "url": "https://www.yelp.com/biz/jjs-tavern-florence?adjust_creative=HdhkN5EEH6lAqE3kwhsHEQ&utm_campaign=yelp_api_v3&utm_medium=api_v3_business_search&utm_source=HdhkN5EEH6lAqE3kwhsHEQ", "review_count": 11, "categories": [{"alias": "tradamerican", "title": "American (Traditional)"}, {"alias": "pubs", "title": "Pubs"}, {"alias": "burgers", "title": "Burgers"}], "rating": 3.5, "coordinates": {"latitude": 42.335644, "longitude": -72.671405}, "transactions": ["delivery", "pickup"], "price": "$$", "location": {"address1": "99 Main St", "address2": "Unit B", "address3": "", "city": "Florence", "zip_code": "01062", "country": "US", "state": "MA", "display_address": ["99 Main St", "Unit B", "Florence, MA 01062"]}, "phone": "+14135865705", "display_phone": "(413) 586-5705", "distance": 16141.238139237235}, {"id": "Gpj6r73EQ2yl2Z-lUMLKfg", "alias": "noodles-northampton", "name": "Noodles", "image_url": "https://s3-media1.fl.yelpcdn.com/bphoto/rbgp8CHGz5mXJ5V676fGxA/o.jpg", "is_closed": false, "url": "https://www.yelp.com/biz/noodles-northampton?adjust_creative=HdhkN5EEH6lAqE3kwhsHEQ&utm_campaign=yelp_api_v3&utm_medium=api_v3_business_search&utm_source=HdhkN5EEH6lAqE3kwhsHEQ", "review_count": 114, "categories": [{"alias": "noodles", "title": "Noodles"}], "rating": 3.5, "coordinates": {"latitude": 42.3178947, "longitude": -72.6332189}, "transactions": ["delivery", "pickup"], "price": "$$", "location": {"address1": "257 Main St", "address2": "", "address3": "", "city": "Northampton", "zip_code": "01060", "country": "US", "state": "MA", "display_address": ["257 Main St", "Northampton, MA 01060"]}, "phone": "+14135874070", "display_phone": "(413) 587-4070", "distance": 19752.11255670183}, {"id": "_SXfH8nXDNA3tY-CG2kytQ", "alias": "bela-vegetarian-restaurant-northampton", "name": "Bela Vegetarian Restaurant", "image_url": "https://s3-media1.fl.yelpcdn.com/bphoto/CvcyvCbyfH9XX2Qm7Q3_Kg/o.jpg", "is_closed": false, "url": "https://www.yelp.com/biz/bela-vegetarian-restaurant-northampton?adjust_creative=HdhkN5EEH6lAqE3kwhsHEQ&utm_campaign=yelp_api_v3&utm_medium=api_v3_business_search&utm_source=HdhkN5EEH6lAqE3kwhsHEQ", "review_count": 102, "categories": [{"alias": "vegetarian", "title": "Vegetarian"}], "rating": 4.0, "coordinates": {"latitude": 42.31897, "longitude": -72.63328}, "transactions": [], "price": "$$", "location": {"address1": "68 Masonic St", "address2": "", "address3": "", "city": "Northampton", "zip_code": "01060", "country": "US", "state": "MA", "display_address": ["68 Masonic St", "Northampton, MA 01060"]}, "phone": "+14135868011", "display_phone": "(413) 586-8011", "distance": 19667.52343230266}, {"id": "k8vXS4BM-dzeV3xRu2w15Q", "alias": "champneys-restaurant-and-tavern-deerfield", "name": "Champney's Restaurant & Tavern", "image_url": "https://s3-media3.fl.yelpcdn.com/bphoto/5PJAiYN018fAejDnsPipVw/o.jpg", "is_closed": false, "url": "https://www.yelp.com/biz/champneys-restaurant-and-tavern-deerfield?adjust_creative=HdhkN5EEH6lAqE3kwhsHEQ&utm_campaign=yelp_api_v3&utm_medium=api_v3_business_search&utm_source=HdhkN5EEH6lAqE3kwhsHEQ", "review_count": 58, "categories": [{"alias": "beer_and_wine", "title": "Beer, Wine & Spirits"}, {"alias": "tradamerican", "title": "American (Traditional)"}, {"alias": "breakfast_brunch", "title": "Breakfast & Brunch"}], "rating": 3.5, "coordinates": {"latitude": 42.547022, "longitude": -72.604508}, "transactions": ["delivery"], "price": "$$", "location": {"address1": "81 Old Main St", "address2": "", "address3": "", "city": "Deerfield", "zip_code": "01342", "country": "US", "state": "MA", "display_address": ["81 Old Main St", "Deerfield, MA 01342"]}, "phone": "+14137723087", "display_phone": "(413) 772-3087", "distance": 20312.181938070822}, {"id": "YFwYMiYE5_8rGfrNw1vI6A", "alias": "joes-pizza-and-spaghetti-house-northampton", "name": "Joe's Pizza & Spaghetti House", "image_url": "https://s3-media2.fl.yelpcdn.com/bphoto/epU2li37cz3LmtbI-OnjlA/o.jpg", "is_closed": false, "url": "https://www.yelp.com/biz/joes-pizza-and-spaghetti-house-northampton?adjust_creative=HdhkN5EEH6lAqE3kwhsHEQ&utm_campaign=yelp_api_v3&utm_medium=api_v3_business_search&utm_source=HdhkN5EEH6lAqE3kwhsHEQ", "review_count": 143, "categories": [{"alias": "pizza", "title": "Pizza"}, {"alias": "italian", "title": "Italian"}, {"alias": "seafood", "title": "Seafood"}], "rating": 4.0, "coordinates": {"latitude": 42.32187, "longitude": -72.62911}, "transactions": [], "price": "$$", "location": {"address1": "33 Market St", "address2": "", "address3": "", "city": "Northampton", "zip_code": "01060", "country": "US", "state": "MA", "display_address": ["33 Market St", "Northampton, MA 01060"]}, "phone": "+14135843168", "display_phone": "(413) 584-3168", "distance": 19697.08494255426}, {"id": "B9mlcSelTLSmYp3UQlMCxw", "alias": "holiday-pizza-south-deerfield", "name": "Holiday Pizza", "image_url": "https://s3-media2.fl.yelpcdn.com/bphoto/5UGIRfPb-Pw3YWCxfalkfw/o.jpg", "is_closed": false, "url": "https://www.yelp.com/biz/holiday-pizza-south-deerfield?adjust_creative=HdhkN5EEH6lAqE3kwhsHEQ&utm_campaign=yelp_api_v3&utm_medium=api_v3_business_search&utm_source=HdhkN5EEH6lAqE3kwhsHEQ", "review_count": 33, "categories": [{"alias": "pizza", "title": "Pizza"}, {"alias": "mediterranean", "title": "Mediterranean"}, {"alias": "italian", "title": "Italian"}], "rating": 4.5, "coordinates": {"latitude": 42.4771728515625, "longitude": -72.609130859375}, "transactions": ["delivery"], "price": "$", "location": {"address1": "3 Elm St", "address2": "Ste A", "address3": "", "city": "South Deerfield", "zip_code": "01373", "country": "US", "state": "MA", "display_address": ["3 Elm St", "Ste A", "South Deerfield, MA 01373"]}, "phone": "+14136658195", "display_phone": "(413) 665-8195", "distance": 16670.935034807193}, {"id": "5ttSt0IyngKnNxPLRy9A4Q", "alias": "oriental-taste-northampton", "name": "Oriental Taste", "image_url": "https://s3-media1.fl.yelpcdn.com/bphoto/kwwBi7weDXi8OP2mh9tXGQ/o.jpg", "is_closed": false, "url": "https://www.yelp.com/biz/oriental-taste-northampton?adjust_creative=HdhkN5EEH6lAqE3kwhsHEQ&utm_campaign=yelp_api_v3&utm_medium=api_v3_business_search&utm_source=HdhkN5EEH6lAqE3kwhsHEQ", "review_count": 84, "categories": [{"alias": "chinese", "title": "Chinese"}], "rating": 4.0, "coordinates": {"latitude": 42.319869, "longitude": -72.6294463}, "transactions": ["delivery", "pickup"], "price": "$$", "location": {"address1": "41 Main St", "address2": "", "address3": null, "city": "Northampton", "zip_code": "01060", "country": "US", "state": "MA", "display_address": ["41 Main St", "Northampton, MA 01060"]}, "phone": "+14135826888", "display_phone": "(413) 582-6888", "distance": 19821.764094532464}, {"id": "mMObXUtsHJW-v-4QarElaQ", "alias": "hot-head-burritos-northampton", "name": "Hot Head Burritos", "image_url": "https://s3-media3.fl.yelpcdn.com/bphoto/FqnzNA4mLdVXWuJ6VtKQtw/o.jpg", "is_closed": false, "url": "https://www.yelp.com/biz/hot-head-burritos-northampton?adjust_creative=HdhkN5EEH6lAqE3kwhsHEQ&utm_campaign=yelp_api_v3&utm_medium=api_v3_business_search&utm_source=HdhkN5EEH6lAqE3kwhsHEQ", "review_count": 3, "categories": [{"alias": "mexican", "title": "Mexican"}, {"alias": "hotdogs", "title": "Fast Food"}], "rating": 3.5, "coordinates": {"latitude": 42.338268, "longitude": -72.63743}, "transactions": [], "location": {"address1": "55 Damon Rd", "address2": "Ste 1", "address3": null, "city": "Northampton", "zip_code": "01060", "country": "US", "state": "MA", "display_address": ["55 Damon Rd", "Ste 1", "Northampton, MA 01060"]}, "phone": "+14135704872", "display_phone": "(413) 570-4872", "distance": 17984.032327058318}, {"id": "kMygiwbWBt1mq_6iHHmu4A", "alias": "bonnie-bs-greenfield", "name": "Bonnie B's", "image_url": "https://s3-media3.fl.yelpcdn.com/bphoto/oX_Z6yc17Tq26UVSo4o4Ig/o.jpg", "is_closed": false, "url": "https://www.yelp.com/biz/bonnie-bs-greenfield?adjust_creative=HdhkN5EEH6lAqE3kwhsHEQ&utm_campaign=yelp_api_v3&utm_medium=api_v3_business_search&utm_source=HdhkN5EEH6lAqE3kwhsHEQ", "review_count": 19, "categories": [{"alias": "breakfast_brunch", "title": "Breakfast & Brunch"}, {"alias": "tradamerican", "title": "American (Traditional)"}], "rating": 4.5, "coordinates": {"latitude": 42.588116, "longitude": -72.602802}, "transactions": ["delivery", "pickup"], "location": {"address1": "204 Main St", "address2": "", "address3": null, "city": "Greenfield", "zip_code": "01301", "country": "US", "state": "MA", "display_address": ["204 Main St", "Greenfield, MA 01301"]}, "phone": "+14134753758", "display_phone": "(413) 475-3758", "distance": 23356.310895150982}, {"id": "5d6BCUCZuaU2SYeek-uoNA", "alias": "mi-tierra-hadley-2", "name": "Mi Tierra", "image_url": "https://s3-media3.fl.yelpcdn.com/bphoto/0cTrPL_qIKB7hQQQX83toA/o.jpg", "is_closed": false, "url": "https://www.yelp.com/biz/mi-tierra-hadley-2?adjust_creative=HdhkN5EEH6lAqE3kwhsHEQ&utm_campaign=yelp_api_v3&utm_medium=api_v3_business_search&utm_source=HdhkN5EEH6lAqE3kwhsHEQ", "review_count": 123, "categories": [{"alias": "mexican", "title": "Mexican"}], "rating": 3.5, "coordinates": {"latitude": 42.3405706, "longitude": -72.6053010552254}, "transactions": ["delivery"], "price": "$$", "location": {"address1": "48 Russell St", "address2": null, "address3": null, "city": "Hadley", "zip_code": "01035", "country": "US", "state": "MA", "display_address": ["48 Russell St", "Hadley, MA 01035"]}, "phone": "+14135879820", "display_phone": "(413) 587-9820", "distance": 19945.294759439254}, {"id": "AnpPJkpAweO5Y5jQ8IHasQ", "alias": "websters-fish-hook-northampton-2", "name": "Webster's Fish Hook", "image_url": "https://s3-media2.fl.yelpcdn.com/bphoto/cZPGet3z6NBIHPnSreJhrQ/o.jpg", "is_closed": false, "url": "https://www.yelp.com/biz/websters-fish-hook-northampton-2?adjust_creative=HdhkN5EEH6lAqE3kwhsHEQ&utm_campaign=yelp_api_v3&utm_medium=api_v3_business_search&utm_source=HdhkN5EEH6lAqE3kwhsHEQ", "review_count": 69, "categories": [{"alias": "seafood", "title": "Seafood"}], "rating": 4.0, "coordinates": {"latitude": 42.334283, "longitude": -72.621815}, "transactions": ["delivery"], "price": "$$", "location": {"address1": "391 Damon Rd", "address2": "", "address3": "", "city": "Northampton", "zip_code": "01060", "country": "US", "state": "MA", "display_address": ["391 Damon Rd", "Northampton, MA 01060"]}, "phone": "+14135863190", "display_phone": "(413) 586-3190", "distance": 19261.602864280765}, {"id": "zKiHmDHXaZVVYVe4Qm1nTg", "alias": "hillside-pizza-south-deerfield", "name": "Hillside Pizza", "image_url": "https://s3-media3.fl.yelpcdn.com/bphoto/qkuJnc_RVLnY4uz3HXBbcg/o.jpg", "is_closed": false, "url": "https://www.yelp.com/biz/hillside-pizza-south-deerfield?adjust_creative=HdhkN5EEH6lAqE3kwhsHEQ&utm_campaign=yelp_api_v3&utm_medium=api_v3_business_search&utm_source=HdhkN5EEH6lAqE3kwhsHEQ", "review_count": 23, "categories": [{"alias": "pizza", "title": "Pizza"}], "rating": 4.5, "coordinates": {"latitude": 42.50779, "longitude": -72.606161}, "transactions": ["delivery"], "price": "$$", "location": {"address1": "265 Greenfield Rd", "address2": "", "address3": "", "city": "South Deerfield", "zip_code": "01373", "country": "US", "state": "MA", "display_address": ["265 Greenfield Rd", "South Deerfield, MA 01373"]}, "phone": "+14136655533", "display_phone": "(413) 665-5533", "distance": 18016.73098193521}, {"id": "WTwLgWLCHmTZSQ3_HleTUA", "alias": "india-house-restaurant-northampton", "name": "India House Restaurant", "image_url": "https://s3-media3.fl.yelpcdn.com/bphoto/0EkefXNb3k6az1ayCvVUiA/o.jpg", "is_closed": false, "url": "https://www.yelp.com/biz/india-house-restaurant-northampton?adjust_creative=HdhkN5EEH6lAqE3kwhsHEQ&utm_campaign=yelp_api_v3&utm_medium=api_v3_business_search&utm_source=HdhkN5EEH6lAqE3kwhsHEQ", "review_count": 209, "categories": [{"alias": "indpak", "title": "Indian"}], "rating": 4.0, "coordinates": {"latitude": 42.31911, "longitude": -72.63403}, "transactions": ["delivery"], "price": "$$", "location": {"address1": "45 State St", "address2": "", "address3": "", "city": "Northampton", "zip_code": "01060", "country": "US", "state": "MA", "display_address": ["45 State St", "Northampton, MA 01060"]}, "phone": "+14135866344", "display_phone": "(413) 586-6344", "distance": 19612.027696148914}, {"id": "S3Tkq0oSytqNpe98y9wTdQ", "alias": "bistro-les-gras-northampton", "name": "Bistro Les Gras", "image_url": "https://s3-media2.fl.yelpcdn.com/bphoto/Jbw8cv8PEJ7ze0-L5BUUoQ/o.jpg", "is_closed": false, "url": "https://www.yelp.com/biz/bistro-les-gras-northampton?adjust_creative=HdhkN5EEH6lAqE3kwhsHEQ&utm_campaign=yelp_api_v3&utm_medium=api_v3_business_search&utm_source=HdhkN5EEH6lAqE3kwhsHEQ", "review_count": 112, "categories": [{"alias": "french", "title": "French"}, {"alias": "seafood", "title": "Seafood"}, {"alias": "burgers", "title": "Burgers"}], "rating": 4.0, "coordinates": {"latitude": 42.3166369430338, "longitude": -72.6366354072254}, "transactions": ["delivery"], "price": "$$$", "location": {"address1": "25 W St", "address2": "", "address3": "", "city": "Northampton", "zip_code": "01060", "country": "US", "state": "MA", "display_address": ["25 W St", "Northampton, MA 01060"]}, "phone": "+14133204666", "display_phone": "(413) 320-4666", "distance": 19650.040658652804}, {"id": "ujdYCeulx68Mfdf4pvbxYg", "alias": "grill-n-chill-hatfield", "name": "Grill N Chill", "image_url": "https://s3-media1.fl.yelpcdn.com/bphoto/6_ORnjaKTNiU_12QB0U-5w/o.jpg", "is_closed": false, "url": "https://www.yelp.com/biz/grill-n-chill-hatfield?adjust_creative=HdhkN5EEH6lAqE3kwhsHEQ&utm_campaign=yelp_api_v3&utm_medium=api_v3_business_search&utm_source=HdhkN5EEH6lAqE3kwhsHEQ", "review_count": 14, "categories": [{"alias": "newamerican", "title": "American (New)"}, {"alias": "pizza", "title": "Pizza"}], "rating": 3.5, "coordinates": {"latitude": 42.359764, "longitude": -72.625832}, "transactions": ["delivery"], "price": "$$", "location": {"address1": "127 Elm St", "address2": "", "address3": "", "city": "Hatfield", "zip_code": "01038", "country": "US", "state": "MA", "display_address": ["127 Elm St", "Hatfield, MA 01038"]}, "phone": "+14132475044", "display_phone": "(413) 247-5044", "distance": 17369.825539221045}, {"id": "JQpK5Pv7fwh_FTlX8MjCvA", "alias": "yokohama-ramen-northampton", "name": "Yokohama Ramen", "image_url": "https://s3-media4.fl.yelpcdn.com/bphoto/B6uSNfpTDcEukyDdSaZOoQ/o.jpg", "is_closed": false, "url": "https://www.yelp.com/biz/yokohama-ramen-northampton?adjust_creative=HdhkN5EEH6lAqE3kwhsHEQ&utm_campaign=yelp_api_v3&utm_medium=api_v3_business_search&utm_source=HdhkN5EEH6lAqE3kwhsHEQ", "review_count": 51, "categories": [{"alias": "ramen", "title": "Ramen"}], "rating": 3.5, "coordinates": {"latitude": 42.3187214467049, "longitude": -72.6306232680921}, "transactions": ["delivery", "pickup"], "price": "$$", "location": {"address1": "88 Main St", "address2": "", "address3": null, "city": "Northampton", "zip_code": "01060", "country": "US", "state": "MA", "display_address": ["88 Main St", "Northampton, MA 01060"]}, "phone": "+14135704703", "display_phone": "(413) 570-4703", "distance": 19843.611197347414}, {"id": "cI-D75PC7akLsPQSrvYX2w", "alias": "deerfield-lunch-box-deerfield", "name": "Deerfield Lunch Box", "image_url": "https://s3-media4.fl.yelpcdn.com/bphoto/46kxxAh53yd4ygbpPSY7jQ/o.jpg", "is_closed": false, "url": "https://www.yelp.com/biz/deerfield-lunch-box-deerfield?adjust_creative=HdhkN5EEH6lAqE3kwhsHEQ&utm_campaign=yelp_api_v3&utm_medium=api_v3_business_search&utm_source=HdhkN5EEH6lAqE3kwhsHEQ", "review_count": 1, "categories": [{"alias": "hotdog", "title": "Hot Dogs"}, {"alias": "foodstands", "title": "Food Stands"}, {"alias": "burgers", "title": "Burgers"}], "rating": 2.0, "coordinates": {"latitude": 42.547239, "longitude": -72.605898}, "transactions": [], "location": {"address1": "79 Old Main St", "address2": "", "address3": "Historic Deerfield", "city": "Deerfield", "zip_code": "01342", "country": "US", "state": "MA", "display_address": ["79 Old Main St", "Historic Deerfield", "Deerfield, MA 01342"]}, "phone": "+14137757171", "display_phone": "(413) 775-7171", "distance": 20233.45386574034}, {"id": "eSjDTVJ9E2kkcqA826C6rQ", "alias": "mosaic-cafe-northampton", "name": "Mosaic Cafe", "image_url": "https://s3-media4.fl.yelpcdn.com/bphoto/mXMjvewtcJjOB9fxinAaVA/o.jpg", "is_closed": false, "url": "https://www.yelp.com/biz/mosaic-cafe-northampton?adjust_creative=HdhkN5EEH6lAqE3kwhsHEQ&utm_campaign=yelp_api_v3&utm_medium=api_v3_business_search&utm_source=HdhkN5EEH6lAqE3kwhsHEQ", "review_count": 127, "categories": [{"alias": "moroccan", "title": "Moroccan"}], "rating": 4.0, "coordinates": {"latitude": 42.3190536499023, "longitude": -72.6332626342773}, "transactions": ["delivery"], "price": "$$", "location": {"address1": "78 Masonic St", "address2": "", "address3": "", "city": "Northampton", "zip_code": "01060", "country": "US", "state": "MA", "display_address": ["78 Masonic St", "Northampton, MA 01060"]}, "phone": "+14135851155", "display_phone": "(413) 585-1155", "distance": 19659.33372371386}, {"id": "kSF3nWZmVYlXM8AWBDY6GA", "alias": "cafe-evolution-florence-2", "name": "Cafe Evolution", "image_url": "https://s3-media2.fl.yelpcdn.com/bphoto/EYVJUESeRQQdxUqzLDKyvQ/o.jpg", "is_closed": false, "url": "https://www.yelp.com/biz/cafe-evolution-florence-2?adjust_creative=HdhkN5EEH6lAqE3kwhsHEQ&utm_campaign=yelp_api_v3&utm_medium=api_v3_business_search&utm_source=HdhkN5EEH6lAqE3kwhsHEQ", "review_count": 111, "categories": [{"alias": "bakeries", "title": "Bakeries"}, {"alias": "burgers", "title": "Burgers"}, {"alias": "sandwiches", "title": "Sandwiches"}], "rating": 4.5, "coordinates": {"latitude": 42.3341957928981, "longitude": -72.6679041537607}, "transactions": ["delivery"], "price": "$$", "location": {"address1": "22 Chestnut St", "address2": "", "address3": "", "city": "Florence", "zip_code": "01062", "country": "US", "state": "MA", "display_address": ["22 Chestnut St", "Florence, MA 01062"]}, "phone": "+14135860200", "display_phone": "(413) 586-0200", "distance": 16451.844712427002}, {"id": "GozHnnsLBsvS2fbgyIugXw", "alias": "muffins-general-market-whately", "name": "Muffin's General Market", "image_url": "https://s3-media2.fl.yelpcdn.com/bphoto/I5w5JBJ5aHfLKOP1SWjgaQ/o.jpg", "is_closed": false, "url": "https://www.yelp.com/biz/muffins-general-market-whately?adjust_creative=HdhkN5EEH6lAqE3kwhsHEQ&utm_campaign=yelp_api_v3&utm_medium=api_v3_business_search&utm_source=HdhkN5EEH6lAqE3kwhsHEQ", "review_count": 7, "categories": [{"alias": "breakfast_brunch", "title": "Breakfast & Brunch"}, {"alias": "beer_and_wine", "title": "Beer, Wine & Spirits"}, {"alias": "delis", "title": "Delis"}], "rating": 4.0, "coordinates": {"latitude": 42.41856, "longitude": -72.62037}, "transactions": ["delivery", "pickup"], "price": "$", "location": {"address1": "28 State Rd", "address2": "", "address3": null, "city": "Whately", "zip_code": "01373", "country": "US", "state": "MA", "display_address": ["28 State Rd", "Whately, MA 01373"]}, "phone": "+14133973372", "display_phone": "(413) 397-3372", "distance": 15433.477310426437}, {"id": "dccdUZW8PApkxL3ynmyazA", "alias": "fitzwillys-restaurant-northampton-2", "name": "Fitzwilly's Restaurant", "image_url": "https://s3-media1.fl.yelpcdn.com/bphoto/DU_Y-r48HIukbSMn4BDS8g/o.jpg", "is_closed": false, "url": "https://www.yelp.com/biz/fitzwillys-restaurant-northampton-2?adjust_creative=HdhkN5EEH6lAqE3kwhsHEQ&utm_campaign=yelp_api_v3&utm_medium=api_v3_business_search&utm_source=HdhkN5EEH6lAqE3kwhsHEQ", "review_count": 235, "categories": [{"alias": "bars", "title": "Bars"}, {"alias": "tradamerican", "title": "American (Traditional)"}], "rating": 3.5, "coordinates": {"latitude": 42.320065, "longitude": -72.628881}, "transactions": ["delivery", "pickup"], "price": "$$", "location": {"address1": "23 Main St", "address2": "", "address3": "", "city": "Northampton", "zip_code": "01060", "country": "US", "state": "MA", "display_address": ["23 Main St", "Northampton, MA 01060"]}, "phone": "+14135848666", "display_phone": "(413) 584-8666", "distance": 19846.207066702034}, {"id": "tH6MLUyc-FwAwsdqYcZUsQ", "alias": "jakes-northampton", "name": "Jake's", "image_url": "https://s3-media3.fl.yelpcdn.com/bphoto/z7LUDrFU1o6IXHoNW9LRdA/o.jpg", "is_closed": false, "url": "https://www.yelp.com/biz/jakes-northampton?adjust_creative=HdhkN5EEH6lAqE3kwhsHEQ&utm_campaign=yelp_api_v3&utm_medium=api_v3_business_search&utm_source=HdhkN5EEH6lAqE3kwhsHEQ", "review_count": 433, "categories": [{"alias": "breakfast_brunch", "title": "Breakfast & Brunch"}, {"alias": "sandwiches", "title": "Sandwiches"}, {"alias": "southern", "title": "Southern"}], "rating": 4.5, "coordinates": {"latitude": 42.3199985, "longitude": -72.6300315}, "transactions": ["delivery"], "price": "$$", "location": {"address1": "17 King St", "address2": "", "address3": "", "city": "Northampton", "zip_code": "01060", "country": "US", "state": "MA", "display_address": ["17 King St", "Northampton, MA 01060"]}, "phone": "+14135849613", "display_phone": "(413) 584-9613", "distance": 19789.614863880768}, {"id": "F60ZshsheJZSuxb3fpeFtw", "alias": "china-gourmet-greenfield-2", "name": "China Gourmet", "image_url": "https://s3-media2.fl.yelpcdn.com/bphoto/dX3zEIx-W2C6hWmklUr6hA/o.jpg", "is_closed": false, "url": "https://www.yelp.com/biz/china-gourmet-greenfield-2?adjust_creative=HdhkN5EEH6lAqE3kwhsHEQ&utm_campaign=yelp_api_v3&utm_medium=api_v3_business_search&utm_source=HdhkN5EEH6lAqE3kwhsHEQ", "review_count": 68, "categories": [{"alias": "chinese", "title": "Chinese"}, {"alias": "japanese", "title": "Japanese"}], "rating": 3.0, "coordinates": {"latitude": 42.5846366882324, "longitude": -72.6142959594727}, "transactions": ["delivery"], "price": "$$", "location": {"address1": "78 Mohawk Trl", "address2": null, "address3": "", "city": "Greenfield", "zip_code": "01301", "country": "US", "state": "MA", "display_address": ["78 Mohawk Trl", "Greenfield, MA 01301"]}, "phone": "+14137742299", "display_phone": "(413) 774-2299", "distance": 22415.867324896222}, {"id": "NZHMfENo3z9WKmlntJzoQA", "alias": "primo-restaurant-and-pizzeria-south-deerfield", "name": "Primo Restaurant and Pizzeria", "image_url": "https://s3-media2.fl.yelpcdn.com/bphoto/6IziWJ7o2qxR7as40bhJ2Q/o.jpg", "is_closed": false, "url": "https://www.yelp.com/biz/primo-restaurant-and-pizzeria-south-deerfield?adjust_creative=HdhkN5EEH6lAqE3kwhsHEQ&utm_campaign=yelp_api_v3&utm_medium=api_v3_business_search&utm_source=HdhkN5EEH6lAqE3kwhsHEQ", "review_count": 32, "categories": [{"alias": "pizza", "title": "Pizza"}, {"alias": "italian", "title": "Italian"}, {"alias": "burgers", "title": "Burgers"}], "rating": 2.5, "coordinates": {"latitude": 42.47667, "longitude": -72.60749}, "transactions": ["delivery"], "price": "$", "location": {"address1": "4 Sugarloaf St", "address2": "", "address3": "", "city": "South Deerfield", "zip_code": "01373", "country": "US", "state": "MA", "display_address": ["4 Sugarloaf St", "South Deerfield, MA 01373"]}, "phone": "+14136653300", "display_phone": "(413) 665-3300", "distance": 16756.4877689802}, {"id": "j_toNLVsQPugmRbfuEHHYA", "alias": "hungry-ghost-bread-northampton", "name": "Hungry Ghost Bread", "image_url": "https://s3-media4.fl.yelpcdn.com/bphoto/yS_1AR3Ouje_Bn70MGzYpg/o.jpg", "is_closed": false, "url": "https://www.yelp.com/biz/hungry-ghost-bread-northampton?adjust_creative=HdhkN5EEH6lAqE3kwhsHEQ&utm_campaign=yelp_api_v3&utm_medium=api_v3_business_search&utm_source=HdhkN5EEH6lAqE3kwhsHEQ", "review_count": 163, "categories": [{"alias": "bakeries", "title": "Bakeries"}, {"alias": "pizza", "title": "Pizza"}], "rating": 4.5, "coordinates": {"latitude": 42.31992, "longitude": -72.6346}, "transactions": [], "price": "$", "location": {"address1": "62 State St", "address2": null, "address3": "", "city": "Northampton", "zip_code": "01060", "country": "US", "state": "MA", "display_address": ["62 State St", "Northampton, MA 01060"]}, "phone": "+14135829009", "display_phone": "(413) 582-9009", "distance": 19510.576220183193}, {"id": "rEfVdfn-HKiKFqhKFkCpMQ", "alias": "robertos-northampton", "name": "Roberto's", "image_url": "https://s3-media1.fl.yelpcdn.com/bphoto/OBUpC2sdZozNFJbPf5ijmA/o.jpg", "is_closed": false, "url": "https://www.yelp.com/biz/robertos-northampton?adjust_creative=HdhkN5EEH6lAqE3kwhsHEQ&utm_campaign=yelp_api_v3&utm_medium=api_v3_business_search&utm_source=HdhkN5EEH6lAqE3kwhsHEQ", "review_count": 66, "categories": [{"alias": "italian", "title": "Italian"}, {"alias": "pizza", "title": "Pizza"}], "rating": 3.5, "coordinates": {"latitude": 42.3171899, "longitude": -72.62676}, "transactions": ["delivery"], "price": "$$", "location": {"address1": "223 Pleasant St", "address2": "", "address3": "", "city": "Northampton", "zip_code": "01060", "country": "US", "state": "MA", "display_address": ["223 Pleasant St", "Northampton, MA 01060"]}, "phone": "+14135840204", "display_phone": "(413) 584-0204", "distance": 20189.79696831436}, {"id": "1H2TXqhBFvTHgT0bm4czxg", "alias": "miss-florence-diner-florence", "name": "Miss Florence Diner", "image_url": "https://s3-media2.fl.yelpcdn.com/bphoto/NxYE_ZYXLX4HyMH9NsepEw/o.jpg", "is_closed": false, "url": "https://www.yelp.com/biz/miss-florence-diner-florence?adjust_creative=HdhkN5EEH6lAqE3kwhsHEQ&utm_campaign=yelp_api_v3&utm_medium=api_v3_business_search&utm_source=HdhkN5EEH6lAqE3kwhsHEQ", "review_count": 74, "categories": [{"alias": "diners", "title": "Diners"}], "rating": 4.0, "coordinates": {"latitude": 42.3356481, "longitude": -72.671405}, "transactions": ["delivery", "pickup"], "price": "$", "location": {"address1": "99 Main St", "address2": null, "address3": "", "city": "Florence", "zip_code": "01062", "country": "US", "state": "MA", "display_address": ["99 Main St", "Florence, MA 01062"]}, "phone": "+14135843137", "display_phone": "(413) 584-3137", "distance": 16140.9065446173}, {"id": "gnzzIJDtkrql8iaKfDnyyQ", "alias": "thai-garden-northampton", "name": "Thai Garden", "image_url": "https://s3-media2.fl.yelpcdn.com/bphoto/kcHBi1qJCjGQOx3Y75q7SQ/o.jpg", "is_closed": false, "url": "https://www.yelp.com/biz/thai-garden-northampton?adjust_creative=HdhkN5EEH6lAqE3kwhsHEQ&utm_campaign=yelp_api_v3&utm_medium=api_v3_business_search&utm_source=HdhkN5EEH6lAqE3kwhsHEQ", "review_count": 185, "categories": [{"alias": "thai", "title": "Thai"}], "rating": 4.0, "coordinates": {"latitude": 42.32072, "longitude": -72.62863}, "transactions": ["delivery"], "price": "$$", "location": {"address1": "2 Bridge St", "address2": "", "address3": "", "city": "Northampton", "zip_code": "01060", "country": "US", "state": "MA", "display_address": ["2 Bridge St", "Northampton, MA 01060"]}, "phone": "+14135873336", "display_phone": "(413) 587-3336", "distance": 19820.758821389514}, {"id": "BfLWb8JucJVRBzKX46Ck1g", "alias": "wiggins-old-tavern-at-hotel-northampton-northampton", "name": "Wiggins Old Tavern at Hotel Northampton", "image_url": "https://s3-media2.fl.yelpcdn.com/bphoto/rMYcD1UWcoY3X3FE-THZMA/o.jpg", "is_closed": false, "url": "https://www.yelp.com/biz/wiggins-old-tavern-at-hotel-northampton-northampton?adjust_creative=HdhkN5EEH6lAqE3kwhsHEQ&utm_campaign=yelp_api_v3&utm_medium=api_v3_business_search&utm_source=HdhkN5EEH6lAqE3kwhsHEQ", "review_count": 50, "categories": [{"alias": "seafood", "title": "Seafood"}, {"alias": "tradamerican", "title": "American (Traditional)"}], "rating": 3.5, "coordinates": {"latitude": 42.3201415, "longitude": -72.63089}, "transactions": ["delivery"], "price": "$$", "location": {"address1": "36 King St", "address2": "", "address3": "", "city": "Northampton", "zip_code": "01063", "country": "US", "state": "MA", "display_address": ["36 King St", "Northampton, MA 01063"]}, "phone": "+14135843100", "display_phone": "(413) 584-3100", "distance": 19719.479350173908}, {"id": "uvI_sThbGPccd-NHZRBnQg", "alias": "bei-jing-house-greenfield", "name": "Bei Jing House", "image_url": "https://s3-media2.fl.yelpcdn.com/bphoto/8ORL1RDkXxxEgLrcS0ps9Q/o.jpg", "is_closed": false, "url": "https://www.yelp.com/biz/bei-jing-house-greenfield?adjust_creative=HdhkN5EEH6lAqE3kwhsHEQ&utm_campaign=yelp_api_v3&utm_medium=api_v3_business_search&utm_source=HdhkN5EEH6lAqE3kwhsHEQ", "review_count": 18, "categories": [{"alias": "chinese", "title": "Chinese"}], "rating": 3.0, "coordinates": {"latitude": 42.58685, "longitude": -72.60736}, "transactions": ["delivery"], "price": "$", "location": {"address1": "45 Main St", "address2": "", "address3": "", "city": "Greenfield", "zip_code": "01301", "country": "US", "state": "MA", "display_address": ["45 Main St", "Greenfield, MA 01301"]}, "phone": "+14137737885", "display_phone": "(413) 773-7885", "distance": 23003.778973800974}, {"id": "NZ-KxOMeY2CqaQb4mrOH4Q", "alias": "coopers-corner-florence", "name": "Cooper's Corner", "image_url": "https://s3-media3.fl.yelpcdn.com/bphoto/aDGH10IvfHs0a1myylZkXg/o.jpg", "is_closed": false, "url": "https://www.yelp.com/biz/coopers-corner-florence?adjust_creative=HdhkN5EEH6lAqE3kwhsHEQ&utm_campaign=yelp_api_v3&utm_medium=api_v3_business_search&utm_source=HdhkN5EEH6lAqE3kwhsHEQ", "review_count": 13, "categories": [{"alias": "delis", "title": "Delis"}, {"alias": "sandwiches", "title": "Sandwiches"}], "rating": 3.5, "coordinates": {"latitude": 42.3349699, "longitude": -72.6681617}, "transactions": ["delivery"], "location": {"address1": "31 Main St", "address2": "", "address3": "", "city": "Florence", "zip_code": "01062", "country": "US", "state": "MA", "display_address": ["31 Main St", "Florence, MA 01062"]}, "phone": "+14135861684", "display_phone": "(413) 586-1684", "distance": 16381.861898001158}, {"id": "sZQnBWW8IPZUA1IVRLWjPg", "alias": "taylors-tavern-greenfield", "name": "Taylor's Tavern", "image_url": "https://s3-media1.fl.yelpcdn.com/bphoto/m7ro5xz5NB5--a5tW-7QtA/o.jpg", "is_closed": false, "url": "https://www.yelp.com/biz/taylors-tavern-greenfield?adjust_creative=HdhkN5EEH6lAqE3kwhsHEQ&utm_campaign=yelp_api_v3&utm_medium=api_v3_business_search&utm_source=HdhkN5EEH6lAqE3kwhsHEQ", "review_count": 51, "categories": [{"alias": "tradamerican", "title": "American (Traditional)"}, {"alias": "burgers", "title": "Burgers"}, {"alias": "sandwiches", "title": "Sandwiches"}], "rating": 3.5, "coordinates": {"latitude": 42.588072, "longitude": -72.6022799}, "transactions": ["delivery"], "price": "$$", "location": {"address1": "238 Main St", "address2": "", "address3": "", "city": "Greenfield", "zip_code": "01301", "country": "US", "state": "MA", "display_address": ["238 Main St", "Greenfield, MA 01301"]}, "phone": "+14137738313", "display_phone": "(413) 773-8313", "distance": 23383.541546839893}, {"id": "mHA-Vrq7cgnsFODSvZqHuA", "alias": "steves-sugar-shack-westhampton", "name": "Steve's Sugar Shack", "image_url": "", "is_closed": false, "url": "https://www.yelp.com/biz/steves-sugar-shack-westhampton?adjust_creative=HdhkN5EEH6lAqE3kwhsHEQ&utm_campaign=yelp_api_v3&utm_medium=api_v3_business_search&utm_source=HdhkN5EEH6lAqE3kwhsHEQ", "review_count": 2, "categories": [{"alias": "breakfast_brunch", "title": "Breakfast & Brunch"}], "rating": 5.0, "coordinates": {"latitude": 42.307695, "longitude": -72.77132}, "transactions": [], "location": {"address1": "34 N Rd", "address2": "", "address3": null, "city": "Westhampton", "zip_code": "01027", "country": "US", "state": "MA", "display_address": ["34 N Rd", "Westhampton, MA 01027"]}, "phone": "+14135270294", "display_phone": "(413) 527-0294", "distance": 15116.464316558957}, {"id": "irtmklyCVLhY6G62VMgUwQ", "alias": "platform-sports-bar-northampton", "name": "Platform Sports Bar", "image_url": "https://s3-media3.fl.yelpcdn.com/bphoto/1Fxrljw2E_URlb4se5ApFg/o.jpg", "is_closed": false, "url": "https://www.yelp.com/biz/platform-sports-bar-northampton?adjust_creative=HdhkN5EEH6lAqE3kwhsHEQ&utm_campaign=yelp_api_v3&utm_medium=api_v3_business_search&utm_source=HdhkN5EEH6lAqE3kwhsHEQ", "review_count": 47, "categories": [{"alias": "sportsbars", "title": "Sports Bars"}, {"alias": "tradamerican", "title": "American (Traditional)"}], "rating": 2.5, "coordinates": {"latitude": 42.3185155954202, "longitude": -72.6267224257418}, "transactions": ["delivery"], "price": "$$", "location": {"address1": "125A Pleasant St", "address2": "", "address3": "", "city": "Northampton", "zip_code": "01060", "country": "US", "state": "MA", "display_address": ["125A Pleasant St", "Northampton, MA 01060"]}, "phone": "+14133413161", "display_phone": "(413) 341-3161", "distance": 20093.481540494246}, {"id": "WXMV2M3JjMhIifScR5umUA", "alias": "freckled-fox-cafe-florence", "name": "Freckled Fox Cafe", "image_url": "https://s3-media2.fl.yelpcdn.com/bphoto/6Wv4DSm6bKUnz6Avur7yxA/o.jpg", "is_closed": false, "url": "https://www.yelp.com/biz/freckled-fox-cafe-florence?adjust_creative=HdhkN5EEH6lAqE3kwhsHEQ&utm_campaign=yelp_api_v3&utm_medium=api_v3_business_search&utm_source=HdhkN5EEH6lAqE3kwhsHEQ", "review_count": 18, "categories": [{"alias": "coffee", "title": "Coffee & Tea"}, {"alias": "breakfast_brunch", "title": "Breakfast & Brunch"}, {"alias": "sandwiches", "title": "Sandwiches"}], "rating": 4.0, "coordinates": {"latitude": 42.33568, "longitude": -72.6720859}, "transactions": ["delivery", "pickup"], "price": "$$", "location": {"address1": "1 N Main St", "address2": "", "address3": null, "city": "Florence", "zip_code": "01062", "country": "US", "state": "MA", "display_address": ["1 N Main St", "Florence, MA 01062"]}, "phone": "+14135850445", "display_phone": "(413) 585-0445", "distance": 16082.948051990661}, {"id": "AQ8ipYC-DU-XMFNYTQrksQ", "alias": "mama-iguanas-northampton-2", "name": "Mama Iguanas", "image_url": "https://s3-media1.fl.yelpcdn.com/bphoto/BmJyuPOdJdlPx-hDJWlHiA/o.jpg", "is_closed": false, "url": "https://www.yelp.com/biz/mama-iguanas-northampton-2?adjust_creative=HdhkN5EEH6lAqE3kwhsHEQ&utm_campaign=yelp_api_v3&utm_medium=api_v3_business_search&utm_source=HdhkN5EEH6lAqE3kwhsHEQ", "review_count": 121, "categories": [{"alias": "mexican", "title": "Mexican"}], "rating": 3.0, "coordinates": {"latitude": 42.3179955255448, "longitude": -72.6334192065829}, "transactions": ["delivery"], "price": "$$", "location": {"address1": "274 Main St", "address2": "", "address3": "", "city": "Northampton", "zip_code": "01060", "country": "US", "state": "MA", "display_address": ["274 Main St", "Northampton, MA 01060"]}, "phone": "+14135860400", "display_phone": "(413) 586-0400", "distance": 19733.139279813473}, {"id": "3p3pMwBPluQSEscxeqFa5g", "alias": "bittersweet-bakery-and-cafe-deerfield", "name": "Bittersweet Bakery & Cafe", "image_url": "https://s3-media2.fl.yelpcdn.com/bphoto/_2c3G5F_Kt0IvHqtfncUSg/o.jpg", "is_closed": false, "url": "https://www.yelp.com/biz/bittersweet-bakery-and-cafe-deerfield?adjust_creative=HdhkN5EEH6lAqE3kwhsHEQ&utm_campaign=yelp_api_v3&utm_medium=api_v3_business_search&utm_source=HdhkN5EEH6lAqE3kwhsHEQ", "review_count": 17, "categories": [{"alias": "cafes", "title": "Cafes"}, {"alias": "bakeries", "title": "Bakeries"}, {"alias": "coffee", "title": "Coffee & Tea"}], "rating": 4.0, "coordinates": {"latitude": 42.53364, "longitude": -72.60323}, "transactions": [], "location": {"address1": "470 Greenfield Rd", "address2": "", "address3": null, "city": "Deerfield", "zip_code": "01342", "country": "US", "state": "MA", "display_address": ["470 Greenfield Rd", "Deerfield, MA 01342"]}, "phone": "+14132235496", "display_phone": "(413) 223-5496", "distance": 19589.779376662333}, {"id": "PhX9OVoiUHTHSQIlZOJnOw", "alias": "iconica-social-club-northampton", "name": "Iconica Social Club", "image_url": "https://s3-media1.fl.yelpcdn.com/bphoto/UxdQphV_56gVW_Xhi9WboA/o.jpg", "is_closed": false, "url": "https://www.yelp.com/biz/iconica-social-club-northampton?adjust_creative=HdhkN5EEH6lAqE3kwhsHEQ&utm_campaign=yelp_api_v3&utm_medium=api_v3_business_search&utm_source=HdhkN5EEH6lAqE3kwhsHEQ", "review_count": 27, "categories": [{"alias": "coffee", "title": "Coffee & Tea"}, {"alias": "juicebars", "title": "Juice Bars & Smoothies"}, {"alias": "breakfast_brunch", "title": "Breakfast & Brunch"}], "rating": 4.0, "coordinates": {"latitude": 42.3183623879961, "longitude": -72.6321603086328}, "transactions": [], "price": "$$", "location": {"address1": "1 Amber Ln", "address2": "", "address3": null, "city": "Northampton", "zip_code": "01060", "country": "US", "state": "MA", "display_address": ["1 Amber Ln", "Northampton, MA 01060"]}, "phone": "+14133410258", "display_phone": "(413) 341-0258", "distance": 19779.511967672865}, {"id": "EkZFEgibp0arnaDniyyrKA", "alias": "good-thyme-deli-northampton", "name": "Good Thyme Deli", "image_url": "", "is_closed": false, "url": "https://www.yelp.com/biz/good-thyme-deli-northampton?adjust_creative=HdhkN5EEH6lAqE3kwhsHEQ&utm_campaign=yelp_api_v3&utm_medium=api_v3_business_search&utm_source=HdhkN5EEH6lAqE3kwhsHEQ", "review_count": 1, "categories": [{"alias": "restaurants", "title": "Restaurants"}], "rating": 4.0, "coordinates": {"latitude": 42.3180482, "longitude": -72.6314848}, "transactions": [], "location": {"address1": "186 Main St", "address2": "", "address3": "", "city": "Northampton", "zip_code": "01060", "country": "US", "state": "MA", "display_address": ["186 Main St", "Northampton, MA 01060"]}, "phone": "+14135846195", "display_phone": "(413) 584-6195", "distance": 19854.463493506926}, {"id": "F3j1yyzmRvy3LeILGElL5w", "alias": "pita-pockets-northampton-2", "name": "Pita Pockets", "image_url": "https://s3-media1.fl.yelpcdn.com/bphoto/PBp9_0-WCq9u3AvZcmRsZQ/o.jpg", "is_closed": false, "url": "https://www.yelp.com/biz/pita-pockets-northampton-2?adjust_creative=HdhkN5EEH6lAqE3kwhsHEQ&utm_campaign=yelp_api_v3&utm_medium=api_v3_business_search&utm_source=HdhkN5EEH6lAqE3kwhsHEQ", "review_count": 147, "categories": [{"alias": "falafel", "title": "Falafel"}, {"alias": "mideastern", "title": "Middle Eastern"}], "rating": 4.5, "coordinates": {"latitude": 42.31825, "longitude": -72.63199}, "transactions": ["delivery"], "price": "$", "location": {"address1": "193 Main St", "address2": null, "address3": "", "city": "Northampton", "zip_code": "01060", "country": "US", "state": "MA", "display_address": ["193 Main St", "Northampton, MA 01060"]}, "phone": "+14133413629", "display_phone": "(413) 341-3629", "distance": 19799.21775998937}, {"id": "gCdtxabLxonlb7CtJK-Z-w", "alias": "d-angelo-greenfield-2", "name": "D'Angelo", "image_url": "https://s3-media2.fl.yelpcdn.com/bphoto/HHatphW_HpX1SDsDCrngDw/o.jpg", "is_closed": false, "url": "https://www.yelp.com/biz/d-angelo-greenfield-2?adjust_creative=HdhkN5EEH6lAqE3kwhsHEQ&utm_campaign=yelp_api_v3&utm_medium=api_v3_business_search&utm_source=HdhkN5EEH6lAqE3kwhsHEQ", "review_count": 10, "categories": [{"alias": "sandwiches", "title": "Sandwiches"}], "rating": 4.0, "coordinates": {"latitude": 42.5848445086586, "longitude": -72.6141382441874}, "transactions": [], "price": "$$", "location": {"address1": "68 Mohawk Trl", "address2": "", "address3": "", "city": "Greenfield", "zip_code": "01301", "country": "US", "state": "MA", "display_address": ["68 Mohawk Trl", "Greenfield, MA 01301"]}, "phone": "+14137742106", "display_phone": "(413) 774-2106", "distance": 22441.691665757364}, {"id": "j3bRRMVcrNlwa7HEheOlJQ", "alias": "haymarket-cafe-northampton", "name": "Haymarket Cafe", "image_url": "https://s3-media2.fl.yelpcdn.com/bphoto/nb1DoIKAPRlbux53YbB5Nw/o.jpg", "is_closed": false, "url": "https://www.yelp.com/biz/haymarket-cafe-northampton?adjust_creative=HdhkN5EEH6lAqE3kwhsHEQ&utm_campaign=yelp_api_v3&utm_medium=api_v3_business_search&utm_source=HdhkN5EEH6lAqE3kwhsHEQ", "review_count": 229, "categories": [{"alias": "coffee", "title": "Coffee & Tea"}, {"alias": "vegetarian", "title": "Vegetarian"}, {"alias": "juicebars", "title": "Juice Bars & Smoothies"}], "rating": 4.0, "coordinates": {"latitude": 42.3182669142015, "longitude": -72.6318376280419}, "transactions": ["delivery"], "price": "$", "location": {"address1": "185 Main St", "address2": null, "address3": "", "city": "Northampton", "zip_code": "01060", "country": "US", "state": "MA", "display_address": ["185 Main St", "Northampton, MA 01060"]}, "phone": "+14135869969", "display_phone": "(413) 586-9969", "distance": 19806.02821538504}, {"id": "b-LHyJufYxVTDZZYgsC5zg", "alias": "applebees-grill-bar-greenfield-2", "name": "Applebee's Grill + Bar", "image_url": "https://s3-media4.fl.yelpcdn.com/bphoto/hvGF3oaqwBD3kGG7oPUP0A/o.jpg", "is_closed": false, "url": "https://www.yelp.com/biz/applebees-grill-bar-greenfield-2?adjust_creative=HdhkN5EEH6lAqE3kwhsHEQ&utm_campaign=yelp_api_v3&utm_medium=api_v3_business_search&utm_source=HdhkN5EEH6lAqE3kwhsHEQ", "review_count": 31, "categories": [{"alias": "tradamerican", "title": "American (Traditional)"}, {"alias": "sportsbars", "title": "Sports Bars"}, {"alias": "burgers", "title": "Burgers"}], "rating": 3.5, "coordinates": {"latitude": 42.585115, "longitude": -72.618677}, "transactions": [], "price": "$$", "location": {"address1": "141 Mohawk Trl", "address2": "", "address3": "", "city": "Greenfield", "zip_code": "01301", "country": "US", "state": "MA", "display_address": ["141 Mohawk Trl", "Greenfield, MA 01301"]}, "phone": "+14137720079", "display_phone": "(413) 772-0079", "distance": 22203.699901515865}, {"id": "Ej9Z5c0VHZE66qMOjHltPA", "alias": "the-dirty-truth-northampton", "name": "The Dirty Truth", "image_url": "https://s3-media2.fl.yelpcdn.com/bphoto/-pyE4JPLPrmNQWhPoR1-ig/o.jpg", "is_closed": false, "url": "https://www.yelp.com/biz/the-dirty-truth-northampton?adjust_creative=HdhkN5EEH6lAqE3kwhsHEQ&utm_campaign=yelp_api_v3&utm_medium=api_v3_business_search&utm_source=HdhkN5EEH6lAqE3kwhsHEQ", "review_count": 200, "categories": [{"alias": "bars", "title": "Bars"}, {"alias": "newamerican", "title": "American (New)"}], "rating": 3.0, "coordinates": {"latitude": 42.32026, "longitude": -72.62915}, "transactions": [], "price": "$$", "location": {"address1": "29 Main St", "address2": null, "address3": "", "city": "Northampton", "zip_code": "01060", "country": "US", "state": "MA", "display_address": ["29 Main St", "Northampton, MA 01060"]}, "phone": "+14135855999", "display_phone": "(413) 585-5999", "distance": 19820.571861181594}, {"id": "PpYOxFZq2tiveGDysCIloQ", "alias": "great-wall-restaurant-florence", "name": "Great Wall Restaurant", "image_url": "https://s3-media1.fl.yelpcdn.com/bphoto/Eigw8QxWmxXQ-7kuMyQRKQ/o.jpg", "is_closed": false, "url": "https://www.yelp.com/biz/great-wall-restaurant-florence?adjust_creative=HdhkN5EEH6lAqE3kwhsHEQ&utm_campaign=yelp_api_v3&utm_medium=api_v3_business_search&utm_source=HdhkN5EEH6lAqE3kwhsHEQ", "review_count": 92, "categories": [{"alias": "chinese", "title": "Chinese"}], "rating": 3.0, "coordinates": {"latitude": 42.3308018, "longitude": -72.6770207}, "transactions": ["delivery"], "price": "$$", "location": {"address1": "178 Pine St", "address2": "", "address3": "", "city": "Florence", "zip_code": "01062", "country": "US", "state": "MA", "display_address": ["178 Pine St", "Florence, MA 01062"]}, "phone": "+14135820399", "display_phone": "(413) 582-0399", "distance": 16288.063327441225}, {"id": "M-DCwXS6_O-rOVJAxr3ofw", "alias": "kobe-hibachi-sushi-and-bar-greenfield-2", "name": "Kobe Hibachi Sushi and Bar", "image_url": "https://s3-media1.fl.yelpcdn.com/bphoto/zBcLhfB-95e9l01Zykb7Cg/o.jpg", "is_closed": false, "url": "https://www.yelp.com/biz/kobe-hibachi-sushi-and-bar-greenfield-2?adjust_creative=HdhkN5EEH6lAqE3kwhsHEQ&utm_campaign=yelp_api_v3&utm_medium=api_v3_business_search&utm_source=HdhkN5EEH6lAqE3kwhsHEQ", "review_count": 54, "categories": [{"alias": "japanese", "title": "Japanese"}, {"alias": "sushi", "title": "Sushi Bars"}, {"alias": "cocktailbars", "title": "Cocktail Bars"}], "rating": 3.5, "coordinates": {"latitude": 42.5863135, "longitude": -72.6271816}, "transactions": ["pickup"], "price": "$$", "location": {"address1": "254 Mohawk Trl", "address2": null, "address3": "", "city": "Greenfield", "zip_code": "01301", "country": "US", "state": "MA", "display_address": ["254 Mohawk Trl", "Greenfield, MA 01301"]}, "phone": "+14137728888", "display_phone": "(413) 772-8888", "distance": 21778.454917232706}, {"id": "s45wQXRdtYhkwkZ7r1UKOQ", "alias": "smithsonian-chowder-house-northampton-northampton-2", "name": "Smithsonian Chowder House Northampton", "image_url": "https://s3-media2.fl.yelpcdn.com/bphoto/adwx_dTkUGQQguXSdd_1ow/o.jpg", "is_closed": false, "url": "https://www.yelp.com/biz/smithsonian-chowder-house-northampton-northampton-2?adjust_creative=HdhkN5EEH6lAqE3kwhsHEQ&utm_campaign=yelp_api_v3&utm_medium=api_v3_business_search&utm_source=HdhkN5EEH6lAqE3kwhsHEQ", "review_count": 50, "categories": [{"alias": "soup", "title": "Soup"}, {"alias": "sandwiches", "title": "Sandwiches"}, {"alias": "cafes", "title": "Cafes"}], "rating": 4.0, "coordinates": {"latitude": 42.3167382, "longitude": -72.6318819}, "transactions": ["delivery"], "price": "$", "location": {"address1": "1 Roundhouse Plz", "address2": "", "address3": "", "city": "Northampton", "zip_code": "01060", "country": "US", "state": "MA", "display_address": ["1 Roundhouse Plz", "Northampton, MA 01060"]}, "phone": "+14137273318", "display_phone": "(413) 727-3318", "distance": 19921.18599127247}, {"id": "O7nQoqko1A7WX6HVFOYS6Q", "alias": "moshi-moshi-northampton", "name": "Moshi Moshi", "image_url": "https://s3-media1.fl.yelpcdn.com/bphoto/0n4bYFd_86LO4MbRsa1k2A/o.jpg", "is_closed": false, "url": "https://www.yelp.com/biz/moshi-moshi-northampton?adjust_creative=HdhkN5EEH6lAqE3kwhsHEQ&utm_campaign=yelp_api_v3&utm_medium=api_v3_business_search&utm_source=HdhkN5EEH6lAqE3kwhsHEQ", "review_count": 167, "categories": [{"alias": "sushi", "title": "Sushi Bars"}, {"alias": "japanese", "title": "Japanese"}, {"alias": "korean", "title": "Korean"}], "rating": 3.5, "coordinates": {"latitude": 42.32018, "longitude": -72.6285}, "transactions": ["delivery"], "price": "$$", "location": {"address1": "4 Main St", "address2": "", "address3": "", "city": "Northampton", "zip_code": "01060", "country": "US", "state": "MA", "display_address": ["4 Main St", "Northampton, MA 01060"]}, "phone": "+14135865865", "display_phone": "(413) 586-5865", "distance": 19861.14522299316}, {"id": "WbQBt4YecdmNPCrcXvK8nw", "alias": "dobra-tea-northampton", "name": "Dobra Tea", "image_url": "https://s3-media4.fl.yelpcdn.com/bphoto/r5YaqpEZIYviOqR0Fb8SCA/o.jpg", "is_closed": false, "url": "https://www.yelp.com/biz/dobra-tea-northampton?adjust_creative=HdhkN5EEH6lAqE3kwhsHEQ&utm_campaign=yelp_api_v3&utm_medium=api_v3_business_search&utm_source=HdhkN5EEH6lAqE3kwhsHEQ", "review_count": 110, "categories": [{"alias": "tea", "title": "Tea Rooms"}, {"alias": "mideastern", "title": "Middle Eastern"}], "rating": 4.5, "coordinates": {"latitude": 42.3180482, "longitude": -72.6314848}, "transactions": ["delivery"], "price": "$", "location": {"address1": "186 Main St", "address2": "", "address3": "", "city": "Northampton", "zip_code": "01060", "country": "US", "state": "MA", "display_address": ["186 Main St", "Northampton, MA 01060"]}, "phone": "+14137273471", "display_phone": "(413) 727-3471", "distance": 19854.463493506926}, {"id": "9CLMwu3DZ9SY8Al7gncxwA", "alias": "hampshire-hospitality-group-northampton", "name": "Hampshire Hospitality Group", "image_url": "", "is_closed": false, "url": "https://www.yelp.com/biz/hampshire-hospitality-group-northampton?adjust_creative=HdhkN5EEH6lAqE3kwhsHEQ&utm_campaign=yelp_api_v3&utm_medium=api_v3_business_search&utm_source=HdhkN5EEH6lAqE3kwhsHEQ", "review_count": 1, "categories": [{"alias": "hotels", "title": "Hotels"}, {"alias": "restaurants", "title": "Restaurants"}], "rating": 2.0, "coordinates": {"latitude": 42.303519, "longitude": -72.6223129}, "transactions": [], "location": {"address1": "1 Atwood Dr", "address2": "", "address3": "", "city": "Northampton", "zip_code": "01060", "country": "US", "state": "MA", "display_address": ["1 Atwood Dr", "Northampton, MA 01060"]}, "phone": "+14135861211", "display_phone": "(413) 586-1211", "distance": 21396.140234523984}, {"id": "94V7YzpmGIwYa4h7w9peCA", "alias": "pizza-factory-florence", "name": "Pizza Factory", "image_url": "https://s3-media2.fl.yelpcdn.com/bphoto/P0Dnb3MpWh8ZC1v0XoZuSQ/o.jpg", "is_closed": false, "url": "https://www.yelp.com/biz/pizza-factory-florence?adjust_creative=HdhkN5EEH6lAqE3kwhsHEQ&utm_campaign=yelp_api_v3&utm_medium=api_v3_business_search&utm_source=HdhkN5EEH6lAqE3kwhsHEQ", "review_count": 24, "categories": [{"alias": "pizza", "title": "Pizza"}, {"alias": "italian", "title": "Italian"}], "rating": 3.5, "coordinates": {"latitude": 42.3356271137677, "longitude": -72.6718680313525}, "transactions": ["delivery"], "price": "$$", "location": {"address1": "143 Main St", "address2": "", "address3": "", "city": "Florence", "zip_code": "01062", "country": "US", "state": "MA", "display_address": ["143 Main St", "Florence, MA 01062"]}, "phone": "+14135847777", "display_phone": "(413) 584-7777", "distance": 16116.510762761973}, {"id": "L_0XOOAjfPhNGdKAfPAuFw", "alias": "river-valley-co-op-northampton", "name": "River Valley Co-op", "image_url": "https://s3-media3.fl.yelpcdn.com/bphoto/byo6COSgU4heIcZfTxMKYw/o.jpg", "is_closed": false, "url": "https://www.yelp.com/biz/river-valley-co-op-northampton?adjust_creative=HdhkN5EEH6lAqE3kwhsHEQ&utm_campaign=yelp_api_v3&utm_medium=api_v3_business_search&utm_source=HdhkN5EEH6lAqE3kwhsHEQ", "review_count": 49, "categories": [{"alias": "grocery", "title": "Grocery"}, {"alias": "delis", "title": "Delis"}], "rating": 4.0, "coordinates": {"latitude": 42.347127, "longitude": -72.643039}, "transactions": [], "price": "$$", "location": {"address1": "330 N King St", "address2": "", "address3": "", "city": "Northampton", "zip_code": "01060", "country": "US", "state": "MA", "display_address": ["330 N King St", "Northampton, MA 01060"]}, "phone": "+14135842665", "display_phone": "(413) 584-2665", "distance": 17007.65534467189}, {"id": "OTXSHDT3kEfVyLSa_jQaLg", "alias": "coolidge-park-cafe-northampton", "name": "Coolidge Park Cafe", "image_url": "https://s3-media4.fl.yelpcdn.com/bphoto/yzoq2qAhcJ1MAyseHf38vA/o.jpg", "is_closed": false, "url": "https://www.yelp.com/biz/coolidge-park-cafe-northampton?adjust_creative=HdhkN5EEH6lAqE3kwhsHEQ&utm_campaign=yelp_api_v3&utm_medium=api_v3_business_search&utm_source=HdhkN5EEH6lAqE3kwhsHEQ", "review_count": 32, "categories": [{"alias": "diners", "title": "Diners"}, {"alias": "cafes", "title": "Cafes"}], "rating": 3.0, "coordinates": {"latitude": 42.32036, "longitude": -72.63133}, "transactions": ["delivery"], "price": "$$", "location": {"address1": "36 King St", "address2": "", "address3": "", "city": "Northampton", "zip_code": "01060", "country": "US", "state": "MA", "display_address": ["36 King St", "Northampton, MA 01060"]}, "phone": "+14135843100", "display_phone": "(413) 584-3100", "distance": 19726.20547081906}, {"id": "GhaYwhg5B1ZDGygGNVazmg", "alias": "a-1-pizza-house-florence", "name": "A-1 Pizza House", "image_url": "https://s3-media3.fl.yelpcdn.com/bphoto/2ktOLTeFExV9zRBbNz4VaQ/o.jpg", "is_closed": false, "url": "https://www.yelp.com/biz/a-1-pizza-house-florence?adjust_creative=HdhkN5EEH6lAqE3kwhsHEQ&utm_campaign=yelp_api_v3&utm_medium=api_v3_business_search&utm_source=HdhkN5EEH6lAqE3kwhsHEQ", "review_count": 10, "categories": [{"alias": "pizza", "title": "Pizza"}, {"alias": "italian", "title": "Italian"}], "rating": 3.5, "coordinates": {"latitude": 42.335307, "longitude": -72.672278}, "transactions": [], "price": "$", "location": {"address1": "92 Maple St", "address2": "", "address3": "", "city": "Florence", "zip_code": "01062", "country": "US", "state": "MA", "display_address": ["92 Maple St", "Florence, MA 01062"]}, "phone": "+14135864196", "display_phone": "(413) 586-4196", "distance": 16119.436700205419}, {"id": "_bXSHicL1fVAG-RhwxJYPQ", "alias": "subway-south-deerfield-3", "name": "Subway", "image_url": "https://s3-media3.fl.yelpcdn.com/bphoto/X8kbX68KBbQAXsBH5t-8rw/o.jpg", "is_closed": false, "url": "https://www.yelp.com/biz/subway-south-deerfield-3?adjust_creative=HdhkN5EEH6lAqE3kwhsHEQ&utm_campaign=yelp_api_v3&utm_medium=api_v3_business_search&utm_source=HdhkN5EEH6lAqE3kwhsHEQ", "review_count": 2, "categories": [{"alias": "sandwiches", "title": "Sandwiches"}], "rating": 3.0, "coordinates": {"latitude": 42.4708609610147, "longitude": -72.6158315565979}, "transactions": [], "price": "$", "location": {"address1": "1 Greenfield Rd", "address2": null, "address3": null, "city": "South Deerfield", "zip_code": "01373", "country": "US", "state": "MA", "display_address": ["1 Greenfield Rd", "South Deerfield, MA 01373"]}, "phone": "+14136659830", "display_phone": "(413) 665-9830", "distance": 15979.059741743853}, {"id": "1f4CMH9jLV2HYIpVosqoRg", "alias": "nourish-wellness-cafe-and-juice-bar-northampton", "name": "Nourish Wellness Cafe And Juice Bar", "image_url": "https://s3-media2.fl.yelpcdn.com/bphoto/dT0kQX-SGaeFOn3YO6b4HQ/o.jpg", "is_closed": false, "url": "https://www.yelp.com/biz/nourish-wellness-cafe-and-juice-bar-northampton?adjust_creative=HdhkN5EEH6lAqE3kwhsHEQ&utm_campaign=yelp_api_v3&utm_medium=api_v3_business_search&utm_source=HdhkN5EEH6lAqE3kwhsHEQ", "review_count": 70, "categories": [{"alias": "juicebars", "title": "Juice Bars & Smoothies"}, {"alias": "vegan", "title": "Vegan"}, {"alias": "gluten_free", "title": "Gluten-Free"}], "rating": 4.0, "coordinates": {"latitude": 42.32078, "longitude": -72.62851}, "transactions": ["delivery"], "price": "$$", "location": {"address1": "10 Bridge St", "address2": "", "address3": null, "city": "Northampton", "zip_code": "01060", "country": "US", "state": "MA", "display_address": ["10 Bridge St", "Northampton, MA 01060"]}, "phone": "+14137273260", "display_phone": "(413) 727-3260", "distance": 19815.026034807466}, {"id": "XKbjRrkfUgYMbg9oi-LWeA", "alias": "thai-thai-northampton", "name": "Thai Thai", "image_url": "", "is_closed": false, "url": "https://www.yelp.com/biz/thai-thai-northampton?adjust_creative=HdhkN5EEH6lAqE3kwhsHEQ&utm_campaign=yelp_api_v3&utm_medium=api_v3_business_search&utm_source=HdhkN5EEH6lAqE3kwhsHEQ", "review_count": 3, "categories": [{"alias": "thai", "title": "Thai"}], "rating": 2.5, "coordinates": {"latitude": 42.318757, "longitude": -72.628304}, "transactions": [], "location": {"address1": "84 Pleasant St", "address2": "", "address3": null, "city": "Northampton", "zip_code": "01060", "country": "US", "state": "MA", "display_address": ["84 Pleasant St", "Northampton, MA 01060"]}, "phone": "+14137273245", "display_phone": "(413) 727-3245", "distance": 19984.969684432148}, {"id": "pUPqX_XUmDoTEa8XO5sfpw", "alias": "florence-pizza-and-family-restaurant-florence", "name": "Florence Pizza & Family Restaurant", "image_url": "https://s3-media3.fl.yelpcdn.com/bphoto/7Qkhxtqtxx9Ij2hhgwoY3g/o.jpg", "is_closed": false, "url": "https://www.yelp.com/biz/florence-pizza-and-family-restaurant-florence?adjust_creative=HdhkN5EEH6lAqE3kwhsHEQ&utm_campaign=yelp_api_v3&utm_medium=api_v3_business_search&utm_source=HdhkN5EEH6lAqE3kwhsHEQ", "review_count": 23, "categories": [{"alias": "pizza", "title": "Pizza"}], "rating": 3.0, "coordinates": {"latitude": 42.334924, "longitude": -72.670016}, "transactions": [], "price": "$$", "location": {"address1": "60 Main St", "address2": "", "address3": "", "city": "Florence", "zip_code": "01062", "country": "US", "state": "MA", "display_address": ["60 Main St", "Florence, MA 01062"]}, "phone": "+14135845759", "display_phone": "(413) 584-5759", "distance": 16277.846239294859}, {"id": "Xw5Gz7kiqxN34K8vjslNAQ", "alias": "new-fortune-chinese-restaurant-greenfield", "name": "New Fortune Chinese Restaurant", "image_url": "https://s3-media2.fl.yelpcdn.com/bphoto/ftAnKqMowdiOo9CXaIgZAg/o.jpg", "is_closed": false, "url": "https://www.yelp.com/biz/new-fortune-chinese-restaurant-greenfield?adjust_creative=HdhkN5EEH6lAqE3kwhsHEQ&utm_campaign=yelp_api_v3&utm_medium=api_v3_business_search&utm_source=HdhkN5EEH6lAqE3kwhsHEQ", "review_count": 37, "categories": [{"alias": "chinese", "title": "Chinese"}, {"alias": "sushi", "title": "Sushi Bars"}, {"alias": "japanese", "title": "Japanese"}], "rating": 3.5, "coordinates": {"latitude": 42.587352, "longitude": -72.626241}, "transactions": ["delivery"], "price": "$$", "location": {"address1": "249 Mohawk Trl", "address2": "", "address3": "", "city": "Greenfield", "zip_code": "01301", "country": "US", "state": "MA", "display_address": ["249 Mohawk Trl", "Greenfield, MA 01301"]}, "phone": "+14137720838", "display_phone": "(413) 772-0838", "distance": 21961.97652385906}, {"id": "RJsTZN7pEG9hSgvJsgtShQ", "alias": "mimmos-northampton", "name": "Mimmo's", "image_url": "https://s3-media3.fl.yelpcdn.com/bphoto/Y1DShq2wJvy8ZoLF9PA6NA/o.jpg", "is_closed": false, "url": "https://www.yelp.com/biz/mimmos-northampton?adjust_creative=HdhkN5EEH6lAqE3kwhsHEQ&utm_campaign=yelp_api_v3&utm_medium=api_v3_business_search&utm_source=HdhkN5EEH6lAqE3kwhsHEQ", "review_count": 96, "categories": [{"alias": "pizza", "title": "Pizza"}], "rating": 3.5, "coordinates": {"latitude": 42.318622, "longitude": -72.628813}, "transactions": ["delivery"], "price": "$", "location": {"address1": "71 Pleasant St", "address2": null, "address3": "", "city": "Northampton", "zip_code": "01060", "country": "US", "state": "MA", "display_address": ["71 Pleasant St", "Northampton, MA 01060"]}, "phone": "+14135841711", "display_phone": "(413) 584-1711", "distance": 19959.612349452138}, {"id": "7g4crrgI44YuvB5zzdAxfg", "alias": "toasted-owl-tavern-northampton", "name": "Toasted Owl Tavern", "image_url": "https://s3-media2.fl.yelpcdn.com/bphoto/iGqQ-y0Yqf6nxpTqIvybyA/o.jpg", "is_closed": false, "url": "https://www.yelp.com/biz/toasted-owl-tavern-northampton?adjust_creative=HdhkN5EEH6lAqE3kwhsHEQ&utm_campaign=yelp_api_v3&utm_medium=api_v3_business_search&utm_source=HdhkN5EEH6lAqE3kwhsHEQ", "review_count": 72, "categories": [{"alias": "sportsbars", "title": "Sports Bars"}, {"alias": "burgers", "title": "Burgers"}, {"alias": "sandwiches", "title": "Sandwiches"}], "rating": 3.5, "coordinates": {"latitude": 42.32026, "longitude": -72.62914}, "transactions": ["delivery", "pickup"], "price": "$$", "location": {"address1": "21 Main St", "address2": "", "address3": "", "city": "Northampton", "zip_code": "01060", "country": "US", "state": "MA", "display_address": ["21 Main St", "Northampton, MA 01060"]}, "phone": "+14135855088", "display_phone": "(413) 585-5088", "distance": 19827.22578110749}, {"id": "6Ew_pVMJhG2IMBk-l8bBGA", "alias": "starrs-pizza-florence", "name": "Starr's Pizza", "image_url": "https://s3-media3.fl.yelpcdn.com/bphoto/J5qiW4jkcB8LSB0fvwNEPg/o.jpg", "is_closed": false, "url": "https://www.yelp.com/biz/starrs-pizza-florence?adjust_creative=HdhkN5EEH6lAqE3kwhsHEQ&utm_campaign=yelp_api_v3&utm_medium=api_v3_business_search&utm_source=HdhkN5EEH6lAqE3kwhsHEQ", "review_count": 9, "categories": [{"alias": "pizza", "title": "Pizza"}], "rating": 4.0, "coordinates": {"latitude": 42.3350912332535, "longitude": -72.669425457716}, "transactions": [], "price": "$", "location": {"address1": "59 Main St", "address2": null, "address3": "", "city": "Florence", "zip_code": "01062", "country": "US", "state": "MA", "display_address": ["59 Main St", "Florence, MA 01062"]}, "phone": "+14135849946", "display_phone": "(413) 584-9946", "distance": 16290.115858729565}, {"id": "biPLLM7fpLkTV-sdr1_G0w", "alias": "spoleto-restaurant-northampton", "name": "Spoleto Restaurant", "image_url": "https://s3-media3.fl.yelpcdn.com/bphoto/DBRlrhAiRwB9tQO0bsOsXw/o.jpg", "is_closed": false, "url": "https://www.yelp.com/biz/spoleto-restaurant-northampton?adjust_creative=HdhkN5EEH6lAqE3kwhsHEQ&utm_campaign=yelp_api_v3&utm_medium=api_v3_business_search&utm_source=HdhkN5EEH6lAqE3kwhsHEQ", "review_count": 153, "categories": [{"alias": "italian", "title": "Italian"}, {"alias": "bars", "title": "Bars"}], "rating": 3.0, "coordinates": {"latitude": 42.3205604626326, "longitude": -72.6281838777878}, "transactions": ["delivery"], "price": "$$", "location": {"address1": "1 Bridge St", "address2": "", "address3": "", "city": "Northampton", "zip_code": "01060", "country": "US", "state": "MA", "display_address": ["1 Bridge St", "Northampton, MA 01060"]}, "phone": "+14135866313", "display_phone": "(413) 586-6313", "distance": 19851.015629901867}, {"id": "7g9FtDatTaaGP8lddul9KQ", "alias": "india-palace-restaurant-northampton", "name": "India Palace Restaurant", "image_url": "https://s3-media2.fl.yelpcdn.com/bphoto/hrDS1mEqxUYHvn674zg7Wg/o.jpg", "is_closed": false, "url": "https://www.yelp.com/biz/india-palace-restaurant-northampton?adjust_creative=HdhkN5EEH6lAqE3kwhsHEQ&utm_campaign=yelp_api_v3&utm_medium=api_v3_business_search&utm_source=HdhkN5EEH6lAqE3kwhsHEQ", "review_count": 79, "categories": [{"alias": "indpak", "title": "Indian"}], "rating": 4.0, "coordinates": {"latitude": 42.3198182, "longitude": -72.6287962}, "transactions": ["delivery"], "price": "$$", "location": {"address1": "28 Main St", "address2": "", "address3": "", "city": "Northampton", "zip_code": "01060", "country": "US", "state": "MA", "display_address": ["28 Main St", "Northampton, MA 01060"]}, "phone": "+14135844892", "display_phone": "(413) 584-4892", "distance": 19869.968839547015}, {"id": "6QCYOMTbgwCayBYfd72t3Q", "alias": "pinocchios-pizzeria-northampton", "name": "Pinocchio's Pizzeria", "image_url": "https://s3-media4.fl.yelpcdn.com/bphoto/_A0Bz6r93VvOOA7pRNgMaA/o.jpg", "is_closed": false, "url": "https://www.yelp.com/biz/pinocchios-pizzeria-northampton?adjust_creative=HdhkN5EEH6lAqE3kwhsHEQ&utm_campaign=yelp_api_v3&utm_medium=api_v3_business_search&utm_source=HdhkN5EEH6lAqE3kwhsHEQ", "review_count": 48, "categories": [{"alias": "pizza", "title": "Pizza"}], "rating": 4.0, "coordinates": {"latitude": 42.31872, "longitude": -72.63035}, "transactions": ["delivery"], "price": "$", "location": {"address1": "122 Main St", "address2": "", "address3": "", "city": "Northampton", "zip_code": "01060", "country": "US", "state": "MA", "display_address": ["122 Main St", "Northampton, MA 01060"]}, "phone": "+14135868275", "display_phone": "(413) 586-8275", "distance": 19856.936678810052}, {"id": "T5K5NDHfw6sBhvDSv2fYrg", "alias": "friendlys-florence", "name": "Friendly's", "image_url": "https://s3-media4.fl.yelpcdn.com/bphoto/0FJhZw1t158HfkLGLYXrFw/o.jpg", "is_closed": false, "url": "https://www.yelp.com/biz/friendlys-florence?adjust_creative=HdhkN5EEH6lAqE3kwhsHEQ&utm_campaign=yelp_api_v3&utm_medium=api_v3_business_search&utm_source=HdhkN5EEH6lAqE3kwhsHEQ", "review_count": 10, "categories": [{"alias": "icecream", "title": "Ice Cream & Frozen Yogurt"}, {"alias": "burgers", "title": "Burgers"}, {"alias": "tradamerican", "title": "American (Traditional)"}], "rating": 3.5, "coordinates": {"latitude": 42.3349100747765, "longitude": -72.6694301515818}, "transactions": [], "price": "$", "location": {"address1": "54 Main St", "address2": null, "address3": null, "city": "Florence", "zip_code": "01062", "country": "US", "state": "MA", "display_address": ["54 Main St", "Florence, MA 01062"]}, "phone": "+14135841772", "display_phone": "(413) 584-1772", "distance": 16312.113018409902}, {"id": "71pmMLyYDBspzR8Y1dRzeg", "alias": "shelburne-falls-coffee-roasters-northampton-3", "name": "Shelburne Falls Coffee Roasters", "image_url": "https://s3-media4.fl.yelpcdn.com/bphoto/rftOog1b65advlEQ3uipeQ/o.jpg", "is_closed": false, "url": "https://www.yelp.com/biz/shelburne-falls-coffee-roasters-northampton-3?adjust_creative=HdhkN5EEH6lAqE3kwhsHEQ&utm_campaign=yelp_api_v3&utm_medium=api_v3_business_search&utm_source=HdhkN5EEH6lAqE3kwhsHEQ", "review_count": 14, "categories": [{"alias": "breakfast_brunch", "title": "Breakfast & Brunch"}, {"alias": "coffeeroasteries", "title": "Coffee Roasteries"}], "rating": 4.5, "coordinates": {"latitude": 42.31797, "longitude": -72.63357}, "transactions": ["delivery"], "price": "$", "location": {"address1": "273 Main St", "address2": "", "address3": null, "city": "Northampton", "zip_code": "01060", "country": "US", "state": "MA", "display_address": ["273 Main St", "Northampton, MA 01060"]}, "phone": "", "display_phone": "", "distance": 19730.05162285338}, {"id": "F2Fsqm6PnjfV2QYE_PxCSA", "alias": "familiars-coffee-and-tea-northampton", "name": "Familiars Coffee & Tea", "image_url": "https://s3-media2.fl.yelpcdn.com/bphoto/s-6nZYOY213ihTMf-rU3pQ/o.jpg", "is_closed": false, "url": "https://www.yelp.com/biz/familiars-coffee-and-tea-northampton?adjust_creative=HdhkN5EEH6lAqE3kwhsHEQ&utm_campaign=yelp_api_v3&utm_medium=api_v3_business_search&utm_source=HdhkN5EEH6lAqE3kwhsHEQ", "review_count": 41, "categories": [{"alias": "coffee", "title": "Coffee & Tea"}, {"alias": "sandwiches", "title": "Sandwiches"}], "rating": 5.0, "coordinates": {"latitude": 42.320036, "longitude": -72.628294}, "transactions": [], "price": "$", "location": {"address1": "6 Strong Ave", "address2": null, "address3": null, "city": "Northampton", "zip_code": "01060", "country": "US", "state": "MA", "display_address": ["6 Strong Ave", "Northampton, MA 01060"]}, "phone": "+14137273578", "display_phone": "(413) 727-3578", "distance": 19883.8430333371}, {"id": "t0aPZwK_XWNLxm-3n3g53Q", "alias": "la-veracruzana-mexican-restaurant-northampton", "name": "La Veracruzana Mexican Restaurant", "image_url": "https://s3-media1.fl.yelpcdn.com/bphoto/icTVqXlEqLkM1xC7KjkO4A/o.jpg", "is_closed": false, "url": "https://www.yelp.com/biz/la-veracruzana-mexican-restaurant-northampton?adjust_creative=HdhkN5EEH6lAqE3kwhsHEQ&utm_campaign=yelp_api_v3&utm_medium=api_v3_business_search&utm_source=HdhkN5EEH6lAqE3kwhsHEQ", "review_count": 164, "categories": [{"alias": "mexican", "title": "Mexican"}], "rating": 3.5, "coordinates": {"latitude": 42.320145, "longitude": -72.629074}, "transactions": ["delivery"], "price": "$$", "location": {"address1": "31 Main St", "address2": "", "address3": "", "city": "Northampton", "zip_code": "01060", "country": "US", "state": "MA", "display_address": ["31 Main St", "Northampton, MA 01060"]}, "phone": "+14135867181", "display_phone": "(413) 586-7181", "distance": 19828.519223275074}, {"id": "5pEpiQRinAOsVieV7vqXHA", "alias": "moes-southwest-grill-northhampton", "name": "Moe's Southwest Grill", "image_url": "https://s3-media2.fl.yelpcdn.com/bphoto/AO9aZEL7DxbBbH5MIFpxXQ/o.jpg", "is_closed": false, "url": "https://www.yelp.com/biz/moes-southwest-grill-northhampton?adjust_creative=HdhkN5EEH6lAqE3kwhsHEQ&utm_campaign=yelp_api_v3&utm_medium=api_v3_business_search&utm_source=HdhkN5EEH6lAqE3kwhsHEQ", "review_count": 19, "categories": [{"alias": "mexican", "title": "Mexican"}, {"alias": "tex-mex", "title": "Tex-Mex"}], "rating": 2.5, "coordinates": {"latitude": 42.3290630176772, "longitude": -72.6352741055095}, "transactions": ["delivery", "pickup"], "price": "$", "location": {"address1": "228 King St", "address2": "", "address3": "", "city": "Northhampton", "zip_code": "01060", "country": "US", "state": "MA", "display_address": ["228 King St", "Northhampton, MA 01060"]}, "phone": "+14133876292", "display_phone": "(413) 387-6292", "distance": 18784.710988552666}, {"id": "9gUZ2bgnsPRtihya9yvzVg", "alias": "taco-bell-greenfield", "name": "Taco Bell", "image_url": "https://s3-media1.fl.yelpcdn.com/bphoto/ogHV-spWv4efdk7MthVOLw/o.jpg", "is_closed": false, "url": "https://www.yelp.com/biz/taco-bell-greenfield?adjust_creative=HdhkN5EEH6lAqE3kwhsHEQ&utm_campaign=yelp_api_v3&utm_medium=api_v3_business_search&utm_source=HdhkN5EEH6lAqE3kwhsHEQ", "review_count": 14, "categories": [{"alias": "hotdogs", "title": "Fast Food"}, {"alias": "tacos", "title": "Tacos"}], "rating": 1.0, "coordinates": {"latitude": 42.586462, "longitude": -72.627696}, "transactions": [], "price": "$", "location": {"address1": "242 Mohawk Trail", "address2": "", "address3": "", "city": "Greenfield", "zip_code": "01301", "country": "US", "state": "MA", "display_address": ["242 Mohawk Trail", "Greenfield, MA 01301"]}, "phone": "+14137747869", "display_phone": "(413) 774-7869", "distance": 21808.62019011092}, {"id": "6gvgwhOETYdC0RL0hjgNlw", "alias": "taipei-and-tokyo-northampton", "name": "Taipei & Tokyo", "image_url": "https://s3-media2.fl.yelpcdn.com/bphoto/enWpmhPjREz5QOI4UTzCsQ/o.jpg", "is_closed": false, "url": "https://www.yelp.com/biz/taipei-and-tokyo-northampton?adjust_creative=HdhkN5EEH6lAqE3kwhsHEQ&utm_campaign=yelp_api_v3&utm_medium=api_v3_business_search&utm_source=HdhkN5EEH6lAqE3kwhsHEQ", "review_count": 66, "categories": [{"alias": "chinese", "title": "Chinese"}, {"alias": "japanese", "title": "Japanese"}, {"alias": "taiwanese", "title": "Taiwanese"}], "rating": 3.0, "coordinates": {"latitude": 42.31734, "longitude": -72.6315599}, "transactions": ["delivery"], "price": "$$", "location": {"address1": "16 Crafts Ave", "address2": "", "address3": "", "city": "Northampton", "zip_code": "01060", "country": "US", "state": "MA", "display_address": ["16 Crafts Ave", "Northampton, MA 01060"]}, "phone": "+14135821888", "display_phone": "(413) 582-1888", "distance": 19895.912566535775}, {"id": "-cTZN8UAmWz98p492Y_OMw", "alias": "friendlys-greenfield-2", "name": "Friendly's", "image_url": "https://s3-media3.fl.yelpcdn.com/bphoto/R8N4TORIBSgbhC1_DRsLZg/o.jpg", "is_closed": false, "url": "https://www.yelp.com/biz/friendlys-greenfield-2?adjust_creative=HdhkN5EEH6lAqE3kwhsHEQ&utm_campaign=yelp_api_v3&utm_medium=api_v3_business_search&utm_source=HdhkN5EEH6lAqE3kwhsHEQ", "review_count": 54, "categories": [{"alias": "icecream", "title": "Ice Cream & Frozen Yogurt"}, {"alias": "tradamerican", "title": "American (Traditional)"}, {"alias": "burgers", "title": "Burgers"}], "rating": 2.0, "coordinates": {"latitude": 42.5852699, "longitude": -72.6235962}, "transactions": [], "price": "$$", "location": {"address1": "200 Mohawk Trl", "address2": null, "address3": null, "city": "Greenfield", "zip_code": "01301", "country": "US", "state": "MA", "display_address": ["200 Mohawk Trl", "Greenfield, MA 01301"]}, "phone": "+14137745435", "display_phone": "(413) 774-5435", "distance": 21946.537098902238}, {"id": "hJyXhgV7NUTTqgF7OFEmhQ", "alias": "sylvesters-northampton", "name": "Sylvester's", "image_url": "https://s3-media2.fl.yelpcdn.com/bphoto/5GTWSkzOsOWHJZ01O_AkfQ/o.jpg", "is_closed": false, "url": "https://www.yelp.com/biz/sylvesters-northampton?adjust_creative=HdhkN5EEH6lAqE3kwhsHEQ&utm_campaign=yelp_api_v3&utm_medium=api_v3_business_search&utm_source=HdhkN5EEH6lAqE3kwhsHEQ", "review_count": 258, "categories": [{"alias": "breakfast_brunch", "title": "Breakfast & Brunch"}, {"alias": "gluten_free", "title": "Gluten-Free"}, {"alias": "sandwiches", "title": "Sandwiches"}], "rating": 3.5, "coordinates": {"latitude": 42.3183232723761, "longitude": -72.628209555044}, "transactions": ["delivery"], "price": "$$", "location": {"address1": "111 Pleasant St", "address2": "", "address3": "", "city": "Northampton", "zip_code": "01060", "country": "US", "state": "MA", "display_address": ["111 Pleasant St", "Northampton, MA 01060"]}, "phone": "+14135861418", "display_phone": "(413) 586-1418", "distance": 20018.536587231276}, {"id": "SQGIulXPxQSAGqUhpwcqbA", "alias": "paradise-city-grill-northampton", "name": "Paradise City Grill", "image_url": "", "is_closed": false, "url": "https://www.yelp.com/biz/paradise-city-grill-northampton?adjust_creative=HdhkN5EEH6lAqE3kwhsHEQ&utm_campaign=yelp_api_v3&utm_medium=api_v3_business_search&utm_source=HdhkN5EEH6lAqE3kwhsHEQ", "review_count": 2, "categories": [{"alias": "restaurants", "title": "Restaurants"}], "rating": 1.5, "coordinates": {"latitude": 42.3202323913574, "longitude": -72.6276931762695}, "transactions": [], "location": {"address1": "1 Bridge St", "address2": "", "address3": "", "city": "Northampton", "zip_code": "01060", "country": "US", "state": "MA", "display_address": ["1 Bridge St", "Northampton, MA 01060"]}, "phone": "+14135862664", "display_phone": "(413) 586-2664", "distance": 19862.704875785214}, {"id": "HImGeOW9dlCY9UnpR5BQkQ", "alias": "bistro-bus-northampton", "name": "Bistro Bus", "image_url": "", "is_closed": false, "url": "https://www.yelp.com/biz/bistro-bus-northampton?adjust_creative=HdhkN5EEH6lAqE3kwhsHEQ&utm_campaign=yelp_api_v3&utm_medium=api_v3_business_search&utm_source=HdhkN5EEH6lAqE3kwhsHEQ", "review_count": 1, "categories": [{"alias": "foodtrucks", "title": "Food Trucks"}, {"alias": "bbq", "title": "Barbeque"}, {"alias": "tacos", "title": "Tacos"}], "rating": 4.0, "coordinates": {"latitude": 42.3194923400879, "longitude": -72.631462097168}, "transactions": [], "location": {"address1": "", "address2": "", "address3": null, "city": "Northampton", "zip_code": "01060", "country": "US", "state": "MA", "display_address": ["Northampton, MA 01060"]}, "phone": "+14133744090", "display_phone": "(413) 374-4090", "distance": 18728.978307161346}, {"id": "Y6Um8fVaq213Zy-DZNzLcQ", "alias": "tandem-bagel-company-northampton", "name": "Tandem Bagel Company", "image_url": "https://s3-media3.fl.yelpcdn.com/bphoto/14tou4lGlzkq2W40IY6DPg/o.jpg", "is_closed": false, "url": "https://www.yelp.com/biz/tandem-bagel-company-northampton?adjust_creative=HdhkN5EEH6lAqE3kwhsHEQ&utm_campaign=yelp_api_v3&utm_medium=api_v3_business_search&utm_source=HdhkN5EEH6lAqE3kwhsHEQ", "review_count": 23, "categories": [{"alias": "bagels", "title": "Bagels"}, {"alias": "breakfast_brunch", "title": "Breakfast & Brunch"}], "rating": 4.0, "coordinates": {"latitude": 42.3322686805492, "longitude": -72.6358047897389}, "transactions": ["delivery"], "price": "$$", "location": {"address1": "306 King St", "address2": "", "address3": "", "city": "Northampton", "zip_code": "01060", "country": "US", "state": "MA", "display_address": ["306 King St", "Northampton, MA 01060"]}, "phone": "+14137273123", "display_phone": "(413) 727-3123", "distance": 18516.856775347875}, {"id": "O8qWdzTnVg5xa921x2Folw", "alias": "d-angelo-northampton", "name": "D'Angelo", "image_url": "https://s3-media3.fl.yelpcdn.com/bphoto/_d0q8JhawUPfMZTyT9tNSQ/o.jpg", "is_closed": false, "url": "https://www.yelp.com/biz/d-angelo-northampton?adjust_creative=HdhkN5EEH6lAqE3kwhsHEQ&utm_campaign=yelp_api_v3&utm_medium=api_v3_business_search&utm_source=HdhkN5EEH6lAqE3kwhsHEQ", "review_count": 14, "categories": [{"alias": "sandwiches", "title": "Sandwiches"}], "rating": 3.5, "coordinates": {"latitude": 42.33734, "longitude": -72.63766}, "transactions": ["delivery"], "price": "$", "location": {"address1": "388 King St", "address2": "", "address3": "", "city": "Northampton", "zip_code": "01060", "country": "US", "state": "MA", "display_address": ["388 King St", "Northampton, MA 01060"]}, "phone": "+14135849776", "display_phone": "(413) 584-9776", "distance": 18037.83817204005}, {"id": "D63WNohxBnrlSi95gutmqg", "alias": "shelburne-falls-coffee-roasters-northampton-2", "name": "Shelburne Falls Coffee Roasters", "image_url": "https://s3-media4.fl.yelpcdn.com/bphoto/Y5OMXYZiaFYYTmOfK7SMBA/o.jpg", "is_closed": false, "url": "https://www.yelp.com/biz/shelburne-falls-coffee-roasters-northampton-2?adjust_creative=HdhkN5EEH6lAqE3kwhsHEQ&utm_campaign=yelp_api_v3&utm_medium=api_v3_business_search&utm_source=HdhkN5EEH6lAqE3kwhsHEQ", "review_count": 34, "categories": [{"alias": "coffeeroasteries", "title": "Coffee Roasteries"}, {"alias": "breakfast_brunch", "title": "Breakfast & Brunch"}], "rating": 3.5, "coordinates": {"latitude": 42.3233, "longitude": -72.6326799}, "transactions": ["delivery"], "price": "$$", "location": {"address1": "124 King St", "address2": "", "address3": "", "city": "Northampton", "zip_code": "01060", "country": "US", "state": "MA", "display_address": ["124 King St", "Northampton, MA 01060"]}, "phone": "+14135826799", "display_phone": "(413) 582-6799", "distance": 19382.499532910733}, {"id": "HQstHLLH3MCV-VIvkEJ8Zw", "alias": "athens-pizza-greenfield", "name": "Athens Pizza", "image_url": "https://s3-media1.fl.yelpcdn.com/bphoto/Ui-xwzsHZrIndLoKz8KLHA/o.jpg", "is_closed": false, "url": "https://www.yelp.com/biz/athens-pizza-greenfield?adjust_creative=HdhkN5EEH6lAqE3kwhsHEQ&utm_campaign=yelp_api_v3&utm_medium=api_v3_business_search&utm_source=HdhkN5EEH6lAqE3kwhsHEQ", "review_count": 18, "categories": [{"alias": "pizza", "title": "Pizza"}], "rating": 2.5, "coordinates": {"latitude": 42.5869255065918, "longitude": -72.6082229614258}, "transactions": ["delivery"], "price": "$$", "location": {"address1": "25 Main St", "address2": "", "address3": "", "city": "Greenfield", "zip_code": "01301", "country": "US", "state": "MA", "display_address": ["25 Main St", "Greenfield, MA 01301"]}, "phone": "+14137743722", "display_phone": "(413) 774-3722", "distance": 22950.96038836541}, {"id": "azE-p_Ps4Jnkn1A7WLgZgQ", "alias": "burger-king-northampton-4", "name": "Burger King", "image_url": "https://s3-media4.fl.yelpcdn.com/bphoto/quns-LYeDXeSwPKxluOceQ/o.jpg", "is_closed": false, "url": "https://www.yelp.com/biz/burger-king-northampton-4?adjust_creative=HdhkN5EEH6lAqE3kwhsHEQ&utm_campaign=yelp_api_v3&utm_medium=api_v3_business_search&utm_source=HdhkN5EEH6lAqE3kwhsHEQ", "review_count": 12, "categories": [{"alias": "hotdogs", "title": "Fast Food"}, {"alias": "burgers", "title": "Burgers"}], "rating": 3.0, "coordinates": {"latitude": 42.3352620260997, "longitude": -72.6369651608791}, "transactions": ["delivery"], "price": "$", "location": {"address1": "344 King Street", "address2": "", "address3": "", "city": "Northampton", "zip_code": "01060", "country": "US", "state": "MA", "display_address": ["344 King Street", "Northampton, MA 01060"]}, "phone": "+14135846376", "display_phone": "(413) 584-6376", "distance": 18227.857308891507}, {"id": "WG60zoex6_tbyX4Tp-LIog", "alias": "bueno-y-sano-northampton", "name": "Bueno Y Sano", "image_url": "https://s3-media3.fl.yelpcdn.com/bphoto/Sl4xtPuE-t55cbyYbbJ7_Q/o.jpg", "is_closed": false, "url": "https://www.yelp.com/biz/bueno-y-sano-northampton?adjust_creative=HdhkN5EEH6lAqE3kwhsHEQ&utm_campaign=yelp_api_v3&utm_medium=api_v3_business_search&utm_source=HdhkN5EEH6lAqE3kwhsHEQ", "review_count": 145, "categories": [{"alias": "mexican", "title": "Mexican"}], "rating": 4.0, "coordinates": {"latitude": 42.318645, "longitude": -72.630712}, "transactions": ["delivery", "pickup"], "price": "$", "location": {"address1": "134 Main St", "address2": "", "address3": "", "city": "Northampton", "zip_code": "01060", "country": "US", "state": "MA", "display_address": ["134 Main St", "Northampton, MA 01060"]}, "phone": "+14135867311", "display_phone": "(413) 586-7311", "distance": 19844.149463656366}, {"id": "GoXAJHnlxZOEsDz6B1bq5Q", "alias": "mcdonalds-northampton", "name": "McDonald's", "image_url": "https://s3-media1.fl.yelpcdn.com/bphoto/a37-H75XxlZ67B-ion-fxg/o.jpg", "is_closed": false, "url": "https://www.yelp.com/biz/mcdonalds-northampton?adjust_creative=HdhkN5EEH6lAqE3kwhsHEQ&utm_campaign=yelp_api_v3&utm_medium=api_v3_business_search&utm_source=HdhkN5EEH6lAqE3kwhsHEQ", "review_count": 14, "categories": [{"alias": "burgers", "title": "Burgers"}, {"alias": "hotdogs", "title": "Fast Food"}, {"alias": "coffee", "title": "Coffee & Tea"}], "rating": 2.0, "coordinates": {"latitude": 42.328905, "longitude": -72.633183}, "transactions": [], "price": "$", "location": {"address1": "221 King St", "address2": "", "address3": "", "city": "Northampton", "zip_code": "01060", "country": "US", "state": "MA", "display_address": ["221 King St", "Northampton, MA 01060"]}, "phone": "+14135845073", "display_phone": "(413) 584-5073", "distance": 18925.150131354818}, {"id": "E-GBzX-_puSiAIQBHf5XTA", "alias": "holyoke-hummus-company-holyoke", "name": "Holyoke Hummus Company", "image_url": "https://s3-media2.fl.yelpcdn.com/bphoto/K-RvwwHMrU-8EFC9r_j1bw/o.jpg", "is_closed": false, "url": "https://www.yelp.com/biz/holyoke-hummus-company-holyoke?adjust_creative=HdhkN5EEH6lAqE3kwhsHEQ&utm_campaign=yelp_api_v3&utm_medium=api_v3_business_search&utm_source=HdhkN5EEH6lAqE3kwhsHEQ", "review_count": 65, "categories": [{"alias": "mideastern", "title": "Middle Eastern"}, {"alias": "foodtrucks", "title": "Food Trucks"}, {"alias": "breakfast_brunch", "title": "Breakfast & Brunch"}], "rating": 4.5, "coordinates": {"latitude": 42.206426, "longitude": -72.6086119}, "transactions": ["delivery", "pickup"], "price": "$", "location": {"address1": "285 High St", "address2": null, "address3": "", "city": "Holyoke", "zip_code": "01040", "country": "US", "state": "MA", "display_address": ["285 High St", "Holyoke, MA 01040"]}, "phone": "+14132251755", "display_phone": "(413) 225-1755", "distance": 30750.606536012616}, {"id": "xjDIZBpzJlXebakIz3NNxw", "alias": "china-wok-express-northampton", "name": "China Wok Express", "image_url": "https://s3-media2.fl.yelpcdn.com/bphoto/k0YG73Zm4fo883k6MGAqpg/o.jpg", "is_closed": false, "url": "https://www.yelp.com/biz/china-wok-express-northampton?adjust_creative=HdhkN5EEH6lAqE3kwhsHEQ&utm_campaign=yelp_api_v3&utm_medium=api_v3_business_search&utm_source=HdhkN5EEH6lAqE3kwhsHEQ", "review_count": 9, "categories": [{"alias": "chinese", "title": "Chinese"}], "rating": 2.0, "coordinates": {"latitude": 42.32511, "longitude": -72.63365}, "transactions": ["delivery"], "price": "$", "location": {"address1": "150 King St", "address2": "", "address3": "", "city": "Northampton", "zip_code": "01060", "country": "US", "state": "MA", "display_address": ["150 King St", "Northampton, MA 01060"]}, "phone": "+14135868220", "display_phone": "(413) 586-8220", "distance": 19192.002237263026}, {"id": "mlDZf-GdNIaW5ToE3AR9CA", "alias": "subway-greenfield-20", "name": "Subway", "image_url": "https://s3-media2.fl.yelpcdn.com/bphoto/J25dG23zDO2UgNa3-tc9fw/o.jpg", "is_closed": false, "url": "https://www.yelp.com/biz/subway-greenfield-20?adjust_creative=HdhkN5EEH6lAqE3kwhsHEQ&utm_campaign=yelp_api_v3&utm_medium=api_v3_business_search&utm_source=HdhkN5EEH6lAqE3kwhsHEQ", "review_count": 3, "categories": [{"alias": "sandwiches", "title": "Sandwiches"}], "rating": 2.0, "coordinates": {"latitude": 42.5873648, "longitude": -72.626196}, "transactions": [], "price": "$", "location": {"address1": "251 Mohawk Trail", "address2": "", "address3": "Greenfield Plz S C", "city": "Greenfield", "zip_code": "01301", "country": "US", "state": "MA", "display_address": ["251 Mohawk Trail", "Greenfield Plz S C", "Greenfield, MA 01301"]}, "phone": "+14137743636", "display_phone": "(413) 774-3636", "distance": 21965.508973122687}, {"id": "KolYzOXHRpS39JTlEtSVaw", "alias": "the-roost-northampton-2", "name": "The Roost", "image_url": "https://s3-media4.fl.yelpcdn.com/bphoto/S1UwHJ6VvyQBUn_eGaOeAA/o.jpg", "is_closed": false, "url": "https://www.yelp.com/biz/the-roost-northampton-2?adjust_creative=HdhkN5EEH6lAqE3kwhsHEQ&utm_campaign=yelp_api_v3&utm_medium=api_v3_business_search&utm_source=HdhkN5EEH6lAqE3kwhsHEQ", "review_count": 225, "categories": [{"alias": "coffee", "title": "Coffee & Tea"}, {"alias": "cocktailbars", "title": "Cocktail Bars"}, {"alias": "sandwiches", "title": "Sandwiches"}], "rating": 4.0, "coordinates": {"latitude": 42.32098, "longitude": -72.62823}, "transactions": ["delivery"], "price": "$$", "location": {"address1": "1 Market St", "address2": "", "address3": "", "city": "Northampton", "zip_code": "01060", "country": "US", "state": "MA", "display_address": ["1 Market St", "Northampton, MA 01060"]}, "phone": "+14135872625", "display_phone": "(413) 587-2625", "distance": 19816.92009674558}, {"id": "viFpmTD5zT19tizBXRrKFw", "alias": "antonios-pizza-shop-greenfield", "name": "Antonio's Pizza Shop", "image_url": "https://s3-media2.fl.yelpcdn.com/bphoto/VuMGXTShN9oxzIHMdXZ7kg/o.jpg", "is_closed": false, "url": "https://www.yelp.com/biz/antonios-pizza-shop-greenfield?adjust_creative=HdhkN5EEH6lAqE3kwhsHEQ&utm_campaign=yelp_api_v3&utm_medium=api_v3_business_search&utm_source=HdhkN5EEH6lAqE3kwhsHEQ", "review_count": 20, "categories": [{"alias": "pizza", "title": "Pizza"}, {"alias": "italian", "title": "Italian"}, {"alias": "sandwiches", "title": "Sandwiches"}], "rating": 3.5, "coordinates": {"latitude": 42.5876694, "longitude": -72.6027374}, "transactions": ["delivery"], "price": "$", "location": {"address1": "201 Main St", "address2": "", "address3": "", "city": "Greenfield", "zip_code": "01301", "country": "US", "state": "MA", "display_address": ["201 Main St", "Greenfield, MA 01301"]}, "phone": "+14137737517", "display_phone": "(413) 773-7517", "distance": 23326.451546783497}, {"id": "veBxinfRKsUFsV0Xl603FA", "alias": "osaka-northampton", "name": "Osaka", "image_url": "https://s3-media1.fl.yelpcdn.com/bphoto/uBQOhYhTfopuEy7ae7oUEA/o.jpg", "is_closed": false, "url": "https://www.yelp.com/biz/osaka-northampton?adjust_creative=HdhkN5EEH6lAqE3kwhsHEQ&utm_campaign=yelp_api_v3&utm_medium=api_v3_business_search&utm_source=HdhkN5EEH6lAqE3kwhsHEQ", "review_count": 266, "categories": [{"alias": "japanese", "title": "Japanese"}, {"alias": "sushi", "title": "Sushi Bars"}, {"alias": "cocktailbars", "title": "Cocktail Bars"}], "rating": 3.5, "coordinates": {"latitude": 42.31764, "longitude": -72.6312}, "transactions": ["delivery"], "price": "$$", "location": {"address1": "7 Old S St", "address2": "", "address3": "", "city": "Northampton", "zip_code": "01060", "country": "US", "state": "MA", "display_address": ["7 Old S St", "Northampton, MA 01060"]}, "phone": "+14135879548", "display_phone": "(413) 587-9548", "distance": 19902.188359425636}, {"id": "-bEks6gb0Fhnje6r5F7i6w", "alias": "teapot-restaurant-northampton", "name": "Teapot Restaurant", "image_url": "https://s3-media4.fl.yelpcdn.com/bphoto/wp9UqZTHOVOTpKWf8kb-Jw/o.jpg", "is_closed": false, "url": "https://www.yelp.com/biz/teapot-restaurant-northampton?adjust_creative=HdhkN5EEH6lAqE3kwhsHEQ&utm_campaign=yelp_api_v3&utm_medium=api_v3_business_search&utm_source=HdhkN5EEH6lAqE3kwhsHEQ", "review_count": 128, "categories": [{"alias": "sushi", "title": "Sushi Bars"}, {"alias": "japanese", "title": "Japanese"}, {"alias": "chinese", "title": "Chinese"}], "rating": 2.5, "coordinates": {"latitude": 42.31876, "longitude": -72.6303}, "transactions": ["delivery"], "price": "$$", "location": {"address1": "116 Main St", "address2": "", "address3": "", "city": "Northampton", "zip_code": "01060", "country": "US", "state": "MA", "display_address": ["116 Main St", "Northampton, MA 01060"]}, "phone": "+14135859308", "display_phone": "(413) 585-9308", "distance": 19858.636904546085}, {"id": "vgDQ2JDGVFnW_H9Cl9BMJQ", "alias": "the-green-bean-northampton", "name": "The Green Bean", "image_url": "https://s3-media2.fl.yelpcdn.com/bphoto/zBW0YIvmXWDY4nFYVQVy9Q/o.jpg", "is_closed": false, "url": "https://www.yelp.com/biz/the-green-bean-northampton?adjust_creative=HdhkN5EEH6lAqE3kwhsHEQ&utm_campaign=yelp_api_v3&utm_medium=api_v3_business_search&utm_source=HdhkN5EEH6lAqE3kwhsHEQ", "review_count": 213, "categories": [{"alias": "breakfast_brunch", "title": "Breakfast & Brunch"}], "rating": 4.0, "coordinates": {"latitude": 42.31802, "longitude": -72.63279}, "transactions": ["delivery"], "price": "$$", "location": {"address1": "241 Main St", "address2": "", "address3": "", "city": "Northampton", "zip_code": "01060", "country": "US", "state": "MA", "display_address": ["241 Main St", "Northampton, MA 01060"]}, "phone": "+14135842326", "display_phone": "(413) 584-2326", "distance": 19770.004872658796}, {"id": "W9XBy0F4M-fjs1Gau_cMIg", "alias": "limered-teahouse-northampton", "name": "LimeRed Teahouse", "image_url": "https://s3-media1.fl.yelpcdn.com/bphoto/-ujNAAosmmDTfpl3q5dngg/o.jpg", "is_closed": false, "url": "https://www.yelp.com/biz/limered-teahouse-northampton?adjust_creative=HdhkN5EEH6lAqE3kwhsHEQ&utm_campaign=yelp_api_v3&utm_medium=api_v3_business_search&utm_source=HdhkN5EEH6lAqE3kwhsHEQ", "review_count": 74, "categories": [{"alias": "cafes", "title": "Cafes"}, {"alias": "bubbletea", "title": "Bubble Tea"}], "rating": 4.0, "coordinates": {"latitude": 42.3193702697754, "longitude": -72.6296234130859}, "transactions": ["delivery", "pickup"], "price": "$", "location": {"address1": "11 Pleasant St", "address2": "", "address3": "", "city": "Northampton", "zip_code": "01060", "country": "US", "state": "MA", "display_address": ["11 Pleasant St", "Northampton, MA 01060"]}, "phone": "+14132008832", "display_phone": "(413) 200-8832", "distance": 19854.11434833895}, {"id": "9y8vujKi-sLCicAxESLd0w", "alias": "bluebonnet-diner-northampton", "name": "Bluebonnet Diner", "image_url": "https://s3-media4.fl.yelpcdn.com/bphoto/vDjgM_XOzMC4vl2HI_RkGg/o.jpg", "is_closed": false, "url": "https://www.yelp.com/biz/bluebonnet-diner-northampton?adjust_creative=HdhkN5EEH6lAqE3kwhsHEQ&utm_campaign=yelp_api_v3&utm_medium=api_v3_business_search&utm_source=HdhkN5EEH6lAqE3kwhsHEQ", "review_count": 83, "categories": [{"alias": "diners", "title": "Diners"}, {"alias": "breakfast_brunch", "title": "Breakfast & Brunch"}, {"alias": "cocktailbars", "title": "Cocktail Bars"}], "rating": 3.5, "coordinates": {"latitude": 42.33465, "longitude": -72.636}, "transactions": ["delivery"], "price": "$$", "location": {"address1": "324 King St", "address2": "", "address3": "", "city": "Northampton", "zip_code": "01060", "country": "US", "state": "MA", "display_address": ["324 King St", "Northampton, MA 01060"]}, "phone": "+14135843333", "display_phone": "(413) 584-3333", "distance": 18332.379315338567}, {"id": "eiCmbuqsp7TaKYKnU56B1Q", "alias": "woodstar-cafe-northampton", "name": "Woodstar Cafe", "image_url": "https://s3-media2.fl.yelpcdn.com/bphoto/fgnNy9WXd2GCVtGKDhwwJQ/o.jpg", "is_closed": false, "url": "https://www.yelp.com/biz/woodstar-cafe-northampton?adjust_creative=HdhkN5EEH6lAqE3kwhsHEQ&utm_campaign=yelp_api_v3&utm_medium=api_v3_business_search&utm_source=HdhkN5EEH6lAqE3kwhsHEQ", "review_count": 184, "categories": [{"alias": "sandwiches", "title": "Sandwiches"}, {"alias": "coffee", "title": "Coffee & Tea"}, {"alias": "bakeries", "title": "Bakeries"}], "rating": 4.0, "coordinates": {"latitude": 42.3188, "longitude": -72.63345}, "transactions": ["delivery"], "price": "$", "location": {"address1": "60 Masonic St", "address2": "", "address3": "", "city": "Northampton", "zip_code": "01060", "country": "US", "state": "MA", "display_address": ["60 Masonic St", "Northampton, MA 01060"]}, "phone": "+14135859777", "display_phone": "(413) 585-9777", "distance": 19677.481345752203}, {"id": "TDmkjt1EK41Hz118WZC8QQ", "alias": "pizza-amore-northampton", "name": "Pizza Amore", "image_url": "https://s3-media1.fl.yelpcdn.com/bphoto/8WnrnH8Q1LQNRMiSGEd-cQ/o.jpg", "is_closed": false, "url": "https://www.yelp.com/biz/pizza-amore-northampton?adjust_creative=HdhkN5EEH6lAqE3kwhsHEQ&utm_campaign=yelp_api_v3&utm_medium=api_v3_business_search&utm_source=HdhkN5EEH6lAqE3kwhsHEQ", "review_count": 45, "categories": [{"alias": "pizza", "title": "Pizza"}, {"alias": "sandwiches", "title": "Sandwiches"}], "rating": 3.0, "coordinates": {"latitude": 42.3167932033539, "longitude": -72.6367682218552}, "transactions": ["delivery"], "price": "$$", "location": {"address1": "18 Green St", "address2": "", "address3": "", "city": "Northampton", "zip_code": "01060", "country": "US", "state": "MA", "display_address": ["18 Green St", "Northampton, MA 01060"]}, "phone": "+14135865443", "display_phone": "(413) 586-5443", "distance": 19632.604474606564}, {"id": "s8OW-375kYYrSXL-yMFNvw", "alias": "share-northampton-northampton", "name": "Share Northampton", "image_url": "https://s3-media2.fl.yelpcdn.com/bphoto/ij9raKMqCKNMP_XZjwn-fQ/o.jpg", "is_closed": false, "url": "https://www.yelp.com/biz/share-northampton-northampton?adjust_creative=HdhkN5EEH6lAqE3kwhsHEQ&utm_campaign=yelp_api_v3&utm_medium=api_v3_business_search&utm_source=HdhkN5EEH6lAqE3kwhsHEQ", "review_count": 16, "categories": [{"alias": "cafes", "title": "Cafes"}, {"alias": "coffee", "title": "Coffee & Tea"}], "rating": 4.5, "coordinates": {"latitude": 42.31834, "longitude": -72.63117}, "transactions": [], "price": "$", "location": {"address1": "150 Main St", "address2": null, "address3": "", "city": "Northampton", "zip_code": "01060", "country": "US", "state": "MA", "display_address": ["150 Main St", "Northampton, MA 01060"]}, "phone": "+14135862649", "display_phone": "(413) 586-2649", "distance": 19880.566576579426}, {"id": "tlejB4CRtoIulBjW3VIE4w", "alias": "subway-north-hampton-4", "name": "Subway", "image_url": "https://s3-media4.fl.yelpcdn.com/bphoto/maogQyKNhFeQpyOyLNhFhw/o.jpg", "is_closed": false, "url": "https://www.yelp.com/biz/subway-north-hampton-4?adjust_creative=HdhkN5EEH6lAqE3kwhsHEQ&utm_campaign=yelp_api_v3&utm_medium=api_v3_business_search&utm_source=HdhkN5EEH6lAqE3kwhsHEQ", "review_count": 3, "categories": [{"alias": "sandwiches", "title": "Sandwiches"}], "rating": 4.5, "coordinates": {"latitude": 42.341656, "longitude": -72.643856}, "transactions": ["delivery", "pickup"], "price": "$", "location": {"address1": "180 N King St", "address2": null, "address3": null, "city": "North Hampton", "zip_code": "01060", "country": "US", "state": "MA", "display_address": ["180 N King St", "North Hampton, MA 01060"]}, "phone": "+14135862800", "display_phone": "(413) 586-2800", "distance": 17340.369877513585}, {"id": "CoEhkPOvvdyea7dz0SpyMQ", "alias": "kfc-northampton-6", "name": "KFC", "image_url": "https://s3-media2.fl.yelpcdn.com/bphoto/yyTG2RIYyHn-Om-kCEbkxA/o.jpg", "is_closed": false, "url": "https://www.yelp.com/biz/kfc-northampton-6?adjust_creative=HdhkN5EEH6lAqE3kwhsHEQ&utm_campaign=yelp_api_v3&utm_medium=api_v3_business_search&utm_source=HdhkN5EEH6lAqE3kwhsHEQ", "review_count": 8, "categories": [{"alias": "hotdogs", "title": "Fast Food"}, {"alias": "chicken_wings", "title": "Chicken Wings"}, {"alias": "chickenshop", "title": "Chicken Shop"}], "rating": 1.5, "coordinates": {"latitude": 42.3284978465264, "longitude": -72.6331302619886}, "transactions": [], "price": "$", "location": {"address1": "203 King St", "address2": null, "address3": null, "city": "Northampton", "zip_code": "01060", "country": "US", "state": "MA", "display_address": ["203 King St", "Northampton, MA 01060"]}, "phone": "+14135820271", "display_phone": "(413) 582-0271", "distance": 18958.323534534044}, {"id": "VcKnHfkBxXSqPd_a1TJa2Q", "alias": "kfc-greenfield-4", "name": "KFC", "image_url": "https://s3-media4.fl.yelpcdn.com/bphoto/zRrjKWbYcRMZx7xjAgBC5g/o.jpg", "is_closed": false, "url": "https://www.yelp.com/biz/kfc-greenfield-4?adjust_creative=HdhkN5EEH6lAqE3kwhsHEQ&utm_campaign=yelp_api_v3&utm_medium=api_v3_business_search&utm_source=HdhkN5EEH6lAqE3kwhsHEQ", "review_count": 6, "categories": [{"alias": "hotdogs", "title": "Fast Food"}, {"alias": "chicken_wings", "title": "Chicken Wings"}, {"alias": "chickenshop", "title": "Chicken Shop"}], "rating": 1.5, "coordinates": {"latitude": 42.5857303098406, "longitude": -72.626232}, "transactions": ["delivery", "pickup"], "price": "$", "location": {"address1": "242 Mohawk Trl", "address2": null, "address3": null, "city": "Greenfield", "zip_code": "01301", "country": "US", "state": "MA", "display_address": ["242 Mohawk Trl", "Greenfield, MA 01301"]}, "phone": "+14137747869", "display_phone": "(413) 774-7869", "distance": 21829.459654847276}, {"id": "0IR0wkVdQpNwpIR6Om0t4g", "alias": "riffs-cafe-northampton", "name": "Riff's Cafe", "image_url": "", "is_closed": false, "url": "https://www.yelp.com/biz/riffs-cafe-northampton?adjust_creative=HdhkN5EEH6lAqE3kwhsHEQ&utm_campaign=yelp_api_v3&utm_medium=api_v3_business_search&utm_source=HdhkN5EEH6lAqE3kwhsHEQ", "review_count": 1, "categories": [{"alias": "sandwiches", "title": "Sandwiches"}, {"alias": "coffee", "title": "Coffee & Tea"}], "rating": 1.0, "coordinates": {"latitude": 42.3175163269043, "longitude": -72.6303482055664}, "transactions": [], "location": {"address1": "Smith College Museum Of Art", "address2": "", "address3": "Elm St at Bedford Ter  N", "city": "Northampton", "zip_code": "01060", "country": "US", "state": "MA", "display_address": ["Smith College Museum Of Art", "Elm St at Bedford Ter  N", "Northampton, MA 01060"]}, "phone": "+14135853115", "display_phone": "(413) 585-3115", "distance": 19518.25731768496}, {"id": "eolu_9FB74AaXHlgwYwQyw", "alias": "goulds-sugar-house-shelburne-falls", "name": "Gould's Sugar House", "image_url": "https://s3-media2.fl.yelpcdn.com/bphoto/hZVhRfCmNWWgCkjJf5VWBw/o.jpg", "is_closed": false, "url": "https://www.yelp.com/biz/goulds-sugar-house-shelburne-falls?adjust_creative=HdhkN5EEH6lAqE3kwhsHEQ&utm_campaign=yelp_api_v3&utm_medium=api_v3_business_search&utm_source=HdhkN5EEH6lAqE3kwhsHEQ", "review_count": 44, "categories": [{"alias": "gourmet", "title": "Specialty Food"}, {"alias": "breakfast_brunch", "title": "Breakfast & Brunch"}], "rating": 4.5, "coordinates": {"latitude": 42.584024, "longitude": -72.708754}, "transactions": [], "price": "$$", "location": {"address1": "570 Mohawk Trl", "address2": "", "address3": "", "city": "Shelburne Falls", "zip_code": "01370", "country": "US", "state": "MA", "display_address": ["570 Mohawk Trl", "Shelburne Falls, MA 01370"]}, "phone": "+14136256170", "display_phone": "(413) 625-6170", "distance": 17789.041888988246}, {"id": "IIrpdObyEoQBS3Foh2c95A", "alias": "taco-bell-northampton", "name": "Taco Bell", "image_url": "https://s3-media4.fl.yelpcdn.com/bphoto/NOZkj5vogjnw6Jo-px6GtQ/o.jpg", "is_closed": false, "url": "https://www.yelp.com/biz/taco-bell-northampton?adjust_creative=HdhkN5EEH6lAqE3kwhsHEQ&utm_campaign=yelp_api_v3&utm_medium=api_v3_business_search&utm_source=HdhkN5EEH6lAqE3kwhsHEQ", "review_count": 21, "categories": [{"alias": "hotdogs", "title": "Fast Food"}, {"alias": "tacos", "title": "Tacos"}], "rating": 2.0, "coordinates": {"latitude": 42.328505, "longitude": -72.63312}, "transactions": ["delivery"], "price": "$", "location": {"address1": "203 King Street", "address2": null, "address3": null, "city": "Northampton", "zip_code": "01060", "country": "US", "state": "MA", "display_address": ["203 King Street", "Northampton, MA 01060"]}, "phone": "+14135820271", "display_phone": "(413) 582-0271", "distance": 18958.13920526228}, {"id": "AvX3GO9N1qP090KJwtk_Tw", "alias": "dominos-pizza-northampton", "name": "Domino's Pizza", "image_url": "", "is_closed": false, "url": "https://www.yelp.com/biz/dominos-pizza-northampton?adjust_creative=HdhkN5EEH6lAqE3kwhsHEQ&utm_campaign=yelp_api_v3&utm_medium=api_v3_business_search&utm_source=HdhkN5EEH6lAqE3kwhsHEQ", "review_count": 11, "categories": [{"alias": "pizza", "title": "Pizza"}, {"alias": "chicken_wings", "title": "Chicken Wings"}, {"alias": "sandwiches", "title": "Sandwiches"}], "rating": 2.5, "coordinates": {"latitude": 42.3305154525782, "longitude": -72.6334936484999}, "transactions": [], "price": "$", "location": {"address1": "241 King St", "address2": "Ste 115", "address3": "", "city": "Northampton", "zip_code": "01060", "country": "US", "state": "MA", "display_address": ["241 King St", "Ste 115", "Northampton, MA 01060"]}, "phone": "+14135842111", "display_phone": "(413) 584-2111", "distance": 18788.105692824738}, {"id": "7IOS0bILt7y2-6eiiXxJRg", "alias": "mcdonalds-greenfield", "name": "McDonald's", "image_url": "https://s3-media4.fl.yelpcdn.com/bphoto/RUa3FiH2Cx7jHuH740Rw8Q/o.jpg", "is_closed": false, "url": "https://www.yelp.com/biz/mcdonalds-greenfield?adjust_creative=HdhkN5EEH6lAqE3kwhsHEQ&utm_campaign=yelp_api_v3&utm_medium=api_v3_business_search&utm_source=HdhkN5EEH6lAqE3kwhsHEQ", "review_count": 19, "categories": [{"alias": "hotdogs", "title": "Fast Food"}, {"alias": "burgers", "title": "Burgers"}, {"alias": "coffee", "title": "Coffee & Tea"}], "rating": 2.5, "coordinates": {"latitude": 42.5854669, "longitude": -72.6247290475385}, "transactions": [], "price": "$", "location": {"address1": "208 Mohawk Trl", "address2": "", "address3": "", "city": "Greenfield", "zip_code": "01301", "country": "US", "state": "MA", "display_address": ["208 Mohawk Trl", "Greenfield, MA 01301"]}, "phone": "+14137745311", "display_phone": "(413) 774-5311", "distance": 21891.521484762274}, {"id": "FHpyc_11CosrtIvcGUIOYQ", "alias": "brueggers-bagels-northampton-2", "name": "Bruegger's Bagels", "image_url": "https://s3-media3.fl.yelpcdn.com/bphoto/yVWa_awCdqel989h5w1WDg/o.jpg", "is_closed": false, "url": "https://www.yelp.com/biz/brueggers-bagels-northampton-2?adjust_creative=HdhkN5EEH6lAqE3kwhsHEQ&utm_campaign=yelp_api_v3&utm_medium=api_v3_business_search&utm_source=HdhkN5EEH6lAqE3kwhsHEQ", "review_count": 33, "categories": [{"alias": "bagels", "title": "Bagels"}, {"alias": "breakfast_brunch", "title": "Breakfast & Brunch"}, {"alias": "sandwiches", "title": "Sandwiches"}], "rating": 2.5, "coordinates": {"latitude": 42.31898, "longitude": -72.62999}, "transactions": [], "price": "$", "location": {"address1": "96 Main St", "address2": "", "address3": "", "city": "Northampton", "zip_code": "01060", "country": "US", "state": "MA", "display_address": ["96 Main St", "Northampton, MA 01060"]}, "phone": "+14135850275", "display_phone": "(413) 585-0275", "distance": 19857.760752709222}, {"id": "qqA8YX58xnmEXLyanHfdUg", "alias": "stufd-food-truck-brooklyn", "name": "Stuf'd Food Truck", "image_url": "https://s3-media2.fl.yelpcdn.com/bphoto/_Wn0i-tLIOFinw8BPAqxPA/o.jpg", "is_closed": false, "url": "https://www.yelp.com/biz/stufd-food-truck-brooklyn?adjust_creative=HdhkN5EEH6lAqE3kwhsHEQ&utm_campaign=yelp_api_v3&utm_medium=api_v3_business_search&utm_source=HdhkN5EEH6lAqE3kwhsHEQ", "review_count": 4, "categories": [{"alias": "sandwiches", "title": "Sandwiches"}, {"alias": "foodtrucks", "title": "Food Trucks"}], "rating": 4.0, "coordinates": {"latitude": 40.7124539, "longitude": -73.9287374}, "transactions": [], "location": {"address1": "178 Varick Ave", "address2": "", "address3": null, "city": "Brooklyn", "zip_code": "11237", "country": "US", "state": "NY", "display_address": ["178 Varick Ave", "Brooklyn, NY 11237"]}, "phone": "+18457091808", "display_phone": "(845) 709-1808", "distance": 213687.9246753935}]