[{"id": "lUxVsuNo5syFd_cxEplvaA", "alias": "herricks-tavern-orange", "name": "Herrick's Tavern", "image_url": "https://s3-media1.fl.yelpcdn.com/bphoto/mAHqpOXGI32xph2DHpHtHg/o.jpg", "is_closed": false, "url": "https://www.yelp.com/biz/herricks-tavern-orange?adjust_creative=ywY5UnLZrNrRl2b93Ruy_g&utm_campaign=yelp_api_v3&utm_medium=api_v3_business_search&utm_source=ywY5UnLZrNrRl2b93Ruy_g", "review_count": 49, "categories": [{"alias": "tradamerican", "title": "American (Traditional)"}, {"alias": "sportsbars", "title": "Sports Bars"}], "rating": 4.0, "coordinates": {"latitude": 42.5542299, "longitude": -72.28915}, "transactions": [], "price": "$$", "location": {"address1": "207 Daniel Shays Hwy", "address2": null, "address3": null, "city": "Orange", "zip_code": "01364", "country": "US", "state": "MA", "display_address": ["207 Daniel Shays Hwy", "Orange, MA 01364"]}, "phone": "+19785443902", "display_phone": "(978) 544-3902", "distance": 14421.653646597522}, {"id": "Ie-qeBdtdOavjzdQPH1IGw", "alias": "osteria-vespa-amherst", "name": "Osteria Vespa", "image_url": "https://s3-media2.fl.yelpcdn.com/bphoto/oKJx3-9rIr-8_CJ10HkaSQ/o.jpg", "is_closed": false, "url": "https://www.yelp.com/biz/osteria-vespa-amherst?adjust_creative=ywY5UnLZrNrRl2b93Ruy_g&utm_campaign=yelp_api_v3&utm_medium=api_v3_business_search&utm_source=ywY5UnLZrNrRl2b93Ruy_g", "review_count": 90, "categories": [{"alias": "italian", "title": "Italian"}, {"alias": "mediterranean", "title": "Mediterranean"}], "rating": 4.0, "coordinates": {"latitude": 42.375387, "longitude": -72.52048}, "transactions": ["delivery", "restaurant_reservation"], "price": "$$$", "location": {"address1": "28 Amity St", "address2": "", "address3": "", "city": "Amherst", "zip_code": "01002", "country": "US", "state": "MA", "display_address": ["28 Amity St", "Amherst, MA 01002"]}, "phone": "+14132303194", "display_phone": "(413) 230-3194", "distance": 17394.779012418483}, {"id": "bSTIM0u6sZuMmS6GX0mTqA", "alias": "stone-cow-brewery-barre", "name": "Stone Cow Brewery", "image_url": "https://s3-media2.fl.yelpcdn.com/bphoto/jMxZg8Vqw33_6aBMFZElCQ/o.jpg", "is_closed": false, "url": "https://www.yelp.com/biz/stone-cow-brewery-barre?adjust_creative=ywY5UnLZrNrRl2b93Ruy_g&utm_campaign=yelp_api_v3&utm_medium=api_v3_business_search&utm_source=ywY5UnLZrNrRl2b93Ruy_g", "review_count": 67, "categories": [{"alias": "breweries", "title": "Breweries"}, {"alias": "tradamerican", "title": "American (Traditional)"}], "rating": 4.5, "coordinates": {"latitude": 42.4247357, "longitude": -72.1242577}, "transactions": [], "price": "$", "location": {"address1": "500 West St", "address2": "Ste B", "address3": null, "city": "Barre", "zip_code": "01005", "country": "US", "state": "MA", "display_address": ["500 West St", "Ste B", "Barre, MA 01005"]}, "phone": "+19782578600", "display_phone": "(978) 257-8600", "distance": 16087.922285263276}, {"id": "t7FbgEITiEReUrTte9mJiw", "alias": "clamber-hill-inn-and-restaurant-petersham-2", "name": "Clamber Hill Inn & Restaurant", "image_url": "https://s3-media1.fl.yelpcdn.com/bphoto/7rAzCt1SCY2BB_WPoLwT_g/o.jpg", "is_closed": false, "url": "https://www.yelp.com/biz/clamber-hill-inn-and-restaurant-petersham-2?adjust_creative=ywY5UnLZrNrRl2b93Ruy_g&utm_campaign=yelp_api_v3&utm_medium=api_v3_business_search&utm_source=ywY5UnLZrNrRl2b93Ruy_g", "review_count": 11, "categories": [{"alias": "tradamerican", "title": "American (Traditional)"}, {"alias": "whiskeybars", "title": "Whiskey Bars"}, {"alias": "winetasteclasses", "title": "Wine Tasting Classes"}], "rating": 4.0, "coordinates": {"latitude": 42.5031579313361, "longitude": -72.1865090608826}, "transactions": [], "price": "$$$", "location": {"address1": "111 N Main St", "address2": "", "address3": "", "city": "Petersham", "zip_code": "01366", "country": "US", "state": "MA", "display_address": ["111 N Main St", "Petersham, MA 01366"]}, "phone": "+19787248800", "display_phone": "(978) 724-8800", "distance": 13905.60228576929}, {"id": "G_PPROO9ccur-m-GWzbZmA", "alias": "quabbin-woods-restaurant-petersham", "name": "Quabbin Woods Restaurant", "image_url": "https://s3-media3.fl.yelpcdn.com/bphoto/w6hsjy3EUcuAd17n0h42Eg/o.jpg", "is_closed": false, "url": "https://www.yelp.com/biz/quabbin-woods-restaurant-petersham?adjust_creative=ywY5UnLZrNrRl2b93Ruy_g&utm_campaign=yelp_api_v3&utm_medium=api_v3_business_search&utm_source=ywY5UnLZrNrRl2b93Ruy_g", "review_count": 15, "categories": [{"alias": "newamerican", "title": "American (New)"}, {"alias": "comfortfood", "title": "Comfort Food"}, {"alias": "burgers", "title": "Burgers"}], "rating": 4.0, "coordinates": {"latitude": 42.481931, "longitude": -72.183534}, "transactions": [], "price": "$", "location": {"address1": "8 Barre Rd", "address2": "Ste RT", "address3": "", "city": "Petersham", "zip_code": "01366", "country": "US", "state": "MA", "display_address": ["8 Barre Rd", "Ste RT", "Petersham, MA 01366"]}, "phone": "+19787243288", "display_phone": "(978) 724-3288", "distance": 12808.470459778975}, {"id": "tHR3HsAmGfDOcjWe2n6Ftw", "alias": "shanghai-gourmet-amherst", "name": "Shanghai Gourmet", "image_url": "https://s3-media3.fl.yelpcdn.com/bphoto/iY1_iOMI0o_evS5fB__uOg/o.jpg", "is_closed": false, "url": "https://www.yelp.com/biz/shanghai-gourmet-amherst?adjust_creative=ywY5UnLZrNrRl2b93Ruy_g&utm_campaign=yelp_api_v3&utm_medium=api_v3_business_search&utm_source=ywY5UnLZrNrRl2b93Ruy_g", "review_count": 21, "categories": [{"alias": "shanghainese", "title": "Shanghainese"}], "rating": 4.5, "coordinates": {"latitude": 42.37729067, "longitude": -72.52038267}, "transactions": [], "price": "$$", "location": {"address1": "104 N Pleasant St", "address2": null, "address3": "", "city": "Amherst", "zip_code": "01002", "country": "US", "state": "MA", "display_address": ["104 N Pleasant St", "Amherst, MA 01002"]}, "phone": "+14138350913", "display_phone": "(413) 835-0913", "distance": 17317.86450867517}, {"id": "0ggseJ7x1t-I-I8GA6knjw", "alias": "bistro-63-amherst-3", "name": "Bistro 63", "image_url": "https://s3-media4.fl.yelpcdn.com/bphoto/2DDhras34EfIQjko9vTX_w/o.jpg", "is_closed": false, "url": "https://www.yelp.com/biz/bistro-63-amherst-3?adjust_creative=ywY5UnLZrNrRl2b93Ruy_g&utm_campaign=yelp_api_v3&utm_medium=api_v3_business_search&utm_source=ywY5UnLZrNrRl2b93Ruy_g", "review_count": 156, "categories": [{"alias": "newamerican", "title": "American (New)"}, {"alias": "venues", "title": "Venues & Event Spaces"}], "rating": 4.0, "coordinates": {"latitude": 42.37668, "longitude": -72.51952}, "transactions": ["delivery"], "price": "$$", "location": {"address1": "63 N Pleasant St", "address2": null, "address3": "Monkey Bar & Grill", "city": "Amherst", "zip_code": "01002", "country": "US", "state": "MA", "display_address": ["63 N Pleasant St", "Monkey Bar & Grill", "Amherst, MA 01002"]}, "phone": "+14132591600", "display_phone": "(413) 259-1600", "distance": 17272.95287307212}, {"id": "3Y9OnIQ55G13AcdxFZkHjw", "alias": "high-tides-seafood-barre", "name": "High Tides Seafood", "image_url": "", "is_closed": false, "url": "https://www.yelp.com/biz/high-tides-seafood-barre?adjust_creative=ywY5UnLZrNrRl2b93Ruy_g&utm_campaign=yelp_api_v3&utm_medium=api_v3_business_search&utm_source=ywY5UnLZrNrRl2b93Ruy_g", "review_count": 7, "categories": [{"alias": "seafood", "title": "Seafood"}, {"alias": "beer_and_wine", "title": "Beer, Wine & Spirits"}, {"alias": "icecream", "title": "Ice Cream & Frozen Yogurt"}], "rating": 4.5, "coordinates": {"latitude": 42.442644144625, "longitude": -72.165020017677}, "transactions": [], "location": {"address1": "2291 West St", "address2": "", "address3": null, "city": "Barre", "zip_code": "01005", "country": "US", "state": "MA", "display_address": ["2291 West St", "Barre, MA 01005"]}, "phone": "+19783556715", "display_phone": "(978) 355-6715", "distance": 12868.189496249244}, {"id": "gjEJbmb3zxK79b1gCZkEUw", "alias": "north-hot-pot-amherst", "name": "North Hot Pot", "image_url": "https://s3-media2.fl.yelpcdn.com/bphoto/Xm6uqML_YYRG1sn2cy-YYw/o.jpg", "is_closed": false, "url": "https://www.yelp.com/biz/north-hot-pot-amherst?adjust_creative=ywY5UnLZrNrRl2b93Ruy_g&utm_campaign=yelp_api_v3&utm_medium=api_v3_business_search&utm_source=ywY5UnLZrNrRl2b93Ruy_g", "review_count": 31, "categories": [{"alias": "chinese", "title": "Chinese"}, {"alias": "hotpot", "title": "Hot Pot"}], "rating": 4.5, "coordinates": {"latitude": 42.37233, "longitude": -72.49943}, "transactions": ["delivery"], "location": {"address1": "20 Belchertown Rd", "address2": null, "address3": "", "city": "Amherst", "zip_code": "01002", "country": "US", "state": "MA", "display_address": ["20 Belchertown Rd", "Amherst, MA 01002"]}, "phone": "+14138350351", "display_phone": "(413) 835-0351", "distance": 15873.882373739003}, {"id": "1Gdcycg8N2j9oJbH1D6lBg", "alias": "lilis-restaurant-amherst", "name": "Lili's Restaurant", "image_url": "https://s3-media3.fl.yelpcdn.com/bphoto/ZmX1Ueig1zzUppwR700qMg/o.jpg", "is_closed": false, "url": "https://www.yelp.com/biz/lilis-restaurant-amherst?adjust_creative=ywY5UnLZrNrRl2b93Ruy_g&utm_campaign=yelp_api_v3&utm_medium=api_v3_business_search&utm_source=ywY5UnLZrNrRl2b93Ruy_g", "review_count": 131, "categories": [{"alias": "chinese", "title": "Chinese"}, {"alias": "noodles", "title": "Noodles"}], "rating": 5.0, "coordinates": {"latitude": 42.3785346, "longitude": -72.519757}, "transactions": ["delivery"], "price": "$", "location": {"address1": "197 North Pleasant St", "address2": "", "address3": null, "city": "Amherst", "zip_code": "01002", "country": "US", "state": "MA", "display_address": ["197 North Pleasant St", "Amherst, MA 01002"]}, "phone": "+14132535888", "display_phone": "(413) 253-5888", "distance": 17212.190508218766}, {"id": "S9w52Y8f_nfv8QXuHmXBCg", "alias": "johnnys-tavern-amherst", "name": "Johnny's Tavern", "image_url": "https://s3-media4.fl.yelpcdn.com/bphoto/CGGNA4tbYJkDkSsBqJTq-w/o.jpg", "is_closed": false, "url": "https://www.yelp.com/biz/johnnys-tavern-amherst?adjust_creative=ywY5UnLZrNrRl2b93Ruy_g&utm_campaign=yelp_api_v3&utm_medium=api_v3_business_search&utm_source=ywY5UnLZrNrRl2b93Ruy_g", "review_count": 296, "categories": [{"alias": "newamerican", "title": "American (New)"}, {"alias": "burgers", "title": "Burgers"}, {"alias": "beer_and_wine", "title": "Beer, Wine & Spirits"}], "rating": 4.0, "coordinates": {"latitude": 42.376276, "longitude": -72.518136}, "transactions": ["delivery", "pickup"], "price": "$$", "location": {"address1": "30 Boltwood Walk", "address2": "", "address3": "", "city": "Amherst", "zip_code": "01002", "country": "US", "state": "MA", "display_address": ["30 Boltwood Walk", "Amherst, MA 01002"]}, "phone": "+14132303818", "display_phone": "(413) 230-3818", "distance": 17177.092983669998}, {"id": "E4RyhqBNIZ6AvdFTNRrmUQ", "alias": "mccarthys-pub-belchertown", "name": "McCarthy's Pub", "image_url": "https://s3-media3.fl.yelpcdn.com/bphoto/rItSlXr6jR0p5dkjXzgz1g/o.jpg", "is_closed": false, "url": "https://www.yelp.com/biz/mccarthys-pub-belchertown?adjust_creative=ywY5UnLZrNrRl2b93Ruy_g&utm_campaign=yelp_api_v3&utm_medium=api_v3_business_search&utm_source=ywY5UnLZrNrRl2b93Ruy_g", "review_count": 51, "categories": [{"alias": "bars", "title": "Bars"}, {"alias": "irish", "title": "Irish"}], "rating": 4.0, "coordinates": {"latitude": 42.2802, "longitude": -72.4032299}, "transactions": [], "price": "$$", "location": {"address1": "5 E Walnut St", "address2": null, "address3": "", "city": "Belchertown", "zip_code": "01007", "country": "US", "state": "MA", "display_address": ["5 E Walnut St", "Belchertown, MA 01007"]}, "phone": "+14133236420", "display_phone": "(413) 323-6420", "distance": 17622.550226208692}, {"id": "1xHC1WbRBSv_DRRh8dP5IA", "alias": "honeycrisp-chicken-amherst", "name": "Honeycrisp Chicken", "image_url": "https://s3-media2.fl.yelpcdn.com/bphoto/XLGMTWn3UhX0aia6AjXtmw/o.jpg", "is_closed": false, "url": "https://www.yelp.com/biz/honeycrisp-chicken-amherst?adjust_creative=ywY5UnLZrNrRl2b93Ruy_g&utm_campaign=yelp_api_v3&utm_medium=api_v3_business_search&utm_source=ywY5UnLZrNrRl2b93Ruy_g", "review_count": 39, "categories": [{"alias": "chicken_wings", "title": "Chicken Wings"}, {"alias": "korean", "title": "Korean"}, {"alias": "taiwanese", "title": "Taiwanese"}], "rating": 4.5, "coordinates": {"latitude": 42.3759103, "longitude": -72.5184821}, "transactions": ["delivery"], "location": {"address1": "1 Boltwood Walk", "address2": null, "address3": "", "city": "Amherst", "zip_code": "01002", "country": "US", "state": "MA", "display_address": ["1 Boltwood Walk", "Amherst, MA 01002"]}, "phone": "+14132004490", "display_phone": "(413) 200-4490", "distance": 17221.173474004572}, {"id": "Oa-E-xgz9ZBZxPwBGmfLcA", "alias": "momo-tibetan-restaurant-amherst-4", "name": "Momo Tibetan Restaurant", "image_url": "https://s3-media2.fl.yelpcdn.com/bphoto/amBbrKZvctCPOGYA3tMhCQ/o.jpg", "is_closed": false, "url": "https://www.yelp.com/biz/momo-tibetan-restaurant-amherst-4?adjust_creative=ywY5UnLZrNrRl2b93Ruy_g&utm_campaign=yelp_api_v3&utm_medium=api_v3_business_search&utm_source=ywY5UnLZrNrRl2b93Ruy_g", "review_count": 53, "categories": [{"alias": "himalayan", "title": "Himalayan/Nepalese"}], "rating": 4.5, "coordinates": {"latitude": 42.3759300394761, "longitude": -72.5195162614796}, "transactions": ["delivery"], "price": "$$", "location": {"address1": "23 North Pleasant St", "address2": null, "address3": "", "city": "Amherst", "zip_code": "01002", "country": "US", "state": "MA", "display_address": ["23 North Pleasant St", "Amherst, MA 01002"]}, "phone": "+14138350382", "display_phone": "(413) 835-0382", "distance": 17294.36963138344}, {"id": "NSR3gnnaeCJfL99xif_PNQ", "alias": "petersham-country-store-petersham", "name": "Petersham Country Store", "image_url": "https://s3-media2.fl.yelpcdn.com/bphoto/MGNdpq_qs24ltsY9fBcmWQ/o.jpg", "is_closed": false, "url": "https://www.yelp.com/biz/petersham-country-store-petersham?adjust_creative=ywY5UnLZrNrRl2b93Ruy_g&utm_campaign=yelp_api_v3&utm_medium=api_v3_business_search&utm_source=ywY5UnLZrNrRl2b93Ruy_g", "review_count": 29, "categories": [{"alias": "grocery", "title": "Grocery"}, {"alias": "cafes", "title": "Cafes"}, {"alias": "artsandcrafts", "title": "Arts & Crafts"}], "rating": 4.5, "coordinates": {"latitude": 42.48871, "longitude": -72.18573}, "transactions": [], "price": "$$", "location": {"address1": "2 N Main St", "address2": "", "address3": "", "city": "Petersham", "zip_code": "01366", "country": "US", "state": "MA", "display_address": ["2 N Main St", "Petersham, MA 01366"]}, "phone": "+19787240000", "display_phone": "(978) 724-0000", "distance": 13012.107198783571}, {"id": "AlqOI5JtcvjDua4CERhGMA", "alias": "antonios-pizza-belchertown-2", "name": "Antonio's Pizza", "image_url": "https://s3-media2.fl.yelpcdn.com/bphoto/Yg3GSQ3svSFiBOFwTJM_eg/o.jpg", "is_closed": false, "url": "https://www.yelp.com/biz/antonios-pizza-belchertown-2?adjust_creative=ywY5UnLZrNrRl2b93Ruy_g&utm_campaign=yelp_api_v3&utm_medium=api_v3_business_search&utm_source=ywY5UnLZrNrRl2b93Ruy_g", "review_count": 69, "categories": [{"alias": "pizza", "title": "Pizza"}], "rating": 4.0, "coordinates": {"latitude": 42.2898815960091, "longitude": -72.4088935579308}, "transactions": [], "price": "$$", "location": {"address1": "31 Federal St", "address2": "", "address3": "", "city": "Belchertown", "zip_code": "01007", "country": "US", "state": "MA", "display_address": ["31 Federal St", "Belchertown, MA 01007"]}, "phone": "+14133236844", "display_phone": "(413) 323-6844", "distance": 16828.329445841537}, {"id": "MsAsPmMTX5uPzvmVov6B9w", "alias": "king-phillip-restaurant-phillipston", "name": "King Phillip Restaurant", "image_url": "https://s3-media1.fl.yelpcdn.com/bphoto/Pl_gxkYhcpKQ_chGNyuoqw/o.jpg", "is_closed": false, "url": "https://www.yelp.com/biz/king-phillip-restaurant-phillipston?adjust_creative=ywY5UnLZrNrRl2b93Ruy_g&utm_campaign=yelp_api_v3&utm_medium=api_v3_business_search&utm_source=ywY5UnLZrNrRl2b93Ruy_g", "review_count": 46, "categories": [{"alias": "tradamerican", "title": "American (Traditional)"}], "rating": 3.0, "coordinates": {"latitude": 42.5698651, "longitude": -72.1321599}, "transactions": [], "price": "$$", "location": {"address1": "35 State Rd", "address2": "", "address3": "", "city": "Phillipston", "zip_code": "01331", "country": "US", "state": "MA", "display_address": ["35 State Rd", "Phillipston, MA 01331"]}, "phone": "+19782496300", "display_phone": "(978) 249-6300", "distance": 22181.062722344563}, {"id": "0_n0QgP_AookwqzVfZIFgQ", "alias": "mission-cantina-amherst-2", "name": "Mission Cantina", "image_url": "https://s3-media4.fl.yelpcdn.com/bphoto/LZMh8ZoJ1M6C05M3kS8tcg/o.jpg", "is_closed": false, "url": "https://www.yelp.com/biz/mission-cantina-amherst-2?adjust_creative=ywY5UnLZrNrRl2b93Ruy_g&utm_campaign=yelp_api_v3&utm_medium=api_v3_business_search&utm_source=ywY5UnLZrNrRl2b93Ruy_g", "review_count": 317, "categories": [{"alias": "mexican", "title": "Mexican"}], "rating": 4.0, "coordinates": {"latitude": 42.3397429940276, "longitude": -72.5209043590139}, "transactions": ["delivery", "pickup"], "price": "$$", "location": {"address1": "485 W St", "address2": "", "address3": "", "city": "Amherst", "zip_code": "01002", "country": "US", "state": "MA", "display_address": ["485 W St", "Amherst, MA 01002"]}, "phone": "+14132303580", "display_phone": "(413) 230-3580", "distance": 19085.886850588817}, {"id": "yiV75hVHG23qJ3ESA1MzRg", "alias": "202-grill-nos-age-orange", "name": "202 Grill Nos/Age", "image_url": "https://s3-media3.fl.yelpcdn.com/bphoto/opbKFoo58C8lRuy_kJ53VQ/o.jpg", "is_closed": false, "url": "https://www.yelp.com/biz/202-grill-nos-age-orange?adjust_creative=ywY5UnLZrNrRl2b93Ruy_g&utm_campaign=yelp_api_v3&utm_medium=api_v3_business_search&utm_source=ywY5UnLZrNrRl2b93Ruy_g", "review_count": 8, "categories": [{"alias": "tradamerican", "title": "American (Traditional)"}], "rating": 3.5, "coordinates": {"latitude": 42.55423, "longitude": -72.28915}, "transactions": [], "price": "$$$", "location": {"address1": "207 Daniel Shay Hwy", "address2": "Route 202", "address3": "", "city": "Orange", "zip_code": "01364", "country": "US", "state": "MA", "display_address": ["207 Daniel Shay Hwy", "Route 202", "Orange, MA 01364"]}, "phone": "+19785443902", "display_phone": "(978) 544-3902", "distance": 14421.653646597522}, {"id": "LXXAXCEiU4nCM8wScorQHQ", "alias": "pasta-e-basta-amherst", "name": "Pasta E Basta", "image_url": "https://s3-media2.fl.yelpcdn.com/bphoto/6lUE1U50Tech7n-hRRzBrQ/o.jpg", "is_closed": false, "url": "https://www.yelp.com/biz/pasta-e-basta-amherst?adjust_creative=ywY5UnLZrNrRl2b93Ruy_g&utm_campaign=yelp_api_v3&utm_medium=api_v3_business_search&utm_source=ywY5UnLZrNrRl2b93Ruy_g", "review_count": 140, "categories": [{"alias": "italian", "title": "Italian"}], "rating": 4.0, "coordinates": {"latitude": 42.3758399, "longitude": -72.51926}, "transactions": ["delivery"], "price": "$$", "location": {"address1": "26 Main St", "address2": null, "address3": "", "city": "Amherst", "zip_code": "01002", "country": "US", "state": "MA", "display_address": ["26 Main St", "Amherst, MA 01002"]}, "phone": "+14132563550", "display_phone": "(413) 256-3550", "distance": 17273.84157019564}, {"id": "Qcr_HFpf7IX7hzG2rUkjWA", "alias": "pita-pockets-amherst-amherst", "name": "Pita Pockets - Amherst", "image_url": "https://s3-media2.fl.yelpcdn.com/bphoto/4Y5WGziMRU_O1KmqahR_IQ/o.jpg", "is_closed": false, "url": "https://www.yelp.com/biz/pita-pockets-amherst-amherst?adjust_creative=ywY5UnLZrNrRl2b93Ruy_g&utm_campaign=yelp_api_v3&utm_medium=api_v3_business_search&utm_source=ywY5UnLZrNrRl2b93Ruy_g", "review_count": 201, "categories": [{"alias": "falafel", "title": "Falafel"}, {"alias": "vegetarian", "title": "Vegetarian"}, {"alias": "mideastern", "title": "Middle Eastern"}], "rating": 5.0, "coordinates": {"latitude": 42.37722, "longitude": -72.51936}, "transactions": ["delivery"], "price": "$", "location": {"address1": "103 N Pleasant St", "address2": null, "address3": "", "city": "Amherst", "zip_code": "01002", "country": "US", "state": "MA", "display_address": ["103 N Pleasant St", "Amherst, MA 01002"]}, "phone": "", "display_phone": "", "distance": 17249.216737626717}, {"id": "vXmQXGQN-DnhBPFwa9rAZg", "alias": "the-taste-thai-restaurant-amherst", "name": "The Taste Thai Restaurant", "image_url": "https://s3-media3.fl.yelpcdn.com/bphoto/YT-wiZqYgEj5L6l7mJX7EQ/o.jpg", "is_closed": false, "url": "https://www.yelp.com/biz/the-taste-thai-restaurant-amherst?adjust_creative=ywY5UnLZrNrRl2b93Ruy_g&utm_campaign=yelp_api_v3&utm_medium=api_v3_business_search&utm_source=ywY5UnLZrNrRl2b93Ruy_g", "review_count": 82, "categories": [{"alias": "thai", "title": "Thai"}], "rating": 4.0, "coordinates": {"latitude": 42.376332, "longitude": -72.519874}, "transactions": ["delivery"], "price": "$$", "location": {"address1": "25 N Pleasant St", "address2": "", "address3": "", "city": "Amherst", "zip_code": "01002", "country": "US", "state": "MA", "display_address": ["25 N Pleasant St", "Amherst, MA 01002"]}, "phone": "+14132565421", "display_phone": "(413) 256-5421", "distance": 17307.70890999876}, {"id": "6EIJiG73rc9zCZSXOrksbw", "alias": "kaiju-amherst", "name": "Kaiju", "image_url": "https://s3-media3.fl.yelpcdn.com/bphoto/sAN5t3u-cNywqMwkwfMLIA/o.jpg", "is_closed": false, "url": "https://www.yelp.com/biz/kaiju-amherst?adjust_creative=ywY5UnLZrNrRl2b93Ruy_g&utm_campaign=yelp_api_v3&utm_medium=api_v3_business_search&utm_source=ywY5UnLZrNrRl2b93Ruy_g", "review_count": 72, "categories": [{"alias": "ramen", "title": "Ramen"}, {"alias": "bbq", "title": "Barbeque"}, {"alias": "cocktailbars", "title": "Cocktail Bars"}], "rating": 3.5, "coordinates": {"latitude": 42.376387, "longitude": -72.518217}, "transactions": ["delivery", "pickup"], "price": "$$", "location": {"address1": "30 Boltwood Walk", "address2": "Basement", "address3": null, "city": "Amherst", "zip_code": "01002", "country": "US", "state": "MA", "display_address": ["30 Boltwood Walk", "Basement", "Amherst, MA 01002"]}, "phone": "+14134610405", "display_phone": "(413) 461-0405", "distance": 17176.92817542014}, {"id": "LcfGULHH5iJ5VkT9q04iMg", "alias": "oriental-flavor-amherst", "name": "Oriental Flavor", "image_url": "https://s3-media1.fl.yelpcdn.com/bphoto/o4t1koat-p2gVbLwl0VuSQ/o.jpg", "is_closed": false, "url": "https://www.yelp.com/biz/oriental-flavor-amherst?adjust_creative=ywY5UnLZrNrRl2b93Ruy_g&utm_campaign=yelp_api_v3&utm_medium=api_v3_business_search&utm_source=ywY5UnLZrNrRl2b93Ruy_g", "review_count": 204, "categories": [{"alias": "szechuan", "title": "Szechuan"}, {"alias": "dimsum", "title": "Dim Sum"}, {"alias": "cantonese", "title": "Cantonese"}], "rating": 4.0, "coordinates": {"latitude": 42.37527, "longitude": -72.52}, "transactions": ["delivery", "pickup"], "price": "$$", "location": {"address1": "25 S Pleasant St", "address2": null, "address3": "", "city": "Amherst", "zip_code": "01002", "country": "US", "state": "MA", "display_address": ["25 S Pleasant St", "Amherst, MA 01002"]}, "phone": "+14132537673", "display_phone": "(413) 253-7673", "distance": 17361.54712144262}, {"id": "t3ZQ2eUTL4c683gbP4fmjA", "alias": "wheelhouse-amherst", "name": "Wheelhouse", "image_url": "https://s3-media1.fl.yelpcdn.com/bphoto/QGKcxLFQqVq8AM1ORQcQQQ/o.jpg", "is_closed": false, "url": "https://www.yelp.com/biz/wheelhouse-amherst?adjust_creative=ywY5UnLZrNrRl2b93Ruy_g&utm_campaign=yelp_api_v3&utm_medium=api_v3_business_search&utm_source=ywY5UnLZrNrRl2b93Ruy_g", "review_count": 13, "categories": [{"alias": "foodtrucks", "title": "Food Trucks"}, {"alias": "catering", "title": "Caterers"}, {"alias": "newamerican", "title": "American (New)"}], "rating": 4.5, "coordinates": {"latitude": 42.3756729, "longitude": -72.5123716}, "transactions": [], "price": "$$", "location": {"address1": "383 Main St", "address2": "", "address3": "", "city": "Amherst", "zip_code": "01002", "country": "US", "state": "MA", "display_address": ["383 Main St", "Amherst, MA 01002"]}, "phone": "+15084462935", "display_phone": "(508) 446-2935", "distance": 16750.048855274676}, {"id": "SV4vcr74r6LG-LbTAKh1MA", "alias": "whistle-stop-cafe-millers-falls-2", "name": "Whistle Stop Cafe", "image_url": "https://s3-media3.fl.yelpcdn.com/bphoto/1SC0WPCzKgFjDuCI44q57Q/o.jpg", "is_closed": false, "url": "https://www.yelp.com/biz/whistle-stop-cafe-millers-falls-2?adjust_creative=ywY5UnLZrNrRl2b93Ruy_g&utm_campaign=yelp_api_v3&utm_medium=api_v3_business_search&utm_source=ywY5UnLZrNrRl2b93Ruy_g", "review_count": 7, "categories": [{"alias": "cafes", "title": "Cafes"}], "rating": 4.0, "coordinates": {"latitude": 42.5781478, "longitude": -72.4940642}, "transactions": ["delivery", "pickup"], "location": {"address1": "29 E Main St", "address2": "", "address3": null, "city": "Millers Falls", "zip_code": "01349", "country": "US", "state": "MA", "display_address": ["29 E Main St", "Millers Falls, MA 01349"]}, "phone": "+14138348174", "display_phone": "(413) 834-8174", "distance": 22097.34204062226}, {"id": "FumYAtwmfAo1d0X3GouTHQ", "alias": "judies-amherst", "name": "Judie's", "image_url": "https://s3-media3.fl.yelpcdn.com/bphoto/GezgUMNSfF0Wuv7pHvp2jA/o.jpg", "is_closed": false, "url": "https://www.yelp.com/biz/judies-amherst?adjust_creative=ywY5UnLZrNrRl2b93Ruy_g&utm_campaign=yelp_api_v3&utm_medium=api_v3_business_search&utm_source=ywY5UnLZrNrRl2b93Ruy_g", "review_count": 338, "categories": [{"alias": "tradamerican", "title": "American (Traditional)"}, {"alias": "newamerican", "title": "American (New)"}], "rating": 3.5, "coordinates": {"latitude": 42.376468, "longitude": -72.5195815}, "transactions": ["delivery"], "price": "$$", "location": {"address1": "51 N Pleasant St", "address2": "", "address3": "", "city": "Amherst", "zip_code": "01002", "country": "US", "state": "MA", "display_address": ["51 N Pleasant St", "Amherst, MA 01002"]}, "phone": "+14132533491", "display_phone": "(413) 253-3491", "distance": 17280.09197080456}, {"id": "2MVvyKZRr98i4egs3LMHHw", "alias": "white-cloud-diner-orange", "name": "White Cloud Diner", "image_url": "https://s3-media3.fl.yelpcdn.com/bphoto/VLhBY2lGr9Xf6KzBoWteoA/o.jpg", "is_closed": false, "url": "https://www.yelp.com/biz/white-cloud-diner-orange?adjust_creative=ywY5UnLZrNrRl2b93Ruy_g&utm_campaign=yelp_api_v3&utm_medium=api_v3_business_search&utm_source=ywY5UnLZrNrRl2b93Ruy_g", "review_count": 13, "categories": [{"alias": "diners", "title": "Diners"}], "rating": 4.0, "coordinates": {"latitude": 42.5746688842773, "longitude": -72.2816772460938}, "transactions": [], "price": "$", "location": {"address1": "627 E River St", "address2": null, "address3": "", "city": "Orange", "zip_code": "01364", "country": "US", "state": "MA", "display_address": ["627 E River St", "Orange, MA 01364"]}, "phone": "+19785446821", "display_phone": "(978) 544-6821", "distance": 16805.90782659887}, {"id": "o766sCbxUEbiBxr14X4ryw", "alias": "formosa-chinese-restaurant-amherst-11", "name": "Formosa Chinese Restaurant", "image_url": "https://s3-media1.fl.yelpcdn.com/bphoto/iZxlIEZywP257_ADRfTKrQ/o.jpg", "is_closed": false, "url": "https://www.yelp.com/biz/formosa-chinese-restaurant-amherst-11?adjust_creative=ywY5UnLZrNrRl2b93Ruy_g&utm_campaign=yelp_api_v3&utm_medium=api_v3_business_search&utm_source=ywY5UnLZrNrRl2b93Ruy_g", "review_count": 50, "categories": [{"alias": "taiwanese", "title": "Taiwanese"}, {"alias": "chinese", "title": "Chinese"}], "rating": 4.0, "coordinates": {"latitude": 42.3758907917114, "longitude": -72.5185187374798}, "transactions": ["delivery"], "price": "$$", "location": {"address1": "62 Main St", "address2": "", "address3": null, "city": "Amherst", "zip_code": "01002", "country": "US", "state": "MA", "display_address": ["62 Main St", "Amherst, MA 01002"]}, "phone": "+14132537835", "display_phone": "(413) 253-7835", "distance": 17218.32458272274}, {"id": "AosVp_67irlM1MzpgURciw", "alias": "el-comalito-amherst", "name": "El Comalito", "image_url": "https://s3-media4.fl.yelpcdn.com/bphoto/AUZgmbAEqMb52HMmPUOO5w/o.jpg", "is_closed": false, "url": "https://www.yelp.com/biz/el-comalito-amherst?adjust_creative=ywY5UnLZrNrRl2b93Ruy_g&utm_campaign=yelp_api_v3&utm_medium=api_v3_business_search&utm_source=ywY5UnLZrNrRl2b93Ruy_g", "review_count": 132, "categories": [{"alias": "mexican", "title": "Mexican"}, {"alias": "salvadoran", "title": "Salvadoran"}, {"alias": "bars", "title": "Bars"}], "rating": 4.0, "coordinates": {"latitude": 42.3405129991382, "longitude": -72.5193391647356}, "transactions": ["delivery"], "price": "$$", "location": {"address1": "460 W St", "address2": "", "address3": "", "city": "Amherst", "zip_code": "01002", "country": "US", "state": "MA", "display_address": ["460 W St", "Amherst, MA 01002"]}, "phone": "+14132599999", "display_phone": "(413) 259-9999", "distance": 18931.61123599835}, {"id": "snV8jGHnoVWBNJyRUBJYug", "alias": "crazy-noodles-amherst", "name": "Crazy Noodles", "image_url": "https://s3-media2.fl.yelpcdn.com/bphoto/xEAIOZaKDme3BdwU223A2w/o.jpg", "is_closed": false, "url": "https://www.yelp.com/biz/crazy-noodles-amherst?adjust_creative=ywY5UnLZrNrRl2b93Ruy_g&utm_campaign=yelp_api_v3&utm_medium=api_v3_business_search&utm_source=ywY5UnLZrNrRl2b93Ruy_g", "review_count": 101, "categories": [{"alias": "soup", "title": "Soup"}, {"alias": "noodles", "title": "Noodles"}, {"alias": "chinese", "title": "Chinese"}], "rating": 4.0, "coordinates": {"latitude": 42.37596, "longitude": -72.51913}, "transactions": ["delivery"], "price": "$", "location": {"address1": "36 Main St", "address2": "", "address3": "", "city": "Amherst", "zip_code": "01002", "country": "US", "state": "MA", "display_address": ["36 Main St", "Amherst, MA 01002"]}, "phone": "+14132533287", "display_phone": "(413) 253-3287", "distance": 17255.308551813778}, {"id": "PlMKmByQbmWCvyOPYK-CkQ", "alias": "the-halal-cart-amherst", "name": "The Halal Cart", "image_url": "https://s3-media4.fl.yelpcdn.com/bphoto/csLyLBr79QF-PBeDrINX1A/o.jpg", "is_closed": false, "url": "https://www.yelp.com/biz/the-halal-cart-amherst?adjust_creative=ywY5UnLZrNrRl2b93Ruy_g&utm_campaign=yelp_api_v3&utm_medium=api_v3_business_search&utm_source=ywY5UnLZrNrRl2b93Ruy_g", "review_count": 21, "categories": [{"alias": "halal", "title": "Halal"}, {"alias": "streetvendors", "title": "Street Vendors"}, {"alias": "mediterranean", "title": "Mediterranean"}], "rating": 4.5, "coordinates": {"latitude": 42.378148, "longitude": -72.519928}, "transactions": [], "price": "$", "location": {"address1": "115 N Pleasant St", "address2": "", "address3": "", "city": "Amherst", "zip_code": "01002", "country": "US", "state": "MA", "display_address": ["115 N Pleasant St", "Amherst, MA 01002"]}, "phone": "+16463315115", "display_phone": "(646) 331-5115", "distance": 17247.91728865602}, {"id": "1rd3Z8l2Ldh5GS2nhNintA", "alias": "rose32-bread-gilbertville", "name": "Rose32 Bread", "image_url": "https://s3-media1.fl.yelpcdn.com/bphoto/CYAKfGeh5XCrTses4exOhw/o.jpg", "is_closed": false, "url": "https://www.yelp.com/biz/rose32-bread-gilbertville?adjust_creative=ywY5UnLZrNrRl2b93Ruy_g&utm_campaign=yelp_api_v3&utm_medium=api_v3_business_search&utm_source=ywY5UnLZrNrRl2b93Ruy_g", "review_count": 85, "categories": [{"alias": "bakeries", "title": "Bakeries"}, {"alias": "breakfast_brunch", "title": "Breakfast & Brunch"}, {"alias": "tradamerican", "title": "American (Traditional)"}], "rating": 4.5, "coordinates": {"latitude": 42.304067, "longitude": -72.211452}, "transactions": [], "price": "$$", "location": {"address1": "412 Main St", "address2": "", "address3": "", "city": "Gilbertville", "zip_code": "01031", "country": "US", "state": "MA", "display_address": ["412 Main St", "Gilbertville, MA 01031"]}, "phone": "+14134779930", "display_phone": "(413) 477-9930", "distance": 16268.822768753003}, {"id": "sRO-U8Kxd1tXJlENTqv89A", "alias": "miss-saigon-amherst", "name": "Miss Saigon", "image_url": "https://s3-media2.fl.yelpcdn.com/bphoto/ewJ4OfKjEDPImLUeFgcpaA/o.jpg", "is_closed": false, "url": "https://www.yelp.com/biz/miss-saigon-amherst?adjust_creative=ywY5UnLZrNrRl2b93Ruy_g&utm_campaign=yelp_api_v3&utm_medium=api_v3_business_search&utm_source=ywY5UnLZrNrRl2b93Ruy_g", "review_count": 183, "categories": [{"alias": "vietnamese", "title": "Vietnamese"}, {"alias": "salad", "title": "Salad"}, {"alias": "soup", "title": "Soup"}], "rating": 3.5, "coordinates": {"latitude": 42.377159, "longitude": -72.5204679}, "transactions": ["delivery"], "price": "$$", "location": {"address1": "96 N Pleasant St", "address2": "", "address3": null, "city": "Amherst", "zip_code": "01002", "country": "US", "state": "MA", "display_address": ["96 N Pleasant St", "Amherst, MA 01002"]}, "phone": "+14132539988", "display_phone": "(413) 253-9988", "distance": 17324.565279670263}, {"id": "i_N21-BF8Lj3ejHEldeWqA", "alias": "bueno-y-sano-amherst", "name": "Bueno Y Sano", "image_url": "https://s3-media1.fl.yelpcdn.com/bphoto/duOb3oSfyUVi4k-NmZqQdQ/o.jpg", "is_closed": false, "url": "https://www.yelp.com/biz/bueno-y-sano-amherst?adjust_creative=ywY5UnLZrNrRl2b93Ruy_g&utm_campaign=yelp_api_v3&utm_medium=api_v3_business_search&utm_source=ywY5UnLZrNrRl2b93Ruy_g", "review_count": 204, "categories": [{"alias": "mexican", "title": "Mexican"}], "rating": 4.0, "coordinates": {"latitude": 42.3759103, "longitude": -72.5184821}, "transactions": ["delivery", "pickup"], "price": "$", "location": {"address1": "1 Boltwood Walk", "address2": null, "address3": "", "city": "Amherst", "zip_code": "01002", "country": "US", "state": "MA", "display_address": ["1 Boltwood Walk", "Amherst, MA 01002"]}, "phone": "+14132534000", "display_phone": "(413) 253-4000", "distance": 17221.173474004572}, {"id": "WSV-t7fuDkvZonTC-MHbPw", "alias": "lit-restaurant-and-lounge-amherst", "name": "Lit Restaurant & Lounge", "image_url": "https://s3-media1.fl.yelpcdn.com/bphoto/Bs3jjvEUd2acuZb4fk0cdA/o.jpg", "is_closed": false, "url": "https://www.yelp.com/biz/lit-restaurant-and-lounge-amherst?adjust_creative=ywY5UnLZrNrRl2b93Ruy_g&utm_campaign=yelp_api_v3&utm_medium=api_v3_business_search&utm_source=ywY5UnLZrNrRl2b93Ruy_g", "review_count": 11, "categories": [{"alias": "danceclubs", "title": "Dance Clubs"}, {"alias": "lounges", "title": "Lounges"}, {"alias": "newamerican", "title": "American (New)"}], "rating": 3.5, "coordinates": {"latitude": 42.3763305335657, "longitude": -72.5191700687967}, "transactions": [], "price": "$$", "location": {"address1": "41 Boltwood Walk", "address2": "", "address3": "", "city": "Amherst", "zip_code": "01002", "country": "US", "state": "MA", "display_address": ["41 Boltwood Walk", "Amherst, MA 01002"]}, "phone": "+14133206322", "display_phone": "(413) 320-6322", "distance": 17231.76240281796}, {"id": "mdb20FDiW_bL3Hf0C1Jqvw", "alias": "iya-sushi-and-noodle-kitchen-amherst", "name": "IYA Sushi and Noodle Kitchen", "image_url": "https://s3-media4.fl.yelpcdn.com/bphoto/zkKWpDNZbJVLv5YiIVUAVg/o.jpg", "is_closed": false, "url": "https://www.yelp.com/biz/iya-sushi-and-noodle-kitchen-amherst?adjust_creative=ywY5UnLZrNrRl2b93Ruy_g&utm_campaign=yelp_api_v3&utm_medium=api_v3_business_search&utm_source=ywY5UnLZrNrRl2b93Ruy_g", "review_count": 25, "categories": [{"alias": "sushi", "title": "Sushi Bars"}, {"alias": "ramen", "title": "Ramen"}], "rating": 3.0, "coordinates": {"latitude": 42.37919, "longitude": -72.5195815}, "transactions": ["delivery", "pickup"], "location": {"address1": "1 E Pleasant St", "address2": "", "address3": null, "city": "Amherst", "zip_code": "01002", "country": "US", "state": "MA", "display_address": ["1 E Pleasant St", "Amherst, MA 01002"]}, "phone": "+14133278000", "display_phone": "(413) 327-8000", "distance": 17185.064222851208}, {"id": "d1PfS_bozULtBY4PjF3D-w", "alias": "antonios-amherst", "name": "Antonio's", "image_url": "https://s3-media1.fl.yelpcdn.com/bphoto/P-Xc3GMql09E_4KfL3t_XA/o.jpg", "is_closed": false, "url": "https://www.yelp.com/biz/antonios-amherst?adjust_creative=ywY5UnLZrNrRl2b93Ruy_g&utm_campaign=yelp_api_v3&utm_medium=api_v3_business_search&utm_source=ywY5UnLZrNrRl2b93Ruy_g", "review_count": 471, "categories": [{"alias": "pizza", "title": "Pizza"}], "rating": 4.5, "coordinates": {"latitude": 42.37619, "longitude": -72.51961}, "transactions": ["delivery"], "price": "$", "location": {"address1": "31 N Pleasant St", "address2": "", "address3": "", "city": "Amherst", "zip_code": "01002", "country": "US", "state": "MA", "display_address": ["31 N Pleasant St", "Amherst, MA 01002"]}, "phone": "+14132530808", "display_phone": "(413) 253-0808", "distance": 17292.87692712955}, {"id": "e5bI0nEjKHM6xYRc1hb3vA", "alias": "high-horse-amherst", "name": "High Horse", "image_url": "https://s3-media1.fl.yelpcdn.com/bphoto/4Lx-eMX-7hjyrSwfSGvKWQ/o.jpg", "is_closed": false, "url": "https://www.yelp.com/biz/high-horse-amherst?adjust_creative=ywY5UnLZrNrRl2b93Ruy_g&utm_campaign=yelp_api_v3&utm_medium=api_v3_business_search&utm_source=ywY5UnLZrNrRl2b93Ruy_g", "review_count": 274, "categories": [{"alias": "pubs", "title": "Pubs"}, {"alias": "newamerican", "title": "American (New)"}], "rating": 3.0, "coordinates": {"latitude": 42.376197040205, "longitude": -72.5201359183853}, "transactions": ["delivery"], "price": "$$", "location": {"address1": "24 N Pleasant St", "address2": "", "address3": "", "city": "Amherst", "zip_code": "01002", "country": "US", "state": "MA", "display_address": ["24 N Pleasant St", "Amherst, MA 01002"]}, "phone": "+14132303034", "display_phone": "(413) 230-3034", "distance": 17332.913331068572}, {"id": "BV7lzWCXot_NQaQ5YS9z7Q", "alias": "30-boltwood-amherst-2", "name": "30 Boltwood", "image_url": "https://s3-media1.fl.yelpcdn.com/bphoto/CeAd9sSs2k6QHFBtCyx0GQ/o.jpg", "is_closed": false, "url": "https://www.yelp.com/biz/30-boltwood-amherst-2?adjust_creative=ywY5UnLZrNrRl2b93Ruy_g&utm_campaign=yelp_api_v3&utm_medium=api_v3_business_search&utm_source=ywY5UnLZrNrRl2b93Ruy_g", "review_count": 67, "categories": [{"alias": "newamerican", "title": "American (New)"}, {"alias": "bars", "title": "Bars"}, {"alias": "breakfast_brunch", "title": "Breakfast & Brunch"}], "rating": 3.5, "coordinates": {"latitude": 42.37452, "longitude": -72.51826}, "transactions": ["delivery"], "price": "$$$", "location": {"address1": "30 Boltwood Ave", "address2": "", "address3": "", "city": "Amherst", "zip_code": "01002", "country": "US", "state": "MA", "display_address": ["30 Boltwood Ave", "Amherst, MA 01002"]}, "phone": "+14138352011", "display_phone": "(413) 835-2011", "distance": 17254.003543451636}, {"id": "IiX7lGoQQE3T4wg_1cx8Og", "alias": "fresh-side-amherst", "name": "Fresh Side", "image_url": "https://s3-media1.fl.yelpcdn.com/bphoto/JnFSiF5wYb9Y4yIojqiNiQ/o.jpg", "is_closed": false, "url": "https://www.yelp.com/biz/fresh-side-amherst?adjust_creative=ywY5UnLZrNrRl2b93Ruy_g&utm_campaign=yelp_api_v3&utm_medium=api_v3_business_search&utm_source=ywY5UnLZrNrRl2b93Ruy_g", "review_count": 179, "categories": [{"alias": "coffee", "title": "Coffee & Tea"}, {"alias": "panasian", "title": "Pan Asian"}], "rating": 3.5, "coordinates": {"latitude": 42.3752749, "longitude": -72.5200186}, "transactions": ["delivery"], "price": "$$", "location": {"address1": "39 S Pleasant St", "address2": "", "address3": "", "city": "Amherst", "zip_code": "01002", "country": "US", "state": "MA", "display_address": ["39 S Pleasant St", "Amherst, MA 01002"]}, "phone": "+14132560296", "display_phone": "(413) 256-0296", "distance": 17362.59438678856}, {"id": "F0kbFudS4Fj_UT0cJPn4Tg", "alias": "wong-garden-belchertown", "name": "Wong Garden", "image_url": "https://s3-media4.fl.yelpcdn.com/bphoto/NIF9q-xwMzYkmFyE2BCJDQ/o.jpg", "is_closed": false, "url": "https://www.yelp.com/biz/wong-garden-belchertown?adjust_creative=ywY5UnLZrNrRl2b93Ruy_g&utm_campaign=yelp_api_v3&utm_medium=api_v3_business_search&utm_source=ywY5UnLZrNrRl2b93Ruy_g", "review_count": 30, "categories": [{"alias": "chinese", "title": "Chinese"}], "rating": 3.0, "coordinates": {"latitude": 42.2887515, "longitude": -72.406968}, "transactions": [], "price": "$", "location": {"address1": "147 N Main St", "address2": null, "address3": null, "city": "Belchertown", "zip_code": "01007", "country": "US", "state": "MA", "display_address": ["147 N Main St", "Belchertown, MA 01007"]}, "phone": "+14133236200", "display_phone": "(413) 323-6200", "distance": 16893.386303795156}, {"id": "Oa9YXvAs50RB-Xhc2BwXlg", "alias": "mimis-coffeehouse-of-hardwick-hardwick", "name": "Mimi's CoffeeHouse Of Hardwick", "image_url": "https://s3-media4.fl.yelpcdn.com/bphoto/NMlDkOX7whn4nYEiejmeSg/o.jpg", "is_closed": false, "url": "https://www.yelp.com/biz/mimis-coffeehouse-of-hardwick-hardwick?adjust_creative=ywY5UnLZrNrRl2b93Ruy_g&utm_campaign=yelp_api_v3&utm_medium=api_v3_business_search&utm_source=ywY5UnLZrNrRl2b93Ruy_g", "review_count": 3, "categories": [{"alias": "coffee", "title": "Coffee & Tea"}, {"alias": "breakfast_brunch", "title": "Breakfast & Brunch"}, {"alias": "sandwiches", "title": "Sandwiches"}], "rating": 4.5, "coordinates": {"latitude": 42.3486171468542, "longitude": -72.1993167786787}, "transactions": [], "price": "$$", "location": {"address1": "14 Barre Rd", "address2": "", "address3": null, "city": "Hardwick", "zip_code": "01037", "country": "US", "state": "MA", "display_address": ["14 Barre Rd", "Hardwick, MA 01037"]}, "phone": "+14134771144", "display_phone": "(413) 477-1144", "distance": 13163.89782235796}, {"id": "rfsbS44y-fo40Zis_9d7qg", "alias": "bite-me-please-amherst-center", "name": "Bite Me Please", "image_url": "https://s3-media4.fl.yelpcdn.com/bphoto/jpu3A2Uar32eGiQ0stg_4Q/o.jpg", "is_closed": false, "url": "https://www.yelp.com/biz/bite-me-please-amherst-center?adjust_creative=ywY5UnLZrNrRl2b93Ruy_g&utm_campaign=yelp_api_v3&utm_medium=api_v3_business_search&utm_source=ywY5UnLZrNrRl2b93Ruy_g", "review_count": 1, "categories": [{"alias": "foodstands", "title": "Food Stands"}], "rating": 4.0, "coordinates": {"latitude": 42.3752212524414, "longitude": -72.5198364257812}, "transactions": [], "location": {"address1": "", "address2": "", "address3": "", "city": "Amherst Center", "zip_code": "", "country": "US", "state": "MA", "display_address": ["Amherst Center, MA"]}, "phone": "+14132190591", "display_phone": "(413) 219-0591", "distance": 17294.4476679275}, {"id": "EqDWkMchtI0Oaj03pd3T9Q", "alias": "leverett-village-coop-leverett", "name": "Leverett Village Coop", "image_url": "https://s3-media3.fl.yelpcdn.com/bphoto/4dd7y7ajwGHO_OoMEO5ZIg/o.jpg", "is_closed": false, "url": "https://www.yelp.com/biz/leverett-village-coop-leverett?adjust_creative=ywY5UnLZrNrRl2b93Ruy_g&utm_campaign=yelp_api_v3&utm_medium=api_v3_business_search&utm_source=ywY5UnLZrNrRl2b93Ruy_g", "review_count": 5, "categories": [{"alias": "bakeries", "title": "Bakeries"}, {"alias": "cafes", "title": "Cafes"}, {"alias": "breakfast_brunch", "title": "Breakfast & Brunch"}], "rating": 4.0, "coordinates": {"latitude": 42.494564, "longitude": -72.469718}, "transactions": [], "price": "$$", "location": {"address1": "180 Rattlesnake Gutter Rd", "address2": "", "address3": "", "city": "Leverett", "zip_code": "01054", "country": "US", "state": "MA", "display_address": ["180 Rattlesnake Gutter Rd", "Leverett, MA 01054"]}, "phone": "+14133679794", "display_phone": "(413) 367-9794", "distance": 14419.863679480328}, {"id": "leTHc9wctzklRk6rGw7VBw", "alias": "the-university-club-and-restaurant-amherst", "name": "The University Club & Restaurant", "image_url": "https://s3-media3.fl.yelpcdn.com/bphoto/Z2aAUuOi-k7EsO4_wi92nA/o.jpg", "is_closed": false, "url": "https://www.yelp.com/biz/the-university-club-and-restaurant-amherst?adjust_creative=ywY5UnLZrNrRl2b93Ruy_g&utm_campaign=yelp_api_v3&utm_medium=api_v3_business_search&utm_source=ywY5UnLZrNrRl2b93Ruy_g", "review_count": 8, "categories": [{"alias": "tradamerican", "title": "American (Traditional)"}, {"alias": "newamerican", "title": "American (New)"}, {"alias": "lounges", "title": "Lounges"}], "rating": 3.5, "coordinates": {"latitude": 42.3891652753559, "longitude": -72.5234329620205}, "transactions": ["delivery"], "price": "$$$", "location": {"address1": "243 Stockbridge Rd", "address2": "", "address3": "", "city": "Amherst", "zip_code": "01003", "country": "US", "state": "MA", "display_address": ["243 Stockbridge Rd", "Amherst, MA 01003"]}, "phone": "+14135452551", "display_phone": "(413) 545-2551", "distance": 17183.64228428352}, {"id": "vk2DFcUOZPFd9TprRxmCoQ", "alias": "min-fen-kitchen-belchertown-2", "name": "Min Fen Kitchen", "image_url": "https://s3-media3.fl.yelpcdn.com/bphoto/sOURdtV6vvpwfx4UbMRCwQ/o.jpg", "is_closed": false, "url": "https://www.yelp.com/biz/min-fen-kitchen-belchertown-2?adjust_creative=ywY5UnLZrNrRl2b93Ruy_g&utm_campaign=yelp_api_v3&utm_medium=api_v3_business_search&utm_source=ywY5UnLZrNrRl2b93Ruy_g", "review_count": 12, "categories": [{"alias": "chinese", "title": "Chinese"}], "rating": 3.5, "coordinates": {"latitude": 42.277134, "longitude": -72.401396}, "transactions": [], "price": "$", "location": {"address1": "11 Main St", "address2": "", "address3": "", "city": "Belchertown", "zip_code": "01007", "country": "US", "state": "MA", "display_address": ["11 Main St", "Belchertown, MA 01007"]}, "phone": "+14133238228", "display_phone": "(413) 323-8228", "distance": 17878.02362066069}, {"id": "v8dqq-bW7cTLvo_jECUraA", "alias": "cheers-cut-amherst-amherst", "name": "Cheers Cut Amherst", "image_url": "https://s3-media2.fl.yelpcdn.com/bphoto/HZ5g3ozwe4wrvOuRVz2Nmw/o.jpg", "is_closed": false, "url": "https://www.yelp.com/biz/cheers-cut-amherst-amherst?adjust_creative=ywY5UnLZrNrRl2b93Ruy_g&utm_campaign=yelp_api_v3&utm_medium=api_v3_business_search&utm_source=ywY5UnLZrNrRl2b93Ruy_g", "review_count": 3, "categories": [{"alias": "chickenshop", "title": "Chicken Shop"}], "rating": 2.5, "coordinates": {"latitude": 42.376064, "longitude": -72.519357}, "transactions": ["delivery", "pickup"], "location": {"address1": "31 Boltwood Walk", "address2": null, "address3": "", "city": "Amherst", "zip_code": "01002", "country": "US", "state": "MA", "display_address": ["31 Boltwood Walk", "Amherst, MA 01002"]}, "phone": "+14132303127", "display_phone": "(413) 230-3127", "distance": 17276.833504685503}, {"id": "ZiDnZGOCsr9xBGEL9ihzjg", "alias": "panda-east-amherst-2", "name": "Panda East", "image_url": "https://s3-media4.fl.yelpcdn.com/bphoto/TFJTGvU83_lxSSMSbAYjVQ/o.jpg", "is_closed": false, "url": "https://www.yelp.com/biz/panda-east-amherst-2?adjust_creative=ywY5UnLZrNrRl2b93Ruy_g&utm_campaign=yelp_api_v3&utm_medium=api_v3_business_search&utm_source=ywY5UnLZrNrRl2b93Ruy_g", "review_count": 96, "categories": [{"alias": "chinese", "title": "Chinese"}, {"alias": "japanese", "title": "Japanese"}], "rating": 3.0, "coordinates": {"latitude": 42.37722, "longitude": -72.51936}, "transactions": ["delivery"], "price": "$$", "location": {"address1": "103 N Pleasant St", "address2": "", "address3": "", "city": "Amherst", "zip_code": "01002", "country": "US", "state": "MA", "display_address": ["103 N Pleasant St", "Amherst, MA 01002"]}, "phone": "+14132568923", "display_phone": "(413) 256-8923", "distance": 17249.216737626717}, {"id": "3Wr0o6qZfbUoP7mkl0zPoQ", "alias": "la-veracruzana-mexican-restaurant-amherst", "name": "La Veracruzana Mexican Restaurant", "image_url": "https://s3-media4.fl.yelpcdn.com/bphoto/6ThJ2mUPLvY3CqmQHLTk2Q/o.jpg", "is_closed": false, "url": "https://www.yelp.com/biz/la-veracruzana-mexican-restaurant-amherst?adjust_creative=ywY5UnLZrNrRl2b93Ruy_g&utm_campaign=yelp_api_v3&utm_medium=api_v3_business_search&utm_source=ywY5UnLZrNrRl2b93Ruy_g", "review_count": 105, "categories": [{"alias": "mexican", "title": "Mexican"}], "rating": 3.0, "coordinates": {"latitude": 42.374797453538, "longitude": -72.520020664947}, "transactions": ["delivery"], "price": "$$", "location": {"address1": "63 S Pleasant St", "address2": "", "address3": "", "city": "Amherst", "zip_code": "01002", "country": "US", "state": "MA", "display_address": ["63 S Pleasant St", "Amherst, MA 01002"]}, "phone": "+14132536900", "display_phone": "(413) 253-6900", "distance": 17374.81105332788}, {"id": "bUOQz09aRLhDVV5Lg35o6w", "alias": "paradise-of-india-restaurant-amherst", "name": "Paradise Of India Restaurant", "image_url": "https://s3-media4.fl.yelpcdn.com/bphoto/bzRIUko7RhNRfr8ANGpMSg/o.jpg", "is_closed": false, "url": "https://www.yelp.com/biz/paradise-of-india-restaurant-amherst?adjust_creative=ywY5UnLZrNrRl2b93Ruy_g&utm_campaign=yelp_api_v3&utm_medium=api_v3_business_search&utm_source=ywY5UnLZrNrRl2b93Ruy_g", "review_count": 44, "categories": [{"alias": "indpak", "title": "Indian"}], "rating": 3.0, "coordinates": {"latitude": 42.375682107816, "longitude": -72.518003456808}, "transactions": ["delivery"], "price": "$$", "location": {"address1": "87 Main St", "address2": "", "address3": "", "city": "Amherst", "zip_code": "01002", "country": "US", "state": "MA", "display_address": ["87 Main St", "Amherst, MA 01002"]}, "phone": "+14132561067", "display_phone": "(413) 256-1067", "distance": 17185.93896933072}, {"id": "VlzeNUSkepYtIgYCkrqRbg", "alias": "the-lone-wolf-amherst", "name": "The Lone Wolf", "image_url": "https://s3-media3.fl.yelpcdn.com/bphoto/16Ov-_O1_0h4BzipsZG9GQ/o.jpg", "is_closed": false, "url": "https://www.yelp.com/biz/the-lone-wolf-amherst?adjust_creative=ywY5UnLZrNrRl2b93Ruy_g&utm_campaign=yelp_api_v3&utm_medium=api_v3_business_search&utm_source=ywY5UnLZrNrRl2b93Ruy_g", "review_count": 246, "categories": [{"alias": "breakfast_brunch", "title": "Breakfast & Brunch"}, {"alias": "tradamerican", "title": "American (Traditional)"}], "rating": 4.0, "coordinates": {"latitude": 42.3755499, "longitude": -72.5184699}, "transactions": ["delivery"], "price": "$$", "location": {"address1": "63 Main St", "address2": null, "address3": "", "city": "Amherst", "zip_code": "01002", "country": "US", "state": "MA", "display_address": ["63 Main St", "Amherst, MA 01002"]}, "phone": "+14132564643", "display_phone": "(413) 256-4643", "distance": 17224.80635276494}, {"id": "bzP1utyRGu6ywPric5UmGg", "alias": "arigato-sushi-amherst", "name": "Arigato Sushi", "image_url": "https://s3-media2.fl.yelpcdn.com/bphoto/ilaUY0nSTDWV0uGxKWxSKQ/o.jpg", "is_closed": false, "url": "https://www.yelp.com/biz/arigato-sushi-amherst?adjust_creative=ywY5UnLZrNrRl2b93Ruy_g&utm_campaign=yelp_api_v3&utm_medium=api_v3_business_search&utm_source=ywY5UnLZrNrRl2b93Ruy_g", "review_count": 75, "categories": [{"alias": "sushi", "title": "Sushi Bars"}, {"alias": "japanese", "title": "Japanese"}, {"alias": "korean", "title": "Korean"}], "rating": 3.5, "coordinates": {"latitude": 42.3759798393699, "longitude": -72.5196934563388}, "transactions": ["delivery"], "price": "$$", "location": {"address1": "11 N Pleasant St", "address2": null, "address3": "", "city": "Amherst", "zip_code": "01002", "country": "US", "state": "MA", "display_address": ["11 N Pleasant St", "Amherst, MA 01002"]}, "phone": "+14132531070", "display_phone": "(413) 253-1070", "distance": 17306.33759727886}, {"id": "_9fx7H2bsf_COclbn5xbrg", "alias": "worcester-dining-commons-amherst", "name": "Worcester Dining Commons", "image_url": "https://s3-media1.fl.yelpcdn.com/bphoto/ty1MQG9UGyR0vn8sLx5Fqw/o.jpg", "is_closed": false, "url": "https://www.yelp.com/biz/worcester-dining-commons-amherst?adjust_creative=ywY5UnLZrNrRl2b93Ruy_g&utm_campaign=yelp_api_v3&utm_medium=api_v3_business_search&utm_source=ywY5UnLZrNrRl2b93Ruy_g", "review_count": 3, "categories": [{"alias": "soup", "title": "Soup"}, {"alias": "pizza", "title": "Pizza"}], "rating": 4.0, "coordinates": {"latitude": 42.3936650395243, "longitude": -72.5240462528631}, "transactions": [], "price": "$", "location": {"address1": "669 N Pleasant St", "address2": "", "address3": "", "city": "Amherst", "zip_code": "01003", "country": "US", "state": "MA", "display_address": ["669 N Pleasant St", "Amherst, MA 01003"]}, "phone": "+14135452472", "display_phone": "(413) 545-2472", "distance": 17120.724715496854}, {"id": "Kr3vRRhCDsLj6LY6OEaR5A", "alias": "king-phillip-motel-phillipston", "name": "King Phillip Motel", "image_url": "", "is_closed": false, "url": "https://www.yelp.com/biz/king-phillip-motel-phillipston?adjust_creative=ywY5UnLZrNrRl2b93Ruy_g&utm_campaign=yelp_api_v3&utm_medium=api_v3_business_search&utm_source=ywY5UnLZrNrRl2b93Ruy_g", "review_count": 3, "categories": [{"alias": "hotels", "title": "Hotels"}, {"alias": "restaurants", "title": "Restaurants"}], "rating": 3.0, "coordinates": {"latitude": 42.5698651, "longitude": -72.1321599}, "transactions": [], "location": {"address1": "35 State Rd", "address2": "", "address3": "", "city": "Phillipston", "zip_code": "01331", "country": "US", "state": "MA", "display_address": ["35 State Rd", "Phillipston, MA 01331"]}, "phone": "+19782495300", "display_phone": "(978) 249-5300", "distance": 22181.062722344563}, {"id": "Rlt9O-ZnZJwbbz5lNnOe7A", "alias": "greeno-sub-shop-amherst", "name": "Greeno Sub Shop", "image_url": "https://s3-media1.fl.yelpcdn.com/bphoto/YuGAq9LxHLjiE7lQ9rm3KQ/o.jpg", "is_closed": false, "url": "https://www.yelp.com/biz/greeno-sub-shop-amherst?adjust_creative=ywY5UnLZrNrRl2b93Ruy_g&utm_campaign=yelp_api_v3&utm_medium=api_v3_business_search&utm_source=ywY5UnLZrNrRl2b93Ruy_g", "review_count": 3, "categories": [{"alias": "sandwiches", "title": "Sandwiches"}], "rating": 3.5, "coordinates": {"latitude": 42.3904151916504, "longitude": -72.5283737182617}, "transactions": [], "price": "$", "location": {"address1": "120 Greenough Hall Basement", "address2": "", "address3": "", "city": "Amherst", "zip_code": "01003", "country": "US", "state": "MA", "display_address": ["120 Greenough Hall Basement", "Amherst, MA 01003"]}, "phone": "+14135452380", "display_phone": "(413) 545-2380", "distance": 16836.139750850907}, {"id": "r9-dhj_D6aMgxqIEIIzxLQ", "alias": "hardwick-house-of-pizza-gilbertville", "name": "Hardwick House of Pizza", "image_url": "https://s3-media3.fl.yelpcdn.com/bphoto/U1v5kFxk8Fot1l3t8QEiWQ/o.jpg", "is_closed": false, "url": "https://www.yelp.com/biz/hardwick-house-of-pizza-gilbertville?adjust_creative=ywY5UnLZrNrRl2b93Ruy_g&utm_campaign=yelp_api_v3&utm_medium=api_v3_business_search&utm_source=ywY5UnLZrNrRl2b93Ruy_g", "review_count": 6, "categories": [{"alias": "pizza", "title": "Pizza"}], "rating": 2.0, "coordinates": {"latitude": 42.3129577, "longitude": -72.2049821}, "transactions": [], "price": "$", "location": {"address1": "2 Main", "address2": "", "address3": null, "city": "Gilbertville", "zip_code": "01031", "country": "US", "state": "MA", "display_address": ["2 Main", "Gilbertville, MA 01031"]}, "phone": "+14134776001", "display_phone": "(413) 477-6001", "distance": 15750.45305462843}, {"id": "oCq_1uSutCa1PgUrnplA9w", "alias": "kristinas-kafe-and-bakery-belchertown", "name": "Kristina's Kafe and Bakery", "image_url": "https://s3-media1.fl.yelpcdn.com/bphoto/qM1fvwP0mKdskWc8TeZaOA/o.jpg", "is_closed": false, "url": "https://www.yelp.com/biz/kristinas-kafe-and-bakery-belchertown?adjust_creative=ywY5UnLZrNrRl2b93Ruy_g&utm_campaign=yelp_api_v3&utm_medium=api_v3_business_search&utm_source=ywY5UnLZrNrRl2b93Ruy_g", "review_count": 71, "categories": [{"alias": "bakeries", "title": "Bakeries"}, {"alias": "breakfast_brunch", "title": "Breakfast & Brunch"}, {"alias": "sandwiches", "title": "Sandwiches"}], "rating": 4.0, "coordinates": {"latitude": 42.28034, "longitude": -72.40398}, "transactions": [], "price": "$$", "location": {"address1": "9 N Main St", "address2": "", "address3": "", "city": "Belchertown", "zip_code": "01007", "country": "US", "state": "MA", "display_address": ["9 N Main St", "Belchertown, MA 01007"]}, "phone": "+14133235733", "display_phone": "(413) 323-5733", "distance": 17628.17629680241}, {"id": "WQkrz00jNyQsaJadxL0h7Q", "alias": "kellys-restaurant-amherst", "name": "Kelly's Restaurant", "image_url": "https://s3-media4.fl.yelpcdn.com/bphoto/hwuMSRbWALIzfeUkyoHXWA/o.jpg", "is_closed": false, "url": "https://www.yelp.com/biz/kellys-restaurant-amherst?adjust_creative=ywY5UnLZrNrRl2b93Ruy_g&utm_campaign=yelp_api_v3&utm_medium=api_v3_business_search&utm_source=ywY5UnLZrNrRl2b93Ruy_g", "review_count": 19, "categories": [{"alias": "newamerican", "title": "American (New)"}, {"alias": "breakfast_brunch", "title": "Breakfast & Brunch"}], "rating": 3.5, "coordinates": {"latitude": 42.373229, "longitude": -72.503424}, "transactions": ["delivery"], "price": "$", "location": {"address1": "314 College St", "address2": "", "address3": "", "city": "Amherst", "zip_code": "01002", "country": "US", "state": "MA", "display_address": ["314 College St", "Amherst, MA 01002"]}, "phone": "+14132539521", "display_phone": "(413) 253-9521", "distance": 16157.568355797279}, {"id": "08KuvUqdONvE2YE9OGKqWQ", "alias": "sibies-pizza-amherst", "name": "Sibie's Pizza", "image_url": "https://s3-media4.fl.yelpcdn.com/bphoto/FT0_Pmw4uTNcR1gItpb9mg/o.jpg", "is_closed": false, "url": "https://www.yelp.com/biz/sibies-pizza-amherst?adjust_creative=ywY5UnLZrNrRl2b93Ruy_g&utm_campaign=yelp_api_v3&utm_medium=api_v3_business_search&utm_source=ywY5UnLZrNrRl2b93Ruy_g", "review_count": 44, "categories": [{"alias": "pizza", "title": "Pizza"}, {"alias": "chicken_wings", "title": "Chicken Wings"}, {"alias": "vegan", "title": "Vegan"}], "rating": 4.0, "coordinates": {"latitude": 42.339745, "longitude": -72.520776}, "transactions": ["delivery", "pickup"], "price": "$", "location": {"address1": "481 West St", "address2": "", "address3": "", "city": "Amherst", "zip_code": "01002", "country": "US", "state": "MA", "display_address": ["481 West St", "Amherst, MA 01002"]}, "phone": "+14132566100", "display_phone": "(413) 256-6100", "distance": 19080.534621001578}, {"id": "CUhWTw6pJoTt81sMf1d2jQ", "alias": "the-belchertown-pizza-shop-belchertown-2", "name": "The Belchertown Pizza Shop", "image_url": "https://s3-media1.fl.yelpcdn.com/bphoto/hYRDG0r-R9o82ZtplReY9A/o.jpg", "is_closed": false, "url": "https://www.yelp.com/biz/the-belchertown-pizza-shop-belchertown-2?adjust_creative=ywY5UnLZrNrRl2b93Ruy_g&utm_campaign=yelp_api_v3&utm_medium=api_v3_business_search&utm_source=ywY5UnLZrNrRl2b93Ruy_g", "review_count": 21, "categories": [{"alias": "pizza", "title": "Pizza"}, {"alias": "desserts", "title": "Desserts"}, {"alias": "salad", "title": "Salad"}], "rating": 2.5, "coordinates": {"latitude": 42.2770346, "longitude": -72.4008884}, "transactions": [], "price": "$$", "location": {"address1": "4 Park St", "address2": "", "address3": "", "city": "Belchertown", "zip_code": "01007", "country": "US", "state": "MA", "display_address": ["4 Park St", "Belchertown, MA 01007"]}, "phone": "+14133230300", "display_phone": "(413) 323-0300", "distance": 17872.774360811974}, {"id": "7rD52PKYYUpAQDSruT8UJA", "alias": "primo-pizzeria-too-amherst", "name": "Primo Pizzeria Too", "image_url": "https://s3-media3.fl.yelpcdn.com/bphoto/n7w5NR3glh-ADtjH0UQdKg/o.jpg", "is_closed": false, "url": "https://www.yelp.com/biz/primo-pizzeria-too-amherst?adjust_creative=ywY5UnLZrNrRl2b93Ruy_g&utm_campaign=yelp_api_v3&utm_medium=api_v3_business_search&utm_source=ywY5UnLZrNrRl2b93Ruy_g", "review_count": 27, "categories": [{"alias": "pizza", "title": "Pizza"}, {"alias": "italian", "title": "Italian"}, {"alias": "burgers", "title": "Burgers"}], "rating": 3.5, "coordinates": {"latitude": 42.3811003969016, "longitude": -72.5186309760506}, "transactions": ["delivery"], "price": "$", "location": {"address1": "255 Triangle St", "address2": "", "address3": "", "city": "Amherst", "zip_code": "01002", "country": "US", "state": "MA", "display_address": ["255 Triangle St", "Amherst, MA 01002"]}, "phone": "+14136580100", "display_phone": "(413) 658-0100", "distance": 17031.119445955854}, {"id": "-QyJ17Tl5StCDa-J4tWCQw", "alias": "valentine-dining-hall-amherst", "name": "Valentine Dining Hall", "image_url": "https://s3-media2.fl.yelpcdn.com/bphoto/MElCxmjV49nCBS6tStIZBw/o.jpg", "is_closed": false, "url": "https://www.yelp.com/biz/valentine-dining-hall-amherst?adjust_creative=ywY5UnLZrNrRl2b93Ruy_g&utm_campaign=yelp_api_v3&utm_medium=api_v3_business_search&utm_source=ywY5UnLZrNrRl2b93Ruy_g", "review_count": 3, "categories": [{"alias": "tradamerican", "title": "American (Traditional)"}, {"alias": "diners", "title": "Diners"}, {"alias": "breakfast_brunch", "title": "Breakfast & Brunch"}], "rating": 2.5, "coordinates": {"latitude": 42.3731250339904, "longitude": -72.51625}, "transactions": [], "location": {"address1": "59 College St", "address2": "", "address3": null, "city": "Amherst", "zip_code": "01002", "country": "US", "state": "MA", "display_address": ["59 College St", "Amherst, MA 01002"]}, "phone": "+14135422220", "display_phone": "(413) 542-2220", "distance": 17109.014531183835}, {"id": "Lwjwq2MI6EBw-adaJCv4zQ", "alias": "roadhouse-cafe-belchertown", "name": "Roadhouse Cafe", "image_url": "https://s3-media4.fl.yelpcdn.com/bphoto/pX6Z4TaChsSy3q0PHpP1EQ/o.jpg", "is_closed": false, "url": "https://www.yelp.com/biz/roadhouse-cafe-belchertown?adjust_creative=ywY5UnLZrNrRl2b93Ruy_g&utm_campaign=yelp_api_v3&utm_medium=api_v3_business_search&utm_source=ywY5UnLZrNrRl2b93Ruy_g", "review_count": 78, "categories": [{"alias": "breakfast_brunch", "title": "Breakfast & Brunch"}, {"alias": "cafes", "title": "Cafes"}], "rating": 3.0, "coordinates": {"latitude": 42.29843, "longitude": -72.41532}, "transactions": [], "price": "$$", "location": {"address1": "178 Federal St", "address2": "", "address3": "", "city": "Belchertown", "zip_code": "01007", "country": "US", "state": "MA", "display_address": ["178 Federal St", "Belchertown, MA 01007"]}, "phone": "+14133236175", "display_phone": "(413) 323-6175", "distance": 16223.074541015589}, {"id": "MQ9PTbD-EFRUxhg0R5kjUw", "alias": "cushman-market-and-cafe-amherst", "name": "Cushman Market and Cafe", "image_url": "https://s3-media1.fl.yelpcdn.com/bphoto/DO5X8alL6hHAyTMwtOLyvg/o.jpg", "is_closed": false, "url": "https://www.yelp.com/biz/cushman-market-and-cafe-amherst?adjust_creative=ywY5UnLZrNrRl2b93Ruy_g&utm_campaign=yelp_api_v3&utm_medium=api_v3_business_search&utm_source=ywY5UnLZrNrRl2b93Ruy_g", "review_count": 82, "categories": [{"alias": "breakfast_brunch", "title": "Breakfast & Brunch"}, {"alias": "grocery", "title": "Grocery"}, {"alias": "coffee", "title": "Coffee & Tea"}], "rating": 4.0, "coordinates": {"latitude": 42.4126167297363, "longitude": -72.5079345703125}, "transactions": ["delivery", "pickup"], "price": "$", "location": {"address1": "491 Pine St", "address2": "", "address3": "", "city": "Amherst", "zip_code": "01002", "country": "US", "state": "MA", "display_address": ["491 Pine St", "Amherst, MA 01002"]}, "phone": "+14135490100", "display_phone": "(413) 549-0100", "distance": 15484.091438283038}, {"id": "QxuZGiHF3jnatCUmI41FmA", "alias": "the-black-sheep-deli-amherst-2", "name": "The Black Sheep Deli", "image_url": "https://s3-media2.fl.yelpcdn.com/bphoto/DCb__h0cGUGK2wA-6T_ZEQ/o.jpg", "is_closed": false, "url": "https://www.yelp.com/biz/the-black-sheep-deli-amherst-2?adjust_creative=ywY5UnLZrNrRl2b93Ruy_g&utm_campaign=yelp_api_v3&utm_medium=api_v3_business_search&utm_source=ywY5UnLZrNrRl2b93Ruy_g", "review_count": 152, "categories": [{"alias": "bakeries", "title": "Bakeries"}, {"alias": "delis", "title": "Delis"}], "rating": 3.5, "coordinates": {"latitude": 42.3754577636719, "longitude": -72.5180435180664}, "transactions": ["delivery"], "price": "$", "location": {"address1": "79 Main St", "address2": "", "address3": "", "city": "Amherst", "zip_code": "01002", "country": "US", "state": "MA", "display_address": ["79 Main St", "Amherst, MA 01002"]}, "phone": "+14132533442", "display_phone": "(413) 253-3442", "distance": 17197.535627083158}, {"id": "KbFb1n-RZd5HOn2q1qOD1A", "alias": "brunos-pizza-amherst", "name": "Bruno's Pizza", "image_url": "https://s3-media3.fl.yelpcdn.com/bphoto/hXRlZF08A_ATYFsuWGx9-A/o.jpg", "is_closed": false, "url": "https://www.yelp.com/biz/brunos-pizza-amherst?adjust_creative=ywY5UnLZrNrRl2b93Ruy_g&utm_campaign=yelp_api_v3&utm_medium=api_v3_business_search&utm_source=ywY5UnLZrNrRl2b93Ruy_g", "review_count": 51, "categories": [{"alias": "pizza", "title": "Pizza"}], "rating": 3.5, "coordinates": {"latitude": 42.3757726413449, "longitude": -72.5127280375822}, "transactions": ["delivery"], "price": "$", "location": {"address1": "363 Main St", "address2": "", "address3": "", "city": "Amherst", "zip_code": "01002", "country": "US", "state": "MA", "display_address": ["363 Main St", "Amherst, MA 01002"]}, "phone": "+14132560222", "display_phone": "(413) 256-0222", "distance": 16773.884953111763}, {"id": "aZ0spgQ-Hfr3j8OLbtQ8kQ", "alias": "zhangs-kitchen-amherst", "name": "Zhang's Kitchen", "image_url": "https://s3-media2.fl.yelpcdn.com/bphoto/wsG_-KqgFhk91wyJLPNOvw/o.jpg", "is_closed": false, "url": "https://www.yelp.com/biz/zhangs-kitchen-amherst?adjust_creative=ywY5UnLZrNrRl2b93Ruy_g&utm_campaign=yelp_api_v3&utm_medium=api_v3_business_search&utm_source=ywY5UnLZrNrRl2b93Ruy_g", "review_count": 28, "categories": [{"alias": "chinese", "title": "Chinese"}], "rating": 2.5, "coordinates": {"latitude": 42.3407759993207, "longitude": -72.5196475170102}, "transactions": ["delivery", "pickup"], "price": "$", "location": {"address1": "460 West St", "address2": "", "address3": "", "city": "Amherst", "zip_code": "01002", "country": "US", "state": "MA", "display_address": ["460 West St", "Amherst, MA 01002"]}, "phone": "+14132530584", "display_phone": "(413) 253-0584", "distance": 18938.757309556688}, {"id": "Dh1VmD7hHemz_J1iysZs_A", "alias": "subway-belchertown-3", "name": "Subway", "image_url": "https://s3-media1.fl.yelpcdn.com/bphoto/ToB9Q7CWePLRA8IBmfANBA/o.jpg", "is_closed": false, "url": "https://www.yelp.com/biz/subway-belchertown-3?adjust_creative=ywY5UnLZrNrRl2b93Ruy_g&utm_campaign=yelp_api_v3&utm_medium=api_v3_business_search&utm_source=ywY5UnLZrNrRl2b93Ruy_g", "review_count": 3, "categories": [{"alias": "sandwiches", "title": "Sandwiches"}], "rating": 3.0, "coordinates": {"latitude": 42.2886725, "longitude": -72.4075052577242}, "transactions": [], "price": "$", "location": {"address1": "145 N Main St", "address2": "", "address3": "", "city": "Belchertown", "zip_code": "01007", "country": "US", "state": "MA", "display_address": ["145 N Main St", "Belchertown, MA 01007"]}, "phone": "+14133234735", "display_phone": "(413) 323-4735", "distance": 16900.95434665639}, {"id": "6G7I24vIiyLp4_7nSNICew", "alias": "whistle-stop-restaurant-hardwick", "name": "Whistle Stop Restaurant", "image_url": "https://s3-media4.fl.yelpcdn.com/bphoto/co5S3IgUc4H4d2Nf597Nlw/o.jpg", "is_closed": false, "url": "https://www.yelp.com/biz/whistle-stop-restaurant-hardwick?adjust_creative=ywY5UnLZrNrRl2b93Ruy_g&utm_campaign=yelp_api_v3&utm_medium=api_v3_business_search&utm_source=ywY5UnLZrNrRl2b93Ruy_g", "review_count": 3, "categories": [{"alias": "tradamerican", "title": "American (Traditional)"}, {"alias": "breakfast_brunch", "title": "Breakfast & Brunch"}, {"alias": "sandwiches", "title": "Sandwiches"}], "rating": 2.0, "coordinates": {"latitude": 42.30823, "longitude": -72.21081}, "transactions": [], "price": "$", "location": {"address1": "248 Main", "address2": "", "address3": "", "city": "Hardwick", "zip_code": "01037", "country": "US", "state": "MA", "display_address": ["248 Main", "Hardwick, MA 01037"]}, "phone": "+14134778888", "display_phone": "(413) 477-8888", "distance": 15911.41279858157}, {"id": "ZtM_ln7Tsn075y7RnDTsqQ", "alias": "sylvan-snack-bar-amherst", "name": "Sylvan Snack Bar", "image_url": "https://s3-media2.fl.yelpcdn.com/bphoto/y0DQzgfiJo8DUZDVWZk2Fw/o.jpg", "is_closed": false, "url": "https://www.yelp.com/biz/sylvan-snack-bar-amherst?adjust_creative=ywY5UnLZrNrRl2b93Ruy_g&utm_campaign=yelp_api_v3&utm_medium=api_v3_business_search&utm_source=ywY5UnLZrNrRl2b93Ruy_g", "review_count": 3, "categories": [{"alias": "desserts", "title": "Desserts"}, {"alias": "pizza", "title": "Pizza"}, {"alias": "sandwiches", "title": "Sandwiches"}], "rating": 3.0, "coordinates": {"latitude": 42.3973721265793, "longitude": -72.5196287781}, "transactions": [], "location": {"address1": "102 Eastman Ln", "address2": "", "address3": "McNamara Hall - UMass", "city": "Amherst", "zip_code": "01003", "country": "US", "state": "MA", "display_address": ["102 Eastman Ln", "McNamara Hall - UMass", "Amherst, MA 01003"]}, "phone": "+14135453020", "display_phone": "(413) 545-3020", "distance": 17132.54193309734}, {"id": "NWZbIKlYUT9LwUD7v-5vfA", "alias": "the-works-bakery-caf\u00e9-amherst", "name": "The Works Bakery Caf\u00e9", "image_url": "https://s3-media2.fl.yelpcdn.com/bphoto/w6Zcisqdu7cOkPZSNmtzJg/o.jpg", "is_closed": false, "url": "https://www.yelp.com/biz/the-works-bakery-caf%C3%A9-amherst?adjust_creative=ywY5UnLZrNrRl2b93Ruy_g&utm_campaign=yelp_api_v3&utm_medium=api_v3_business_search&utm_source=ywY5UnLZrNrRl2b93Ruy_g", "review_count": 67, "categories": [{"alias": "bagels", "title": "Bagels"}, {"alias": "sandwiches", "title": "Sandwiches"}, {"alias": "breakfast_brunch", "title": "Breakfast & Brunch"}], "rating": 3.0, "coordinates": {"latitude": 42.376465, "longitude": -72.52031}, "transactions": ["delivery"], "price": "$$", "location": {"address1": "48 N Pleasant St", "address2": "", "address3": "", "city": "Amherst", "zip_code": "01002", "country": "US", "state": "MA", "display_address": ["48 N Pleasant St", "Amherst, MA 01002"]}, "phone": "+14138350561", "display_phone": "(413) 835-0561", "distance": 17336.86665840314}, {"id": "EBOKlLXepUQImS8wV4068A", "alias": "subway-amherst-17", "name": "Subway", "image_url": "https://s3-media2.fl.yelpcdn.com/bphoto/8Lcf7urdszZgs5hG6MNr_w/o.jpg", "is_closed": false, "url": "https://www.yelp.com/biz/subway-amherst-17?adjust_creative=ywY5UnLZrNrRl2b93Ruy_g&utm_campaign=yelp_api_v3&utm_medium=api_v3_business_search&utm_source=ywY5UnLZrNrRl2b93Ruy_g", "review_count": 8, "categories": [{"alias": "sandwiches", "title": "Sandwiches"}], "rating": 2.5, "coordinates": {"latitude": 42.3758654810346, "longitude": -72.5196445020015}, "transactions": ["delivery", "pickup"], "price": "$", "location": {"address1": "4 Main St", "address2": "Store 1A", "address3": "", "city": "Amherst", "zip_code": "01002", "country": "US", "state": "MA", "display_address": ["4 Main St", "Store 1A", "Amherst, MA 01002"]}, "phone": "+14132561919", "display_phone": "(413) 256-1919", "distance": 17306.66549208356}, {"id": "7xfUwsnwfiI-FppHfXeq8w", "alias": "mcdonalds-belchertown", "name": "McDonald's", "image_url": "https://s3-media3.fl.yelpcdn.com/bphoto/vEDcWwtTZSaulesDaa94JA/o.jpg", "is_closed": false, "url": "https://www.yelp.com/biz/mcdonalds-belchertown?adjust_creative=ywY5UnLZrNrRl2b93Ruy_g&utm_campaign=yelp_api_v3&utm_medium=api_v3_business_search&utm_source=ywY5UnLZrNrRl2b93Ruy_g", "review_count": 12, "categories": [{"alias": "hotdogs", "title": "Fast Food"}, {"alias": "burgers", "title": "Burgers"}, {"alias": "coffee", "title": "Coffee & Tea"}], "rating": 1.5, "coordinates": {"latitude": 42.2883518825547, "longitude": -72.4062457680702}, "transactions": [], "price": "$", "location": {"address1": "148 N Main St", "address2": "", "address3": "", "city": "Belchertown", "zip_code": "01007", "country": "US", "state": "MA", "display_address": ["148 N Main St", "Belchertown, MA 01007"]}, "phone": "+14133236498", "display_phone": "(413) 323-6498", "distance": 16889.69612438626}, {"id": "A0e-tQr8h6nZ7a9VzZMgCg", "alias": "brueggers-bagels-amherst-2", "name": "Bruegger's Bagels", "image_url": "https://s3-media4.fl.yelpcdn.com/bphoto/Wo7oMIDoFYao7kQbaJ4pqw/o.jpg", "is_closed": false, "url": "https://www.yelp.com/biz/brueggers-bagels-amherst-2?adjust_creative=ywY5UnLZrNrRl2b93Ruy_g&utm_campaign=yelp_api_v3&utm_medium=api_v3_business_search&utm_source=ywY5UnLZrNrRl2b93Ruy_g", "review_count": 32, "categories": [{"alias": "bagels", "title": "Bagels"}, {"alias": "breakfast_brunch", "title": "Breakfast & Brunch"}, {"alias": "sandwiches", "title": "Sandwiches"}], "rating": 2.5, "coordinates": {"latitude": 42.3782241, "longitude": -72.5201029}, "transactions": [], "price": "$", "location": {"address1": "170 N Pleasant St", "address2": "", "address3": "", "city": "Amherst", "zip_code": "01002", "country": "US", "state": "MA", "display_address": ["170 N Pleasant St", "Amherst, MA 01002"]}, "phone": "+14132535713", "display_phone": "(413) 253-5713", "distance": 17275.774803003223}, {"id": "qqA8YX58xnmEXLyanHfdUg", "alias": "stufd-food-truck-brooklyn", "name": "Stuf'd Food Truck", "image_url": "https://s3-media2.fl.yelpcdn.com/bphoto/_Wn0i-tLIOFinw8BPAqxPA/o.jpg", "is_closed": false, "url": "https://www.yelp.com/biz/stufd-food-truck-brooklyn?adjust_creative=ywY5UnLZrNrRl2b93Ruy_g&utm_campaign=yelp_api_v3&utm_medium=api_v3_business_search&utm_source=ywY5UnLZrNrRl2b93Ruy_g", "review_count": 4, "categories": [{"alias": "sandwiches", "title": "Sandwiches"}, {"alias": "foodtrucks", "title": "Food Trucks"}], "rating": 4.0, "coordinates": {"latitude": 40.7124539, "longitude": -73.9287374}, "transactions": [], "location": {"address1": "178 Varick Ave", "address2": "", "address3": null, "city": "Brooklyn", "zip_code": "11237", "country": "US", "state": "NY", "display_address": ["178 Varick Ave", "Brooklyn, NY 11237"]}, "phone": "+18457091808", "display_phone": "(845) 709-1808", "distance": 232847.9809015847}]