[{"id": "QVEN-pSCAMvJr9K-ikBYZQ", "alias": "westwood-restaurant-and-pub-westfield", "name": "Westwood Restaurant and Pub", "image_url": "https://s3-media4.fl.yelpcdn.com/bphoto/Fb7BFmRjkg-d9gTaa6jRKg/o.jpg", "is_closed": false, "url": "https://www.yelp.com/biz/westwood-restaurant-and-pub-westfield?adjust_creative=asslzE1UV0XuKI953B1vtw&utm_campaign=yelp_api_v3&utm_medium=api_v3_business_search&utm_source=asslzE1UV0XuKI953B1vtw", "review_count": 87, "categories": [{"alias": "newamerican", "title": "American (New)"}, {"alias": "pubs", "title": "Pubs"}], "rating": 4.0, "coordinates": {"latitude": 42.1316153, "longitude": -72.7440194}, "transactions": ["delivery"], "price": "$$", "location": {"address1": "94 N Elm St", "address2": "", "address3": "", "city": "Westfield", "zip_code": "01085", "country": "US", "state": "MA", "display_address": ["94 N Elm St", "Westfield, MA 01085"]}, "phone": "+14135646963", "display_phone": "(413) 564-6963", "distance": 4145.417190142851}, {"id": "ZiHnY5W-l_08UP9XuLkjQQ", "alias": "santiago-family-restaurant-westfield", "name": "Santiago Family Restaurant", "image_url": "https://s3-media2.fl.yelpcdn.com/bphoto/dQvWCSS7lXhGE8e2KwTsLQ/o.jpg", "is_closed": false, "url": "https://www.yelp.com/biz/santiago-family-restaurant-westfield?adjust_creative=asslzE1UV0XuKI953B1vtw&utm_campaign=yelp_api_v3&utm_medium=api_v3_business_search&utm_source=asslzE1UV0XuKI953B1vtw", "review_count": 130, "categories": [{"alias": "spanish", "title": "Spanish"}, {"alias": "latin", "title": "Latin American"}], "rating": 5.0, "coordinates": {"latitude": 42.1244010925293, "longitude": -72.7496871948242}, "transactions": ["delivery"], "price": "$$", "location": {"address1": "34 Franklin St", "address2": "", "address3": "", "city": "Westfield", "zip_code": "01085", "country": "US", "state": "MA", "display_address": ["34 Franklin St", "Westfield, MA 01085"]}, "phone": "+14135620210", "display_phone": "(413) 562-0210", "distance": 4636.3485832584265}, {"id": "PtDrRhB6DJDwua5LdVWKNQ", "alias": "emmas-everyday-gourmet-westfield", "name": "Emma's Everyday Gourmet", "image_url": "https://s3-media2.fl.yelpcdn.com/bphoto/K75RtAGP4uS4ASBVjzPCRQ/o.jpg", "is_closed": false, "url": "https://www.yelp.com/biz/emmas-everyday-gourmet-westfield?adjust_creative=asslzE1UV0XuKI953B1vtw&utm_campaign=yelp_api_v3&utm_medium=api_v3_business_search&utm_source=asslzE1UV0XuKI953B1vtw", "review_count": 83, "categories": [{"alias": "italian", "title": "Italian"}], "rating": 4.5, "coordinates": {"latitude": 42.12351, "longitude": -72.75134}, "transactions": ["delivery"], "price": "$$", "location": {"address1": "45 Washington St", "address2": "", "address3": "", "city": "Westfield", "zip_code": "01085", "country": "US", "state": "MA", "display_address": ["45 Washington St", "Westfield, MA 01085"]}, "phone": "+14136423221", "display_phone": "(413) 642-3221", "distance": 4682.104013978393}, {"id": "AuMVaEI5r5iP4I5Vs_iM6g", "alias": "skyline-beer-company-westfield", "name": "Skyline Beer Company", "image_url": "https://s3-media1.fl.yelpcdn.com/bphoto/i1CTaxwUqFsqQw4XnhOs8w/o.jpg", "is_closed": false, "url": "https://www.yelp.com/biz/skyline-beer-company-westfield?adjust_creative=asslzE1UV0XuKI953B1vtw&utm_campaign=yelp_api_v3&utm_medium=api_v3_business_search&utm_source=asslzE1UV0XuKI953B1vtw", "review_count": 5, "categories": [{"alias": "beerbar", "title": "Beer Bar"}, {"alias": "breweries", "title": "Breweries"}, {"alias": "wraps", "title": "Wraps"}], "rating": 3.5, "coordinates": {"latitude": 42.10701483, "longitude": -72.764182}, "transactions": [], "location": {"address1": "98 Southwick Rd", "address2": "", "address3": null, "city": "Westfield", "zip_code": "01085", "country": "US", "state": "MA", "display_address": ["98 Southwick Rd", "Westfield, MA 01085"]}, "phone": "+14133783333", "display_phone": "(413) 378-3333", "distance": 6218.106649484547}, {"id": "cdlN_aSJOn0EDVexGo0v5g", "alias": "comfort-kitchen-and-bar-huntington-2", "name": "Comfort Kitchen and Bar", "image_url": "https://s3-media2.fl.yelpcdn.com/bphoto/iKDnV5pwo5kA3mJBjTyPeQ/o.jpg", "is_closed": false, "url": "https://www.yelp.com/biz/comfort-kitchen-and-bar-huntington-2?adjust_creative=asslzE1UV0XuKI953B1vtw&utm_campaign=yelp_api_v3&utm_medium=api_v3_business_search&utm_source=asslzE1UV0XuKI953B1vtw", "review_count": 36, "categories": [{"alias": "bars", "title": "Bars"}, {"alias": "tradamerican", "title": "American (Traditional)"}], "rating": 4.5, "coordinates": {"latitude": 42.2348748399165, "longitude": -72.8799170197082}, "transactions": [], "price": "$$", "location": {"address1": "4 Main St", "address2": "", "address3": null, "city": "Huntington", "zip_code": "01050", "country": "US", "state": "MA", "display_address": ["4 Main St", "Huntington, MA 01050"]}, "phone": "+14132073011", "display_phone": "(413) 207-3011", "distance": 12018.29956341226}, {"id": "pdASGneAlX6whC5rD31fmw", "alias": "soks-runway-westfield", "name": "SOK'S Runway", "image_url": "https://s3-media1.fl.yelpcdn.com/bphoto/yPuq45Qvi2eIt7frfVzg5g/o.jpg", "is_closed": false, "url": "https://www.yelp.com/biz/soks-runway-westfield?adjust_creative=asslzE1UV0XuKI953B1vtw&utm_campaign=yelp_api_v3&utm_medium=api_v3_business_search&utm_source=asslzE1UV0XuKI953B1vtw", "review_count": 21, "categories": [{"alias": "newamerican", "title": "American (New)"}, {"alias": "asianfusion", "title": "Asian Fusion"}, {"alias": "cocktailbars", "title": "Cocktail Bars"}], "rating": 4.0, "coordinates": {"latitude": 42.16121, "longitude": -72.71349}, "transactions": ["delivery"], "price": "$$", "location": {"address1": "110 Airport Rd", "address2": "", "address3": null, "city": "Westfield", "zip_code": "01085", "country": "US", "state": "MA", "display_address": ["110 Airport Rd", "Westfield, MA 01085"]}, "phone": "+14136423219", "display_phone": "(413) 642-3219", "distance": 4224.522396079621}, {"id": "GRyFsI7kzp6LCXF5-aXrkA", "alias": "tavern-restaurant-westfield-westfield", "name": "Tavern Restaurant Westfield", "image_url": "https://s3-media3.fl.yelpcdn.com/bphoto/HmokDBWdfHXvAKPNFlt3tg/o.jpg", "is_closed": false, "url": "https://www.yelp.com/biz/tavern-restaurant-westfield-westfield?adjust_creative=asslzE1UV0XuKI953B1vtw&utm_campaign=yelp_api_v3&utm_medium=api_v3_business_search&utm_source=asslzE1UV0XuKI953B1vtw", "review_count": 70, "categories": [{"alias": "tradamerican", "title": "American (Traditional)"}], "rating": 3.5, "coordinates": {"latitude": 42.1207075712155, "longitude": -72.7482569217682}, "transactions": ["delivery"], "price": "$$", "location": {"address1": "2 Broad St", "address2": "", "address3": "", "city": "Westfield", "zip_code": "01085", "country": "US", "state": "MA", "display_address": ["2 Broad St", "Westfield, MA 01085"]}, "phone": "+14135620335", "display_phone": "(413) 562-0335", "distance": 5076.06686899126}, {"id": "fkJH2B0PDmFmzrpci5RurQ", "alias": "7bs-bar-and-grill-westfield", "name": "7B's Bar & Grill", "image_url": "https://s3-media4.fl.yelpcdn.com/bphoto/fLRT9PVueJFuR-l_NDAkEA/o.jpg", "is_closed": false, "url": "https://www.yelp.com/biz/7bs-bar-and-grill-westfield?adjust_creative=asslzE1UV0XuKI953B1vtw&utm_campaign=yelp_api_v3&utm_medium=api_v3_business_search&utm_source=asslzE1UV0XuKI953B1vtw", "review_count": 75, "categories": [{"alias": "burgers", "title": "Burgers"}, {"alias": "bars", "title": "Bars"}, {"alias": "sandwiches", "title": "Sandwiches"}], "rating": 4.0, "coordinates": {"latitude": 42.1835665125337, "longitude": -72.7268451651987}, "transactions": ["delivery"], "price": "$$", "location": {"address1": "1152 Southampton Rd", "address2": "", "address3": "", "city": "Westfield", "zip_code": "01085", "country": "US", "state": "MA", "display_address": ["1152 Southampton Rd", "Westfield, MA 01085"]}, "phone": "+14135795310", "display_phone": "(413) 579-5310", "distance": 4263.166462808481}, {"id": "Hu57Hg5qRwIsmZyNPz8WDA", "alias": "alo-saigon-westfield", "name": "Alo Saigon", "image_url": "https://s3-media4.fl.yelpcdn.com/bphoto/87CBbfIp-NCajpjymxHoFA/o.jpg", "is_closed": false, "url": "https://www.yelp.com/biz/alo-saigon-westfield?adjust_creative=asslzE1UV0XuKI953B1vtw&utm_campaign=yelp_api_v3&utm_medium=api_v3_business_search&utm_source=asslzE1UV0XuKI953B1vtw", "review_count": 96, "categories": [{"alias": "vietnamese", "title": "Vietnamese"}, {"alias": "bubbletea", "title": "Bubble Tea"}, {"alias": "soup", "title": "Soup"}], "rating": 4.5, "coordinates": {"latitude": 42.123119354248, "longitude": -72.7487716674805}, "transactions": ["delivery"], "price": "$$", "location": {"address1": "116 Elm St", "address2": "", "address3": "", "city": "Westfield", "zip_code": "01085", "country": "US", "state": "MA", "display_address": ["116 Elm St", "Westfield, MA 01085"]}, "phone": "+14136426515", "display_phone": "(413) 642-6515", "distance": 4812.57769889302}, {"id": "2jPTv_JPiUoJy2sYrUw-4w", "alias": "hutghi-s-at-the-nook-westfield", "name": "Hutghi\u2019s at the Nook", "image_url": "https://s3-media4.fl.yelpcdn.com/bphoto/G74Vom8_J9q7dQ1vT5iFpw/o.jpg", "is_closed": false, "url": "https://www.yelp.com/biz/hutghi-s-at-the-nook-westfield?adjust_creative=asslzE1UV0XuKI953B1vtw&utm_campaign=yelp_api_v3&utm_medium=api_v3_business_search&utm_source=asslzE1UV0XuKI953B1vtw", "review_count": 7, "categories": [{"alias": "lounges", "title": "Lounges"}, {"alias": "tapasmallplates", "title": "Tapas/Small Plates"}, {"alias": "cocktailbars", "title": "Cocktail Bars"}], "rating": 4.5, "coordinates": {"latitude": 42.1242563457667, "longitude": -72.7484419359153}, "transactions": [], "location": {"address1": "8 Franklin St", "address2": "", "address3": null, "city": "Westfield", "zip_code": "01085", "country": "US", "state": "MA", "display_address": ["8 Franklin St", "Westfield, MA 01085"]}, "phone": "+14136263774", "display_phone": "(413) 626-3774", "distance": 4704.7984061220195}, {"id": "Tsn4XujhdnJodhxQ6XPEZg", "alias": "alessios-pizza-westfield", "name": "Alessio's Pizza", "image_url": "https://s3-media3.fl.yelpcdn.com/bphoto/TIi_e7HhPv2GTkFuUfvZsQ/o.jpg", "is_closed": false, "url": "https://www.yelp.com/biz/alessios-pizza-westfield?adjust_creative=asslzE1UV0XuKI953B1vtw&utm_campaign=yelp_api_v3&utm_medium=api_v3_business_search&utm_source=asslzE1UV0XuKI953B1vtw", "review_count": 39, "categories": [{"alias": "pizza", "title": "Pizza"}, {"alias": "italian", "title": "Italian"}], "rating": 4.0, "coordinates": {"latitude": 42.14824, "longitude": -72.72926}, "transactions": ["pickup", "delivery"], "price": "$$", "location": {"address1": "280 Southampton Rd", "address2": "", "address3": "", "city": "Westfield", "zip_code": "01085", "country": "US", "state": "MA", "display_address": ["280 Southampton Rd", "Westfield, MA 01085"]}, "phone": "+14135624600", "display_phone": "(413) 562-4600", "distance": 3802.19245834233}, {"id": "xs-qCnj3jge-jZO_ynZEqA", "alias": "yummi-noodle-westfield", "name": "Yummi Noodle", "image_url": "https://s3-media3.fl.yelpcdn.com/bphoto/NBU1J1KEreZlmTtF1kRlvQ/o.jpg", "is_closed": false, "url": "https://www.yelp.com/biz/yummi-noodle-westfield?adjust_creative=asslzE1UV0XuKI953B1vtw&utm_campaign=yelp_api_v3&utm_medium=api_v3_business_search&utm_source=asslzE1UV0XuKI953B1vtw", "review_count": 20, "categories": [{"alias": "chinese", "title": "Chinese"}, {"alias": "soup", "title": "Soup"}, {"alias": "noodles", "title": "Noodles"}], "rating": 4.0, "coordinates": {"latitude": 42.123887, "longitude": -72.748365}, "transactions": ["pickup", "delivery"], "location": {"address1": "160 Elm St", "address2": null, "address3": "", "city": "Westfield", "zip_code": "01085", "country": "US", "state": "MA", "display_address": ["160 Elm St", "Westfield, MA 01085"]}, "phone": "+14135795935", "display_phone": "(413) 579-5935", "distance": 4745.103659789684}, {"id": "KoovhR9aNO7ZNjIpAmR2Ag", "alias": "two-rivers-burrito-co-westfield", "name": "Two Rivers Burrito Co", "image_url": "https://s3-media3.fl.yelpcdn.com/bphoto/q_3xxv8ojNOUuaVOMJWYaA/o.jpg", "is_closed": false, "url": "https://www.yelp.com/biz/two-rivers-burrito-co-westfield?adjust_creative=asslzE1UV0XuKI953B1vtw&utm_campaign=yelp_api_v3&utm_medium=api_v3_business_search&utm_source=asslzE1UV0XuKI953B1vtw", "review_count": 161, "categories": [{"alias": "mexican", "title": "Mexican"}, {"alias": "newamerican", "title": "American (New)"}, {"alias": "tex-mex", "title": "Tex-Mex"}], "rating": 4.5, "coordinates": {"latitude": 42.1219372299061, "longitude": -72.7491059463501}, "transactions": ["delivery"], "price": "$", "location": {"address1": "36 Elm St", "address2": "", "address3": "", "city": "Westfield", "zip_code": "01085", "country": "US", "state": "MA", "display_address": ["36 Elm St", "Westfield, MA 01085"]}, "phone": "+14135795469", "display_phone": "(413) 579-5469", "distance": 4923.245922767805}, {"id": "GUft10qbwpxzThU3l_yQ5g", "alias": "the-hangar-pub-and-grill-westfield-westfield", "name": "The Hangar Pub and Grill - Westfield", "image_url": "https://s3-media2.fl.yelpcdn.com/bphoto/OqDAl40mPSOI45pYQGKRAA/o.jpg", "is_closed": false, "url": "https://www.yelp.com/biz/the-hangar-pub-and-grill-westfield-westfield?adjust_creative=asslzE1UV0XuKI953B1vtw&utm_campaign=yelp_api_v3&utm_medium=api_v3_business_search&utm_source=asslzE1UV0XuKI953B1vtw", "review_count": 92, "categories": [{"alias": "pubs", "title": "Pubs"}, {"alias": "sportsbars", "title": "Sports Bars"}, {"alias": "tradamerican", "title": "American (Traditional)"}], "rating": 3.5, "coordinates": {"latitude": 42.12166, "longitude": -72.75006}, "transactions": ["pickup", "delivery"], "price": "$$", "location": {"address1": "29 School St", "address2": "", "address3": "", "city": "Westfield", "zip_code": "01085", "country": "US", "state": "MA", "display_address": ["29 School St", "Westfield, MA 01085"]}, "phone": "+14135629464", "display_phone": "(413) 562-9464", "distance": 4923.259864771515}, {"id": "E0JSl9ZF_hJgQ1c-Uw1CaA", "alias": "the-good-table-westfield-2", "name": "The Good Table", "image_url": "https://s3-media2.fl.yelpcdn.com/bphoto/1nVJ4_GHMQQ1QxpCfPEkhw/o.jpg", "is_closed": false, "url": "https://www.yelp.com/biz/the-good-table-westfield-2?adjust_creative=asslzE1UV0XuKI953B1vtw&utm_campaign=yelp_api_v3&utm_medium=api_v3_business_search&utm_source=asslzE1UV0XuKI953B1vtw", "review_count": 69, "categories": [{"alias": "breakfast_brunch", "title": "Breakfast & Brunch"}], "rating": 4.5, "coordinates": {"latitude": 42.121251, "longitude": -72.749693}, "transactions": ["delivery"], "price": "$", "location": {"address1": "12 School St", "address2": "", "address3": "", "city": "Westfield", "zip_code": "01085", "country": "US", "state": "MA", "display_address": ["12 School St", "Westfield, MA 01085"]}, "phone": "+14136425527", "display_phone": "(413) 642-5527", "distance": 4977.429633750781}, {"id": "7TrTL0gUhz_HsNmPVodHHA", "alias": "shortstop-bar-and-grill-westfield", "name": "Shortstop Bar & Grill", "image_url": "https://s3-media2.fl.yelpcdn.com/bphoto/vmjfIYelNcyVrpBUX7Wz7Q/o.jpg", "is_closed": false, "url": "https://www.yelp.com/biz/shortstop-bar-and-grill-westfield?adjust_creative=asslzE1UV0XuKI953B1vtw&utm_campaign=yelp_api_v3&utm_medium=api_v3_business_search&utm_source=asslzE1UV0XuKI953B1vtw", "review_count": 82, "categories": [{"alias": "sportsbars", "title": "Sports Bars"}, {"alias": "newamerican", "title": "American (New)"}], "rating": 3.0, "coordinates": {"latitude": 42.1097732575367, "longitude": -72.7099312581689}, "transactions": ["delivery"], "price": "$$", "location": {"address1": "99 Springfield Rd", "address2": null, "address3": "", "city": "Westfield", "zip_code": "01085", "country": "US", "state": "MA", "display_address": ["99 Springfield Rd", "Westfield, MA 01085"]}, "phone": "+14136426370", "display_phone": "(413) 642-6370", "distance": 7772.931292079888}, {"id": "3_3dq9Xv89QSsbyL9W3f7Q", "alias": "whip-city-brew-westfield", "name": "Whip City Brew", "image_url": "https://s3-media1.fl.yelpcdn.com/bphoto/qjHot0PunT2EAW0oqK64TQ/o.jpg", "is_closed": false, "url": "https://www.yelp.com/biz/whip-city-brew-westfield?adjust_creative=asslzE1UV0XuKI953B1vtw&utm_campaign=yelp_api_v3&utm_medium=api_v3_business_search&utm_source=asslzE1UV0XuKI953B1vtw", "review_count": 21, "categories": [{"alias": "bars", "title": "Bars"}, {"alias": "tradamerican", "title": "American (Traditional)"}], "rating": 3.0, "coordinates": {"latitude": 42.1370964050293, "longitude": -72.7386932373047}, "transactions": [], "price": "$", "location": {"address1": "287 N Elm St", "address2": "", "address3": "", "city": "Westfield", "zip_code": "01085", "country": "US", "state": "MA", "display_address": ["287 N Elm St", "Westfield, MA 01085"]}, "phone": "+14135640149", "display_phone": "(413) 564-0149", "distance": 3930.1955045361615}, {"id": "EjmoByvU0tm0QJaFe6EA6Q", "alias": "bread-basket-russell", "name": "Bread Basket", "image_url": "https://s3-media3.fl.yelpcdn.com/bphoto/ocWZQw9hDfydLXdpIv6d6Q/o.jpg", "is_closed": false, "url": "https://www.yelp.com/biz/bread-basket-russell?adjust_creative=asslzE1UV0XuKI953B1vtw&utm_campaign=yelp_api_v3&utm_medium=api_v3_business_search&utm_source=asslzE1UV0XuKI953B1vtw", "review_count": 11, "categories": [{"alias": "bakeries", "title": "Bakeries"}, {"alias": "sandwiches", "title": "Sandwiches"}, {"alias": "desserts", "title": "Desserts"}], "rating": 5.0, "coordinates": {"latitude": 42.16665, "longitude": -72.860528}, "transactions": [], "price": "$", "location": {"address1": "815 Blandford Rd", "address2": null, "address3": null, "city": "Russell", "zip_code": "01071", "country": "US", "state": "MA", "display_address": ["815 Blandford Rd", "Russell, MA 01071"]}, "phone": "+14138620044", "display_phone": "(413) 862-0044", "distance": 7414.131817829652}, {"id": "9liFsX4ASC-aulosutlblQ", "alias": "mi-ranchito-tex-mex-westfield", "name": "Mi Ranchito Tex Mex", "image_url": "https://s3-media3.fl.yelpcdn.com/bphoto/oA1NsN_d4acQuw1Yrh6VSw/o.jpg", "is_closed": false, "url": "https://www.yelp.com/biz/mi-ranchito-tex-mex-westfield?adjust_creative=asslzE1UV0XuKI953B1vtw&utm_campaign=yelp_api_v3&utm_medium=api_v3_business_search&utm_source=asslzE1UV0XuKI953B1vtw", "review_count": 20, "categories": [{"alias": "mexican", "title": "Mexican"}, {"alias": "tex-mex", "title": "Tex-Mex"}], "rating": 4.0, "coordinates": {"latitude": 42.12576, "longitude": -72.75269}, "transactions": ["delivery"], "price": "$", "location": {"address1": "69 Franklin St", "address2": "", "address3": "", "city": "Westfield", "zip_code": "01085", "country": "US", "state": "MA", "display_address": ["69 Franklin St", "Westfield, MA 01085"]}, "phone": "+14135681150", "display_phone": "(413) 568-1150", "distance": 4417.104897306625}, {"id": "zrEUclnnkMS5CT-fDtw6gA", "alias": "golden-peacock-chinese-westfield", "name": "Golden Peacock Chinese", "image_url": "https://s3-media1.fl.yelpcdn.com/bphoto/kamUm_QY-GlDI776E4NODg/o.jpg", "is_closed": false, "url": "https://www.yelp.com/biz/golden-peacock-chinese-westfield?adjust_creative=asslzE1UV0XuKI953B1vtw&utm_campaign=yelp_api_v3&utm_medium=api_v3_business_search&utm_source=asslzE1UV0XuKI953B1vtw", "review_count": 18, "categories": [{"alias": "chinese", "title": "Chinese"}], "rating": 4.0, "coordinates": {"latitude": 42.177134, "longitude": -72.691292}, "transactions": ["delivery"], "price": "$$", "location": {"address1": "1029 N Rd", "address2": "Ste 7", "address3": "", "city": "Westfield", "zip_code": "01085", "country": "US", "state": "MA", "display_address": ["1029 N Rd", "Ste 7", "Westfield, MA 01085"]}, "phone": "+14135338207", "display_phone": "(413) 533-8207", "distance": 6723.9048473303965}, {"id": "E11EY59SdtiyWeQbbFTSBg", "alias": "the-back-room-bar-and-grill-agawam", "name": "The Back Room Bar And Grill", "image_url": "https://s3-media3.fl.yelpcdn.com/bphoto/MdGQLGzITweNOyCNdd-KZA/o.jpg", "is_closed": false, "url": "https://www.yelp.com/biz/the-back-room-bar-and-grill-agawam?adjust_creative=asslzE1UV0XuKI953B1vtw&utm_campaign=yelp_api_v3&utm_medium=api_v3_business_search&utm_source=asslzE1UV0XuKI953B1vtw", "review_count": 81, "categories": [{"alias": "tradamerican", "title": "American (Traditional)"}, {"alias": "beerbar", "title": "Beer Bar"}], "rating": 4.5, "coordinates": {"latitude": 42.074577910205, "longitude": -72.6565357831051}, "transactions": ["delivery"], "price": "$$", "location": {"address1": "827 Springfield St", "address2": "", "address3": null, "city": "Agawam", "zip_code": "01030", "country": "US", "state": "MA", "display_address": ["827 Springfield St", "Agawam, MA 01030"]}, "phone": "+14133424266", "display_phone": "(413) 342-4266", "distance": 13630.842123154094}, {"id": "WA6tAaFTexpzcwiFPxjwtw", "alias": "feng-ye-westfield", "name": "Feng Ye", "image_url": "https://s3-media2.fl.yelpcdn.com/bphoto/w94V6fbisnRUzstKPNKc_A/o.jpg", "is_closed": false, "url": "https://www.yelp.com/biz/feng-ye-westfield?adjust_creative=asslzE1UV0XuKI953B1vtw&utm_campaign=yelp_api_v3&utm_medium=api_v3_business_search&utm_source=asslzE1UV0XuKI953B1vtw", "review_count": 9, "categories": [{"alias": "chinese", "title": "Chinese"}, {"alias": "japanese", "title": "Japanese"}], "rating": 4.0, "coordinates": {"latitude": 42.12494, "longitude": -72.74769}, "transactions": ["pickup", "delivery"], "location": {"address1": "205 Elm St", "address2": null, "address3": "", "city": "Westfield", "zip_code": "01085", "country": "US", "state": "MA", "display_address": ["205 Elm St", "Westfield, MA 01085"]}, "phone": "+14135795351", "display_phone": "(413) 579-5351", "distance": 4665.0465105875155}, {"id": "RB6vzkkZZlDvwfFjneuKLA", "alias": "daily-operation-easthampton", "name": "Daily Operation", "image_url": "https://s3-media3.fl.yelpcdn.com/bphoto/9FSVkuklZiev4-72MAh9_g/o.jpg", "is_closed": false, "url": "https://www.yelp.com/biz/daily-operation-easthampton?adjust_creative=asslzE1UV0XuKI953B1vtw&utm_campaign=yelp_api_v3&utm_medium=api_v3_business_search&utm_source=asslzE1UV0XuKI953B1vtw", "review_count": 70, "categories": [{"alias": "newamerican", "title": "American (New)"}, {"alias": "asianfusion", "title": "Asian Fusion"}], "rating": 4.5, "coordinates": {"latitude": 42.26461, "longitude": -72.66719}, "transactions": ["delivery"], "price": "$$", "location": {"address1": "42 Cottage St", "address2": null, "address3": "", "city": "Easthampton", "zip_code": "01027", "country": "US", "state": "MA", "display_address": ["42 Cottage St", "Easthampton, MA 01027"]}, "phone": "+14132031541", "display_phone": "(413) 203-1541", "distance": 14159.331189484716}, {"id": "sKOPB6eJ5ARyJB6KoTAy6A", "alias": "family-pizza-and-grinder-westfield", "name": "Family Pizza & Grinder", "image_url": "https://s3-media1.fl.yelpcdn.com/bphoto/W7zhISY_LjlHxo8f-pdddg/o.jpg", "is_closed": false, "url": "https://www.yelp.com/biz/family-pizza-and-grinder-westfield?adjust_creative=asslzE1UV0XuKI953B1vtw&utm_campaign=yelp_api_v3&utm_medium=api_v3_business_search&utm_source=asslzE1UV0XuKI953B1vtw", "review_count": 28, "categories": [{"alias": "sandwiches", "title": "Sandwiches"}, {"alias": "pizza", "title": "Pizza"}], "rating": 4.5, "coordinates": {"latitude": 42.1265477, "longitude": -72.7470919}, "transactions": [], "price": "$", "location": {"address1": "281 Elm St", "address2": "", "address3": "", "city": "Westfield", "zip_code": "01085", "country": "US", "state": "MA", "display_address": ["281 Elm St", "Westfield, MA 01085"]}, "phone": "+14135627434", "display_phone": "(413) 562-7434", "distance": 4524.471047440743}, {"id": "NekS6dj2Oaz0MSRDsaUt2Q", "alias": "janiks-pierogi-cafe-and-juice-bar-westfield", "name": "Janik's Pierogi Cafe & Juice Bar", "image_url": "https://s3-media3.fl.yelpcdn.com/bphoto/7GeDUCwrBFh3VBV8NcWK2g/o.jpg", "is_closed": false, "url": "https://www.yelp.com/biz/janiks-pierogi-cafe-and-juice-bar-westfield?adjust_creative=asslzE1UV0XuKI953B1vtw&utm_campaign=yelp_api_v3&utm_medium=api_v3_business_search&utm_source=asslzE1UV0XuKI953B1vtw", "review_count": 37, "categories": [{"alias": "juicebars", "title": "Juice Bars & Smoothies"}, {"alias": "polish", "title": "Polish"}, {"alias": "breakfast_brunch", "title": "Breakfast & Brunch"}], "rating": 4.5, "coordinates": {"latitude": 42.1209283, "longitude": -72.7473749}, "transactions": ["delivery"], "price": "$$", "location": {"address1": "38-40 Main St", "address2": "", "address3": "", "city": "Westfield", "zip_code": "01085", "country": "US", "state": "MA", "display_address": ["38-40 Main St", "Westfield, MA 01085"]}, "phone": "+14135795620", "display_phone": "(413) 579-5620", "distance": 5072.270290434733}, {"id": "8w4W6zR1PESowk4u_aLYIg", "alias": "russell-inn-russell", "name": "Russell Inn", "image_url": "https://s3-media3.fl.yelpcdn.com/bphoto/KL8hMD_bTwenuL1D9cYS1w/o.jpg", "is_closed": false, "url": "https://www.yelp.com/biz/russell-inn-russell?adjust_creative=asslzE1UV0XuKI953B1vtw&utm_campaign=yelp_api_v3&utm_medium=api_v3_business_search&utm_source=asslzE1UV0XuKI953B1vtw", "review_count": 39, "categories": [{"alias": "hotels", "title": "Hotels"}, {"alias": "newamerican", "title": "American (New)"}, {"alias": "lounges", "title": "Lounges"}], "rating": 3.5, "coordinates": {"latitude": 42.163813860793, "longitude": -72.8284650158691}, "transactions": [], "price": "$$", "location": {"address1": "65 Westfield Rd", "address2": "", "address3": "", "city": "Russell", "zip_code": "01071", "country": "US", "state": "MA", "display_address": ["65 Westfield Rd", "Russell, MA 01071"]}, "phone": "+14138623608", "display_phone": "(413) 862-3608", "distance": 4762.267482871331}, {"id": "zve1Aq9cbhXNcFZFH4Afmg", "alias": "pasquales-italian-family-restaurant-and-pizza-westfield", "name": "Pasquale's Italian Family Restaurant & Pizza", "image_url": "https://s3-media2.fl.yelpcdn.com/bphoto/E-8AWmL1rLjU_wz1q32cZg/o.jpg", "is_closed": false, "url": "https://www.yelp.com/biz/pasquales-italian-family-restaurant-and-pizza-westfield?adjust_creative=asslzE1UV0XuKI953B1vtw&utm_campaign=yelp_api_v3&utm_medium=api_v3_business_search&utm_source=asslzE1UV0XuKI953B1vtw", "review_count": 40, "categories": [{"alias": "pizza", "title": "Pizza"}, {"alias": "italian", "title": "Italian"}], "rating": 3.5, "coordinates": {"latitude": 42.1268186820568, "longitude": -72.7477997280986}, "transactions": [], "price": "$$", "location": {"address1": "288 Elm St", "address2": "", "address3": "", "city": "Westfield", "zip_code": "01085", "country": "US", "state": "MA", "display_address": ["288 Elm St", "Westfield, MA 01085"]}, "phone": "+14135625009", "display_phone": "(413) 562-5009", "distance": 4465.917488623964}, {"id": "VazvqfJnJ1Rv7K0pDBfE0w", "alias": "tuckers-restaurant-southwick-2", "name": "Tucker's Restaurant", "image_url": "https://s3-media4.fl.yelpcdn.com/bphoto/yyAUXCzOJezQrCJkQUotfA/o.jpg", "is_closed": false, "url": "https://www.yelp.com/biz/tuckers-restaurant-southwick-2?adjust_creative=asslzE1UV0XuKI953B1vtw&utm_campaign=yelp_api_v3&utm_medium=api_v3_business_search&utm_source=asslzE1UV0XuKI953B1vtw", "review_count": 19, "categories": [{"alias": "newamerican", "title": "American (New)"}, {"alias": "venues", "title": "Venues & Event Spaces"}, {"alias": "wine_bars", "title": "Wine Bars"}], "rating": 3.5, "coordinates": {"latitude": 42.0647039134398, "longitude": -72.7647228702056}, "transactions": ["delivery"], "price": "$$", "location": {"address1": "625 College Hwy", "address2": null, "address3": null, "city": "Southwick", "zip_code": "01077", "country": "US", "state": "MA", "display_address": ["625 College Hwy", "Southwick, MA 01077"]}, "phone": "+14135690120", "display_phone": "(413) 569-0120", "distance": 10965.441449784585}, {"id": "k1pXWAALNVVotH5WhHvOIA", "alias": "casa-di-lisa-feeding-hills", "name": "Casa Di Lisa", "image_url": "https://s3-media2.fl.yelpcdn.com/bphoto/86zSNTDmJUpSxRn0Hb_xIQ/o.jpg", "is_closed": false, "url": "https://www.yelp.com/biz/casa-di-lisa-feeding-hills?adjust_creative=asslzE1UV0XuKI953B1vtw&utm_campaign=yelp_api_v3&utm_medium=api_v3_business_search&utm_source=asslzE1UV0XuKI953B1vtw", "review_count": 41, "categories": [{"alias": "seafood", "title": "Seafood"}, {"alias": "wine_bars", "title": "Wine Bars"}, {"alias": "italian", "title": "Italian"}], "rating": 3.5, "coordinates": {"latitude": 42.0751495, "longitude": -72.655571}, "transactions": ["delivery", "restaurant_reservation"], "price": "$$", "location": {"address1": "801 Springfield St", "address2": null, "address3": null, "city": "Feeding Hills", "zip_code": "01030", "country": "US", "state": "MA", "display_address": ["801 Springfield St", "Feeding Hills, MA 01030"]}, "phone": "+14137861900", "display_phone": "(413) 786-1900", "distance": 13634.81104898889}, {"id": "6Hoe3eqdjxzW9LHZYAdJHQ", "alias": "ks-restaurant-westfield", "name": "K's Restaurant", "image_url": "https://s3-media1.fl.yelpcdn.com/bphoto/FfUKb-1jrlHhl3ouu-lLYA/o.jpg", "is_closed": false, "url": "https://www.yelp.com/biz/ks-restaurant-westfield?adjust_creative=asslzE1UV0XuKI953B1vtw&utm_campaign=yelp_api_v3&utm_medium=api_v3_business_search&utm_source=asslzE1UV0XuKI953B1vtw", "review_count": 93, "categories": [{"alias": "japanese", "title": "Japanese"}, {"alias": "sushi", "title": "Sushi Bars"}], "rating": 4.0, "coordinates": {"latitude": 42.1139984130859, "longitude": -72.7247543334961}, "transactions": ["pickup", "delivery"], "price": "$$", "location": {"address1": "318 E Main St", "address2": "", "address3": "", "city": "Westfield", "zip_code": "01085", "country": "US", "state": "MA", "display_address": ["318 E Main St", "Westfield, MA 01085"]}, "phone": "+14135683886", "display_phone": "(413) 568-3886", "distance": 6650.464430814314}, {"id": "b9TX7xue5tmqZq7wTtVxxg", "alias": "tavern-on-the-hill-easthampton", "name": "Tavern on the Hill", "image_url": "https://s3-media4.fl.yelpcdn.com/bphoto/2U9nKkyaCKtV6PC60fiuBg/o.jpg", "is_closed": false, "url": "https://www.yelp.com/biz/tavern-on-the-hill-easthampton?adjust_creative=asslzE1UV0XuKI953B1vtw&utm_campaign=yelp_api_v3&utm_medium=api_v3_business_search&utm_source=asslzE1UV0XuKI953B1vtw", "review_count": 109, "categories": [{"alias": "tradamerican", "title": "American (Traditional)"}, {"alias": "bars", "title": "Bars"}, {"alias": "bbq", "title": "Barbeque"}], "rating": 3.0, "coordinates": {"latitude": 42.237602, "longitude": -72.652183}, "transactions": [], "price": "$$", "location": {"address1": "100 Mountain Rd", "address2": "", "address3": "", "city": "Easthampton", "zip_code": "01027", "country": "US", "state": "MA", "display_address": ["100 Mountain Rd", "Easthampton, MA 01027"]}, "phone": "+14134931700", "display_phone": "(413) 493-1700", "distance": 12794.649851901142}, {"id": "vF5dqRU3uWLeCgklux66aw", "alias": "pancake-sundaes-diner-and-bakery-westfield", "name": "Pancake Sundaes Diner & Bakery", "image_url": "https://s3-media2.fl.yelpcdn.com/bphoto/ksIciYrHNind0aZDpLu7Gw/o.jpg", "is_closed": false, "url": "https://www.yelp.com/biz/pancake-sundaes-diner-and-bakery-westfield?adjust_creative=asslzE1UV0XuKI953B1vtw&utm_campaign=yelp_api_v3&utm_medium=api_v3_business_search&utm_source=asslzE1UV0XuKI953B1vtw", "review_count": 47, "categories": [{"alias": "breakfast_brunch", "title": "Breakfast & Brunch"}, {"alias": "diners", "title": "Diners"}, {"alias": "bakeries", "title": "Bakeries"}], "rating": 4.0, "coordinates": {"latitude": 42.12615, "longitude": -72.74787}, "transactions": ["delivery"], "price": "$$", "location": {"address1": "266 Elm St", "address2": null, "address3": "", "city": "Westfield", "zip_code": "01085", "country": "US", "state": "MA", "display_address": ["266 Elm St", "Westfield, MA 01085"]}, "phone": "+14135726832", "display_phone": "(413) 572-6832", "distance": 4537.316849320469}, {"id": "041FcnVkbuqjklvZ6enXVA", "alias": "mission-cantina-easthampton", "name": "Mission Cantina", "image_url": "https://s3-media1.fl.yelpcdn.com/bphoto/RUcIkpNHR0LcuzdYuMuOAA/o.jpg", "is_closed": false, "url": "https://www.yelp.com/biz/mission-cantina-easthampton?adjust_creative=asslzE1UV0XuKI953B1vtw&utm_campaign=yelp_api_v3&utm_medium=api_v3_business_search&utm_source=asslzE1UV0XuKI953B1vtw", "review_count": 3, "categories": [{"alias": "cocktailbars", "title": "Cocktail Bars"}, {"alias": "mexican", "title": "Mexican"}, {"alias": "beerbar", "title": "Beer Bar"}], "rating": 5.0, "coordinates": {"latitude": 42.264485, "longitude": -72.666748}, "transactions": ["pickup", "delivery"], "location": {"address1": "58 Cottage St", "address2": "", "address3": null, "city": "Easthampton", "zip_code": "01027", "country": "US", "state": "MA", "display_address": ["58 Cottage St", "Easthampton, MA 01027"]}, "phone": "+14132035121", "display_phone": "(413) 203-5121", "distance": 14147.578838114006}, {"id": "aPSmJfy16tIFj2atsgH0ag", "alias": "take-five-feeding-hills", "name": "Take Five", "image_url": "https://s3-media4.fl.yelpcdn.com/bphoto/rzFgun5XBrGhDW6tWDI94g/o.jpg", "is_closed": false, "url": "https://www.yelp.com/biz/take-five-feeding-hills?adjust_creative=asslzE1UV0XuKI953B1vtw&utm_campaign=yelp_api_v3&utm_medium=api_v3_business_search&utm_source=asslzE1UV0XuKI953B1vtw", "review_count": 34, "categories": [{"alias": "bars", "title": "Bars"}, {"alias": "italian", "title": "Italian"}, {"alias": "seafood", "title": "Seafood"}], "rating": 4.0, "coordinates": {"latitude": 42.07232, "longitude": -72.66053}, "transactions": ["delivery"], "price": "$$", "location": {"address1": "944 Springfield St", "address2": "", "address3": "", "city": "Feeding Hills", "zip_code": "01030", "country": "US", "state": "MA", "display_address": ["944 Springfield St", "Feeding Hills, MA 01030"]}, "phone": "+14137860962", "display_phone": "(413) 786-0962", "distance": 13596.146248561907}, {"id": "62OOS81QAf1_kutgA9u7DQ", "alias": "110-grill-holyoke", "name": "110 Grill", "image_url": "https://s3-media2.fl.yelpcdn.com/bphoto/lyh3RIPDCjyd3e1wzfLJ1A/o.jpg", "is_closed": false, "url": "https://www.yelp.com/biz/110-grill-holyoke?adjust_creative=asslzE1UV0XuKI953B1vtw&utm_campaign=yelp_api_v3&utm_medium=api_v3_business_search&utm_source=asslzE1UV0XuKI953B1vtw", "review_count": 85, "categories": [{"alias": "newamerican", "title": "American (New)"}, {"alias": "tradamerican", "title": "American (Traditional)"}, {"alias": "gluten_free", "title": "Gluten-Free"}], "rating": 3.5, "coordinates": {"latitude": 42.1671, "longitude": -72.6399}, "transactions": ["delivery"], "price": "$$", "location": {"address1": "50 Holyoke St", "address2": null, "address3": "", "city": "Holyoke", "zip_code": "01040", "country": "US", "state": "MA", "display_address": ["50 Holyoke St", "Holyoke, MA 01040"]}, "phone": "+14135384220", "display_phone": "(413) 538-4220", "distance": 10670.816365974015}, {"id": "625FRIW_XeYQDooSanOH4w", "alias": "montgomery-grille-montgomery", "name": "Montgomery Grille", "image_url": "https://s3-media2.fl.yelpcdn.com/bphoto/6BeBWORyJKlyOFhaCubisg/o.jpg", "is_closed": false, "url": "https://www.yelp.com/biz/montgomery-grille-montgomery?adjust_creative=asslzE1UV0XuKI953B1vtw&utm_campaign=yelp_api_v3&utm_medium=api_v3_business_search&utm_source=asslzE1UV0XuKI953B1vtw", "review_count": 6, "categories": [{"alias": "tradamerican", "title": "American (Traditional)"}, {"alias": "mexican", "title": "Mexican"}, {"alias": "breakfast_brunch", "title": "Breakfast & Brunch"}], "rating": 5.0, "coordinates": {"latitude": 42.206230173471, "longitude": -72.8008604049683}, "transactions": [], "location": {"address1": "46 Main Rd", "address2": "", "address3": "", "city": "Montgomery", "zip_code": "01085", "country": "US", "state": "MA", "display_address": ["46 Main Rd", "Montgomery, MA 01085"]}, "phone": "+14138623663", "display_phone": "(413) 862-3663", "distance": 5390.019115919163}, {"id": "YzzLI9_BrwEZnRHP7iuQVQ", "alias": "ninis-itialian-ristorante-easthampton", "name": "Nini's Itialian Ristorante", "image_url": "https://s3-media4.fl.yelpcdn.com/bphoto/h2ktKo5b652dhx7yKD0R5Q/o.jpg", "is_closed": false, "url": "https://www.yelp.com/biz/ninis-itialian-ristorante-easthampton?adjust_creative=asslzE1UV0XuKI953B1vtw&utm_campaign=yelp_api_v3&utm_medium=api_v3_business_search&utm_source=asslzE1UV0XuKI953B1vtw", "review_count": 46, "categories": [{"alias": "italian", "title": "Italian"}, {"alias": "seafood", "title": "Seafood"}], "rating": 4.0, "coordinates": {"latitude": 42.2638958037146, "longitude": -72.6638027036164}, "transactions": [], "price": "$$", "location": {"address1": "124 Cottage St", "address2": "", "address3": "", "city": "Easthampton", "zip_code": "01027", "country": "US", "state": "MA", "display_address": ["124 Cottage St", "Easthampton, MA 01027"]}, "phone": "+14135270149", "display_phone": "(413) 527-0149", "distance": 14241.21871105347}, {"id": "ST2IKt3aNPnw5cfvMbfspQ", "alias": "paisanos-southampton-2", "name": "Paisanos", "image_url": "https://s3-media3.fl.yelpcdn.com/bphoto/BP4-no5DSUgpkqNaaQpRfw/o.jpg", "is_closed": false, "url": "https://www.yelp.com/biz/paisanos-southampton-2?adjust_creative=asslzE1UV0XuKI953B1vtw&utm_campaign=yelp_api_v3&utm_medium=api_v3_business_search&utm_source=asslzE1UV0XuKI953B1vtw", "review_count": 45, "categories": [{"alias": "pizza", "title": "Pizza"}, {"alias": "italian", "title": "Italian"}], "rating": 3.5, "coordinates": {"latitude": 42.2382105429036, "longitude": -72.7205873717075}, "transactions": ["delivery"], "price": "$$", "location": {"address1": "136 College Hwy", "address2": "", "address3": "", "city": "Southampton", "zip_code": "01073", "country": "US", "state": "MA", "display_address": ["136 College Hwy", "Southampton, MA 01073"]}, "phone": "+14135278900", "display_phone": "(413) 527-8900", "distance": 9304.11479114975}, {"id": "SY9D4nep9NB7cvhfBYapyQ", "alias": "delaneys-market-westfield", "name": "Delaney's Market", "image_url": "https://s3-media2.fl.yelpcdn.com/bphoto/Ss5RdoPKkM39WEPvDcnjHg/o.jpg", "is_closed": false, "url": "https://www.yelp.com/biz/delaneys-market-westfield?adjust_creative=asslzE1UV0XuKI953B1vtw&utm_campaign=yelp_api_v3&utm_medium=api_v3_business_search&utm_source=asslzE1UV0XuKI953B1vtw", "review_count": 1, "categories": [{"alias": "delis", "title": "Delis"}, {"alias": "desserts", "title": "Desserts"}, {"alias": "beer_and_wine", "title": "Beer, Wine & Spirits"}], "rating": 3.0, "coordinates": {"latitude": 42.1120487442122, "longitude": -72.720509134233}, "transactions": [], "location": {"address1": "587 E Main St", "address2": "Unit 120", "address3": null, "city": "Westfield", "zip_code": "01085", "country": "US", "state": "MA", "display_address": ["587 E Main St", "Unit 120", "Westfield, MA 01085"]}, "phone": "+14132616240", "display_phone": "(413) 261-6240", "distance": 7035.313586688503}, {"id": "MTzTTIUF_uMQp2P0WaZgpg", "alias": "tung-shing-dragon-westfield", "name": "Tung Shing Dragon", "image_url": "https://s3-media4.fl.yelpcdn.com/bphoto/VFJA7H-_qkWlRcc5JcyCjA/o.jpg", "is_closed": false, "url": "https://www.yelp.com/biz/tung-shing-dragon-westfield?adjust_creative=asslzE1UV0XuKI953B1vtw&utm_campaign=yelp_api_v3&utm_medium=api_v3_business_search&utm_source=asslzE1UV0XuKI953B1vtw", "review_count": 20, "categories": [{"alias": "chinese", "title": "Chinese"}], "rating": 3.5, "coordinates": {"latitude": 42.125347, "longitude": -72.753719}, "transactions": ["delivery"], "price": "$$", "location": {"address1": "76 Franklin St", "address2": "", "address3": "", "city": "Westfield", "zip_code": "01085", "country": "US", "state": "MA", "display_address": ["76 Franklin St", "Westfield, MA 01085"]}, "phone": "+14135724522", "display_phone": "(413) 572-4522", "distance": 4437.575494577839}, {"id": "IyBj2FvSK3nBOj6_a4gZsA", "alias": "kaisen-feeding-hills", "name": "Kaisen", "image_url": "https://s3-media4.fl.yelpcdn.com/bphoto/rNNS3eTaLkE350AF3XFolw/o.jpg", "is_closed": false, "url": "https://www.yelp.com/biz/kaisen-feeding-hills?adjust_creative=asslzE1UV0XuKI953B1vtw&utm_campaign=yelp_api_v3&utm_medium=api_v3_business_search&utm_source=asslzE1UV0XuKI953B1vtw", "review_count": 15, "categories": [{"alias": "sushi", "title": "Sushi Bars"}, {"alias": "asianfusion", "title": "Asian Fusion"}, {"alias": "japanese", "title": "Japanese"}], "rating": 4.5, "coordinates": {"latitude": 42.066485, "longitude": -72.675749}, "transactions": [], "price": "$$", "location": {"address1": "1325 Springfield St", "address2": "Unit 5", "address3": "", "city": "Feeding Hills", "zip_code": "01030", "country": "US", "state": "MA", "display_address": ["1325 Springfield St", "Unit 5", "Feeding Hills, MA 01030"]}, "phone": "+14132098554", "display_phone": "(413) 209-8554", "distance": 13311.480057996241}, {"id": "PEnqmmNhzHEMrLHBT-wauA", "alias": "soups-on-westfield", "name": "Soups On", "image_url": "https://s3-media1.fl.yelpcdn.com/bphoto/_iKA-Os77wbW_iRZJpfF1g/o.jpg", "is_closed": false, "url": "https://www.yelp.com/biz/soups-on-westfield?adjust_creative=asslzE1UV0XuKI953B1vtw&utm_campaign=yelp_api_v3&utm_medium=api_v3_business_search&utm_source=asslzE1UV0XuKI953B1vtw", "review_count": 58, "categories": [{"alias": "soup", "title": "Soup"}, {"alias": "cafes", "title": "Cafes"}, {"alias": "sandwiches", "title": "Sandwiches"}], "rating": 4.0, "coordinates": {"latitude": 42.12997, "longitude": -72.74391}, "transactions": ["delivery"], "price": "$", "location": {"address1": "16 Union Ave", "address2": "", "address3": "", "city": "Westfield", "zip_code": "01085", "country": "US", "state": "MA", "display_address": ["16 Union Ave", "Westfield, MA 01085"]}, "phone": "+14135620648", "display_phone": "(413) 562-0648", "distance": 4294.577513636569}, {"id": "RbUXu0Dr79pTDSjOUFH-hA", "alias": "the-ranch-pub-house-southwick", "name": "The Ranch Pub House", "image_url": "https://s3-media3.fl.yelpcdn.com/bphoto/ox6c6Z0E8zleHskJxaRVBg/o.jpg", "is_closed": false, "url": "https://www.yelp.com/biz/the-ranch-pub-house-southwick?adjust_creative=asslzE1UV0XuKI953B1vtw&utm_campaign=yelp_api_v3&utm_medium=api_v3_business_search&utm_source=asslzE1UV0XuKI953B1vtw", "review_count": 2, "categories": [{"alias": "tradamerican", "title": "American (Traditional)"}, {"alias": "pubs", "title": "Pubs"}, {"alias": "sportsbars", "title": "Sports Bars"}], "rating": 3.0, "coordinates": {"latitude": 42.0847895, "longitude": -72.7736336}, "transactions": [], "price": "$$", "location": {"address1": "65 Sunny Side Rd", "address2": null, "address3": "", "city": "Southwick", "zip_code": "01077", "country": "US", "state": "MA", "display_address": ["65 Sunny Side Rd", "Southwick, MA 01077"]}, "phone": "+14135699333", "display_phone": "(413) 569-9333", "distance": 8724.34914313242}, {"id": "3fC8DGIB4-8cWikX3XdA_Q", "alias": "main-garden-feeding-hills", "name": "Main Garden", "image_url": "https://s3-media3.fl.yelpcdn.com/bphoto/UU9QCLUKaAkWYVKTrYPmtQ/o.jpg", "is_closed": false, "url": "https://www.yelp.com/biz/main-garden-feeding-hills?adjust_creative=asslzE1UV0XuKI953B1vtw&utm_campaign=yelp_api_v3&utm_medium=api_v3_business_search&utm_source=asslzE1UV0XuKI953B1vtw", "review_count": 21, "categories": [{"alias": "chinese", "title": "Chinese"}], "rating": 4.5, "coordinates": {"latitude": 42.067401, "longitude": -72.679996}, "transactions": ["pickup", "delivery"], "location": {"address1": "28 Southwick St", "address2": "", "address3": null, "city": "Feeding Hills", "zip_code": "01030", "country": "US", "state": "MA", "display_address": ["28 Southwick St", "Feeding Hills, MA 01030"]}, "phone": "+14137861234", "display_phone": "(413) 786-1234", "distance": 13018.503973753186}, {"id": "GnQaW0tIAPliH4FPiFJB2w", "alias": "schermerhorns-seafood-holyoke", "name": "Schermerhorn's Seafood", "image_url": "https://s3-media2.fl.yelpcdn.com/bphoto/Imo4sJfgUaqQgaZ4X_ZEog/o.jpg", "is_closed": false, "url": "https://www.yelp.com/biz/schermerhorns-seafood-holyoke?adjust_creative=asslzE1UV0XuKI953B1vtw&utm_campaign=yelp_api_v3&utm_medium=api_v3_business_search&utm_source=asslzE1UV0XuKI953B1vtw", "review_count": 106, "categories": [{"alias": "seafoodmarkets", "title": "Seafood Markets"}, {"alias": "seafood", "title": "Seafood"}], "rating": 3.0, "coordinates": {"latitude": 42.1908930996048, "longitude": -72.6388066397266}, "transactions": ["delivery"], "price": "$$", "location": {"address1": "224 Westfield Rd", "address2": "", "address3": "", "city": "Holyoke", "zip_code": "01040", "country": "US", "state": "MA", "display_address": ["224 Westfield Rd", "Holyoke, MA 01040"]}, "phone": "+14135339229", "display_phone": "(413) 533-9229", "distance": 11294.983204064501}, {"id": "HdfjH-3hXOuqMnQtRmVd_Q", "alias": "crepes-tea-house-southwick", "name": "Crepes Tea House", "image_url": "https://s3-media1.fl.yelpcdn.com/bphoto/viJU3ht4GnMzkXAXFza4oQ/o.jpg", "is_closed": false, "url": "https://www.yelp.com/biz/crepes-tea-house-southwick?adjust_creative=asslzE1UV0XuKI953B1vtw&utm_campaign=yelp_api_v3&utm_medium=api_v3_business_search&utm_source=asslzE1UV0XuKI953B1vtw", "review_count": 24, "categories": [{"alias": "modern_european", "title": "Modern European"}, {"alias": "tea", "title": "Tea Rooms"}, {"alias": "breakfast_brunch", "title": "Breakfast & Brunch"}], "rating": 4.5, "coordinates": {"latitude": 42.06621, "longitude": -72.73641}, "transactions": ["pickup", "delivery"], "location": {"address1": "157 Feeding Hills Rd", "address2": null, "address3": "", "city": "Southwick", "zip_code": "01077", "country": "US", "state": "MA", "display_address": ["157 Feeding Hills Rd", "Southwick, MA 01077"]}, "phone": "+14134377440", "display_phone": "(413) 437-7440", "distance": 11150.127763994231}, {"id": "INclXbI2-TU_D0CRWClJfQ", "alias": "santorini-pizzeria-n-restaurant-westfield", "name": "Santorini Pizzeria N Restaurant", "image_url": "https://s3-media3.fl.yelpcdn.com/bphoto/zyZwC3KbthC1VdosijCuBw/o.jpg", "is_closed": false, "url": "https://www.yelp.com/biz/santorini-pizzeria-n-restaurant-westfield?adjust_creative=asslzE1UV0XuKI953B1vtw&utm_campaign=yelp_api_v3&utm_medium=api_v3_business_search&utm_source=asslzE1UV0XuKI953B1vtw", "review_count": 22, "categories": [{"alias": "italian", "title": "Italian"}, {"alias": "pizza", "title": "Pizza"}], "rating": 3.0, "coordinates": {"latitude": 42.1709869820965, "longitude": -72.726903752404}, "transactions": ["delivery"], "price": "$", "location": {"address1": "930 Southampton Rd", "address2": "", "address3": "", "city": "Westfield", "zip_code": "01085", "country": "US", "state": "MA", "display_address": ["930 Southampton Rd", "Westfield, MA 01085"]}, "phone": "+14135721022", "display_phone": "(413) 572-1022", "distance": 3710.710352165936}, {"id": "7UPmRyGiYI-_H5aWK-rkqw", "alias": "millies-kitchen-westfield", "name": "Millie's Kitchen", "image_url": "https://s3-media1.fl.yelpcdn.com/bphoto/OkaYCVROB9H_0AyoGarrmA/o.jpg", "is_closed": false, "url": "https://www.yelp.com/biz/millies-kitchen-westfield?adjust_creative=asslzE1UV0XuKI953B1vtw&utm_campaign=yelp_api_v3&utm_medium=api_v3_business_search&utm_source=asslzE1UV0XuKI953B1vtw", "review_count": 8, "categories": [{"alias": "pizza", "title": "Pizza"}, {"alias": "sandwiches", "title": "Sandwiches"}, {"alias": "delis", "title": "Delis"}], "rating": 4.5, "coordinates": {"latitude": 42.1769992, "longitude": -72.6913415}, "transactions": ["delivery"], "price": "$", "location": {"address1": "1029 N Rd", "address2": "", "address3": null, "city": "Westfield", "zip_code": "01085", "country": "US", "state": "MA", "display_address": ["1029 N Rd", "Westfield, MA 01085"]}, "phone": "+14135325300", "display_phone": "(413) 532-5300", "distance": 6716.506384553663}, {"id": "GPgKneOO10H82T-2r4Yxng", "alias": "new-corner-variety-store-westfield", "name": "New Corner Variety Store", "image_url": "https://s3-media2.fl.yelpcdn.com/bphoto/U-_wJRXlwBjwV9mGENzExA/o.jpg", "is_closed": false, "url": "https://www.yelp.com/biz/new-corner-variety-store-westfield?adjust_creative=asslzE1UV0XuKI953B1vtw&utm_campaign=yelp_api_v3&utm_medium=api_v3_business_search&utm_source=asslzE1UV0XuKI953B1vtw", "review_count": 3, "categories": [{"alias": "delis", "title": "Delis"}, {"alias": "meats", "title": "Meat Shops"}], "rating": 4.5, "coordinates": {"latitude": 42.13439, "longitude": -72.74617}, "transactions": [], "location": {"address1": "2 Crown St", "address2": "", "address3": "", "city": "Westfield", "zip_code": "01085", "country": "US", "state": "MA", "display_address": ["2 Crown St", "Westfield, MA 01085"]}, "phone": "+14135682294", "display_phone": "(413) 568-2294", "distance": 3786.4057338935795}, {"id": "Eza-9btbwfRjI5bDXWra6w", "alias": "el-forastero-agawam", "name": "El Forastero", "image_url": "https://s3-media2.fl.yelpcdn.com/bphoto/AdzXrZ7LfqHrxTvS5lrzLQ/o.jpg", "is_closed": false, "url": "https://www.yelp.com/biz/el-forastero-agawam?adjust_creative=asslzE1UV0XuKI953B1vtw&utm_campaign=yelp_api_v3&utm_medium=api_v3_business_search&utm_source=asslzE1UV0XuKI953B1vtw", "review_count": 100, "categories": [{"alias": "mexican", "title": "Mexican"}, {"alias": "bars", "title": "Bars"}], "rating": 4.0, "coordinates": {"latitude": 42.0794913, "longitude": -72.6789735}, "transactions": ["delivery"], "price": "$$", "location": {"address1": "360 N Westfield St", "address2": "", "address3": "", "city": "Agawam", "zip_code": "01030", "country": "US", "state": "MA", "display_address": ["360 N Westfield St", "Agawam, MA 01030"]}, "phone": "+14134553297", "display_phone": "(413) 455-3297", "distance": 11995.814122084259}, {"id": "VdK119aB0glzT3mjnuFjcA", "alias": "green-leaves-to-go-feeding-hills", "name": "Green Leaves To Go", "image_url": "https://s3-media2.fl.yelpcdn.com/bphoto/1SF5GK42pgEUGtx_ITrlyg/o.jpg", "is_closed": false, "url": "https://www.yelp.com/biz/green-leaves-to-go-feeding-hills?adjust_creative=asslzE1UV0XuKI953B1vtw&utm_campaign=yelp_api_v3&utm_medium=api_v3_business_search&utm_source=asslzE1UV0XuKI953B1vtw", "review_count": 5, "categories": [{"alias": "salad", "title": "Salad"}, {"alias": "tradamerican", "title": "American (Traditional)"}, {"alias": "markets", "title": "Fruits & Veggies"}], "rating": 5.0, "coordinates": {"latitude": 42.082234, "longitude": -72.646884}, "transactions": ["delivery"], "price": "$$", "location": {"address1": "200 S Westfield St", "address2": "", "address3": "", "city": "Feeding Hills", "zip_code": "01030", "country": "US", "state": "MA", "display_address": ["200 S Westfield St", "Feeding Hills, MA 01030"]}, "phone": "+14137860444", "display_phone": "(413) 786-0444", "distance": 13614.496547105113}, {"id": "HivpqymfBWQJQzt9D0woxA", "alias": "pour-agawam", "name": "Pour", "image_url": "https://s3-media4.fl.yelpcdn.com/bphoto/7ylj_CMvCLRZeUCFp_7BXg/o.jpg", "is_closed": false, "url": "https://www.yelp.com/biz/pour-agawam?adjust_creative=asslzE1UV0XuKI953B1vtw&utm_campaign=yelp_api_v3&utm_medium=api_v3_business_search&utm_source=asslzE1UV0XuKI953B1vtw", "review_count": 4, "categories": [{"alias": "salad", "title": "Salad"}, {"alias": "cocktailbars", "title": "Cocktail Bars"}, {"alias": "sandwiches", "title": "Sandwiches"}], "rating": 4.5, "coordinates": {"latitude": 42.083175, "longitude": -72.645284}, "transactions": [], "location": {"address1": "485 Springfield St", "address2": "", "address3": null, "city": "Agawam", "zip_code": "01001", "country": "US", "state": "MA", "display_address": ["485 Springfield St", "Agawam, MA 01001"]}, "phone": "+14132099934", "display_phone": "(413) 209-9934", "distance": 13645.205391652486}, {"id": "b4ug5qe_WsEk6Apg5w_9bA", "alias": "richards-grinders-westfield", "name": "Richard's Grinders", "image_url": "https://s3-media4.fl.yelpcdn.com/bphoto/KORkeVSoyuftbGpIBaYYjQ/o.jpg", "is_closed": false, "url": "https://www.yelp.com/biz/richards-grinders-westfield?adjust_creative=asslzE1UV0XuKI953B1vtw&utm_campaign=yelp_api_v3&utm_medium=api_v3_business_search&utm_source=asslzE1UV0XuKI953B1vtw", "review_count": 16, "categories": [{"alias": "cafes", "title": "Cafes"}, {"alias": "delis", "title": "Delis"}, {"alias": "sandwiches", "title": "Sandwiches"}], "rating": 4.5, "coordinates": {"latitude": 42.11346, "longitude": -72.7133999}, "transactions": ["delivery"], "price": "$", "location": {"address1": "420 Union St", "address2": "", "address3": "", "city": "Westfield", "zip_code": "01085", "country": "US", "state": "MA", "display_address": ["420 Union St", "Westfield, MA 01085"]}, "phone": "+14135629600", "display_phone": "(413) 562-9600", "distance": 7306.25639282631}, {"id": "d_oBPF7tx2Ql8tRbfmHc_g", "alias": "sultan-family-restaurant-agawam", "name": "Sultan Family Restaurant", "image_url": "https://s3-media3.fl.yelpcdn.com/bphoto/HnYrUSv6if82tazB0UCAig/o.jpg", "is_closed": false, "url": "https://www.yelp.com/biz/sultan-family-restaurant-agawam?adjust_creative=asslzE1UV0XuKI953B1vtw&utm_campaign=yelp_api_v3&utm_medium=api_v3_business_search&utm_source=asslzE1UV0XuKI953B1vtw", "review_count": 34, "categories": [{"alias": "russian", "title": "Russian"}, {"alias": "turkish", "title": "Turkish"}, {"alias": "uzbek", "title": "Uzbek"}], "rating": 4.5, "coordinates": {"latitude": 42.08892, "longitude": -72.63945}, "transactions": ["delivery"], "price": "$$", "location": {"address1": "270 Maple St", "address2": "", "address3": null, "city": "Agawam", "zip_code": "01001", "country": "US", "state": "MA", "display_address": ["270 Maple St", "Agawam, MA 01001"]}, "phone": "+14133334774", "display_phone": "(413) 333-4774", "distance": 13621.940018626237}, {"id": "6HXOqji7R0KWtdO9GY0rkg", "alias": "sumo-japanese-steakhouse-and-sushi-bar-holyoke", "name": "Sumo Japanese Steakhouse & Sushi Bar", "image_url": "https://s3-media1.fl.yelpcdn.com/bphoto/4GblPpad9wDt_2RCuJJwdA/o.jpg", "is_closed": false, "url": "https://www.yelp.com/biz/sumo-japanese-steakhouse-and-sushi-bar-holyoke?adjust_creative=asslzE1UV0XuKI953B1vtw&utm_campaign=yelp_api_v3&utm_medium=api_v3_business_search&utm_source=asslzE1UV0XuKI953B1vtw", "review_count": 102, "categories": [{"alias": "sushi", "title": "Sushi Bars"}, {"alias": "japanese", "title": "Japanese"}, {"alias": "steak", "title": "Steakhouses"}], "rating": 4.0, "coordinates": {"latitude": 42.1671, "longitude": -72.6399}, "transactions": ["delivery"], "price": "$$", "location": {"address1": "50 Holyoke St", "address2": "H213", "address3": "", "city": "Holyoke", "zip_code": "01040", "country": "US", "state": "MA", "display_address": ["50 Holyoke St", "H213", "Holyoke, MA 01040"]}, "phone": "+14133229887", "display_phone": "(413) 322-9887", "distance": 10670.816365974015}, {"id": "hxdHPpQiXXibDst2GYzhTg", "alias": "panda-house-westfield", "name": "Panda House", "image_url": "https://s3-media4.fl.yelpcdn.com/bphoto/2aU7FzB10XHorUW_Pp4mBQ/o.jpg", "is_closed": false, "url": "https://www.yelp.com/biz/panda-house-westfield?adjust_creative=asslzE1UV0XuKI953B1vtw&utm_campaign=yelp_api_v3&utm_medium=api_v3_business_search&utm_source=asslzE1UV0XuKI953B1vtw", "review_count": 31, "categories": [{"alias": "chinese", "title": "Chinese"}], "rating": 3.0, "coordinates": {"latitude": 42.1119163757847, "longitude": -72.7200491792913}, "transactions": ["delivery"], "price": "$$", "location": {"address1": "589 E Main St", "address2": "", "address3": "", "city": "Westfield", "zip_code": "01085", "country": "US", "state": "MA", "display_address": ["589 E Main St", "Westfield, MA 01085"]}, "phone": "+14135729816", "display_phone": "(413) 572-9816", "distance": 7069.559761423957}, {"id": "5AyoYkXx5oL20ln10LKS5Q", "alias": "se7ens-sports-bar-and-grill-easthampton", "name": "Se7ens Sports Bar & Grill", "image_url": "https://s3-media4.fl.yelpcdn.com/bphoto/hvkdQfYlanVGYbAINnuTiQ/o.jpg", "is_closed": false, "url": "https://www.yelp.com/biz/se7ens-sports-bar-and-grill-easthampton?adjust_creative=asslzE1UV0XuKI953B1vtw&utm_campaign=yelp_api_v3&utm_medium=api_v3_business_search&utm_source=asslzE1UV0XuKI953B1vtw", "review_count": 6, "categories": [{"alias": "sportsbars", "title": "Sports Bars"}, {"alias": "tradamerican", "title": "American (Traditional)"}], "rating": 4.5, "coordinates": {"latitude": 42.26476, "longitude": -72.66583}, "transactions": [], "location": {"address1": "75 Cottage St", "address2": null, "address3": "", "city": "Easthampton", "zip_code": "01027", "country": "US", "state": "MA", "display_address": ["75 Cottage St", "Easthampton, MA 01027"]}, "phone": "+14135271477", "display_phone": "(413) 527-1477", "distance": 14203.614299758114}, {"id": "9s-RBATHsyx1nrhFGYll1A", "alias": "the-crest-room-west-springfield", "name": "The Crest Room", "image_url": "https://s3-media1.fl.yelpcdn.com/bphoto/xoX05ch29JFBCg1RvIXX9w/o.jpg", "is_closed": false, "url": "https://www.yelp.com/biz/the-crest-room-west-springfield?adjust_creative=asslzE1UV0XuKI953B1vtw&utm_campaign=yelp_api_v3&utm_medium=api_v3_business_search&utm_source=asslzE1UV0XuKI953B1vtw", "review_count": 11, "categories": [{"alias": "tradamerican", "title": "American (Traditional)"}, {"alias": "beerbar", "title": "Beer Bar"}, {"alias": "cocktailbars", "title": "Cocktail Bars"}], "rating": 4.0, "coordinates": {"latitude": 42.103961, "longitude": -72.635559}, "transactions": ["delivery"], "price": "$", "location": {"address1": "706 Westfield St", "address2": "", "address3": "", "city": "West Springfield", "zip_code": "01089", "country": "US", "state": "MA", "display_address": ["706 Westfield St", "West Springfield, MA 01089"]}, "phone": "+14137397700", "display_phone": "(413) 739-7700", "distance": 12961.516036484947}, {"id": "nrLxUbJiQd6De_8yx7_jIQ", "alias": "crazy-arepas-springfield", "name": "Crazy Arepas", "image_url": "https://s3-media2.fl.yelpcdn.com/bphoto/xBRYNve2vxH1M1iG5Gm4lQ/o.jpg", "is_closed": false, "url": "https://www.yelp.com/biz/crazy-arepas-springfield?adjust_creative=asslzE1UV0XuKI953B1vtw&utm_campaign=yelp_api_v3&utm_medium=api_v3_business_search&utm_source=asslzE1UV0XuKI953B1vtw", "review_count": 3, "categories": [{"alias": "foodtrucks", "title": "Food Trucks"}, {"alias": "spanish", "title": "Spanish"}, {"alias": "tradamerican", "title": "American (Traditional)"}], "rating": 5.0, "coordinates": {"latitude": 42.1191, "longitude": -72.55044}, "transactions": [], "location": {"address1": null, "address2": null, "address3": null, "city": "Springfield", "zip_code": "01109", "country": "US", "state": "MA", "display_address": ["Springfield, MA 01109"]}, "phone": "+14138888083", "display_phone": "(413) 888-8083", "distance": 18713.312335952396}, {"id": "C8sZqgLpXgUAD4FoLwND9w", "alias": "gristmill-cafe-southwick", "name": "Gristmill Cafe", "image_url": "https://s3-media2.fl.yelpcdn.com/bphoto/q-OwIksCabt6QFQE-jkMjA/o.jpg", "is_closed": false, "url": "https://www.yelp.com/biz/gristmill-cafe-southwick?adjust_creative=asslzE1UV0XuKI953B1vtw&utm_campaign=yelp_api_v3&utm_medium=api_v3_business_search&utm_source=asslzE1UV0XuKI953B1vtw", "review_count": 8, "categories": [{"alias": "breakfast_brunch", "title": "Breakfast & Brunch"}, {"alias": "tradamerican", "title": "American (Traditional)"}], "rating": 4.5, "coordinates": {"latitude": 42.063179, "longitude": -72.7645921}, "transactions": ["delivery"], "location": {"address1": "610 College Hwy", "address2": "", "address3": null, "city": "Southwick", "zip_code": "01077", "country": "US", "state": "MA", "display_address": ["610 College Hwy", "Southwick, MA 01077"]}, "phone": "+14135693000", "display_phone": "(413) 569-3000", "distance": 11150.875359799958}, {"id": "gpLPD7T4pT_qsUt-BneuHw", "alias": "classic-burgers-west-springfield-2", "name": "Classic Burgers", "image_url": "https://s3-media4.fl.yelpcdn.com/bphoto/zoTIC6lrCfxuGDZpjlpZqQ/o.jpg", "is_closed": false, "url": "https://www.yelp.com/biz/classic-burgers-west-springfield-2?adjust_creative=asslzE1UV0XuKI953B1vtw&utm_campaign=yelp_api_v3&utm_medium=api_v3_business_search&utm_source=asslzE1UV0XuKI953B1vtw", "review_count": 117, "categories": [{"alias": "burgers", "title": "Burgers"}, {"alias": "tradamerican", "title": "American (Traditional)"}, {"alias": "icecream", "title": "Ice Cream & Frozen Yogurt"}], "rating": 4.0, "coordinates": {"latitude": 42.1062530659152, "longitude": -72.6447293534875}, "transactions": ["delivery"], "price": "$", "location": {"address1": "1261 Westfield St", "address2": "", "address3": "", "city": "West Springfield", "zip_code": "01089", "country": "US", "state": "MA", "display_address": ["1261 Westfield St", "West Springfield, MA 01089"]}, "phone": "+14133631654", "display_phone": "(413) 363-1654", "distance": 12165.756898634332}, {"id": "uK0PEZf39yA9HAsMv4NlJg", "alias": "sl\u00e1inte-holyoke", "name": "Sl\u00e1inte", "image_url": "https://s3-media2.fl.yelpcdn.com/bphoto/ceMVVfR0aMUWGNbVYgSvcQ/o.jpg", "is_closed": false, "url": "https://www.yelp.com/biz/sl%C3%A1inte-holyoke?adjust_creative=asslzE1UV0XuKI953B1vtw&utm_campaign=yelp_api_v3&utm_medium=api_v3_business_search&utm_source=asslzE1UV0XuKI953B1vtw", "review_count": 77, "categories": [{"alias": "newamerican", "title": "American (New)"}, {"alias": "bars", "title": "Bars"}], "rating": 3.0, "coordinates": {"latitude": 42.217394, "longitude": -72.641519}, "transactions": ["delivery"], "price": "$$", "location": {"address1": "80 Jarvis Ave", "address2": "", "address3": "", "city": "Holyoke", "zip_code": "01040", "country": "US", "state": "MA", "display_address": ["80 Jarvis Ave", "Holyoke, MA 01040"]}, "phone": "+14135344000", "display_phone": "(413) 534-4000", "distance": 12228.654517811963}, {"id": "PIAU2nZyrxObZKLXumxNzQ", "alias": "zanto-southwick", "name": "Zanto", "image_url": "https://s3-media1.fl.yelpcdn.com/bphoto/sGny9w7M97NLitrTpwif-w/o.jpg", "is_closed": false, "url": "https://www.yelp.com/biz/zanto-southwick?adjust_creative=asslzE1UV0XuKI953B1vtw&utm_campaign=yelp_api_v3&utm_medium=api_v3_business_search&utm_source=asslzE1UV0XuKI953B1vtw", "review_count": 38, "categories": [{"alias": "pizza", "title": "Pizza"}, {"alias": "italian", "title": "Italian"}, {"alias": "tradamerican", "title": "American (Traditional)"}], "rating": 4.0, "coordinates": {"latitude": 42.06218, "longitude": -72.76549}, "transactions": ["delivery"], "price": "$$", "location": {"address1": "587 College Hwy", "address2": "", "address3": "", "city": "Southwick", "zip_code": "01077", "country": "US", "state": "MA", "display_address": ["587 College Hwy", "Southwick, MA 01077"]}, "phone": "+14135690164", "display_phone": "(413) 569-0164", "distance": 11271.137718450904}, {"id": "TDxS5w9gIksx2VCjPopx6w", "alias": "99-restaurant-and-pub-westfield", "name": "99 Restaurant & Pub", "image_url": "https://s3-media1.fl.yelpcdn.com/bphoto/cuC-I2ou7uv-jg9MH0axtQ/o.jpg", "is_closed": false, "url": "https://www.yelp.com/biz/99-restaurant-and-pub-westfield?adjust_creative=asslzE1UV0XuKI953B1vtw&utm_campaign=yelp_api_v3&utm_medium=api_v3_business_search&utm_source=asslzE1UV0XuKI953B1vtw", "review_count": 22, "categories": [{"alias": "tradamerican", "title": "American (Traditional)"}, {"alias": "pubs", "title": "Pubs"}], "rating": 3.5, "coordinates": {"latitude": 42.11362, "longitude": -72.72241}, "transactions": [], "price": "$$", "location": {"address1": "342 E Main St", "address2": "", "address3": "", "city": "Westfield", "zip_code": "01085", "country": "US", "state": "MA", "display_address": ["342 E Main St", "Westfield, MA 01085"]}, "phone": "+14135621399", "display_phone": "(413) 562-1399", "distance": 6815.543574851355}, {"id": "91PW7jAXOm8YJV449Qr-yQ", "alias": "kisara-japanese-and-korean-restaurant-easthampton", "name": "Kisara Japanese & Korean Restaurant", "image_url": "https://s3-media3.fl.yelpcdn.com/bphoto/0BiDE2eIVW7YNYOiIcch6Q/o.jpg", "is_closed": false, "url": "https://www.yelp.com/biz/kisara-japanese-and-korean-restaurant-easthampton?adjust_creative=asslzE1UV0XuKI953B1vtw&utm_campaign=yelp_api_v3&utm_medium=api_v3_business_search&utm_source=asslzE1UV0XuKI953B1vtw", "review_count": 120, "categories": [{"alias": "sushi", "title": "Sushi Bars"}, {"alias": "korean", "title": "Korean"}, {"alias": "japanese", "title": "Japanese"}], "rating": 4.0, "coordinates": {"latitude": 42.2646721669469, "longitude": -72.6659128365786}, "transactions": ["delivery"], "price": "$$", "location": {"address1": "88 Cottage St", "address2": "", "address3": null, "city": "Easthampton", "zip_code": "01027", "country": "US", "state": "MA", "display_address": ["88 Cottage St", "Easthampton, MA 01027"]}, "phone": "+14132032095", "display_phone": "(413) 203-2095", "distance": 14202.897988395303}, {"id": "98NOrHpP8oM6MDcIbgM02g", "alias": "maple-leaf-bar-and-grill-westfield", "name": "Maple Leaf Bar & Grill", "image_url": "https://s3-media2.fl.yelpcdn.com/bphoto/xmBIe0wvLF2wBespwchHWw/o.jpg", "is_closed": false, "url": "https://www.yelp.com/biz/maple-leaf-bar-and-grill-westfield?adjust_creative=asslzE1UV0XuKI953B1vtw&utm_campaign=yelp_api_v3&utm_medium=api_v3_business_search&utm_source=asslzE1UV0XuKI953B1vtw", "review_count": 14, "categories": [{"alias": "bars", "title": "Bars"}, {"alias": "burgers", "title": "Burgers"}], "rating": 3.0, "coordinates": {"latitude": 42.1230392456055, "longitude": -72.7492218017578}, "transactions": [], "price": "$$", "location": {"address1": "11 Arnold St", "address2": "", "address3": "", "city": "Westfield", "zip_code": "01085", "country": "US", "state": "MA", "display_address": ["11 Arnold St", "Westfield, MA 01085"]}, "phone": "+14135625068", "display_phone": "(413) 562-5068", "distance": 4810.2816541619395}, {"id": "hVJbzy9W6XZSkmNMSgKGCA", "alias": "peppos-pizza-agawam", "name": "Peppo's Pizza", "image_url": "https://s3-media1.fl.yelpcdn.com/bphoto/nkm8pVAAUJWX9PgMC8C_7Q/o.jpg", "is_closed": false, "url": "https://www.yelp.com/biz/peppos-pizza-agawam?adjust_creative=asslzE1UV0XuKI953B1vtw&utm_campaign=yelp_api_v3&utm_medium=api_v3_business_search&utm_source=asslzE1UV0XuKI953B1vtw", "review_count": 65, "categories": [{"alias": "pizza", "title": "Pizza"}, {"alias": "italian", "title": "Italian"}], "rating": 5.0, "coordinates": {"latitude": 42.0849135, "longitude": -72.6435869}, "transactions": ["delivery"], "price": "$$", "location": {"address1": "421 Springfield St", "address2": "", "address3": "", "city": "Agawam", "zip_code": "01001", "country": "US", "state": "MA", "display_address": ["421 Springfield St", "Agawam, MA 01001"]}, "phone": "+14137899066", "display_phone": "(413) 789-9066", "distance": 13627.16770156703}, {"id": "wqCC8QJ_nNUoiz3Y89kBTw", "alias": "amys-place-easthampton", "name": "Amy's Place", "image_url": "https://s3-media3.fl.yelpcdn.com/bphoto/omuMN7CDuNmuaNsR1vSv_w/o.jpg", "is_closed": false, "url": "https://www.yelp.com/biz/amys-place-easthampton?adjust_creative=asslzE1UV0XuKI953B1vtw&utm_campaign=yelp_api_v3&utm_medium=api_v3_business_search&utm_source=asslzE1UV0XuKI953B1vtw", "review_count": 36, "categories": [{"alias": "pubs", "title": "Pubs"}, {"alias": "newamerican", "title": "American (New)"}], "rating": 4.0, "coordinates": {"latitude": 42.26421, "longitude": -72.66587}, "transactions": ["delivery"], "price": "$$", "location": {"address1": "80 Cottage St", "address2": "", "address3": "", "city": "Easthampton", "zip_code": "01027", "country": "US", "state": "MA", "display_address": ["80 Cottage St", "Easthampton, MA 01027"]}, "phone": "+14135279333", "display_phone": "(413) 527-9333", "distance": 14183.549535790162}, {"id": "uhI0q5g8AYGOFGVio7Cj_g", "alias": "glendale-grill-easthampton", "name": "Glendale Grill", "image_url": "https://s3-media3.fl.yelpcdn.com/bphoto/cw_oipGC8ot7einHDkO5Qg/o.jpg", "is_closed": false, "url": "https://www.yelp.com/biz/glendale-grill-easthampton?adjust_creative=asslzE1UV0XuKI953B1vtw&utm_campaign=yelp_api_v3&utm_medium=api_v3_business_search&utm_source=asslzE1UV0XuKI953B1vtw", "review_count": 27, "categories": [{"alias": "tradamerican", "title": "American (Traditional)"}], "rating": 3.5, "coordinates": {"latitude": 42.2649067, "longitude": -72.6880527}, "transactions": ["delivery"], "price": "$$", "location": {"address1": "65 Glendale S", "address2": "", "address3": "", "city": "Easthampton", "zip_code": "01027", "country": "US", "state": "MA", "display_address": ["65 Glendale S", "Easthampton, MA 01027"]}, "phone": "+14132032300", "display_phone": "(413) 203-2300", "distance": 13197.290331317834}, {"id": "T3bFCUMtiac0dmH4N2JVAg", "alias": "moes-southwest-grill-westfield", "name": "Moe's Southwest Grill", "image_url": "https://s3-media4.fl.yelpcdn.com/bphoto/iWLOJt9kTN0nUHxygiG6Qw/o.jpg", "is_closed": false, "url": "https://www.yelp.com/biz/moes-southwest-grill-westfield?adjust_creative=asslzE1UV0XuKI953B1vtw&utm_campaign=yelp_api_v3&utm_medium=api_v3_business_search&utm_source=asslzE1UV0XuKI953B1vtw", "review_count": 14, "categories": [{"alias": "tex-mex", "title": "Tex-Mex"}, {"alias": "mexican", "title": "Mexican"}], "rating": 3.5, "coordinates": {"latitude": 42.1138997, "longitude": -72.7265659}, "transactions": [], "price": "$", "location": {"address1": "301 E Main St", "address2": null, "address3": null, "city": "Westfield", "zip_code": "01085", "country": "US", "state": "MA", "display_address": ["301 E Main St", "Westfield, MA 01085"]}, "phone": "+14135795712", "display_phone": "(413) 579-5712", "distance": 6649.257943495716}, {"id": "7WcO9LZyhcQcQo_qWKrm2w", "alias": "china-star-westfield", "name": "China Star", "image_url": "https://s3-media1.fl.yelpcdn.com/bphoto/50_daF0KIVehPHv7KUYa-A/o.jpg", "is_closed": false, "url": "https://www.yelp.com/biz/china-star-westfield?adjust_creative=asslzE1UV0XuKI953B1vtw&utm_campaign=yelp_api_v3&utm_medium=api_v3_business_search&utm_source=asslzE1UV0XuKI953B1vtw", "review_count": 15, "categories": [{"alias": "chinese", "title": "Chinese"}, {"alias": "buffets", "title": "Buffets"}], "rating": 3.0, "coordinates": {"latitude": 42.1093406677246, "longitude": -72.7643814086914}, "transactions": ["delivery"], "price": "$", "location": {"address1": "36 Southwick Rd", "address2": "", "address3": "", "city": "Westfield", "zip_code": "01085", "country": "US", "state": "MA", "display_address": ["36 Southwick Rd", "Westfield, MA 01085"]}, "phone": "+14135689698", "display_phone": "(413) 568-9698", "distance": 6010.763281364131}, {"id": "NLXXr9wHtj7dQGVIF1pDrQ", "alias": "log-cabin-holyoke", "name": "Log Cabin", "image_url": "https://s3-media1.fl.yelpcdn.com/bphoto/6lb4qvbaXklFQXA-4THKaQ/o.jpg", "is_closed": false, "url": "https://www.yelp.com/biz/log-cabin-holyoke?adjust_creative=asslzE1UV0XuKI953B1vtw&utm_campaign=yelp_api_v3&utm_medium=api_v3_business_search&utm_source=asslzE1UV0XuKI953B1vtw", "review_count": 37, "categories": [{"alias": "tradamerican", "title": "American (Traditional)"}], "rating": 4.0, "coordinates": {"latitude": 42.23617, "longitude": -72.65188}, "transactions": [], "price": "$$$", "location": {"address1": "500 Easthampton Rd", "address2": "", "address3": "", "city": "Holyoke", "zip_code": "01040", "country": "US", "state": "MA", "display_address": ["500 Easthampton Rd", "Holyoke, MA 01040"]}, "phone": "+14135355077", "display_phone": "(413) 535-5077", "distance": 12755.508653852125}, {"id": "1mCxwfmgVggWataJ7UtyuQ", "alias": "elm-pizza-westfield", "name": "Elm Pizza", "image_url": "https://s3-media3.fl.yelpcdn.com/bphoto/67wmtlGmlAVNPctejI1_3Q/o.jpg", "is_closed": false, "url": "https://www.yelp.com/biz/elm-pizza-westfield?adjust_creative=asslzE1UV0XuKI953B1vtw&utm_campaign=yelp_api_v3&utm_medium=api_v3_business_search&utm_source=asslzE1UV0XuKI953B1vtw", "review_count": 13, "categories": [{"alias": "pizza", "title": "Pizza"}, {"alias": "sandwiches", "title": "Sandwiches"}], "rating": 3.5, "coordinates": {"latitude": 42.13082, "longitude": -72.74529}, "transactions": ["delivery"], "price": "$$", "location": {"address1": "38 N Elm St", "address2": "", "address3": "", "city": "Westfield", "zip_code": "01085", "country": "US", "state": "MA", "display_address": ["38 N Elm St", "Westfield, MA 01085"]}, "phone": "+14135682020", "display_phone": "(413) 568-2020", "distance": 4178.323603151423}, {"id": "RZhvmr8VR7OK4rcm4FTJFQ", "alias": "pizza-towne-westfield", "name": "Pizza Towne", "image_url": "https://s3-media2.fl.yelpcdn.com/bphoto/86GPZTO97Ga7gAy8zoGtZg/o.jpg", "is_closed": false, "url": "https://www.yelp.com/biz/pizza-towne-westfield?adjust_creative=asslzE1UV0XuKI953B1vtw&utm_campaign=yelp_api_v3&utm_medium=api_v3_business_search&utm_source=asslzE1UV0XuKI953B1vtw", "review_count": 13, "categories": [{"alias": "pizza", "title": "Pizza"}, {"alias": "salad", "title": "Salad"}, {"alias": "soup", "title": "Soup"}], "rating": 3.5, "coordinates": {"latitude": 42.1202062, "longitude": -72.7442932}, "transactions": ["delivery", "pickup"], "price": "$$", "location": {"address1": "80 Main St", "address2": "", "address3": "", "city": "Westfield", "zip_code": "01085", "country": "US", "state": "MA", "display_address": ["80 Main St", "Westfield, MA 01085"]}, "phone": "+14135683940", "display_phone": "(413) 568-3940", "distance": 5219.312630443359}, {"id": "U7r7Jppujp-R9E5M_ufUWw", "alias": "friendlys-westfield", "name": "Friendly's", "image_url": "https://s3-media4.fl.yelpcdn.com/bphoto/3XO3gGLXpYj0qXXqMmtdqQ/o.jpg", "is_closed": false, "url": "https://www.yelp.com/biz/friendlys-westfield?adjust_creative=asslzE1UV0XuKI953B1vtw&utm_campaign=yelp_api_v3&utm_medium=api_v3_business_search&utm_source=asslzE1UV0XuKI953B1vtw", "review_count": 33, "categories": [{"alias": "icecream", "title": "Ice Cream & Frozen Yogurt"}, {"alias": "burgers", "title": "Burgers"}, {"alias": "tradamerican", "title": "American (Traditional)"}], "rating": 2.0, "coordinates": {"latitude": 42.14184, "longitude": -72.7323399}, "transactions": ["delivery"], "price": "$", "location": {"address1": "21 Southampton Rd", "address2": null, "address3": null, "city": "Westfield", "zip_code": "01085", "country": "US", "state": "MA", "display_address": ["21 Southampton Rd", "Westfield, MA 01085"]}, "phone": "+14135620625", "display_phone": "(413) 562-0625", "distance": 3933.3761829093987}, {"id": "YX9WlOS0UfQA8BEuegEw2A", "alias": "granville-country-store-granville", "name": "Granville Country Store", "image_url": "https://s3-media3.fl.yelpcdn.com/bphoto/RCnkxzc6kIDKQx2XA7uUzA/o.jpg", "is_closed": false, "url": "https://www.yelp.com/biz/granville-country-store-granville?adjust_creative=asslzE1UV0XuKI953B1vtw&utm_campaign=yelp_api_v3&utm_medium=api_v3_business_search&utm_source=asslzE1UV0XuKI953B1vtw", "review_count": 29, "categories": [{"alias": "convenience", "title": "Convenience Stores"}, {"alias": "delis", "title": "Delis"}], "rating": 4.0, "coordinates": {"latitude": 42.0661592438345, "longitude": -72.8618863520456}, "transactions": [], "price": "$$", "location": {"address1": "11 Granby Rd", "address2": "", "address3": "", "city": "Granville", "zip_code": "01034", "country": "US", "state": "MA", "display_address": ["11 Granby Rd", "Granville, MA 01034"]}, "phone": "+14133578555", "display_phone": "(413) 357-8555", "distance": 13155.351981615458}, {"id": "s-gnG03YnsYGvg36k6hCsg", "alias": "collins-tavern-west-springfield", "name": "Collins Tavern", "image_url": "https://s3-media2.fl.yelpcdn.com/bphoto/49aF_I8KfLL90iDZwiFiuA/o.jpg", "is_closed": false, "url": "https://www.yelp.com/biz/collins-tavern-west-springfield?adjust_creative=asslzE1UV0XuKI953B1vtw&utm_campaign=yelp_api_v3&utm_medium=api_v3_business_search&utm_source=asslzE1UV0XuKI953B1vtw", "review_count": 26, "categories": [{"alias": "bars", "title": "Bars"}, {"alias": "burgers", "title": "Burgers"}], "rating": 4.0, "coordinates": {"latitude": 42.10443667, "longitude": -72.64037333}, "transactions": [], "price": "$", "location": {"address1": "997 Westfield St", "address2": "", "address3": "", "city": "West Springfield", "zip_code": "01089", "country": "US", "state": "MA", "display_address": ["997 Westfield St", "West Springfield, MA 01089"]}, "phone": "+14137369772", "display_phone": "(413) 736-9772", "distance": 12576.084051601822}, {"id": "dNCQ70TtsR4dvdwhu-Zucw", "alias": "new-king-yen-chinese-restaurant-agawam", "name": "New King Yen Chinese Restaurant", "image_url": "https://s3-media4.fl.yelpcdn.com/bphoto/frKXE6qaQhqPg9Dg-XoDJg/o.jpg", "is_closed": false, "url": "https://www.yelp.com/biz/new-king-yen-chinese-restaurant-agawam?adjust_creative=asslzE1UV0XuKI953B1vtw&utm_campaign=yelp_api_v3&utm_medium=api_v3_business_search&utm_source=asslzE1UV0XuKI953B1vtw", "review_count": 32, "categories": [{"alias": "chinese", "title": "Chinese"}], "rating": 4.0, "coordinates": {"latitude": 42.08706, "longitude": -72.64133}, "transactions": ["delivery"], "price": "$$", "location": {"address1": "340 Springfield St", "address2": "", "address3": "", "city": "Agawam", "zip_code": "01001", "country": "US", "state": "MA", "display_address": ["340 Springfield St", "Agawam, MA 01001"]}, "phone": "+14137866288", "display_phone": "(413) 786-6288", "distance": 13609.025941148195}, {"id": "41YfGokc83L6xkkocqEyqg", "alias": "irish-house-restaurant-and-trinity-pub-west-springfield", "name": "Irish House Restaurant and Trinity Pub", "image_url": "https://s3-media1.fl.yelpcdn.com/bphoto/gLUo3RXlcShTs1E_7WDjHw/o.jpg", "is_closed": false, "url": "https://www.yelp.com/biz/irish-house-restaurant-and-trinity-pub-west-springfield?adjust_creative=asslzE1UV0XuKI953B1vtw&utm_campaign=yelp_api_v3&utm_medium=api_v3_business_search&utm_source=asslzE1UV0XuKI953B1vtw", "review_count": 7, "categories": [{"alias": "irish", "title": "Irish"}, {"alias": "irish_pubs", "title": "Irish Pub"}], "rating": 4.0, "coordinates": {"latitude": 42.128413, "longitude": -72.642553}, "transactions": [], "location": {"address1": "429 Morgan Rd", "address2": null, "address3": "", "city": "West Springfield", "zip_code": "01089", "country": "US", "state": "MA", "display_address": ["429 Morgan Rd", "West Springfield, MA 01089"]}, "phone": "+14133334951", "display_phone": "(413) 333-4951", "distance": 11250.86214445722}, {"id": "8G2C6pDPclfoGHk9gVmu_Q", "alias": "west-lake-gourmet-chinese-restaurant-southampton", "name": "West Lake Gourmet Chinese Restaurant", "image_url": "https://s3-media2.fl.yelpcdn.com/bphoto/nKCivoq17DpEBQu72Du6hw/o.jpg", "is_closed": false, "url": "https://www.yelp.com/biz/west-lake-gourmet-chinese-restaurant-southampton?adjust_creative=asslzE1UV0XuKI953B1vtw&utm_campaign=yelp_api_v3&utm_medium=api_v3_business_search&utm_source=asslzE1UV0XuKI953B1vtw", "review_count": 15, "categories": [{"alias": "chinese", "title": "Chinese"}], "rating": 3.5, "coordinates": {"latitude": 42.252496, "longitude": -72.697897}, "transactions": [], "price": "$$", "location": {"address1": "15 College Hwy", "address2": "", "address3": "", "city": "Southampton", "zip_code": "01073", "country": "US", "state": "MA", "display_address": ["15 College Hwy", "Southampton, MA 01073"]}, "phone": "+14135275207", "display_phone": "(413) 527-5207", "distance": 11597.168011928237}, {"id": "xI-cP_d_HDTf2PutrKFWTg", "alias": "yankee-village-restaurant-westfield", "name": "Yankee Village Restaurant", "image_url": "https://s3-media4.fl.yelpcdn.com/bphoto/2HbClrnsRqu_h46mb7TN_w/o.jpg", "is_closed": false, "url": "https://www.yelp.com/biz/yankee-village-restaurant-westfield?adjust_creative=asslzE1UV0XuKI953B1vtw&utm_campaign=yelp_api_v3&utm_medium=api_v3_business_search&utm_source=asslzE1UV0XuKI953B1vtw", "review_count": 11, "categories": [{"alias": "newamerican", "title": "American (New)"}], "rating": 3.5, "coordinates": {"latitude": 42.1085356, "longitude": -72.7648185}, "transactions": ["delivery"], "price": "$", "location": {"address1": "63 Southwick Rd", "address2": "", "address3": "", "city": "Westfield", "zip_code": "01085", "country": "US", "state": "MA", "display_address": ["63 Southwick Rd", "Westfield, MA 01085"]}, "phone": "+14135721224", "display_phone": "(413) 572-1224", "distance": 6081.842342156488}, {"id": "LZoZwIrGXq9JU1qREmrONg", "alias": "buccaneer-lounge-agawam", "name": "Buccaneer Lounge", "image_url": "https://s3-media2.fl.yelpcdn.com/bphoto/ILW6Xy7tuJq51tNXHZefpw/o.jpg", "is_closed": false, "url": "https://www.yelp.com/biz/buccaneer-lounge-agawam?adjust_creative=asslzE1UV0XuKI953B1vtw&utm_campaign=yelp_api_v3&utm_medium=api_v3_business_search&utm_source=asslzE1UV0XuKI953B1vtw", "review_count": 9, "categories": [{"alias": "bars", "title": "Bars"}, {"alias": "newamerican", "title": "American (New)"}, {"alias": "seafood", "title": "Seafood"}], "rating": 4.0, "coordinates": {"latitude": 42.0944043653681, "longitude": -72.635013051331}, "transactions": ["delivery"], "location": {"address1": "86 Maple St", "address2": "", "address3": "", "city": "Agawam", "zip_code": "01001", "country": "US", "state": "MA", "display_address": ["86 Maple St", "Agawam, MA 01001"]}, "phone": "+14137860956", "display_phone": "(413) 786-0956", "distance": 13555.121250119219}, {"id": "kL-FqrnTERfQUpzlsKIrgw", "alias": "bella-roma-pizza-westfield-2", "name": "Bella Roma Pizza", "image_url": "https://s3-media3.fl.yelpcdn.com/bphoto/ZvcRpI_uNTQv0hJNEzityg/o.jpg", "is_closed": false, "url": "https://www.yelp.com/biz/bella-roma-pizza-westfield-2?adjust_creative=asslzE1UV0XuKI953B1vtw&utm_campaign=yelp_api_v3&utm_medium=api_v3_business_search&utm_source=asslzE1UV0XuKI953B1vtw", "review_count": 32, "categories": [{"alias": "newamerican", "title": "American (New)"}, {"alias": "pizza", "title": "Pizza"}], "rating": 3.0, "coordinates": {"latitude": 42.1088089, "longitude": -72.7648151}, "transactions": ["delivery", "pickup"], "price": "$", "location": {"address1": "57 Southwick Rd", "address2": null, "address3": "", "city": "Westfield", "zip_code": "01085", "country": "US", "state": "MA", "display_address": ["57 Southwick Rd", "Westfield, MA 01085"]}, "phone": "+14136425656", "display_phone": "(413) 642-5656", "distance": 6061.441847918869}, {"id": "GBeWGwKZu_URwU1tl17VRQ", "alias": "new-main-moon-chinese-restaurant-southwick", "name": "New Main Moon Chinese Restaurant", "image_url": "https://s3-media1.fl.yelpcdn.com/bphoto/H7vsIe3-zFWWfOyGs_tM_w/o.jpg", "is_closed": false, "url": "https://www.yelp.com/biz/new-main-moon-chinese-restaurant-southwick?adjust_creative=asslzE1UV0XuKI953B1vtw&utm_campaign=yelp_api_v3&utm_medium=api_v3_business_search&utm_source=asslzE1UV0XuKI953B1vtw", "review_count": 34, "categories": [{"alias": "chinese", "title": "Chinese"}], "rating": 3.5, "coordinates": {"latitude": 42.063179, "longitude": -72.7645921}, "transactions": [], "price": "$", "location": {"address1": "610 College Hwy", "address2": "", "address3": "", "city": "Southwick", "zip_code": "01077", "country": "US", "state": "MA", "display_address": ["610 College Hwy", "Southwick, MA 01077"]}, "phone": "+14135691234", "display_phone": "(413) 569-1234", "distance": 11150.875359799958}, {"id": "MqtuEay7-hmWJAdPsh_b_A", "alias": "the-waters-fine-goods-coffee-easthampton", "name": "The Water's Fine Goods + Coffee", "image_url": "https://s3-media1.fl.yelpcdn.com/bphoto/s--bIRFRNx9Q-cgtcS4WKw/o.jpg", "is_closed": false, "url": "https://www.yelp.com/biz/the-waters-fine-goods-coffee-easthampton?adjust_creative=asslzE1UV0XuKI953B1vtw&utm_campaign=yelp_api_v3&utm_medium=api_v3_business_search&utm_source=asslzE1UV0XuKI953B1vtw", "review_count": 4, "categories": [{"alias": "cafes", "title": "Cafes"}, {"alias": "giftshops", "title": "Gift Shops"}], "rating": 5.0, "coordinates": {"latitude": 42.2649118272765, "longitude": -72.6679227871144}, "transactions": [], "location": {"address1": "20 Cottage St", "address2": "", "address3": null, "city": "Easthampton", "zip_code": "01027", "country": "US", "state": "MA", "display_address": ["20 Cottage St", "Easthampton, MA 01027"]}, "phone": "+14132035447", "display_phone": "(413) 203-5447", "distance": 14124.258275257042}, {"id": "w8Ei4KseWaa6O9ox73Oyfw", "alias": "mikel-coffee-southampton", "name": "Mikel Coffee", "image_url": "https://s3-media1.fl.yelpcdn.com/bphoto/M9qrqmeBR1hum_AcoYdMEg/o.jpg", "is_closed": false, "url": "https://www.yelp.com/biz/mikel-coffee-southampton?adjust_creative=asslzE1UV0XuKI953B1vtw&utm_campaign=yelp_api_v3&utm_medium=api_v3_business_search&utm_source=asslzE1UV0XuKI953B1vtw", "review_count": 11, "categories": [{"alias": "cafes", "title": "Cafes"}], "rating": 4.5, "coordinates": {"latitude": 42.252372, "longitude": -72.69815}, "transactions": [], "location": {"address1": "15 College Hwy", "address2": null, "address3": null, "city": "Southampton", "zip_code": "01073", "country": "US", "state": "MA", "display_address": ["15 College Hwy", "Southampton, MA 01073"]}, "phone": "+14132032442", "display_phone": "(413) 203-2442", "distance": 11574.600528427793}, {"id": "5Ccl0sur_T90pL5mkd6lUg", "alias": "greek-place-holyoke", "name": "Greek Place", "image_url": "https://s3-media1.fl.yelpcdn.com/bphoto/wLmiS6UutApJaX0lX55gzQ/o.jpg", "is_closed": false, "url": "https://www.yelp.com/biz/greek-place-holyoke?adjust_creative=asslzE1UV0XuKI953B1vtw&utm_campaign=yelp_api_v3&utm_medium=api_v3_business_search&utm_source=asslzE1UV0XuKI953B1vtw", "review_count": 36, "categories": [{"alias": "tradamerican", "title": "American (Traditional)"}, {"alias": "greek", "title": "Greek"}, {"alias": "importedfood", "title": "Imported Food"}], "rating": 4.5, "coordinates": {"latitude": 42.167247, "longitude": -72.641327}, "transactions": ["delivery"], "price": "$", "location": {"address1": "50 Holyoke St", "address2": "", "address3": "Holyoke Mall", "city": "Holyoke", "zip_code": "01040", "country": "US", "state": "MA", "display_address": ["50 Holyoke St", "Holyoke Mall", "Holyoke, MA 01040"]}, "phone": "+14135368976", "display_phone": "(413) 536-8976", "distance": 10671.437128760364}, {"id": "LevKAQ3UmcMwkowaVt2keQ", "alias": "ray-rays-cafe-easthampton-2", "name": "Ray Ray's Cafe", "image_url": "https://s3-media4.fl.yelpcdn.com/bphoto/_d_mTfvtArbprRzCBTRDdg/o.jpg", "is_closed": false, "url": "https://www.yelp.com/biz/ray-rays-cafe-easthampton-2?adjust_creative=asslzE1UV0XuKI953B1vtw&utm_campaign=yelp_api_v3&utm_medium=api_v3_business_search&utm_source=asslzE1UV0XuKI953B1vtw", "review_count": 1, "categories": [{"alias": "sandwiches", "title": "Sandwiches"}, {"alias": "cafes", "title": "Cafes"}, {"alias": "salad", "title": "Salad"}], "rating": 5.0, "coordinates": {"latitude": 42.264428, "longitude": -72.665666}, "transactions": ["delivery"], "location": {"address1": "82 Cottage St", "address2": null, "address3": "", "city": "Easthampton", "zip_code": "01027", "country": "US", "state": "MA", "display_address": ["82 Cottage St", "Easthampton, MA 01027"]}, "phone": "", "display_phone": "", "distance": 14193.731578230665}, {"id": "Q5GWdipUWMJomzgGx8SYoA", "alias": "leos-gallery-deli-westfield", "name": "Leo's Gallery Deli", "image_url": "https://s3-media4.fl.yelpcdn.com/bphoto/Sh1dpI6E6ZHqAgr9oLZOdw/o.jpg", "is_closed": false, "url": "https://www.yelp.com/biz/leos-gallery-deli-westfield?adjust_creative=asslzE1UV0XuKI953B1vtw&utm_campaign=yelp_api_v3&utm_medium=api_v3_business_search&utm_source=asslzE1UV0XuKI953B1vtw", "review_count": 8, "categories": [{"alias": "delis", "title": "Delis"}, {"alias": "tradamerican", "title": "American (Traditional)"}, {"alias": "sandwiches", "title": "Sandwiches"}], "rating": 3.5, "coordinates": {"latitude": 42.121242, "longitude": -72.7489103}, "transactions": ["delivery"], "price": "$", "location": {"address1": "3 Main St", "address2": "", "address3": "", "city": "Westfield", "zip_code": "01085", "country": "US", "state": "MA", "display_address": ["3 Main St", "Westfield, MA 01085"]}, "phone": "+14135682586", "display_phone": "(413) 568-2586", "distance": 5001.175583540489}, {"id": "EcFMFTr9gKBhzLwbI6tqoQ", "alias": "sorrento-pizza-and-restaurant-west-springfield", "name": "Sorrento Pizza & Restaurant", "image_url": "https://s3-media1.fl.yelpcdn.com/bphoto/Bc7fbISE5aBI2qmDkSCtZw/o.jpg", "is_closed": false, "url": "https://www.yelp.com/biz/sorrento-pizza-and-restaurant-west-springfield?adjust_creative=asslzE1UV0XuKI953B1vtw&utm_campaign=yelp_api_v3&utm_medium=api_v3_business_search&utm_source=asslzE1UV0XuKI953B1vtw", "review_count": 17, "categories": [{"alias": "pizza", "title": "Pizza"}], "rating": 4.0, "coordinates": {"latitude": 42.1074530697082, "longitude": -72.6470374925628}, "transactions": [], "price": "$$", "location": {"address1": "660 Kings Hwy", "address2": "", "address3": "", "city": "West Springfield", "zip_code": "01089", "country": "US", "state": "MA", "display_address": ["660 Kings Hwy", "West Springfield, MA 01089"]}, "phone": "+14137336088", "display_phone": "(413) 733-6088", "distance": 11933.71615512964}, {"id": "VwNxlo2shUPyewUj9oKw4A", "alias": "subway-westfield-23", "name": "Subway", "image_url": "https://s3-media1.fl.yelpcdn.com/bphoto/_SoRVl7urOE_0MQB2Sou9g/o.jpg", "is_closed": false, "url": "https://www.yelp.com/biz/subway-westfield-23?adjust_creative=asslzE1UV0XuKI953B1vtw&utm_campaign=yelp_api_v3&utm_medium=api_v3_business_search&utm_source=asslzE1UV0XuKI953B1vtw", "review_count": 2, "categories": [{"alias": "sandwiches", "title": "Sandwiches"}], "rating": 3.0, "coordinates": {"latitude": 42.1401703394751, "longitude": -72.7334066}, "transactions": [], "price": "$", "location": {"address1": "439 N Elm St", "address2": "", "address3": "", "city": "Westfield", "zip_code": "01085", "country": "US", "state": "MA", "display_address": ["439 N Elm St", "Westfield, MA 01085"]}, "phone": "+14135628438", "display_phone": "(413) 562-8438", "distance": 4001.934058936272}, {"id": "R2JCabKs7-Fvhw184b_LPA", "alias": "wings-over-westfield-westfield", "name": "Wings Over Westfield", "image_url": "https://s3-media2.fl.yelpcdn.com/bphoto/DwMIsLSFSipaJ__B9cUhsw/o.jpg", "is_closed": false, "url": "https://www.yelp.com/biz/wings-over-westfield-westfield?adjust_creative=asslzE1UV0XuKI953B1vtw&utm_campaign=yelp_api_v3&utm_medium=api_v3_business_search&utm_source=asslzE1UV0XuKI953B1vtw", "review_count": 2, "categories": [{"alias": "chicken_wings", "title": "Chicken Wings"}, {"alias": "hotdogs", "title": "Fast Food"}, {"alias": "sandwiches", "title": "Sandwiches"}], "rating": 1.5, "coordinates": {"latitude": 42.121638, "longitude": -72.750222}, "transactions": [], "location": {"address1": "29 School St", "address2": null, "address3": null, "city": "Westfield", "zip_code": "01085", "country": "US", "state": "MA", "display_address": ["29 School St", "Westfield, MA 01085"]}, "phone": "+14135629464", "display_phone": "(413) 562-9464", "distance": 4923.259864771515}, {"id": "KKtvGPtMcIizZwV-HTfewQ", "alias": "valley-pizza-westfield", "name": "Valley Pizza", "image_url": "https://s3-media3.fl.yelpcdn.com/bphoto/0crtrmBB8OcTkgt5HOjyhA/o.jpg", "is_closed": false, "url": "https://www.yelp.com/biz/valley-pizza-westfield?adjust_creative=asslzE1UV0XuKI953B1vtw&utm_campaign=yelp_api_v3&utm_medium=api_v3_business_search&utm_source=asslzE1UV0XuKI953B1vtw", "review_count": 14, "categories": [{"alias": "pizza", "title": "Pizza"}], "rating": 3.0, "coordinates": {"latitude": 42.12474, "longitude": -72.7491}, "transactions": ["delivery"], "location": {"address1": "31B Franklin St", "address2": null, "address3": null, "city": "Westfield", "zip_code": "01085", "country": "US", "state": "MA", "display_address": ["31B Franklin St", "Westfield, MA 01085"]}, "phone": "+14134850066", "display_phone": "(413) 485-0066", "distance": 4631.8493919513885}, {"id": "N8d2NjFotjN7PK_BVc70pA", "alias": "applebees-grill-bar-westfield", "name": "Applebee's Grill + Bar", "image_url": "https://s3-media2.fl.yelpcdn.com/bphoto/3lhPLpgSpLNFQaadKWKClw/o.jpg", "is_closed": false, "url": "https://www.yelp.com/biz/applebees-grill-bar-westfield?adjust_creative=asslzE1UV0XuKI953B1vtw&utm_campaign=yelp_api_v3&utm_medium=api_v3_business_search&utm_source=asslzE1UV0XuKI953B1vtw", "review_count": 42, "categories": [{"alias": "tradamerican", "title": "American (Traditional)"}, {"alias": "sportsbars", "title": "Sports Bars"}, {"alias": "burgers", "title": "Burgers"}], "rating": 3.0, "coordinates": {"latitude": 42.113163, "longitude": -72.72366}, "transactions": ["delivery"], "price": "$$", "location": {"address1": "441 E Main St", "address2": "", "address3": "", "city": "Westfield", "zip_code": "01085", "country": "US", "state": "MA", "display_address": ["441 E Main St", "Westfield, MA 01085"]}, "phone": "+14135640343", "display_phone": "(413) 564-0343", "distance": 6783.677030012253}, {"id": "eg1bG_BFDy61vwzEu3S0_g", "alias": "jjs-soft-serve-and-more-feeding-hills", "name": "JJ's Soft Serve and More", "image_url": "https://s3-media3.fl.yelpcdn.com/bphoto/QQNoVkZQ_JNhhWEAtnVbOg/o.jpg", "is_closed": false, "url": "https://www.yelp.com/biz/jjs-soft-serve-and-more-feeding-hills?adjust_creative=asslzE1UV0XuKI953B1vtw&utm_campaign=yelp_api_v3&utm_medium=api_v3_business_search&utm_source=asslzE1UV0XuKI953B1vtw", "review_count": 7, "categories": [{"alias": "icecream", "title": "Ice Cream & Frozen Yogurt"}, {"alias": "juicebars", "title": "Juice Bars & Smoothies"}, {"alias": "hotdog", "title": "Hot Dogs"}], "rating": 5.0, "coordinates": {"latitude": 42.0787763, "longitude": -72.6785333}, "transactions": ["delivery"], "price": "$$", "location": {"address1": "336 North Westfield St", "address2": "", "address3": "", "city": "Feeding Hills", "zip_code": "01030", "country": "US", "state": "MA", "display_address": ["336 North Westfield St", "Feeding Hills, MA 01030"]}, "phone": "+14132099832", "display_phone": "(413) 209-9832", "distance": 12080.459644472694}, {"id": "-fNjIY41as4eBe0SYjjbPg", "alias": "mannys-pizza-and-grinders-holyoke", "name": "Manny's Pizza & Grinders", "image_url": "https://s3-media2.fl.yelpcdn.com/bphoto/MnVwY9rMVsUFKdlVndCcEw/o.jpg", "is_closed": false, "url": "https://www.yelp.com/biz/mannys-pizza-and-grinders-holyoke?adjust_creative=asslzE1UV0XuKI953B1vtw&utm_campaign=yelp_api_v3&utm_medium=api_v3_business_search&utm_source=asslzE1UV0XuKI953B1vtw", "review_count": 28, "categories": [{"alias": "pizza", "title": "Pizza"}, {"alias": "greek", "title": "Greek"}, {"alias": "salad", "title": "Salad"}], "rating": 3.5, "coordinates": {"latitude": 42.1872781, "longitude": -72.6498022}, "transactions": ["delivery"], "price": "$", "location": {"address1": "510 Westfield Rd", "address2": "", "address3": "", "city": "Holyoke", "zip_code": "01040", "country": "US", "state": "MA", "display_address": ["510 Westfield Rd", "Holyoke, MA 01040"]}, "phone": "+14135324550", "display_phone": "(413) 532-4550", "distance": 10287.64837034549}, {"id": "_xZJINoydCk_h6waCMP2iQ", "alias": "wendys-westfield-5", "name": "Wendy's", "image_url": "https://s3-media3.fl.yelpcdn.com/bphoto/RsDvUqOOYIFYF4c9QS5dMA/o.jpg", "is_closed": false, "url": "https://www.yelp.com/biz/wendys-westfield-5?adjust_creative=asslzE1UV0XuKI953B1vtw&utm_campaign=yelp_api_v3&utm_medium=api_v3_business_search&utm_source=asslzE1UV0XuKI953B1vtw", "review_count": 4, "categories": [{"alias": "burgers", "title": "Burgers"}, {"alias": "hotdogs", "title": "Fast Food"}], "rating": 2.0, "coordinates": {"latitude": 42.14155, "longitude": -72.734026}, "transactions": [], "price": "$", "location": {"address1": "2-6 South Hampton Road", "address2": "", "address3": "", "city": "Westfield", "zip_code": "01085", "country": "US", "state": "MA", "display_address": ["2-6 South Hampton Road", "Westfield, MA 01085"]}, "phone": "+14135624953", "display_phone": "(413) 562-4953", "distance": 3865.3821032636415}, {"id": "yHCDRz8Cc3hd0RjXN9TCog", "alias": "strums-deli-and-meats-holyoke", "name": "Strums Deli and Meats", "image_url": "https://s3-media2.fl.yelpcdn.com/bphoto/qBEa_acY9w8t5r0Iy-nPXg/o.jpg", "is_closed": false, "url": "https://www.yelp.com/biz/strums-deli-and-meats-holyoke?adjust_creative=asslzE1UV0XuKI953B1vtw&utm_campaign=yelp_api_v3&utm_medium=api_v3_business_search&utm_source=asslzE1UV0XuKI953B1vtw", "review_count": 12, "categories": [{"alias": "meats", "title": "Meat Shops"}, {"alias": "delis", "title": "Delis"}], "rating": 4.0, "coordinates": {"latitude": 42.1868016, "longitude": -72.6499354}, "transactions": ["delivery"], "price": "$$", "location": {"address1": "502 Westfield Rd", "address2": "", "address3": "", "city": "Holyoke", "zip_code": "01040", "country": "US", "state": "MA", "display_address": ["502 Westfield Rd", "Holyoke, MA 01040"]}, "phone": "+14135328020", "display_phone": "(413) 532-8020", "distance": 10290.703528752627}, {"id": "GtL1D9N0eA0UuR4Hcu164Q", "alias": "gigis-pizzeria-westfield", "name": "Gigi's Pizzeria", "image_url": "https://s3-media1.fl.yelpcdn.com/bphoto/M0vDf-TJ87xCq7W3HXt0Yg/o.jpg", "is_closed": false, "url": "https://www.yelp.com/biz/gigis-pizzeria-westfield?adjust_creative=asslzE1UV0XuKI953B1vtw&utm_campaign=yelp_api_v3&utm_medium=api_v3_business_search&utm_source=asslzE1UV0XuKI953B1vtw", "review_count": 22, "categories": [{"alias": "pizza", "title": "Pizza"}, {"alias": "salad", "title": "Salad"}], "rating": 1.5, "coordinates": {"latitude": 42.0985981822014, "longitude": -72.7632819861174}, "transactions": ["delivery"], "price": "$$", "location": {"address1": "358 Southwick Rd", "address2": "", "address3": "", "city": "Westfield", "zip_code": "01085", "country": "US", "state": "MA", "display_address": ["358 Southwick Rd", "Westfield, MA 01085"]}, "phone": "+14135620887", "display_phone": "(413) 562-0887", "distance": 7245.313255163991}, {"id": "ul6vXu2dme-HiMN5mE6JvQ", "alias": "cocochi-asian-cuisine-feeding-hills", "name": "Cocochi Asian Cuisine", "image_url": "https://s3-media3.fl.yelpcdn.com/bphoto/_ZCezlVtpZGVKpyNNYsBTA/o.jpg", "is_closed": false, "url": "https://www.yelp.com/biz/cocochi-asian-cuisine-feeding-hills?adjust_creative=asslzE1UV0XuKI953B1vtw&utm_campaign=yelp_api_v3&utm_medium=api_v3_business_search&utm_source=asslzE1UV0XuKI953B1vtw", "review_count": 30, "categories": [{"alias": "sushi", "title": "Sushi Bars"}, {"alias": "asianfusion", "title": "Asian Fusion"}], "rating": 4.5, "coordinates": {"latitude": 42.0767417, "longitude": -72.654345}, "transactions": ["delivery"], "price": "$", "location": {"address1": "760 Springfield St", "address2": null, "address3": "", "city": "Feeding Hills", "zip_code": "01030", "country": "US", "state": "MA", "display_address": ["760 Springfield St", "Feeding Hills, MA 01030"]}, "phone": "+14137862777", "display_phone": "(413) 786-2777", "distance": 13581.060208023078}, {"id": "4vwW9_fI6hktjy8KkhYr1Q", "alias": "boston-bay-pizza-westfield", "name": "Boston Bay Pizza", "image_url": "https://s3-media4.fl.yelpcdn.com/bphoto/nFUZ6UJP80RHJoGDl7BPyw/o.jpg", "is_closed": false, "url": "https://www.yelp.com/biz/boston-bay-pizza-westfield?adjust_creative=asslzE1UV0XuKI953B1vtw&utm_campaign=yelp_api_v3&utm_medium=api_v3_business_search&utm_source=asslzE1UV0XuKI953B1vtw", "review_count": 8, "categories": [{"alias": "pizza", "title": "Pizza"}], "rating": 4.0, "coordinates": {"latitude": 42.122183, "longitude": -72.748415}, "transactions": ["delivery"], "price": "$", "location": {"address1": "73 Elm St", "address2": null, "address3": null, "city": "Westfield", "zip_code": "01085", "country": "US", "state": "MA", "display_address": ["73 Elm St", "Westfield, MA 01085"]}, "phone": "+14135720099", "display_phone": "(413) 572-0099", "distance": 4918.760058561321}, {"id": "BpAyDg26jMIPVX5qWlZUxQ", "alias": "d-and-js-hash-house-southwick", "name": "D&J's Hash House", "image_url": "https://s3-media1.fl.yelpcdn.com/bphoto/nWC-ltLnwVVDSXRFyK8fVw/o.jpg", "is_closed": false, "url": "https://www.yelp.com/biz/d-and-js-hash-house-southwick?adjust_creative=asslzE1UV0XuKI953B1vtw&utm_campaign=yelp_api_v3&utm_medium=api_v3_business_search&utm_source=asslzE1UV0XuKI953B1vtw", "review_count": 39, "categories": [{"alias": "breakfast_brunch", "title": "Breakfast & Brunch"}, {"alias": "burgers", "title": "Burgers"}], "rating": 3.5, "coordinates": {"latitude": 42.0852923936762, "longitude": -72.7651793422864}, "transactions": [], "price": "$$", "location": {"address1": "784 College Hwy", "address2": "", "address3": "", "city": "Southwick", "zip_code": "01077", "country": "US", "state": "MA", "display_address": ["784 College Hwy", "Southwick, MA 01077"]}, "phone": "+14138316082", "display_phone": "(413) 831-6082", "distance": 8676.968066074927}, {"id": "59_DlgjMJyx6DcU-cXyXjw", "alias": "dragon-house-feeding-hills", "name": "Dragon House", "image_url": "", "is_closed": false, "url": "https://www.yelp.com/biz/dragon-house-feeding-hills?adjust_creative=asslzE1UV0XuKI953B1vtw&utm_campaign=yelp_api_v3&utm_medium=api_v3_business_search&utm_source=asslzE1UV0XuKI953B1vtw", "review_count": 2, "categories": [{"alias": "restaurants", "title": "Restaurants"}], "rating": 4.5, "coordinates": {"latitude": 42.0767403, "longitude": -72.6543427}, "transactions": ["delivery"], "location": {"address1": "760 Springfield St", "address2": null, "address3": null, "city": "Feeding Hills", "zip_code": "01030", "country": "US", "state": "MA", "display_address": ["760 Springfield St", "Feeding Hills, MA 01030"]}, "phone": "+14137868888", "display_phone": "(413) 786-8888", "distance": 13581.060208023078}, {"id": "0xzdlKRS9-Y6luBNLhEuQA", "alias": "d-angelo-sandwich-shops-westfield", "name": "D'angelo Sandwich Shops", "image_url": "https://s3-media3.fl.yelpcdn.com/bphoto/MOjVY8ffF49hkOmeSq2YaQ/o.jpg", "is_closed": false, "url": "https://www.yelp.com/biz/d-angelo-sandwich-shops-westfield?adjust_creative=asslzE1UV0XuKI953B1vtw&utm_campaign=yelp_api_v3&utm_medium=api_v3_business_search&utm_source=asslzE1UV0XuKI953B1vtw", "review_count": 7, "categories": [{"alias": "sandwiches", "title": "Sandwiches"}], "rating": 2.5, "coordinates": {"latitude": 42.1139183044434, "longitude": -72.7275314331055}, "transactions": ["delivery"], "price": "$$", "location": {"address1": "291 E Main St", "address2": "", "address3": "", "city": "Westfield", "zip_code": "01085", "country": "US", "state": "MA", "display_address": ["291 E Main St", "Westfield, MA 01085"]}, "phone": "+14135621514", "display_phone": "(413) 562-1514", "distance": 6550.0796181304295}, {"id": "pKljBz3SKdWcFpRfkEP3sQ", "alias": "911-burgers-and-dogs-feeding-hills", "name": "911 Burgers & Dogs", "image_url": "https://s3-media3.fl.yelpcdn.com/bphoto/Ws-7ZeiaNejgb08jFOaNpQ/o.jpg", "is_closed": false, "url": "https://www.yelp.com/biz/911-burgers-and-dogs-feeding-hills?adjust_creative=asslzE1UV0XuKI953B1vtw&utm_campaign=yelp_api_v3&utm_medium=api_v3_business_search&utm_source=asslzE1UV0XuKI953B1vtw", "review_count": 15, "categories": [{"alias": "hotdogs", "title": "Fast Food"}], "rating": 4.0, "coordinates": {"latitude": 42.10264, "longitude": -72.69114}, "transactions": [], "price": "$", "location": {"address1": "1157 N Westfield St", "address2": "", "address3": "", "city": "Feeding Hills", "zip_code": "01030", "country": "US", "state": "MA", "display_address": ["1157 N Westfield St", "Feeding Hills, MA 01030"]}, "phone": "+14137866800", "display_phone": "(413) 786-6800", "distance": 9384.76211465317}, {"id": "e3xM2GfiPOBhELUlOifoCw", "alias": "moolicious-ice-cream-southwick", "name": "Moolicious Ice Cream", "image_url": "https://s3-media3.fl.yelpcdn.com/bphoto/NnaOdyv93DP11hsyvNvHlA/o.jpg", "is_closed": false, "url": "https://www.yelp.com/biz/moolicious-ice-cream-southwick?adjust_creative=asslzE1UV0XuKI953B1vtw&utm_campaign=yelp_api_v3&utm_medium=api_v3_business_search&utm_source=asslzE1UV0XuKI953B1vtw", "review_count": 25, "categories": [{"alias": "icecream", "title": "Ice Cream & Frozen Yogurt"}, {"alias": "desserts", "title": "Desserts"}, {"alias": "burgers", "title": "Burgers"}], "rating": 4.0, "coordinates": {"latitude": 42.0637190557264, "longitude": -72.7198791503906}, "transactions": ["delivery"], "price": "$", "location": {"address1": "258 Feedinghills Rd", "address2": null, "address3": null, "city": "Southwick", "zip_code": "01077", "country": "US", "state": "MA", "display_address": ["258 Feedinghills Rd", "Southwick, MA 01077"]}, "phone": "+14135691700", "display_phone": "(413) 569-1700", "distance": 11831.170468331235}, {"id": "VzziYtDR9pbfre0le3uIRA", "alias": "dinos-pizza-restaurant-holyoke", "name": "Dino's Pizza Restaurant", "image_url": "https://s3-media2.fl.yelpcdn.com/bphoto/dgFPR-1UVKh_pJnqC2GLRA/o.jpg", "is_closed": false, "url": "https://www.yelp.com/biz/dinos-pizza-restaurant-holyoke?adjust_creative=asslzE1UV0XuKI953B1vtw&utm_campaign=yelp_api_v3&utm_medium=api_v3_business_search&utm_source=asslzE1UV0XuKI953B1vtw", "review_count": 19, "categories": [{"alias": "pizza", "title": "Pizza"}, {"alias": "indpak", "title": "Indian"}], "rating": 3.0, "coordinates": {"latitude": 42.1862259, "longitude": -72.6508179}, "transactions": ["delivery"], "price": "$$", "location": {"address1": "615 Homestead Ave", "address2": null, "address3": null, "city": "Holyoke", "zip_code": "01040", "country": "US", "state": "MA", "display_address": ["615 Homestead Ave", "Holyoke, MA 01040"]}, "phone": "+14133156590", "display_phone": "(413) 315-6590", "distance": 10177.565042067165}, {"id": "zCRfZ1u5nHIHwqzE2X5Pdg", "alias": "dominos-pizza-westfield-3", "name": "Domino's Pizza", "image_url": "https://s3-media3.fl.yelpcdn.com/bphoto/NRgiA9Ke_aj2zpv6zltJNg/o.jpg", "is_closed": false, "url": "https://www.yelp.com/biz/dominos-pizza-westfield-3?adjust_creative=asslzE1UV0XuKI953B1vtw&utm_campaign=yelp_api_v3&utm_medium=api_v3_business_search&utm_source=asslzE1UV0XuKI953B1vtw", "review_count": 5, "categories": [{"alias": "pizza", "title": "Pizza"}], "rating": 2.5, "coordinates": {"latitude": 42.1210152, "longitude": -72.7477829}, "transactions": [], "price": "$", "location": {"address1": "26 Main St", "address2": "", "address3": "", "city": "Westfield", "zip_code": "01085", "country": "US", "state": "MA", "display_address": ["26 Main St", "Westfield, MA 01085"]}, "phone": "+14135624411", "display_phone": "(413) 562-4411", "distance": 5050.153113377081}, {"id": "Hid46HT423PQqOPYQCFFbA", "alias": "charleys-philly-steaks-holyoke", "name": "Charleys Philly Steaks", "image_url": "https://s3-media2.fl.yelpcdn.com/bphoto/LXTHA3ZPdo_QlUlcrRAnYw/o.jpg", "is_closed": false, "url": "https://www.yelp.com/biz/charleys-philly-steaks-holyoke?adjust_creative=asslzE1UV0XuKI953B1vtw&utm_campaign=yelp_api_v3&utm_medium=api_v3_business_search&utm_source=asslzE1UV0XuKI953B1vtw", "review_count": 4, "categories": [{"alias": "sandwiches", "title": "Sandwiches"}, {"alias": "hotdogs", "title": "Fast Food"}], "rating": 4.0, "coordinates": {"latitude": 42.1678880192072, "longitude": -72.6401303708553}, "transactions": [], "location": {"address1": "50 Holyoke St", "address2": "", "address3": null, "city": "Holyoke", "zip_code": "01040", "country": "US", "state": "MA", "display_address": ["50 Holyoke St", "Holyoke, MA 01040"]}, "phone": "+13476681179", "display_phone": "(347) 668-1179", "distance": 10773.120943364069}, {"id": "AnxHS20ffU08OXkdwAM9-Q", "alias": "liquoris-pizza-west-springfield", "name": "Liquori's Pizza", "image_url": "https://s3-media2.fl.yelpcdn.com/bphoto/1fNZS6rQbansVfMz7rLhyA/o.jpg", "is_closed": false, "url": "https://www.yelp.com/biz/liquoris-pizza-west-springfield?adjust_creative=asslzE1UV0XuKI953B1vtw&utm_campaign=yelp_api_v3&utm_medium=api_v3_business_search&utm_source=asslzE1UV0XuKI953B1vtw", "review_count": 99, "categories": [{"alias": "pizza", "title": "Pizza"}], "rating": 4.0, "coordinates": {"latitude": 42.1035723, "longitude": -72.6348607}, "transactions": ["delivery"], "price": "$", "location": {"address1": "659 Westfield St", "address2": "", "address3": "", "city": "West Springfield", "zip_code": "01089", "country": "US", "state": "MA", "display_address": ["659 Westfield St", "West Springfield, MA 01089"]}, "phone": "+14137379690", "display_phone": "(413) 737-9690", "distance": 13055.480784795784}, {"id": "ON0INzwLTAeckQNNGr6WQg", "alias": "real-china-westfield", "name": "Real China", "image_url": "", "is_closed": false, "url": "https://www.yelp.com/biz/real-china-westfield?adjust_creative=asslzE1UV0XuKI953B1vtw&utm_campaign=yelp_api_v3&utm_medium=api_v3_business_search&utm_source=asslzE1UV0XuKI953B1vtw", "review_count": 3, "categories": [{"alias": "chinese", "title": "Chinese"}], "rating": 1.5, "coordinates": {"latitude": 42.123119354248, "longitude": -72.7487716674805}, "transactions": [], "location": {"address1": "116 Elm St", "address2": "", "address3": "", "city": "Westfield", "zip_code": "01085", "country": "US", "state": "MA", "display_address": ["116 Elm St", "Westfield, MA 01085"]}, "phone": "+14135689991", "display_phone": "(413) 568-9991", "distance": 4812.57769889302}, {"id": "IgZ-wQgWx0VVqzQKqPmNWA", "alias": "chipotle-mexican-grill-holyoke-2", "name": "Chipotle Mexican Grill", "image_url": "https://s3-media3.fl.yelpcdn.com/bphoto/C_NgTnwsCtDjamcMEny_MQ/o.jpg", "is_closed": false, "url": "https://www.yelp.com/biz/chipotle-mexican-grill-holyoke-2?adjust_creative=asslzE1UV0XuKI953B1vtw&utm_campaign=yelp_api_v3&utm_medium=api_v3_business_search&utm_source=asslzE1UV0XuKI953B1vtw", "review_count": 17, "categories": [{"alias": "mexican", "title": "Mexican"}, {"alias": "hotdogs", "title": "Fast Food"}], "rating": 3.5, "coordinates": {"latitude": 42.175069, "longitude": -72.64161}, "transactions": ["delivery"], "price": "$", "location": {"address1": "235 Whiting Farms Rd", "address2": null, "address3": "", "city": "Holyoke", "zip_code": "01040", "country": "US", "state": "MA", "display_address": ["235 Whiting Farms Rd", "Holyoke, MA 01040"]}, "phone": "+14136500574", "display_phone": "(413) 650-0574", "distance": 10719.34354638246}, {"id": "K4FaQnNE-QFAPJdKRmFK7g", "alias": "five-guys-westfield-4", "name": "Five Guys", "image_url": "https://s3-media2.fl.yelpcdn.com/bphoto/VTZ-04xdr9ukBkqBr0GMWw/o.jpg", "is_closed": false, "url": "https://www.yelp.com/biz/five-guys-westfield-4?adjust_creative=asslzE1UV0XuKI953B1vtw&utm_campaign=yelp_api_v3&utm_medium=api_v3_business_search&utm_source=asslzE1UV0XuKI953B1vtw", "review_count": 15, "categories": [{"alias": "hotdogs", "title": "Fast Food"}, {"alias": "burgers", "title": "Burgers"}], "rating": 4.5, "coordinates": {"latitude": 42.11315, "longitude": -72.7234299}, "transactions": ["delivery"], "price": "$", "location": {"address1": "437 E Main St", "address2": "", "address3": "", "city": "Westfield", "zip_code": "01085", "country": "US", "state": "MA", "display_address": ["437 E Main St", "Westfield, MA 01085"]}, "phone": "+14136425669", "display_phone": "(413) 642-5669", "distance": 7007.007471526938}, {"id": "Q7uRpKfGZKHeAwqKfrAEWQ", "alias": "burger-king-westfield-3", "name": "Burger King", "image_url": "https://s3-media3.fl.yelpcdn.com/bphoto/QATQHHXtiQVJFVCoA6oSYQ/o.jpg", "is_closed": false, "url": "https://www.yelp.com/biz/burger-king-westfield-3?adjust_creative=asslzE1UV0XuKI953B1vtw&utm_campaign=yelp_api_v3&utm_medium=api_v3_business_search&utm_source=asslzE1UV0XuKI953B1vtw", "review_count": 7, "categories": [{"alias": "hotdogs", "title": "Fast Food"}, {"alias": "burgers", "title": "Burgers"}], "rating": 1.5, "coordinates": {"latitude": 42.120805, "longitude": -72.74555}, "transactions": [], "price": "$", "location": {"address1": "72 Main Street", "address2": "", "address3": "", "city": "Westfield", "zip_code": "01085", "country": "US", "state": "MA", "display_address": ["72 Main Street", "Westfield, MA 01085"]}, "phone": "", "display_phone": "", "distance": 5151.658428635164}, {"id": "1z8ECCXgeXaZ1KfIkYWy0A", "alias": "village-pizza-west-springfield", "name": "Village Pizza", "image_url": "https://s3-media2.fl.yelpcdn.com/bphoto/gGgHJiUdhvYig_U7a0tB9g/o.jpg", "is_closed": false, "url": "https://www.yelp.com/biz/village-pizza-west-springfield?adjust_creative=asslzE1UV0XuKI953B1vtw&utm_campaign=yelp_api_v3&utm_medium=api_v3_business_search&utm_source=asslzE1UV0XuKI953B1vtw", "review_count": 24, "categories": [{"alias": "pizza", "title": "Pizza"}], "rating": 4.0, "coordinates": {"latitude": 42.1059895, "longitude": -72.6428748}, "transactions": ["delivery"], "price": "$$", "location": {"address1": "1164 Westfield St", "address2": "", "address3": "", "city": "West Springfield", "zip_code": "01089", "country": "US", "state": "MA", "display_address": ["1164 Westfield St", "West Springfield, MA 01089"]}, "phone": "+14137393327", "display_phone": "(413) 739-3327", "distance": 12292.20630082522}, {"id": "aDRoeqN4bMqctnyu_Q7vWQ", "alias": "gold-chopsticks-west-springfield", "name": "Gold Chopsticks", "image_url": "https://s3-media1.fl.yelpcdn.com/bphoto/7QZGtoOgymKoi8DXFmEVCA/o.jpg", "is_closed": false, "url": "https://www.yelp.com/biz/gold-chopsticks-west-springfield?adjust_creative=asslzE1UV0XuKI953B1vtw&utm_campaign=yelp_api_v3&utm_medium=api_v3_business_search&utm_source=asslzE1UV0XuKI953B1vtw", "review_count": 35, "categories": [{"alias": "chinese", "title": "Chinese"}], "rating": 3.0, "coordinates": {"latitude": 42.1040029, "longitude": -72.6379896}, "transactions": ["delivery"], "price": "$$", "location": {"address1": "12 Chestnut St", "address2": "", "address3": null, "city": "West Springfield", "zip_code": "01089", "country": "US", "state": "MA", "display_address": ["12 Chestnut St", "West Springfield, MA 01089"]}, "phone": "+14137463338", "display_phone": "(413) 746-3338", "distance": 12767.863588967431}, {"id": "8wcNFJk2kSn27BA9sz5KsA", "alias": "agawam-legion-post-185-the-tank-feeding-hills", "name": "Agawam Legion Post 185 \"The TANK\"", "image_url": "https://s3-media2.fl.yelpcdn.com/bphoto/krzxiPdaKsBW7_ujh0qUrw/o.jpg", "is_closed": false, "url": "https://www.yelp.com/biz/agawam-legion-post-185-the-tank-feeding-hills?adjust_creative=asslzE1UV0XuKI953B1vtw&utm_campaign=yelp_api_v3&utm_medium=api_v3_business_search&utm_source=asslzE1UV0XuKI953B1vtw", "review_count": 1, "categories": [{"alias": "restaurants", "title": "Restaurants"}, {"alias": "djs", "title": "DJs"}, {"alias": "bars", "title": "Bars"}], "rating": 5.0, "coordinates": {"latitude": 42.083937, "longitude": -72.646702}, "transactions": [], "price": "$$", "location": {"address1": "478 Springfield St", "address2": "", "address3": null, "city": "Feeding Hills", "zip_code": "01030", "country": "US", "state": "MA", "display_address": ["478 Springfield St", "Feeding Hills, MA 01030"]}, "phone": "+14133010944", "display_phone": "(413) 301-0944", "distance": 13501.252557042495}, {"id": "oWMZWiO5SteEDAGOITZd3A", "alias": "hong-kong-express-agawam", "name": "Hong Kong Express", "image_url": "https://s3-media1.fl.yelpcdn.com/bphoto/tmWydaVEA4MZFOTdMHQtvg/o.jpg", "is_closed": false, "url": "https://www.yelp.com/biz/hong-kong-express-agawam?adjust_creative=asslzE1UV0XuKI953B1vtw&utm_campaign=yelp_api_v3&utm_medium=api_v3_business_search&utm_source=asslzE1UV0XuKI953B1vtw", "review_count": 16, "categories": [{"alias": "chinese", "title": "Chinese"}], "rating": 4.0, "coordinates": {"latitude": 42.08702, "longitude": -72.6352}, "transactions": ["delivery"], "price": "$$", "location": {"address1": "322 Springfield St", "address2": "", "address3": "", "city": "Agawam", "zip_code": "01001", "country": "US", "state": "MA", "display_address": ["322 Springfield St", "Agawam, MA 01001"]}, "phone": "+14137892581", "display_phone": "(413) 789-2581", "distance": 14023.238562283661}, {"id": "gi35HhgzeBC8B1Indadnqw", "alias": "clemenza-s-brick-oven-west-springfield", "name": "Clemenza\u2019s Brick Oven", "image_url": "https://s3-media1.fl.yelpcdn.com/bphoto/uCV12sZyW6IMyHt4fSWvWA/o.jpg", "is_closed": false, "url": "https://www.yelp.com/biz/clemenza-s-brick-oven-west-springfield?adjust_creative=asslzE1UV0XuKI953B1vtw&utm_campaign=yelp_api_v3&utm_medium=api_v3_business_search&utm_source=asslzE1UV0XuKI953B1vtw", "review_count": 4, "categories": [{"alias": "pizza", "title": "Pizza"}], "rating": 2.5, "coordinates": {"latitude": 42.103856, "longitude": -72.637456}, "transactions": ["delivery"], "location": {"address1": "816 Westfield St", "address2": "", "address3": null, "city": "West Springfield", "zip_code": "01089", "country": "US", "state": "MA", "display_address": ["816 Westfield St", "West Springfield, MA 01089"]}, "phone": "+14134177544", "display_phone": "(413) 417-7544", "distance": 12820.570637823472}, {"id": "miwjwxTo95VRiYKrb2YALA", "alias": "jps-restaurant-holyoke", "name": "JP's Restaurant", "image_url": "https://s3-media1.fl.yelpcdn.com/bphoto/kJ4Mvsi6Xzm7XRJeasl6vA/o.jpg", "is_closed": false, "url": "https://www.yelp.com/biz/jps-restaurant-holyoke?adjust_creative=asslzE1UV0XuKI953B1vtw&utm_campaign=yelp_api_v3&utm_medium=api_v3_business_search&utm_source=asslzE1UV0XuKI953B1vtw", "review_count": 50, "categories": [{"alias": "sportsbars", "title": "Sports Bars"}, {"alias": "tradamerican", "title": "American (Traditional)"}], "rating": 3.5, "coordinates": {"latitude": 42.17798, "longitude": -72.63991}, "transactions": ["delivery"], "price": "$$", "location": {"address1": "200 Whiting Farms Rd", "address2": "", "address3": "", "city": "Holyoke", "zip_code": "01040", "country": "US", "state": "MA", "display_address": ["200 Whiting Farms Rd", "Holyoke, MA 01040"]}, "phone": "+14135329444", "display_phone": "(413) 532-9444", "distance": 10892.89207440844}, {"id": "w6AHA-4UPC-ThFrk3_4tUA", "alias": "crepes-tea-house-holyoke-mall-holyoke", "name": "Crepes Tea House Holyoke Mall", "image_url": "https://s3-media4.fl.yelpcdn.com/bphoto/CdMCXS5bvhMFgNNmdw2NTQ/o.jpg", "is_closed": false, "url": "https://www.yelp.com/biz/crepes-tea-house-holyoke-mall-holyoke?adjust_creative=asslzE1UV0XuKI953B1vtw&utm_campaign=yelp_api_v3&utm_medium=api_v3_business_search&utm_source=asslzE1UV0XuKI953B1vtw", "review_count": 7, "categories": [{"alias": "creperies", "title": "Creperies"}, {"alias": "coffee", "title": "Coffee & Tea"}], "rating": 3.0, "coordinates": {"latitude": 42.1669958969152, "longitude": -72.6414449885488}, "transactions": [], "location": {"address1": "50 Holyoke St", "address2": "", "address3": null, "city": "Holyoke", "zip_code": "01040", "country": "US", "state": "MA", "display_address": ["50 Holyoke St", "Holyoke, MA 01040"]}, "phone": "", "display_phone": "", "distance": 10660.605934984847}, {"id": "xuIFlTaTHpIxNPPNnwIJ6Q", "alias": "cajun-cafe-bar-and-grille-holyoke", "name": "Cajun Cafe Bar & Grille", "image_url": "https://s3-media2.fl.yelpcdn.com/bphoto/yNsHbMYiBQTkigUXnVhGrw/o.jpg", "is_closed": false, "url": "https://www.yelp.com/biz/cajun-cafe-bar-and-grille-holyoke?adjust_creative=asslzE1UV0XuKI953B1vtw&utm_campaign=yelp_api_v3&utm_medium=api_v3_business_search&utm_source=asslzE1UV0XuKI953B1vtw", "review_count": 5, "categories": [{"alias": "chinese", "title": "Chinese"}], "rating": 2.5, "coordinates": {"latitude": 42.1671, "longitude": -72.6399}, "transactions": [], "location": {"address1": "50 Holyoke St", "address2": "", "address3": "", "city": "Holyoke", "zip_code": "01040", "country": "US", "state": "MA", "display_address": ["50 Holyoke St", "Holyoke, MA 01040"]}, "phone": "+14135327412", "display_phone": "(413) 532-7412", "distance": 10670.816365974015}, {"id": "-xsl94xBmHk-AAn5tgeUMA", "alias": "italian-friendly-pizza-and-grinder-holyoke", "name": "Italian Friendly Pizza & Grinder", "image_url": "https://s3-media2.fl.yelpcdn.com/bphoto/k5YPD9nxNCPq_YIUAaoMWw/o.jpg", "is_closed": false, "url": "https://www.yelp.com/biz/italian-friendly-pizza-and-grinder-holyoke?adjust_creative=asslzE1UV0XuKI953B1vtw&utm_campaign=yelp_api_v3&utm_medium=api_v3_business_search&utm_source=asslzE1UV0XuKI953B1vtw", "review_count": 23, "categories": [{"alias": "pizza", "title": "Pizza"}, {"alias": "italian", "title": "Italian"}, {"alias": "chicken_wings", "title": "Chicken Wings"}], "rating": 3.5, "coordinates": {"latitude": 42.190713, "longitude": -72.640321}, "transactions": ["delivery"], "price": "$$", "location": {"address1": "274 Westfield Rd", "address2": null, "address3": "", "city": "Holyoke", "zip_code": "01040", "country": "US", "state": "MA", "display_address": ["274 Westfield Rd", "Holyoke, MA 01040"]}, "phone": "+14135331555", "display_phone": "(413) 533-1555", "distance": 11169.483521327464}, {"id": "Ih17NKWk7pb2yJX3HGw4aw", "alias": "new-king-yen-too-southwick", "name": "New King Yen Too", "image_url": "https://s3-media3.fl.yelpcdn.com/bphoto/eeBmesfC6oraz27zXm_9RQ/o.jpg", "is_closed": false, "url": "https://www.yelp.com/biz/new-king-yen-too-southwick?adjust_creative=asslzE1UV0XuKI953B1vtw&utm_campaign=yelp_api_v3&utm_medium=api_v3_business_search&utm_source=asslzE1UV0XuKI953B1vtw", "review_count": 16, "categories": [{"alias": "chinese", "title": "Chinese"}], "rating": 2.5, "coordinates": {"latitude": 42.067104, "longitude": -72.764068}, "transactions": ["delivery"], "price": "$$", "location": {"address1": "648 College Hwy", "address2": "", "address3": "", "city": "Southwick", "zip_code": "01077", "country": "US", "state": "MA", "display_address": ["648 College Hwy", "Southwick, MA 01077"]}, "phone": "+14135699888", "display_phone": "(413) 569-9888", "distance": 10701.461058734329}, {"id": "3D4q1KmoFXwUUGseonIIQg", "alias": "brunos-pizzeria-feeding-hills", "name": "Bruno's Pizzeria", "image_url": "https://s3-media1.fl.yelpcdn.com/bphoto/HCi48s50CWkXAztHq3px3g/o.jpg", "is_closed": false, "url": "https://www.yelp.com/biz/brunos-pizzeria-feeding-hills?adjust_creative=asslzE1UV0XuKI953B1vtw&utm_campaign=yelp_api_v3&utm_medium=api_v3_business_search&utm_source=asslzE1UV0XuKI953B1vtw", "review_count": 14, "categories": [{"alias": "pizza", "title": "Pizza"}], "rating": 4.5, "coordinates": {"latitude": 42.0752436, "longitude": -72.6558214}, "transactions": ["delivery"], "price": "$$", "location": {"address1": "807 Springfield St", "address2": "", "address3": "", "city": "Feeding Hills", "zip_code": "01030", "country": "US", "state": "MA", "display_address": ["807 Springfield St", "Feeding Hills, MA 01030"]}, "phone": "+14137868717", "display_phone": "(413) 786-8717", "distance": 13628.02730098777}, {"id": "aZwe-gy1WNCWWD8HfA3mBA", "alias": "partners-restaurant-feeding-hills-2", "name": "Partners Restaurant", "image_url": "https://s3-media3.fl.yelpcdn.com/bphoto/XiSgDSupkq6B5MGC7g15Qg/o.jpg", "is_closed": false, "url": "https://www.yelp.com/biz/partners-restaurant-feeding-hills-2?adjust_creative=asslzE1UV0XuKI953B1vtw&utm_campaign=yelp_api_v3&utm_medium=api_v3_business_search&utm_source=asslzE1UV0XuKI953B1vtw", "review_count": 49, "categories": [{"alias": "breakfast_brunch", "title": "Breakfast & Brunch"}, {"alias": "sandwiches", "title": "Sandwiches"}, {"alias": "burgers", "title": "Burgers"}], "rating": 4.0, "coordinates": {"latitude": 42.0831979, "longitude": -72.6457336}, "transactions": ["delivery"], "price": "$$", "location": {"address1": "485 Springfield St", "address2": "", "address3": "", "city": "Feeding Hills", "zip_code": "01030", "country": "US", "state": "MA", "display_address": ["485 Springfield St", "Feeding Hills, MA 01030"]}, "phone": "+14137860975", "display_phone": "(413) 786-0975", "distance": 13615.45530387356}, {"id": "88rFs5UlVfacm3LW4ifs2Q", "alias": "tollis-pizzeria-and-deli-feeding-hills", "name": "Tolli's Pizzeria & Deli", "image_url": "https://s3-media1.fl.yelpcdn.com/bphoto/PnyK2RqFLQQ_6anVL8c4SA/o.jpg", "is_closed": false, "url": "https://www.yelp.com/biz/tollis-pizzeria-and-deli-feeding-hills?adjust_creative=asslzE1UV0XuKI953B1vtw&utm_campaign=yelp_api_v3&utm_medium=api_v3_business_search&utm_source=asslzE1UV0XuKI953B1vtw", "review_count": 28, "categories": [{"alias": "pizza", "title": "Pizza"}, {"alias": "italian", "title": "Italian"}], "rating": 4.0, "coordinates": {"latitude": 42.06728, "longitude": -72.67971}, "transactions": ["delivery"], "price": "$$", "location": {"address1": "4 Southwick St", "address2": "", "address3": null, "city": "Feeding Hills", "zip_code": "01030", "country": "US", "state": "MA", "display_address": ["4 Southwick St", "Feeding Hills, MA 01030"]}, "phone": "+14137868418", "display_phone": "(413) 786-8418", "distance": 13043.080426428603}, {"id": "gMOo83Nmfu8xUxFYPQ6EyQ", "alias": "little-georges-west-springfield", "name": "Little Georges", "image_url": "https://s3-media1.fl.yelpcdn.com/bphoto/PJW0TIhn9wcJzv4r51f2Ow/o.jpg", "is_closed": false, "url": "https://www.yelp.com/biz/little-georges-west-springfield?adjust_creative=asslzE1UV0XuKI953B1vtw&utm_campaign=yelp_api_v3&utm_medium=api_v3_business_search&utm_source=asslzE1UV0XuKI953B1vtw", "review_count": 61, "categories": [{"alias": "breakfast_brunch", "title": "Breakfast & Brunch"}, {"alias": "sandwiches", "title": "Sandwiches"}, {"alias": "tradamerican", "title": "American (Traditional)"}], "rating": 4.0, "coordinates": {"latitude": 42.10774094673, "longitude": -72.6883686209164}, "transactions": ["delivery"], "price": "$", "location": {"address1": "2648 Westfield St", "address2": "", "address3": "", "city": "West Springfield", "zip_code": "01089", "country": "US", "state": "MA", "display_address": ["2648 Westfield St", "West Springfield, MA 01089"]}, "phone": "+14137882120", "display_phone": "(413) 788-2120", "distance": 9172.435924842239}, {"id": "8jBw_nCso9mbHzPRBtleOQ", "alias": "subway-westfield-24", "name": "Subway", "image_url": "https://s3-media2.fl.yelpcdn.com/bphoto/JfqHmox_64puDeJUi97Txg/o.jpg", "is_closed": false, "url": "https://www.yelp.com/biz/subway-westfield-24?adjust_creative=asslzE1UV0XuKI953B1vtw&utm_campaign=yelp_api_v3&utm_medium=api_v3_business_search&utm_source=asslzE1UV0XuKI953B1vtw", "review_count": 3, "categories": [{"alias": "sandwiches", "title": "Sandwiches"}], "rating": 2.5, "coordinates": {"latitude": 42.121195, "longitude": -72.74789}, "transactions": ["delivery", "pickup"], "price": "$", "location": {"address1": "24 Main St", "address2": "", "address3": "", "city": "Westfield", "zip_code": "01085", "country": "US", "state": "MA", "display_address": ["24 Main St", "Westfield, MA 01085"]}, "phone": "+14135686130", "display_phone": "(413) 568-6130", "distance": 5041.284433524482}, {"id": "KY4Whh3UVSZQ8mm9XSxTeA", "alias": "mrs-mitchells-kitchen-holyoke", "name": "Mrs. Mitchell's Kitchen", "image_url": "https://s3-media1.fl.yelpcdn.com/bphoto/C_fxb5xRx72M6CpcvIdcww/o.jpg", "is_closed": false, "url": "https://www.yelp.com/biz/mrs-mitchells-kitchen-holyoke?adjust_creative=asslzE1UV0XuKI953B1vtw&utm_campaign=yelp_api_v3&utm_medium=api_v3_business_search&utm_source=asslzE1UV0XuKI953B1vtw", "review_count": 33, "categories": [{"alias": "irish", "title": "Irish"}, {"alias": "tradamerican", "title": "American (Traditional)"}, {"alias": "coffee", "title": "Coffee & Tea"}], "rating": 3.5, "coordinates": {"latitude": 42.1871758, "longitude": -72.6501541}, "transactions": ["delivery"], "price": "$", "location": {"address1": "514 Westfield Rd", "address2": "", "address3": "", "city": "Holyoke", "zip_code": "01040", "country": "US", "state": "MA", "display_address": ["514 Westfield Rd", "Holyoke, MA 01040"]}, "phone": "+14133228816", "display_phone": "(413) 322-8816", "distance": 10266.3457596769}, {"id": "-q_Sk-yHnfD_qlO9eao1QA", "alias": "applebees-grill-bar-holyoke", "name": "Applebee's Grill + Bar", "image_url": "https://s3-media3.fl.yelpcdn.com/bphoto/Sl9KKq2Txgl-oxip-QdYDw/o.jpg", "is_closed": false, "url": "https://www.yelp.com/biz/applebees-grill-bar-holyoke?adjust_creative=asslzE1UV0XuKI953B1vtw&utm_campaign=yelp_api_v3&utm_medium=api_v3_business_search&utm_source=asslzE1UV0XuKI953B1vtw", "review_count": 19, "categories": [{"alias": "tradamerican", "title": "American (Traditional)"}, {"alias": "sportsbars", "title": "Sports Bars"}, {"alias": "burgers", "title": "Burgers"}], "rating": 3.0, "coordinates": {"latitude": 42.175033693997, "longitude": -72.642032}, "transactions": ["delivery"], "price": "$$", "location": {"address1": "225 Whiting Farm Rd", "address2": "", "address3": null, "city": "Holyoke", "zip_code": "01040", "country": "US", "state": "MA", "display_address": ["225 Whiting Farm Rd", "Holyoke, MA 01040"]}, "phone": "+14135361082", "display_phone": "(413) 536-1082", "distance": 10684.34903903872}, {"id": "CwV3ZD7qW9XNeL4dgCE6rQ", "alias": "red-robin-gourmet-burgers-and-brews-holyoke", "name": "Red Robin Gourmet Burgers and Brews", "image_url": "https://s3-media3.fl.yelpcdn.com/bphoto/ujZXX0qXQn7CMSWJkVByag/o.jpg", "is_closed": false, "url": "https://www.yelp.com/biz/red-robin-gourmet-burgers-and-brews-holyoke?adjust_creative=asslzE1UV0XuKI953B1vtw&utm_campaign=yelp_api_v3&utm_medium=api_v3_business_search&utm_source=asslzE1UV0XuKI953B1vtw", "review_count": 106, "categories": [{"alias": "burgers", "title": "Burgers"}, {"alias": "tradamerican", "title": "American (Traditional)"}], "rating": 3.0, "coordinates": {"latitude": 42.17361, "longitude": -72.64059}, "transactions": ["delivery"], "price": "$$", "location": {"address1": "27 Holyoke St", "address2": "", "address3": "", "city": "Holyoke", "zip_code": "01040", "country": "US", "state": "MA", "display_address": ["27 Holyoke St", "Holyoke, MA 01040"]}, "phone": "+14133154350", "display_phone": "(413) 315-4350", "distance": 10683.250014081275}, {"id": "3yt2nrxWCmdwMu4pBZb6NA", "alias": "99-restaurants-holyoke", "name": "99 Restaurants", "image_url": "https://s3-media2.fl.yelpcdn.com/bphoto/uw0Cubzbn2dgegzYvn0nOA/o.jpg", "is_closed": false, "url": "https://www.yelp.com/biz/99-restaurants-holyoke?adjust_creative=asslzE1UV0XuKI953B1vtw&utm_campaign=yelp_api_v3&utm_medium=api_v3_business_search&utm_source=asslzE1UV0XuKI953B1vtw", "review_count": 23, "categories": [{"alias": "tradamerican", "title": "American (Traditional)"}, {"alias": "pubs", "title": "Pubs"}, {"alias": "seafood", "title": "Seafood"}], "rating": 3.0, "coordinates": {"latitude": 42.165903, "longitude": -72.641986}, "transactions": [], "price": "$$", "location": {"address1": "50 Holyoke St", "address2": "", "address3": "", "city": "Holyoke", "zip_code": "01040", "country": "US", "state": "MA", "display_address": ["50 Holyoke St", "Holyoke, MA 01040"]}, "phone": "+14135329918", "display_phone": "(413) 532-9918", "distance": 10612.030101990698}, {"id": "JqmMQsuIH913f-CzdxEA0g", "alias": "wendys-westfield", "name": "Wendy's", "image_url": "https://s3-media1.fl.yelpcdn.com/bphoto/uuKab8GqENEmm4ldPRVKwg/o.jpg", "is_closed": false, "url": "https://www.yelp.com/biz/wendys-westfield?adjust_creative=asslzE1UV0XuKI953B1vtw&utm_campaign=yelp_api_v3&utm_medium=api_v3_business_search&utm_source=asslzE1UV0XuKI953B1vtw", "review_count": 5, "categories": [{"alias": "burgers", "title": "Burgers"}, {"alias": "hotdogs", "title": "Fast Food"}], "rating": 1.5, "coordinates": {"latitude": 42.141613, "longitude": -72.734779}, "transactions": ["delivery"], "price": "$", "location": {"address1": "2 Southampton Rd", "address2": "", "address3": "", "city": "Westfield", "zip_code": "01085", "country": "US", "state": "MA", "display_address": ["2 Southampton Rd", "Westfield, MA 01085"]}, "phone": "+14135620860", "display_phone": "(413) 562-0860", "distance": 3812.6968800737654}, {"id": "BZ3NZeta65lK-8rsB5KuUg", "alias": "pasticceria-italia-southwick-2", "name": "Pasticceria Italia", "image_url": "https://s3-media1.fl.yelpcdn.com/bphoto/xyKXAt6NpPP8ewpXpMrcJA/o.jpg", "is_closed": false, "url": "https://www.yelp.com/biz/pasticceria-italia-southwick-2?adjust_creative=asslzE1UV0XuKI953B1vtw&utm_campaign=yelp_api_v3&utm_medium=api_v3_business_search&utm_source=asslzE1UV0XuKI953B1vtw", "review_count": 14, "categories": [{"alias": "delis", "title": "Delis"}, {"alias": "sandwiches", "title": "Sandwiches"}, {"alias": "bakeries", "title": "Bakeries"}], "rating": 3.0, "coordinates": {"latitude": 42.0629339737052, "longitude": -72.7636916321636}, "transactions": [], "price": "$$", "location": {"address1": "610 College Hwy", "address2": null, "address3": null, "city": "Southwick", "zip_code": "01077", "country": "US", "state": "MA", "display_address": ["610 College Hwy", "Southwick, MA 01077"]}, "phone": "+14135692250", "display_phone": "(413) 569-2250", "distance": 11166.129899922418}, {"id": "fO60qUuyryEPxSWUDtJQDg", "alias": "barnes-and-noble-booksellers-holyoke-holyoke", "name": "Barnes & Noble Booksellers Holyoke", "image_url": "https://s3-media2.fl.yelpcdn.com/bphoto/r4bdpET3K82EUBhm2Ew_nQ/o.jpg", "is_closed": false, "url": "https://www.yelp.com/biz/barnes-and-noble-booksellers-holyoke-holyoke?adjust_creative=asslzE1UV0XuKI953B1vtw&utm_campaign=yelp_api_v3&utm_medium=api_v3_business_search&utm_source=asslzE1UV0XuKI953B1vtw", "review_count": 22, "categories": [{"alias": "mags", "title": "Newspapers & Magazines"}, {"alias": "musicvideo", "title": "Music & DVDs"}, {"alias": "cafes", "title": "Cafes"}], "rating": 3.5, "coordinates": {"latitude": 42.1736101306334, "longitude": -72.6412096016052}, "transactions": [], "price": "$$", "location": {"address1": "7 Holyoke St", "address2": "", "address3": "", "city": "Holyoke", "zip_code": "01040", "country": "US", "state": "MA", "display_address": ["7 Holyoke St", "Holyoke, MA 01040"]}, "phone": "+14135323200", "display_phone": "(413) 532-3200", "distance": 10733.542831953186}, {"id": "8u4jF2KRApFMFFivfnmB1w", "alias": "ruby-tuesday-holyoke", "name": "Ruby Tuesday", "image_url": "https://s3-media2.fl.yelpcdn.com/bphoto/5S7nQvTuToW5saj-Ig7nLQ/o.jpg", "is_closed": false, "url": "https://www.yelp.com/biz/ruby-tuesday-holyoke?adjust_creative=asslzE1UV0XuKI953B1vtw&utm_campaign=yelp_api_v3&utm_medium=api_v3_business_search&utm_source=asslzE1UV0XuKI953B1vtw", "review_count": 60, "categories": [{"alias": "burgers", "title": "Burgers"}, {"alias": "tradamerican", "title": "American (Traditional)"}], "rating": 2.0, "coordinates": {"latitude": 42.165931, "longitude": -72.642196}, "transactions": ["delivery"], "price": "$$", "location": {"address1": "50 Holyoke St", "address2": "", "address3": "", "city": "Holyoke", "zip_code": "01040", "country": "US", "state": "MA", "display_address": ["50 Holyoke St", "Holyoke, MA 01040"]}, "phone": "+14135320409", "display_phone": "(413) 532-0409", "distance": 10594.814616949026}, {"id": "1ktEPo1WxTPUk5WdNGdzaA", "alias": "subway-southampton-7", "name": "Subway", "image_url": "https://s3-media2.fl.yelpcdn.com/bphoto/uYuTee3lvW_R1fsLhyYKJQ/o.jpg", "is_closed": false, "url": "https://www.yelp.com/biz/subway-southampton-7?adjust_creative=asslzE1UV0XuKI953B1vtw&utm_campaign=yelp_api_v3&utm_medium=api_v3_business_search&utm_source=asslzE1UV0XuKI953B1vtw", "review_count": 2, "categories": [{"alias": "sandwiches", "title": "Sandwiches"}], "rating": 3.0, "coordinates": {"latitude": 42.23645, "longitude": -72.7241}, "transactions": [], "price": "$", "location": {"address1": "161 College Hwy", "address2": "", "address3": "", "city": "Southampton", "zip_code": "01073", "country": "US", "state": "MA", "display_address": ["161 College Hwy", "Southampton, MA 01073"]}, "phone": "+14135271199", "display_phone": "(413) 527-1199", "distance": 9000.300647404296}, {"id": "NiyAPoAV2ygeqhCw0g7I-w", "alias": "paramount-pizza-slices-holyoke", "name": "Paramount Pizza Slices", "image_url": "https://s3-media1.fl.yelpcdn.com/bphoto/PbHHqR-e67C2W9mAWQomVQ/o.jpg", "is_closed": false, "url": "https://www.yelp.com/biz/paramount-pizza-slices-holyoke?adjust_creative=asslzE1UV0XuKI953B1vtw&utm_campaign=yelp_api_v3&utm_medium=api_v3_business_search&utm_source=asslzE1UV0XuKI953B1vtw", "review_count": 18, "categories": [{"alias": "pizza", "title": "Pizza"}], "rating": 3.5, "coordinates": {"latitude": 42.1831291, "longitude": -72.6314449}, "transactions": ["delivery"], "price": "$", "location": {"address1": "2287 Northampton St", "address2": "", "address3": "", "city": "Holyoke", "zip_code": "01040", "country": "US", "state": "MA", "display_address": ["2287 Northampton St", "Holyoke, MA 01040"]}, "phone": "+14135385544", "display_phone": "(413) 538-5544", "distance": 11516.400205709651}, {"id": "5SWR_EnAxkezg4ceUB19ag", "alias": "ginos-pizza-and-grill-feeding-hills", "name": "Gino's Pizza and Grill", "image_url": "https://s3-media3.fl.yelpcdn.com/bphoto/_DDlCFV-WTlJj7aJnZuVHw/o.jpg", "is_closed": false, "url": "https://www.yelp.com/biz/ginos-pizza-and-grill-feeding-hills?adjust_creative=asslzE1UV0XuKI953B1vtw&utm_campaign=yelp_api_v3&utm_medium=api_v3_business_search&utm_source=asslzE1UV0XuKI953B1vtw", "review_count": 10, "categories": [{"alias": "pizza", "title": "Pizza"}, {"alias": "italian", "title": "Italian"}], "rating": 3.0, "coordinates": {"latitude": 42.079656, "longitude": -72.678339}, "transactions": ["delivery", "pickup"], "location": {"address1": "360 N Westfield St", "address2": "Unit 8", "address3": "", "city": "Feeding Hills", "zip_code": "01030", "country": "US", "state": "MA", "display_address": ["360 N Westfield St", "Unit 8", "Feeding Hills, MA 01030"]}, "phone": "+14137894466", "display_phone": "(413) 789-4466", "distance": 12014.707170245334}, {"id": "hX0XEpQ0Ai1UgHEQjrWOkQ", "alias": "uno-pizzeria-and-grill-holyoke", "name": "Uno Pizzeria & Grill", "image_url": "https://s3-media1.fl.yelpcdn.com/bphoto/KZDlym9o9lGhHeUwYkPocQ/o.jpg", "is_closed": false, "url": "https://www.yelp.com/biz/uno-pizzeria-and-grill-holyoke?adjust_creative=asslzE1UV0XuKI953B1vtw&utm_campaign=yelp_api_v3&utm_medium=api_v3_business_search&utm_source=asslzE1UV0XuKI953B1vtw", "review_count": 20, "categories": [{"alias": "pizza", "title": "Pizza"}, {"alias": "gluten_free", "title": "Gluten-Free"}, {"alias": "tradamerican", "title": "American (Traditional)"}], "rating": 3.5, "coordinates": {"latitude": 42.168956, "longitude": -72.641621}, "transactions": ["delivery", "pickup"], "price": "$$", "location": {"address1": "Holyoke Mall at Ingleside", "address2": "", "address3": "", "city": "Holyoke", "zip_code": "01040", "country": "US", "state": "MA", "display_address": ["Holyoke Mall at Ingleside", "Holyoke, MA 01040"]}, "phone": "+14135343000", "display_phone": "(413) 534-3000", "distance": 10656.769017173543}, {"id": "R-MH3-C5PPjimeODmZZlgg", "alias": "wendys-westfield-4", "name": "Wendy's", "image_url": "https://s3-media1.fl.yelpcdn.com/bphoto/zf9K2FlcMn2ml-EmwHWY6w/o.jpg", "is_closed": false, "url": "https://www.yelp.com/biz/wendys-westfield-4?adjust_creative=asslzE1UV0XuKI953B1vtw&utm_campaign=yelp_api_v3&utm_medium=api_v3_business_search&utm_source=asslzE1UV0XuKI953B1vtw", "review_count": 8, "categories": [{"alias": "burgers", "title": "Burgers"}, {"alias": "hotdogs", "title": "Fast Food"}], "rating": 1.5, "coordinates": {"latitude": 42.14164, "longitude": -72.73406}, "transactions": [], "price": "$", "location": {"address1": "6 Southampton Rd", "address2": "", "address3": "", "city": "Westfield", "zip_code": "01085", "country": "US", "state": "MA", "display_address": ["6 Southampton Rd", "Westfield, MA 01085"]}, "phone": "+14135624903", "display_phone": "(413) 562-4903", "distance": 3862.386779298117}, {"id": "R7f0yM7AmIctFUYLT53OuQ", "alias": "max-orient-holyoke", "name": "Max Orient", "image_url": "https://s3-media3.fl.yelpcdn.com/bphoto/7WtSheZif44kXwqpGoV_OQ/o.jpg", "is_closed": false, "url": "https://www.yelp.com/biz/max-orient-holyoke?adjust_creative=asslzE1UV0XuKI953B1vtw&utm_campaign=yelp_api_v3&utm_medium=api_v3_business_search&utm_source=asslzE1UV0XuKI953B1vtw", "review_count": 7, "categories": [{"alias": "chinese", "title": "Chinese"}], "rating": 2.0, "coordinates": {"latitude": 42.1671, "longitude": -72.6399}, "transactions": ["delivery"], "price": "$", "location": {"address1": "50 Holyoke St", "address2": "", "address3": "", "city": "Holyoke", "zip_code": "01040", "country": "US", "state": "MA", "display_address": ["50 Holyoke St", "Holyoke, MA 01040"]}, "phone": "+14135334915", "display_phone": "(413) 533-4915", "distance": 10670.816365974015}, {"id": "WDxcXM1Q15ARre45VzrcJA", "alias": "taco-bell-westfield-2", "name": "Taco Bell", "image_url": "https://s3-media3.fl.yelpcdn.com/bphoto/gmCu_RCVKVqzEuxyovDM_g/o.jpg", "is_closed": false, "url": "https://www.yelp.com/biz/taco-bell-westfield-2?adjust_creative=asslzE1UV0XuKI953B1vtw&utm_campaign=yelp_api_v3&utm_medium=api_v3_business_search&utm_source=asslzE1UV0XuKI953B1vtw", "review_count": 7, "categories": [{"alias": "hotdogs", "title": "Fast Food"}, {"alias": "tacos", "title": "Tacos"}], "rating": 2.5, "coordinates": {"latitude": 42.114715, "longitude": -72.730921}, "transactions": ["delivery"], "price": "$", "location": {"address1": "231 E. Main St.", "address2": null, "address3": null, "city": "Westfield", "zip_code": "01085", "country": "US", "state": "MA", "display_address": ["231 E. Main St.", "Westfield, MA 01085"]}, "phone": "+14135680153", "display_phone": "(413) 568-0153", "distance": 6312.03251358465}, {"id": "ht6EYMSC6JRsGGMZW2S3xg", "alias": "subway-westfield-17", "name": "Subway", "image_url": "https://s3-media3.fl.yelpcdn.com/bphoto/fTUhM0AGXZubGYHOBkwCHw/o.jpg", "is_closed": false, "url": "https://www.yelp.com/biz/subway-westfield-17?adjust_creative=asslzE1UV0XuKI953B1vtw&utm_campaign=yelp_api_v3&utm_medium=api_v3_business_search&utm_source=asslzE1UV0XuKI953B1vtw", "review_count": 1, "categories": [{"alias": "sandwiches", "title": "Sandwiches"}], "rating": 2.0, "coordinates": {"latitude": 42.1089876710362, "longitude": -72.708329828836}, "transactions": [], "price": "$", "location": {"address1": "141 Springfield Rd", "address2": null, "address3": null, "city": "Westfield", "zip_code": "01085", "country": "US", "state": "MA", "display_address": ["141 Springfield Rd", "Westfield, MA 01085"]}, "phone": "+14135621891", "display_phone": "(413) 562-1891", "distance": 7924.976055079876}, {"id": "nIu2EkBxbxBbmO9cGJhaKw", "alias": "subway-feeding-hills-4", "name": "Subway", "image_url": "https://s3-media2.fl.yelpcdn.com/bphoto/OYt42GsoynqxJE16Y73zxQ/o.jpg", "is_closed": false, "url": "https://www.yelp.com/biz/subway-feeding-hills-4?adjust_creative=asslzE1UV0XuKI953B1vtw&utm_campaign=yelp_api_v3&utm_medium=api_v3_business_search&utm_source=asslzE1UV0XuKI953B1vtw", "review_count": 3, "categories": [{"alias": "sandwiches", "title": "Sandwiches"}], "rating": 3.5, "coordinates": {"latitude": 42.0672400764412, "longitude": -72.6781712}, "transactions": [], "price": "$", "location": {"address1": "6 N Westfield St", "address2": "", "address3": "", "city": "Feeding Hills", "zip_code": "01030", "country": "US", "state": "MA", "display_address": ["6 N Westfield St", "Feeding Hills, MA 01030"]}, "phone": "+14137861537", "display_phone": "(413) 786-1537", "distance": 13120.131820591803}, {"id": "E-5u0QKs_XRC2jTxFlKdvQ", "alias": "cracker-barrel-old-country-store-holyoke-2", "name": "Cracker Barrel Old Country Store", "image_url": "https://s3-media1.fl.yelpcdn.com/bphoto/3jylWbM5lUnEj__UQNvNoA/o.jpg", "is_closed": false, "url": "https://www.yelp.com/biz/cracker-barrel-old-country-store-holyoke-2?adjust_creative=asslzE1UV0XuKI953B1vtw&utm_campaign=yelp_api_v3&utm_medium=api_v3_business_search&utm_source=asslzE1UV0XuKI953B1vtw", "review_count": 99, "categories": [{"alias": "tradamerican", "title": "American (Traditional)"}, {"alias": "breakfast_brunch", "title": "Breakfast & Brunch"}, {"alias": "southern", "title": "Southern"}], "rating": 3.0, "coordinates": {"latitude": 42.1771, "longitude": -72.64163}, "transactions": ["delivery"], "price": "$$", "location": {"address1": "227 Whiting Farms Rd", "address2": "", "address3": "", "city": "Holyoke", "zip_code": "01040", "country": "US", "state": "MA", "display_address": ["227 Whiting Farms Rd", "Holyoke, MA 01040"]}, "phone": "+14134931831", "display_phone": "(413) 493-1831", "distance": 10702.485007605243}, {"id": "svxhraRigqzE-dnh4AmC7Q", "alias": "wendys-feeding-hills", "name": "Wendy's", "image_url": "https://s3-media2.fl.yelpcdn.com/bphoto/csI3jum7_DpMuv0vQg72NA/o.jpg", "is_closed": false, "url": "https://www.yelp.com/biz/wendys-feeding-hills?adjust_creative=asslzE1UV0XuKI953B1vtw&utm_campaign=yelp_api_v3&utm_medium=api_v3_business_search&utm_source=asslzE1UV0XuKI953B1vtw", "review_count": 4, "categories": [{"alias": "hotdogs", "title": "Fast Food"}, {"alias": "burgers", "title": "Burgers"}], "rating": 3.5, "coordinates": {"latitude": 42.0674554391139, "longitude": -72.6766946626819}, "transactions": ["delivery"], "price": "$", "location": {"address1": "1340 Springfield Street", "address2": "", "address3": "", "city": "Feeding Hills", "zip_code": "01030", "country": "US", "state": "MA", "display_address": ["1340 Springfield Street", "Feeding Hills, MA 01030"]}, "phone": "+14137860483", "display_phone": "(413) 786-0483", "distance": 13171.969489660669}, {"id": "XLF_GSIai_kDCqFhnP_SbA", "alias": "mcdonalds-westfield-5", "name": "McDonald's", "image_url": "https://s3-media3.fl.yelpcdn.com/bphoto/Arpex7IkHgiY8L88kZ4HBA/o.jpg", "is_closed": false, "url": "https://www.yelp.com/biz/mcdonalds-westfield-5?adjust_creative=asslzE1UV0XuKI953B1vtw&utm_campaign=yelp_api_v3&utm_medium=api_v3_business_search&utm_source=asslzE1UV0XuKI953B1vtw", "review_count": 6, "categories": [{"alias": "burgers", "title": "Burgers"}, {"alias": "hotdogs", "title": "Fast Food"}, {"alias": "coffee", "title": "Coffee & Tea"}], "rating": 2.0, "coordinates": {"latitude": 42.113688, "longitude": -72.726888}, "transactions": ["delivery"], "price": "$", "location": {"address1": "299 E Main", "address2": null, "address3": null, "city": "Westfield", "zip_code": "01085", "country": "US", "state": "MA", "display_address": ["299 E Main", "Westfield, MA 01085"]}, "phone": "+14135623428", "display_phone": "(413) 562-3428", "distance": 6586.21789546971}, {"id": "pxzxHZK35FlY1AXtoqx0KQ", "alias": "on-the-hill-restaurant-feeding-hills", "name": "On The Hill Restaurant", "image_url": "https://s3-media2.fl.yelpcdn.com/bphoto/eqXWJi2G2zU1F3fMSlYwPg/o.jpg", "is_closed": false, "url": "https://www.yelp.com/biz/on-the-hill-restaurant-feeding-hills?adjust_creative=asslzE1UV0XuKI953B1vtw&utm_campaign=yelp_api_v3&utm_medium=api_v3_business_search&utm_source=asslzE1UV0XuKI953B1vtw", "review_count": 24, "categories": [{"alias": "coffee", "title": "Coffee & Tea"}, {"alias": "tradamerican", "title": "American (Traditional)"}, {"alias": "breakfast_brunch", "title": "Breakfast & Brunch"}], "rating": 4.0, "coordinates": {"latitude": 42.0667543, "longitude": -72.6806684}, "transactions": ["delivery"], "price": "$", "location": {"address1": "37 Southwick St", "address2": "", "address3": "", "city": "Feeding Hills", "zip_code": "01030", "country": "US", "state": "MA", "display_address": ["37 Southwick St", "Feeding Hills, MA 01030"]}, "phone": "+14137862252", "display_phone": "(413) 786-2252", "distance": 13088.01417363944}, {"id": "DlPnnZEEgJGPpeOJ4ykORw", "alias": "mcdonalds-westfield-9", "name": "McDonald's", "image_url": "https://s3-media3.fl.yelpcdn.com/bphoto/YIP3yQvUG_APFCzW8UJDgQ/o.jpg", "is_closed": false, "url": "https://www.yelp.com/biz/mcdonalds-westfield-9?adjust_creative=asslzE1UV0XuKI953B1vtw&utm_campaign=yelp_api_v3&utm_medium=api_v3_business_search&utm_source=asslzE1UV0XuKI953B1vtw", "review_count": 5, "categories": [{"alias": "coffee", "title": "Coffee & Tea"}, {"alias": "burgers", "title": "Burgers"}, {"alias": "hotdogs", "title": "Fast Food"}], "rating": 2.0, "coordinates": {"latitude": 42.13425, "longitude": -72.74169}, "transactions": ["delivery"], "price": "$", "location": {"address1": "182 N Elm St", "address2": null, "address3": null, "city": "Westfield", "zip_code": "01085", "country": "US", "state": "MA", "display_address": ["182 N Elm St", "Westfield, MA 01085"]}, "phone": "+14135683595", "display_phone": "(413) 568-3595", "distance": 4020.0343127171573}, {"id": "uQqnuwYhnlN2qtfaTw4Dwg", "alias": "subway-holyoke-10", "name": "Subway", "image_url": "https://s3-media2.fl.yelpcdn.com/bphoto/iujq26FyuZ_CIEGuL5P1hQ/o.jpg", "is_closed": false, "url": "https://www.yelp.com/biz/subway-holyoke-10?adjust_creative=asslzE1UV0XuKI953B1vtw&utm_campaign=yelp_api_v3&utm_medium=api_v3_business_search&utm_source=asslzE1UV0XuKI953B1vtw", "review_count": 1, "categories": [{"alias": "sandwiches", "title": "Sandwiches"}], "rating": 1.0, "coordinates": {"latitude": 42.167642, "longitude": -72.6413569}, "transactions": [], "price": "$", "location": {"address1": "50 Holyoke St", "address2": "Space R115", "address3": "", "city": "Holyoke", "zip_code": "01040", "country": "US", "state": "MA", "display_address": ["50 Holyoke St", "Space R115", "Holyoke, MA 01040"]}, "phone": "+14135326262", "display_phone": "(413) 532-6262", "distance": 10670.875763797188}, {"id": "TQUmxy8PhOdVfAgM4OK5yw", "alias": "sbarro-holyoke", "name": "Sbarro", "image_url": "", "is_closed": false, "url": "https://www.yelp.com/biz/sbarro-holyoke?adjust_creative=asslzE1UV0XuKI953B1vtw&utm_campaign=yelp_api_v3&utm_medium=api_v3_business_search&utm_source=asslzE1UV0XuKI953B1vtw", "review_count": 1, "categories": [{"alias": "pizza", "title": "Pizza"}, {"alias": "italian", "title": "Italian"}, {"alias": "pastashops", "title": "Pasta Shops"}], "rating": 1.0, "coordinates": {"latitude": 42.1670722961426, "longitude": -72.6400527954102}, "transactions": ["pickup", "delivery"], "location": {"address1": "50 Holyoke St", "address2": "", "address3": "", "city": "Holyoke", "zip_code": "01040", "country": "US", "state": "MA", "display_address": ["50 Holyoke St", "Holyoke, MA 01040"]}, "phone": "+14135367270", "display_phone": "(413) 536-7270", "distance": 10670.816365974015}, {"id": "4hpk-dP4FvxAYbOQBFGx6A", "alias": "mt-joe-to-go-holyoke", "name": "Mt. Joe To Go", "image_url": "https://s3-media2.fl.yelpcdn.com/bphoto/A_LljHsYoAFD9ap_iaC65Q/o.jpg", "is_closed": false, "url": "https://www.yelp.com/biz/mt-joe-to-go-holyoke?adjust_creative=asslzE1UV0XuKI953B1vtw&utm_campaign=yelp_api_v3&utm_medium=api_v3_business_search&utm_source=asslzE1UV0XuKI953B1vtw", "review_count": 15, "categories": [{"alias": "coffee", "title": "Coffee & Tea"}, {"alias": "sandwiches", "title": "Sandwiches"}, {"alias": "hotdogs", "title": "Fast Food"}], "rating": 3.5, "coordinates": {"latitude": 42.2361640930176, "longitude": -72.6518630981445}, "transactions": ["delivery"], "price": "$", "location": {"address1": "500 Easthampton Rd", "address2": "", "address3": "", "city": "Holyoke", "zip_code": "01040", "country": "US", "state": "MA", "display_address": ["500 Easthampton Rd", "Holyoke, MA 01040"]}, "phone": "+14134270538", "display_phone": "(413) 427-0538", "distance": 12712.243008084217}, {"id": "ETTdp2dP9ZbZLQfNmYh_rQ", "alias": "mcdonalds-holyoke-5", "name": "McDonald's", "image_url": "https://s3-media2.fl.yelpcdn.com/bphoto/4jksYyfdYEMHQepc_9IYNg/o.jpg", "is_closed": false, "url": "https://www.yelp.com/biz/mcdonalds-holyoke-5?adjust_creative=asslzE1UV0XuKI953B1vtw&utm_campaign=yelp_api_v3&utm_medium=api_v3_business_search&utm_source=asslzE1UV0XuKI953B1vtw", "review_count": 8, "categories": [{"alias": "hotdogs", "title": "Fast Food"}, {"alias": "burgers", "title": "Burgers"}, {"alias": "coffee", "title": "Coffee & Tea"}], "rating": 1.5, "coordinates": {"latitude": 42.175242, "longitude": -72.640805}, "transactions": ["delivery"], "price": "$", "location": {"address1": "233 Whiting Farms Rd", "address2": "", "address3": null, "city": "Holyoke", "zip_code": "01040", "country": "US", "state": "MA", "display_address": ["233 Whiting Farms Rd", "Holyoke, MA 01040"]}, "phone": "+14133227092", "display_phone": "(413) 322-7092", "distance": 10787.539164197286}, {"id": "Ztm07LI6aUyZPraWUb-brg", "alias": "dominos-pizza-agawam-2", "name": "Domino's Pizza", "image_url": "https://s3-media4.fl.yelpcdn.com/bphoto/_FzuA7sG1hg9VFvAUMVncQ/o.jpg", "is_closed": false, "url": "https://www.yelp.com/biz/dominos-pizza-agawam-2?adjust_creative=asslzE1UV0XuKI953B1vtw&utm_campaign=yelp_api_v3&utm_medium=api_v3_business_search&utm_source=asslzE1UV0XuKI953B1vtw", "review_count": 8, "categories": [{"alias": "pizza", "title": "Pizza"}, {"alias": "chicken_wings", "title": "Chicken Wings"}, {"alias": "sandwiches", "title": "Sandwiches"}], "rating": 3.0, "coordinates": {"latitude": 42.0876085013151, "longitude": -72.6403154432774}, "transactions": [], "price": "$", "location": {"address1": "312 Springfield St", "address2": "", "address3": "", "city": "Agawam", "zip_code": "01001", "country": "US", "state": "MA", "display_address": ["312 Springfield St", "Agawam, MA 01001"]}, "phone": "+14138210800", "display_phone": "(413) 821-0800", "distance": 13642.18141365897}, {"id": "vqfCIfzrXYHq-KIm7w0IqA", "alias": "mcdonalds-holyoke-3", "name": "McDonald's", "image_url": "https://s3-media1.fl.yelpcdn.com/bphoto/sURWl2cpL1o-htmCvjC8WA/o.jpg", "is_closed": false, "url": "https://www.yelp.com/biz/mcdonalds-holyoke-3?adjust_creative=asslzE1UV0XuKI953B1vtw&utm_campaign=yelp_api_v3&utm_medium=api_v3_business_search&utm_source=asslzE1UV0XuKI953B1vtw", "review_count": 5, "categories": [{"alias": "burgers", "title": "Burgers"}, {"alias": "hotdogs", "title": "Fast Food"}, {"alias": "coffee", "title": "Coffee & Tea"}], "rating": 1.0, "coordinates": {"latitude": 42.167636, "longitude": -72.641358}, "transactions": [], "price": "$", "location": {"address1": "50 Holyoke St", "address2": "", "address3": "", "city": "Holyoke", "zip_code": "01040", "country": "US", "state": "MA", "display_address": ["50 Holyoke St", "Holyoke, MA 01040"]}, "phone": "+14135324630", "display_phone": "(413) 532-4630", "distance": 10670.754976953527}, {"id": "qqA8YX58xnmEXLyanHfdUg", "alias": "stufd-food-truck-brooklyn", "name": "Stuf'd Food Truck", "image_url": "https://s3-media2.fl.yelpcdn.com/bphoto/_Wn0i-tLIOFinw8BPAqxPA/o.jpg", "is_closed": false, "url": "https://www.yelp.com/biz/stufd-food-truck-brooklyn?adjust_creative=asslzE1UV0XuKI953B1vtw&utm_campaign=yelp_api_v3&utm_medium=api_v3_business_search&utm_source=asslzE1UV0XuKI953B1vtw", "review_count": 4, "categories": [{"alias": "sandwiches", "title": "Sandwiches"}, {"alias": "foodtrucks", "title": "Food Trucks"}], "rating": 4.0, "coordinates": {"latitude": 40.7124539, "longitude": -73.9287374}, "transactions": [], "location": {"address1": "178 Varick Ave", "address2": "", "address3": null, "city": "Brooklyn", "zip_code": "11237", "country": "US", "state": "NY", "display_address": ["178 Varick Ave", "Brooklyn, NY 11237"]}, "phone": "+18457091808", "display_phone": "(845) 709-1808", "distance": 187990.65151615452}]