[{"id": "QRi0EItQFktz4WdURGH0zQ", "alias": "thai-tamarind-westborough", "name": "Thai Tamarind", "image_url": "https://s3-media1.fl.yelpcdn.com/bphoto/ilx6n-IWbSoFJNi47APU5g/o.jpg", "is_closed": false, "url": "https://www.yelp.com/biz/thai-tamarind-westborough?adjust_creative=wVJJqwOt_3apsoGmwgRWnw&utm_campaign=yelp_api_v3&utm_medium=api_v3_business_search&utm_source=wVJJqwOt_3apsoGmwgRWnw", "review_count": 56, "categories": [{"alias": "thai", "title": "Thai"}], "rating": 4.5, "coordinates": {"latitude": 42.289859, "longitude": -71.584815}, "transactions": ["delivery"], "price": "$$", "location": {"address1": "2 Connector Rd", "address2": "", "address3": "", "city": "Westborough", "zip_code": "01581", "country": "US", "state": "MA", "display_address": ["2 Connector Rd", "Westborough, MA 01581"]}, "phone": "+15083296688", "display_phone": "(508) 329-6688", "distance": 908.5953527536667}, {"id": "0RX7XP1Y-jC56K2tsqc4zw", "alias": "regatta-bar-and-grille-restaurant-westborough", "name": "Regatta Bar & Grille Restaurant", "image_url": "https://s3-media2.fl.yelpcdn.com/bphoto/ON-Bs-G0mb7B6wI_F1JnjA/o.jpg", "is_closed": false, "url": "https://www.yelp.com/biz/regatta-bar-and-grille-restaurant-westborough?adjust_creative=wVJJqwOt_3apsoGmwgRWnw&utm_campaign=yelp_api_v3&utm_medium=api_v3_business_search&utm_source=wVJJqwOt_3apsoGmwgRWnw", "review_count": 10, "categories": [{"alias": "newamerican", "title": "American (New)"}], "rating": 2.5, "coordinates": {"latitude": 42.2898025512695, "longitude": -71.5724182128906}, "transactions": ["delivery"], "price": "$$$", "location": {"address1": "5400 Computer Dr", "address2": "", "address3": "", "city": "Westborough", "zip_code": "01581", "country": "US", "state": "MA", "display_address": ["5400 Computer Dr", "Westborough, MA 01581"]}, "phone": "+15083665511", "display_phone": "(508) 366-5511", "distance": 122.36966468045307}, {"id": "tuqKPYIAq-XguvJaawNA7w", "alias": "owen-o-learys-westborough", "name": "Owen O'Leary's", "image_url": "https://s3-media1.fl.yelpcdn.com/bphoto/DXqSSrADgENH3cd01Hc6Jg/o.jpg", "is_closed": false, "url": "https://www.yelp.com/biz/owen-o-learys-westborough?adjust_creative=wVJJqwOt_3apsoGmwgRWnw&utm_campaign=yelp_api_v3&utm_medium=api_v3_business_search&utm_source=wVJJqwOt_3apsoGmwgRWnw", "review_count": 114, "categories": [{"alias": "sandwiches", "title": "Sandwiches"}, {"alias": "tradamerican", "title": "American (Traditional)"}], "rating": 3.0, "coordinates": {"latitude": 42.287123930998, "longitude": -71.5862525990506}, "transactions": ["delivery"], "price": "$$", "location": {"address1": "17 Connector Rd", "address2": "", "address3": "", "city": "Westborough", "zip_code": "01581", "country": "US", "state": "MA", "display_address": ["17 Connector Rd", "Westborough, MA 01581"]}, "phone": "+15083669262", "display_phone": "(508) 366-9262", "distance": 1043.9293956870524}, {"id": "egKO3dAPgJgtwsxATGOutA", "alias": "el-basha-restaurant-westborough", "name": "El Basha Restaurant", "image_url": "https://s3-media2.fl.yelpcdn.com/bphoto/VZl_MuQCsVDA-t0SiiHbZw/o.jpg", "is_closed": false, "url": "https://www.yelp.com/biz/el-basha-restaurant-westborough?adjust_creative=wVJJqwOt_3apsoGmwgRWnw&utm_campaign=yelp_api_v3&utm_medium=api_v3_business_search&utm_source=wVJJqwOt_3apsoGmwgRWnw", "review_count": 130, "categories": [{"alias": "mideastern", "title": "Middle Eastern"}, {"alias": "mediterranean", "title": "Mediterranean"}], "rating": 3.5, "coordinates": {"latitude": 42.289859, "longitude": -71.584815}, "transactions": ["delivery", "pickup"], "price": "$$", "location": {"address1": "2 Connector Rd", "address2": "", "address3": "", "city": "Westborough", "zip_code": "01581", "country": "US", "state": "MA", "display_address": ["2 Connector Rd", "Westborough, MA 01581"]}, "phone": "+15083662455", "display_phone": "(508) 366-2455", "distance": 908.5953527536667}, {"id": "GTikXYALIRui5-P-PMRV8A", "alias": "the-chateau-italian-family-dining-westborough", "name": "The Chateau Italian Family Dining", "image_url": "https://s3-media2.fl.yelpcdn.com/bphoto/PxqcDWCGwZa-2lHwQRhjhw/o.jpg", "is_closed": false, "url": "https://www.yelp.com/biz/the-chateau-italian-family-dining-westborough?adjust_creative=wVJJqwOt_3apsoGmwgRWnw&utm_campaign=yelp_api_v3&utm_medium=api_v3_business_search&utm_source=wVJJqwOt_3apsoGmwgRWnw", "review_count": 169, "categories": [{"alias": "italian", "title": "Italian"}], "rating": 2.5, "coordinates": {"latitude": 42.2871894836426, "longitude": -71.5975494384766}, "transactions": ["delivery", "pickup"], "price": "$$", "location": {"address1": "95 Turnpike Rd", "address2": "", "address3": "", "city": "Westborough", "zip_code": "01581", "country": "US", "state": "MA", "display_address": ["95 Turnpike Rd", "Westborough, MA 01581"]}, "phone": "+15083665959", "display_phone": "(508) 366-5959", "distance": 1975.0383587122635}, {"id": "_ZIrqY1TtYmnIHbxsJ-r6A", "alias": "wendys-southborough", "name": "Wendy's", "image_url": "https://s3-media1.fl.yelpcdn.com/bphoto/KMXwB2kMUNC7DMlo1bPlNA/o.jpg", "is_closed": false, "url": "https://www.yelp.com/biz/wendys-southborough?adjust_creative=wVJJqwOt_3apsoGmwgRWnw&utm_campaign=yelp_api_v3&utm_medium=api_v3_business_search&utm_source=wVJJqwOt_3apsoGmwgRWnw", "review_count": 14, "categories": [{"alias": "burgers", "title": "Burgers"}, {"alias": "hotdogs", "title": "Fast Food"}], "rating": 2.5, "coordinates": {"latitude": 42.2899, "longitude": -71.558003}, "transactions": ["delivery"], "price": "$", "location": {"address1": "359 Turnpike Road", "address2": "", "address3": "", "city": "Southborough", "zip_code": "01772", "country": "US", "state": "MA", "display_address": ["359 Turnpike Road", "Southborough, MA 01772"]}, "phone": "+15084601300", "display_phone": "(508) 460-1300", "distance": 1303.976041390927}, {"id": "UC-RMmymJ3WQ6bW1dPHioQ", "alias": "meadows-cafe-westborough", "name": "Meadows Cafe", "image_url": "", "is_closed": false, "url": "https://www.yelp.com/biz/meadows-cafe-westborough?adjust_creative=wVJJqwOt_3apsoGmwgRWnw&utm_campaign=yelp_api_v3&utm_medium=api_v3_business_search&utm_source=wVJJqwOt_3apsoGmwgRWnw", "review_count": 2, "categories": [{"alias": "cafes", "title": "Cafes"}], "rating": 1.5, "coordinates": {"latitude": 42.2875199, "longitude": -71.5816128}, "transactions": [], "location": {"address1": "1 Research Dr", "address2": "", "address3": "", "city": "Westborough", "zip_code": "01581", "country": "US", "state": "MA", "display_address": ["1 Research Dr", "Westborough, MA 01581"]}, "phone": "", "display_phone": "", "distance": 760.6891851456538}, {"id": "B7rHzoGETBQUwMCH4I7REg", "alias": "mcdonalds-westboro-4", "name": "McDonald's", "image_url": "https://s3-media4.fl.yelpcdn.com/bphoto/Aoc_qzdB5RIX_DADXcUd8Q/o.jpg", "is_closed": false, "url": "https://www.yelp.com/biz/mcdonalds-westboro-4?adjust_creative=wVJJqwOt_3apsoGmwgRWnw&utm_campaign=yelp_api_v3&utm_medium=api_v3_business_search&utm_source=wVJJqwOt_3apsoGmwgRWnw", "review_count": 17, "categories": [{"alias": "burgers", "title": "Burgers"}, {"alias": "hotdogs", "title": "Fast Food"}, {"alias": "coffee", "title": "Coffee & Tea"}], "rating": 2.5, "coordinates": {"latitude": 42.2856019029308, "longitude": -71.5975791960955}, "transactions": ["delivery"], "price": "$", "location": {"address1": "166 E Main St", "address2": "", "address3": "", "city": "Westboro", "zip_code": "01581", "country": "US", "state": "MA", "display_address": ["166 E Main St", "Westboro, MA 01581"]}, "phone": "+15083662276", "display_phone": "(508) 366-2276", "distance": 1990.8996817490352}]