[{"id": "T2y6Cue1SkDt55lSNkmrIg", "alias": "district-kitchen-and-bar-pittsfield", "name": "District Kitchen & Bar", "image_url": "https://s3-media4.fl.yelpcdn.com/bphoto/1S7pKPfaGwGh6wWd9MorYQ/o.jpg", "is_closed": false, "url": "https://www.yelp.com/biz/district-kitchen-and-bar-pittsfield?adjust_creative=h5HwbyQ0TYvQjBo6Ys5Bgw&utm_campaign=yelp_api_v3&utm_medium=api_v3_business_search&utm_source=h5HwbyQ0TYvQjBo6Ys5Bgw", "review_count": 202, "categories": [{"alias": "newamerican", "title": "American (New)"}, {"alias": "gastropubs", "title": "Gastropubs"}], "rating": 4.5, "coordinates": {"latitude": 42.4487065, "longitude": -73.2547291}, "transactions": ["delivery"], "price": "$$", "location": {"address1": "40 West St", "address2": null, "address3": "", "city": "Pittsfield", "zip_code": "01201", "country": "US", "state": "MA", "display_address": ["40 West St", "Pittsfield, MA 01201"]}, "phone": "+14134420303", "display_phone": "(413) 442-0303", "distance": 444.02772129181267}, {"id": "C4skTr66kKHctEQH7U-T7Q", "alias": "elizabeths-pittsfield", "name": "Elizabeth's", "image_url": "https://s3-media1.fl.yelpcdn.com/bphoto/H8Vn6lhIqFVPIqEuOkGohA/o.jpg", "is_closed": false, "url": "https://www.yelp.com/biz/elizabeths-pittsfield?adjust_creative=h5HwbyQ0TYvQjBo6Ys5Bgw&utm_campaign=yelp_api_v3&utm_medium=api_v3_business_search&utm_source=h5HwbyQ0TYvQjBo6Ys5Bgw", "review_count": 111, "categories": [{"alias": "italian", "title": "Italian"}, {"alias": "newamerican", "title": "American (New)"}], "rating": 4.5, "coordinates": {"latitude": 42.453037, "longitude": -73.224449}, "transactions": ["delivery"], "price": "$$", "location": {"address1": "1264 East St", "address2": "", "address3": "", "city": "Pittsfield", "zip_code": "01201", "country": "US", "state": "MA", "display_address": ["1264 East St", "Pittsfield, MA 01201"]}, "phone": "+14134488244", "display_phone": "(413) 448-8244", "distance": 2071.30025353306}, {"id": "0eMkyB2D0Cw3gszNyAaUdQ", "alias": "mission-restaurant-pittsfield", "name": "Mission Restaurant", "image_url": "https://s3-media3.fl.yelpcdn.com/bphoto/p81W3A_1VlHAeJlbkuw96Q/o.jpg", "is_closed": false, "url": "https://www.yelp.com/biz/mission-restaurant-pittsfield?adjust_creative=h5HwbyQ0TYvQjBo6Ys5Bgw&utm_campaign=yelp_api_v3&utm_medium=api_v3_business_search&utm_source=h5HwbyQ0TYvQjBo6Ys5Bgw", "review_count": 125, "categories": [{"alias": "spanish", "title": "Spanish"}, {"alias": "tapasmallplates", "title": "Tapas/Small Plates"}, {"alias": "musicvenues", "title": "Music Venues"}], "rating": 4.0, "coordinates": {"latitude": 42.4548334, "longitude": -73.2518942}, "transactions": ["delivery"], "price": "$$", "location": {"address1": "438 N St", "address2": "", "address3": "", "city": "Pittsfield", "zip_code": "01201", "country": "US", "state": "MA", "display_address": ["438 N St", "Pittsfield, MA 01201"]}, "phone": "+14134991736", "display_phone": "(413) 499-1736", "distance": 623.3885173996315}, {"id": "QbDOsebLf7kr-VDWFmvokg", "alias": "flavours-of-malaysia-pittsfield", "name": "Flavours of Malaysia", "image_url": "https://s3-media1.fl.yelpcdn.com/bphoto/Rfxdg9pbecME0tkZnkLAEA/o.jpg", "is_closed": false, "url": "https://www.yelp.com/biz/flavours-of-malaysia-pittsfield?adjust_creative=h5HwbyQ0TYvQjBo6Ys5Bgw&utm_campaign=yelp_api_v3&utm_medium=api_v3_business_search&utm_source=h5HwbyQ0TYvQjBo6Ys5Bgw", "review_count": 204, "categories": [{"alias": "asianfusion", "title": "Asian Fusion"}, {"alias": "malaysian", "title": "Malaysian"}], "rating": 4.0, "coordinates": {"latitude": 42.449903, "longitude": -73.254548}, "transactions": ["delivery"], "price": "$$", "location": {"address1": "75 North St", "address2": null, "address3": null, "city": "Pittsfield", "zip_code": "01201", "country": "US", "state": "MA", "display_address": ["75 North St", "Pittsfield, MA 01201"]}, "phone": "+14134433188", "display_phone": "(413) 443-3188", "distance": 433.7531284314365}, {"id": "f1SCA_ua5SrnH4o-GC_frg", "alias": "la-fogata-pittsfield-3", "name": "La Fogata", "image_url": "https://s3-media3.fl.yelpcdn.com/bphoto/fO86g0LI2WiwS-HWZPKjIA/o.jpg", "is_closed": false, "url": "https://www.yelp.com/biz/la-fogata-pittsfield-3?adjust_creative=h5HwbyQ0TYvQjBo6Ys5Bgw&utm_campaign=yelp_api_v3&utm_medium=api_v3_business_search&utm_source=h5HwbyQ0TYvQjBo6Ys5Bgw", "review_count": 84, "categories": [{"alias": "colombian", "title": "Colombian"}], "rating": 4.5, "coordinates": {"latitude": 42.4564261392309, "longitude": -73.2350534294449}, "transactions": ["delivery"], "price": "$$", "location": {"address1": "770 Tyler St", "address2": null, "address3": null, "city": "Pittsfield", "zip_code": "01201", "country": "US", "state": "MA", "display_address": ["770 Tyler St", "Pittsfield, MA 01201"]}, "phone": "+14134436969", "display_phone": "(413) 443-6969", "distance": 1377.4394888925183}, {"id": "VPDBd1fuy7kp2tQ9cFlkgQ", "alias": "trattoria-rustica-pittsfield", "name": "Trattoria Rustica", "image_url": "https://s3-media1.fl.yelpcdn.com/bphoto/pGGZRqKuxQa3ODa3gWDIxQ/o.jpg", "is_closed": false, "url": "https://www.yelp.com/biz/trattoria-rustica-pittsfield?adjust_creative=h5HwbyQ0TYvQjBo6Ys5Bgw&utm_campaign=yelp_api_v3&utm_medium=api_v3_business_search&utm_source=h5HwbyQ0TYvQjBo6Ys5Bgw", "review_count": 77, "categories": [{"alias": "italian", "title": "Italian"}], "rating": 4.0, "coordinates": {"latitude": 42.449648597523, "longitude": -73.254720133583}, "transactions": ["delivery"], "price": "$$$", "location": {"address1": "27 McKay St", "address2": null, "address3": "", "city": "Pittsfield", "zip_code": "01201", "country": "US", "state": "MA", "display_address": ["27 McKay St", "Pittsfield, MA 01201"]}, "phone": "+14134991192", "display_phone": "(413) 499-1192", "distance": 446.2459877824702}, {"id": "cCrInUewlA89sDza70MvCA", "alias": "vongs-pittsfield-2", "name": "Vongs", "image_url": "https://s3-media3.fl.yelpcdn.com/bphoto/ldVZ4TDrHmFZhoBD_uSEqg/o.jpg", "is_closed": false, "url": "https://www.yelp.com/biz/vongs-pittsfield-2?adjust_creative=h5HwbyQ0TYvQjBo6Ys5Bgw&utm_campaign=yelp_api_v3&utm_medium=api_v3_business_search&utm_source=h5HwbyQ0TYvQjBo6Ys5Bgw", "review_count": 63, "categories": [{"alias": "vietnamese", "title": "Vietnamese"}, {"alias": "thai", "title": "Thai"}], "rating": 4.0, "coordinates": {"latitude": 42.4608192996704, "longitude": -73.2507721752335}, "transactions": ["delivery"], "price": "$$", "location": {"address1": "157 Seymour St", "address2": "", "address3": "", "city": "Pittsfield", "zip_code": "01201", "country": "US", "state": "MA", "display_address": ["157 Seymour St", "Pittsfield, MA 01201"]}, "phone": "+14134426000", "display_phone": "(413) 442-6000", "distance": 1258.8229015991617}, {"id": "wzSu93NPvW0DiSXABoAM8w", "alias": "methuselah-bar-and-lounge-pittsfield", "name": "Methuselah Bar and Lounge", "image_url": "https://s3-media2.fl.yelpcdn.com/bphoto/iZxRn6irr7IdDvV5mkCRtw/o.jpg", "is_closed": false, "url": "https://www.yelp.com/biz/methuselah-bar-and-lounge-pittsfield?adjust_creative=h5HwbyQ0TYvQjBo6Ys5Bgw&utm_campaign=yelp_api_v3&utm_medium=api_v3_business_search&utm_source=h5HwbyQ0TYvQjBo6Ys5Bgw", "review_count": 57, "categories": [{"alias": "lounges", "title": "Lounges"}, {"alias": "tacos", "title": "Tacos"}, {"alias": "tapas", "title": "Tapas Bars"}], "rating": 4.0, "coordinates": {"latitude": 42.4542253216836, "longitude": -73.2525427266955}, "transactions": ["delivery", "pickup"], "price": "$$", "location": {"address1": "391 N St", "address2": "", "address3": "", "city": "Pittsfield", "zip_code": "01201", "country": "US", "state": "MA", "display_address": ["391 N St", "Pittsfield, MA 01201"]}, "phone": "+14133472888", "display_phone": "(413) 347-2888", "distance": 584.4503432703783}, {"id": "5SEv6lCoqsHuIvd5bseAPw", "alias": "thrive-diner-pittsfield", "name": "Thrive Diner", "image_url": "https://s3-media3.fl.yelpcdn.com/bphoto/tXURYKnF1UmV5Mlw6XyiTg/o.jpg", "is_closed": false, "url": "https://www.yelp.com/biz/thrive-diner-pittsfield?adjust_creative=h5HwbyQ0TYvQjBo6Ys5Bgw&utm_campaign=yelp_api_v3&utm_medium=api_v3_business_search&utm_source=h5HwbyQ0TYvQjBo6Ys5Bgw", "review_count": 43, "categories": [{"alias": "vegan", "title": "Vegan"}], "rating": 4.5, "coordinates": {"latitude": 42.4625, "longitude": -73.25181}, "transactions": ["delivery"], "price": "$$", "location": {"address1": "145 Wahconah St", "address2": null, "address3": "", "city": "Pittsfield", "zip_code": "01201", "country": "US", "state": "MA", "display_address": ["145 Wahconah St", "Pittsfield, MA 01201"]}, "phone": "+14133449353", "display_phone": "(413) 344-9353", "distance": 1461.6931833895499}, {"id": "RtMPXedJocZX0VyTB3o6dQ", "alias": "smokey-divas-pittsfield", "name": "Smokey Divas", "image_url": "https://s3-media2.fl.yelpcdn.com/bphoto/eR_ibLv6mWTkZxRqHrL_FQ/o.jpg", "is_closed": false, "url": "https://www.yelp.com/biz/smokey-divas-pittsfield?adjust_creative=h5HwbyQ0TYvQjBo6Ys5Bgw&utm_campaign=yelp_api_v3&utm_medium=api_v3_business_search&utm_source=h5HwbyQ0TYvQjBo6Ys5Bgw", "review_count": 22, "categories": [{"alias": "bbq", "title": "Barbeque"}], "rating": 4.5, "coordinates": {"latitude": 42.4589165630306, "longitude": -73.2636564597487}, "transactions": ["delivery"], "location": {"address1": "239 Onota St", "address2": "", "address3": null, "city": "Pittsfield", "zip_code": "01201", "country": "US", "state": "MA", "display_address": ["239 Onota St", "Pittsfield, MA 01201"]}, "phone": "+14133444206", "display_phone": "(413) 344-4206", "distance": 1573.18251013513}, {"id": "UtloTG5msKniX74Gll1GEw", "alias": "brooklyns-best-pittsfield", "name": "Brooklyn's Best", "image_url": "https://s3-media2.fl.yelpcdn.com/bphoto/D7moExjZjNntQ_t-RBRUaQ/o.jpg", "is_closed": false, "url": "https://www.yelp.com/biz/brooklyns-best-pittsfield?adjust_creative=h5HwbyQ0TYvQjBo6Ys5Bgw&utm_campaign=yelp_api_v3&utm_medium=api_v3_business_search&utm_source=h5HwbyQ0TYvQjBo6Ys5Bgw", "review_count": 20, "categories": [{"alias": "pizza", "title": "Pizza"}, {"alias": "italian", "title": "Italian"}], "rating": 4.0, "coordinates": {"latitude": 42.4491, "longitude": -73.2534}, "transactions": [], "price": "$$", "location": {"address1": "48 North St", "address2": "Unit A", "address3": null, "city": "Pittsfield", "zip_code": "01201", "country": "US", "state": "MA", "display_address": ["48 North St", "Unit A", "Pittsfield, MA 01201"]}, "phone": "+14132429050", "display_phone": "(413) 242-9050", "distance": 342.66853178735084}, {"id": "6rXIezwsJbdUrAqDLgm6PA", "alias": "the-marketplace-caf\u00e9-pittsfield", "name": "The Marketplace Caf\u00e9", "image_url": "https://s3-media1.fl.yelpcdn.com/bphoto/sx2PUcmmvyRxIl3des99rA/o.jpg", "is_closed": false, "url": "https://www.yelp.com/biz/the-marketplace-caf%C3%A9-pittsfield?adjust_creative=h5HwbyQ0TYvQjBo6Ys5Bgw&utm_campaign=yelp_api_v3&utm_medium=api_v3_business_search&utm_source=h5HwbyQ0TYvQjBo6Ys5Bgw", "review_count": 154, "categories": [{"alias": "sandwiches", "title": "Sandwiches"}, {"alias": "coffee", "title": "Coffee & Tea"}, {"alias": "cafes", "title": "Cafes"}], "rating": 4.5, "coordinates": {"latitude": 42.4491299206995, "longitude": -73.2539157755931}, "transactions": [], "price": "$$", "location": {"address1": "53 North St", "address2": "", "address3": "", "city": "Pittsfield", "zip_code": "01201", "country": "US", "state": "MA", "display_address": ["53 North St", "Pittsfield, MA 01201"]}, "phone": "+14133584777", "display_phone": "(413) 358-4777", "distance": 383.00712641841716}, {"id": "N__y-HScFV08c6Hqs0U_BA", "alias": "eat-on-north-pittsfield", "name": "Eat on North", "image_url": "https://s3-media3.fl.yelpcdn.com/bphoto/FemTnXD2uVJEHK8gMjT6tg/o.jpg", "is_closed": false, "url": "https://www.yelp.com/biz/eat-on-north-pittsfield?adjust_creative=h5HwbyQ0TYvQjBo6Ys5Bgw&utm_campaign=yelp_api_v3&utm_medium=api_v3_business_search&utm_source=h5HwbyQ0TYvQjBo6Ys5Bgw", "review_count": 97, "categories": [{"alias": "newamerican", "title": "American (New)"}, {"alias": "bars", "title": "Bars"}, {"alias": "breakfast_brunch", "title": "Breakfast & Brunch"}], "rating": 3.5, "coordinates": {"latitude": 42.452699, "longitude": -73.253238}, "transactions": ["delivery"], "price": "$$", "location": {"address1": "297 North St", "address2": "", "address3": "", "city": "Pittsfield", "zip_code": "01201", "country": "US", "state": "MA", "display_address": ["297 North St", "Pittsfield, MA 01201"]}, "phone": "+14135534210", "display_phone": "(413) 553-4210", "distance": 470.2877950799628}, {"id": "426aRoowpWia0UcI3Go0SA", "alias": "freddies-place-olde-fashion-soda-shoppe-pittsfield-2", "name": "Freddie's Place Olde Fashion Soda Shoppe", "image_url": "https://s3-media2.fl.yelpcdn.com/bphoto/7zrdAjMwteO_w73oY0zhTA/o.jpg", "is_closed": false, "url": "https://www.yelp.com/biz/freddies-place-olde-fashion-soda-shoppe-pittsfield-2?adjust_creative=h5HwbyQ0TYvQjBo6Ys5Bgw&utm_campaign=yelp_api_v3&utm_medium=api_v3_business_search&utm_source=h5HwbyQ0TYvQjBo6Ys5Bgw", "review_count": 57, "categories": [{"alias": "diners", "title": "Diners"}, {"alias": "breakfast_brunch", "title": "Breakfast & Brunch"}, {"alias": "cafes", "title": "Cafes"}], "rating": 4.5, "coordinates": {"latitude": 42.45002, "longitude": -73.25102}, "transactions": ["delivery"], "price": "$", "location": {"address1": "117 Fenn St", "address2": "", "address3": "", "city": "Pittsfield", "zip_code": "01201", "country": "US", "state": "MA", "display_address": ["117 Fenn St", "Pittsfield, MA 01201"]}, "phone": "+14134992014", "display_phone": "(413) 499-2014", "distance": 151.96722660400934}, {"id": "EXx30QU0coEL_9svJPJwqw", "alias": "cims-tavern-pittsfield", "name": "Cim's Tavern", "image_url": "https://s3-media3.fl.yelpcdn.com/bphoto/CLgvUalKco1bW9an_6tTxA/o.jpg", "is_closed": false, "url": "https://www.yelp.com/biz/cims-tavern-pittsfield?adjust_creative=h5HwbyQ0TYvQjBo6Ys5Bgw&utm_campaign=yelp_api_v3&utm_medium=api_v3_business_search&utm_source=h5HwbyQ0TYvQjBo6Ys5Bgw", "review_count": 20, "categories": [{"alias": "tradamerican", "title": "American (Traditional)"}, {"alias": "sportsbars", "title": "Sports Bars"}], "rating": 4.0, "coordinates": {"latitude": 42.4491653442383, "longitude": -73.244987487793}, "transactions": ["delivery"], "price": "$", "location": {"address1": "429 Fenn St", "address2": "", "address3": "", "city": "Pittsfield", "zip_code": "01201", "country": "US", "state": "MA", "display_address": ["429 Fenn St", "Pittsfield, MA 01201"]}, "phone": "+14134429430", "display_phone": "(413) 442-9430", "distance": 349.14821685970753}, {"id": "oCsKQ2Ns4NZtIjvu4PODBg", "alias": "the-roasted-garlic-pittsfield", "name": "The Roasted Garlic", "image_url": "https://s3-media3.fl.yelpcdn.com/bphoto/9u5QaUpT90u9r2vCPL_oGA/o.jpg", "is_closed": false, "url": "https://www.yelp.com/biz/the-roasted-garlic-pittsfield?adjust_creative=h5HwbyQ0TYvQjBo6Ys5Bgw&utm_campaign=yelp_api_v3&utm_medium=api_v3_business_search&utm_source=h5HwbyQ0TYvQjBo6Ys5Bgw", "review_count": 116, "categories": [{"alias": "tradamerican", "title": "American (Traditional)"}, {"alias": "sportsbars", "title": "Sports Bars"}], "rating": 3.5, "coordinates": {"latitude": 42.44215, "longitude": -73.27677}, "transactions": ["delivery"], "price": "$$", "location": {"address1": "483 W Housatonic St", "address2": "", "address3": "", "city": "Pittsfield", "zip_code": "01201", "country": "US", "state": "MA", "display_address": ["483 W Housatonic St", "Pittsfield, MA 01201"]}, "phone": "+14134999910", "display_phone": "(413) 499-9910", "distance": 2397.942463886346}, {"id": "b__Dz9yt1BUcKlfwH02hng", "alias": "mazzeos-ristorante-pittsfield", "name": "Mazzeo's Ristorante", "image_url": "https://s3-media4.fl.yelpcdn.com/bphoto/qbpAa7i58lM4a8VQ5RYRjA/o.jpg", "is_closed": false, "url": "https://www.yelp.com/biz/mazzeos-ristorante-pittsfield?adjust_creative=h5HwbyQ0TYvQjBo6Ys5Bgw&utm_campaign=yelp_api_v3&utm_medium=api_v3_business_search&utm_source=h5HwbyQ0TYvQjBo6Ys5Bgw", "review_count": 142, "categories": [{"alias": "italian", "title": "Italian"}, {"alias": "gluten_free", "title": "Gluten-Free"}, {"alias": "bars", "title": "Bars"}], "rating": 3.5, "coordinates": {"latitude": 42.413089, "longitude": -73.260826}, "transactions": ["delivery", "restaurant_reservation"], "price": "$$$", "location": {"address1": "1015 South St", "address2": "", "address3": "", "city": "Pittsfield", "zip_code": "01201", "country": "US", "state": "MA", "display_address": ["1015 South St", "Pittsfield, MA 01201"]}, "phone": "+14134482095", "display_phone": "(413) 448-2095", "distance": 4263.206130825202}, {"id": "6nTQ0bwWViNAKMD-mG645w", "alias": "titos-mexican-grill-pittsfield", "name": "Tito's Mexican Grill", "image_url": "https://s3-media3.fl.yelpcdn.com/bphoto/UG6sk3_G3wDB-5l4kqZXFQ/o.jpg", "is_closed": false, "url": "https://www.yelp.com/biz/titos-mexican-grill-pittsfield?adjust_creative=h5HwbyQ0TYvQjBo6Ys5Bgw&utm_campaign=yelp_api_v3&utm_medium=api_v3_business_search&utm_source=h5HwbyQ0TYvQjBo6Ys5Bgw", "review_count": 64, "categories": [{"alias": "mexican", "title": "Mexican"}, {"alias": "salad", "title": "Salad"}, {"alias": "seafood", "title": "Seafood"}], "rating": 3.5, "coordinates": {"latitude": 42.4507595, "longitude": -73.2542174}, "transactions": ["delivery"], "price": "$$", "location": {"address1": "34 Depot St", "address2": "", "address3": null, "city": "Pittsfield", "zip_code": "01201", "country": "US", "state": "MA", "display_address": ["34 Depot St", "Pittsfield, MA 01201"]}, "phone": "+14134649468", "display_phone": "(413) 464-9468", "distance": 426.55247436749136}, {"id": "S_NIgGNygGNQHUE0X4IkVw", "alias": "highland-restaurant-pittsfield", "name": "Highland Restaurant", "image_url": "https://s3-media2.fl.yelpcdn.com/bphoto/ZGfcnSA20to4zy-6Xwgiew/o.jpg", "is_closed": false, "url": "https://www.yelp.com/biz/highland-restaurant-pittsfield?adjust_creative=h5HwbyQ0TYvQjBo6Ys5Bgw&utm_campaign=yelp_api_v3&utm_medium=api_v3_business_search&utm_source=h5HwbyQ0TYvQjBo6Ys5Bgw", "review_count": 34, "categories": [{"alias": "italian", "title": "Italian"}], "rating": 3.5, "coordinates": {"latitude": 42.4497, "longitude": -73.25133}, "transactions": ["delivery"], "price": "$$", "location": {"address1": "100 Fenn St", "address2": "", "address3": "", "city": "Pittsfield", "zip_code": "01201", "country": "US", "state": "MA", "display_address": ["100 Fenn St", "Pittsfield, MA 01201"]}, "phone": "+14134422457", "display_phone": "(413) 442-2457", "distance": 172.86668109241697}, {"id": "Ueg3DJxVNy2eTK4eqTReCQ", "alias": "panchos-mexican-restaurant-pittsfield", "name": "Panchos Mexican Restaurant", "image_url": "https://s3-media2.fl.yelpcdn.com/bphoto/dEgcAH4eH1WgDsVZJRWtVg/o.jpg", "is_closed": false, "url": "https://www.yelp.com/biz/panchos-mexican-restaurant-pittsfield?adjust_creative=h5HwbyQ0TYvQjBo6Ys5Bgw&utm_campaign=yelp_api_v3&utm_medium=api_v3_business_search&utm_source=h5HwbyQ0TYvQjBo6Ys5Bgw", "review_count": 82, "categories": [{"alias": "mexican", "title": "Mexican"}], "rating": 3.5, "coordinates": {"latitude": 42.4508775, "longitude": -73.2530541}, "transactions": ["delivery"], "price": "$$", "location": {"address1": "154 North St", "address2": "", "address3": "", "city": "Pittsfield", "zip_code": "01201", "country": "US", "state": "MA", "display_address": ["154 North St", "Pittsfield, MA 01201"]}, "phone": "+14134992266", "display_phone": "(413) 499-2266", "distance": 342.73596838014004}, {"id": "W5mDQx_2NBwOFeFy2N6M8A", "alias": "the-lantern-bar-and-grill-pittsfield", "name": "The Lantern Bar & Grill", "image_url": "https://s3-media3.fl.yelpcdn.com/bphoto/Nqvaw5Ysth6P3e26Endz3A/o.jpg", "is_closed": false, "url": "https://www.yelp.com/biz/the-lantern-bar-and-grill-pittsfield?adjust_creative=h5HwbyQ0TYvQjBo6Ys5Bgw&utm_campaign=yelp_api_v3&utm_medium=api_v3_business_search&utm_source=h5HwbyQ0TYvQjBo6Ys5Bgw", "review_count": 55, "categories": [{"alias": "bars", "title": "Bars"}, {"alias": "newamerican", "title": "American (New)"}, {"alias": "tradamerican", "title": "American (Traditional)"}], "rating": 3.5, "coordinates": {"latitude": 42.4551194, "longitude": -73.2521345}, "transactions": ["delivery"], "price": "$$", "location": {"address1": "455 North St", "address2": "", "address3": "", "city": "Pittsfield", "zip_code": "01201", "country": "US", "state": "MA", "display_address": ["455 North St", "Pittsfield, MA 01201"]}, "phone": "+14133449227", "display_phone": "(413) 344-9227", "distance": 674.6619362548154}, {"id": "jDuxiHujWqUpUsDraF7Otg", "alias": "berkshire-mountain-bakery-pizza-cafe-pittsfield-4", "name": "Berkshire Mountain Bakery Pizza Cafe", "image_url": "https://s3-media3.fl.yelpcdn.com/bphoto/ZoSISihxrgNQ0WaPpTgKUA/o.jpg", "is_closed": false, "url": "https://www.yelp.com/biz/berkshire-mountain-bakery-pizza-cafe-pittsfield-4?adjust_creative=h5HwbyQ0TYvQjBo6Ys5Bgw&utm_campaign=yelp_api_v3&utm_medium=api_v3_business_search&utm_source=h5HwbyQ0TYvQjBo6Ys5Bgw", "review_count": 60, "categories": [{"alias": "pizza", "title": "Pizza"}, {"alias": "bakeries", "title": "Bakeries"}, {"alias": "vegan", "title": "Vegan"}], "rating": 4.0, "coordinates": {"latitude": 42.4430597991196, "longitude": -73.2378399823491}, "transactions": ["delivery"], "price": "$", "location": {"address1": "180 Elm St", "address2": "Ste A", "address3": "", "city": "Pittsfield", "zip_code": "01201", "country": "US", "state": "MA", "display_address": ["180 Elm St", "Ste A", "Pittsfield, MA 01201"]}, "phone": "+14134649394", "display_phone": "(413) 464-9394", "distance": 1184.3409997933234}, {"id": "Yx5C122X54C6fQOmYskICQ", "alias": "ottos-kitchen-and-comfort-pittsfield-2", "name": "Otto's Kitchen & Comfort", "image_url": "https://s3-media1.fl.yelpcdn.com/bphoto/Dj-vPVgcJL12GvZAaryw7w/o.jpg", "is_closed": false, "url": "https://www.yelp.com/biz/ottos-kitchen-and-comfort-pittsfield-2?adjust_creative=h5HwbyQ0TYvQjBo6Ys5Bgw&utm_campaign=yelp_api_v3&utm_medium=api_v3_business_search&utm_source=h5HwbyQ0TYvQjBo6Ys5Bgw", "review_count": 107, "categories": [{"alias": "breakfast_brunch", "title": "Breakfast & Brunch"}, {"alias": "bars", "title": "Bars"}, {"alias": "tradamerican", "title": "American (Traditional)"}], "rating": 3.0, "coordinates": {"latitude": 42.44834, "longitude": -73.25205}, "transactions": [], "price": "$$", "location": {"address1": "95 East St", "address2": "", "address3": "", "city": "Pittsfield", "zip_code": "01201", "country": "US", "state": "MA", "display_address": ["95 East St", "Pittsfield, MA 01201"]}, "phone": "+14133444748", "display_phone": "(413) 344-4748", "distance": 259.0684813145133}, {"id": "O7MPn_Uo1M1t6AR3zccRow", "alias": "the-spot-pittsfield", "name": "The Spot", "image_url": "https://s3-media2.fl.yelpcdn.com/bphoto/7FULniBvy4K903dIIwnJCA/o.jpg", "is_closed": false, "url": "https://www.yelp.com/biz/the-spot-pittsfield?adjust_creative=h5HwbyQ0TYvQjBo6Ys5Bgw&utm_campaign=yelp_api_v3&utm_medium=api_v3_business_search&utm_source=h5HwbyQ0TYvQjBo6Ys5Bgw", "review_count": 10, "categories": [{"alias": "acaibowls", "title": "Acai Bowls"}, {"alias": "juicebars", "title": "Juice Bars & Smoothies"}, {"alias": "vegan", "title": "Vegan"}], "rating": 5.0, "coordinates": {"latitude": 42.4577047648292, "longitude": -73.2419114559889}, "transactions": ["delivery"], "location": {"address1": "381 Tyler St", "address2": "", "address3": null, "city": "Pittsfield", "zip_code": "01201", "country": "US", "state": "MA", "display_address": ["381 Tyler St", "Pittsfield, MA 01201"]}, "phone": "+14133444128", "display_phone": "(413) 344-4128", "distance": 1089.765460395802}, {"id": "PXjxZjO1oGol0bsaDNmV-Q", "alias": "sen-sushi-pittsfield", "name": "Sen Sushi", "image_url": "https://s3-media3.fl.yelpcdn.com/bphoto/O8cbrAl2zzXQqee_3SGYqw/o.jpg", "is_closed": false, "url": "https://www.yelp.com/biz/sen-sushi-pittsfield?adjust_creative=h5HwbyQ0TYvQjBo6Ys5Bgw&utm_campaign=yelp_api_v3&utm_medium=api_v3_business_search&utm_source=h5HwbyQ0TYvQjBo6Ys5Bgw", "review_count": 8, "categories": [{"alias": "sushi", "title": "Sushi Bars"}, {"alias": "japanese", "title": "Japanese"}], "rating": 4.0, "coordinates": {"latitude": 42.4490299853721, "longitude": -73.2536453621473}, "transactions": ["delivery"], "location": {"address1": "48B N St", "address2": "", "address3": null, "city": "Pittsfield", "zip_code": "01201", "country": "US", "state": "MA", "display_address": ["48B N St", "Pittsfield, MA 01201"]}, "phone": "+14132368111", "display_phone": "(413) 236-8111", "distance": 362.60962490307577}, {"id": "fffJgJEdkV01ods74qDKzA", "alias": "zucchinis-restaurant-and-wood-fired-pizza-pittsfield", "name": "Zucchini's Restaurant & Wood Fired Pizza", "image_url": "https://s3-media1.fl.yelpcdn.com/bphoto/RlF3NAEuS6E976AXD2lJcA/o.jpg", "is_closed": false, "url": "https://www.yelp.com/biz/zucchinis-restaurant-and-wood-fired-pizza-pittsfield?adjust_creative=h5HwbyQ0TYvQjBo6Ys5Bgw&utm_campaign=yelp_api_v3&utm_medium=api_v3_business_search&utm_source=h5HwbyQ0TYvQjBo6Ys5Bgw", "review_count": 64, "categories": [{"alias": "pizza", "title": "Pizza"}, {"alias": "italian", "title": "Italian"}, {"alias": "newamerican", "title": "American (New)"}], "rating": 3.5, "coordinates": {"latitude": 42.48183, "longitude": -73.24674}, "transactions": ["delivery"], "price": "$$", "location": {"address1": "1331 North St", "address2": "", "address3": "", "city": "Pittsfield", "zip_code": "01201", "country": "US", "state": "MA", "display_address": ["1331 North St", "Pittsfield, MA 01201"]}, "phone": "+14134422777", "display_phone": "(413) 442-2777", "distance": 3556.069927211487}, {"id": "qp_z-BkrY0rQyK-8tCsICg", "alias": "house-of-india-pittsfield", "name": "House of India", "image_url": "https://s3-media1.fl.yelpcdn.com/bphoto/Xon56vXNA329CPdB9s4I3g/o.jpg", "is_closed": false, "url": "https://www.yelp.com/biz/house-of-india-pittsfield?adjust_creative=h5HwbyQ0TYvQjBo6Ys5Bgw&utm_campaign=yelp_api_v3&utm_medium=api_v3_business_search&utm_source=h5HwbyQ0TYvQjBo6Ys5Bgw", "review_count": 49, "categories": [{"alias": "indpak", "title": "Indian"}, {"alias": "salad", "title": "Salad"}, {"alias": "seafood", "title": "Seafood"}], "rating": 3.5, "coordinates": {"latitude": 42.4522856, "longitude": -73.253047}, "transactions": ["delivery"], "price": "$$", "location": {"address1": "261 North St", "address2": "", "address3": "", "city": "Pittsfield", "zip_code": "01201", "country": "US", "state": "MA", "display_address": ["261 North St", "Pittsfield, MA 01201"]}, "phone": "+14134433262", "display_phone": "(413) 443-3262", "distance": 440.28923069083817}, {"id": "5drtlSos0Ek4-IvUn3vtVg", "alias": "marias-european-delights-pittsfield", "name": "Maria's European Delights", "image_url": "https://s3-media1.fl.yelpcdn.com/bphoto/T-OcmgD59df0jO7GerM3Cw/o.jpg", "is_closed": false, "url": "https://www.yelp.com/biz/marias-european-delights-pittsfield?adjust_creative=h5HwbyQ0TYvQjBo6Ys5Bgw&utm_campaign=yelp_api_v3&utm_medium=api_v3_business_search&utm_source=h5HwbyQ0TYvQjBo6Ys5Bgw", "review_count": 8, "categories": [{"alias": "delis", "title": "Delis"}, {"alias": "grocery", "title": "Grocery"}], "rating": 5.0, "coordinates": {"latitude": 42.450717, "longitude": -73.2527099}, "transactions": ["delivery"], "location": {"address1": "146 North St", "address2": "", "address3": "", "city": "Pittsfield", "zip_code": "01201", "country": "US", "state": "MA", "display_address": ["146 North St", "Pittsfield, MA 01201"]}, "phone": "+14134425100", "display_phone": "(413) 442-5100", "distance": 309.5909598795271}, {"id": "cMHs-6paMHbDormhEF4qCw", "alias": "rainbow-restaurant-pittsfield", "name": "Rainbow Restaurant", "image_url": "https://s3-media2.fl.yelpcdn.com/bphoto/67Rxk3RUyV81M7VtXkAYAw/o.jpg", "is_closed": false, "url": "https://www.yelp.com/biz/rainbow-restaurant-pittsfield?adjust_creative=h5HwbyQ0TYvQjBo6Ys5Bgw&utm_campaign=yelp_api_v3&utm_medium=api_v3_business_search&utm_source=h5HwbyQ0TYvQjBo6Ys5Bgw", "review_count": 26, "categories": [{"alias": "italian", "title": "Italian"}, {"alias": "pizza", "title": "Pizza"}, {"alias": "sandwiches", "title": "Sandwiches"}], "rating": 3.5, "coordinates": {"latitude": 42.4515011161566, "longitude": -73.2502879947424}, "transactions": ["delivery", "pickup"], "price": "$$", "location": {"address1": "109 First St", "address2": null, "address3": null, "city": "Pittsfield", "zip_code": "01201", "country": "US", "state": "MA", "display_address": ["109 First St", "Pittsfield, MA 01201"]}, "phone": "+14134430002", "display_phone": "(413) 443-0002", "distance": 265.5266766858436}, {"id": "n09m3HVIMCSFVQnCSC3tdQ", "alias": "thats-a-wrap-cafe-pittsfield", "name": "That's A Wrap! Cafe", "image_url": "https://s3-media1.fl.yelpcdn.com/bphoto/bjJy4IrRmKBdLiGzVtz4gQ/o.jpg", "is_closed": false, "url": "https://www.yelp.com/biz/thats-a-wrap-cafe-pittsfield?adjust_creative=h5HwbyQ0TYvQjBo6Ys5Bgw&utm_campaign=yelp_api_v3&utm_medium=api_v3_business_search&utm_source=h5HwbyQ0TYvQjBo6Ys5Bgw", "review_count": 12, "categories": [{"alias": "juicebars", "title": "Juice Bars & Smoothies"}, {"alias": "wraps", "title": "Wraps"}, {"alias": "sandwiches", "title": "Sandwiches"}, {"alias": "cafes", "title": "Cafes"}], "rating": 4.0, "coordinates": {"latitude": 42.4496797332126, "longitude": -73.2509500428983}, "transactions": ["delivery"], "price": "$$", "location": {"address1": "132 Fenn St", "address2": "", "address3": null, "city": "Pittsfield", "zip_code": "01201", "country": "US", "state": "MA", "display_address": ["132 Fenn St", "Pittsfield, MA 01201"]}, "phone": "+14134993414", "display_phone": "(413) 499-3414", "distance": 137.52681189703128}, {"id": "K7vJzL3zCvO2n8aXPts8xA", "alias": "golden-phoenix-pittsfield", "name": "Golden Phoenix", "image_url": "https://s3-media2.fl.yelpcdn.com/bphoto/Aew6caOCMiJ39AAAVxjO2Q/o.jpg", "is_closed": false, "url": "https://www.yelp.com/biz/golden-phoenix-pittsfield?adjust_creative=h5HwbyQ0TYvQjBo6Ys5Bgw&utm_campaign=yelp_api_v3&utm_medium=api_v3_business_search&utm_source=h5HwbyQ0TYvQjBo6Ys5Bgw", "review_count": 17, "categories": [{"alias": "chinese", "title": "Chinese"}], "rating": 3.5, "coordinates": {"latitude": 42.4550904, "longitude": -73.2521456}, "transactions": ["delivery"], "price": "$", "location": {"address1": "445 North St", "address2": null, "address3": null, "city": "Pittsfield", "zip_code": "01201", "country": "US", "state": "MA", "display_address": ["445 North St", "Pittsfield, MA 01201"]}, "phone": "+14132368688", "display_phone": "(413) 236-8688", "distance": 659.1225269107424}, {"id": "HdqIODZiSRUzJ7WHfQepjw", "alias": "teos-hot-dogs-pittsfield", "name": "Teo's Hot Dogs", "image_url": "https://s3-media3.fl.yelpcdn.com/bphoto/IO73zBPj6a3UkTo4HDDjFA/o.jpg", "is_closed": false, "url": "https://www.yelp.com/biz/teos-hot-dogs-pittsfield?adjust_creative=h5HwbyQ0TYvQjBo6Ys5Bgw&utm_campaign=yelp_api_v3&utm_medium=api_v3_business_search&utm_source=h5HwbyQ0TYvQjBo6Ys5Bgw", "review_count": 108, "categories": [{"alias": "hotdog", "title": "Hot Dogs"}, {"alias": "bars", "title": "Bars"}], "rating": 4.0, "coordinates": {"latitude": 42.4539231, "longitude": -73.2175222}, "transactions": ["delivery", "pickup"], "price": "$", "location": {"address1": "1410 East St", "address2": "", "address3": "", "city": "Pittsfield", "zip_code": "01201", "country": "US", "state": "MA", "display_address": ["1410 East St", "Pittsfield, MA 01201"]}, "phone": "+14134479592", "display_phone": "(413) 447-9592", "distance": 2650.7350509759317}, {"id": "h45SX9FI1QTRc7j7xsa-tg", "alias": "new-asian-garden-pittsfield", "name": "New Asian Garden", "image_url": "https://s3-media1.fl.yelpcdn.com/bphoto/v7lWcE-J_kbRTWZaqDNGcQ/o.jpg", "is_closed": false, "url": "https://www.yelp.com/biz/new-asian-garden-pittsfield?adjust_creative=h5HwbyQ0TYvQjBo6Ys5Bgw&utm_campaign=yelp_api_v3&utm_medium=api_v3_business_search&utm_source=h5HwbyQ0TYvQjBo6Ys5Bgw", "review_count": 14, "categories": [{"alias": "chinese", "title": "Chinese"}, {"alias": "japanese", "title": "Japanese"}, {"alias": "thai", "title": "Thai"}], "rating": 3.5, "coordinates": {"latitude": 42.4443758279085, "longitude": -73.2394176721573}, "transactions": ["delivery"], "price": "$", "location": {"address1": "1-3 Newell St", "address2": "", "address3": null, "city": "Pittsfield", "zip_code": "01201", "country": "US", "state": "MA", "display_address": ["1-3 Newell St", "Pittsfield, MA 01201"]}, "phone": "+14133449428", "display_phone": "(413) 344-9428", "distance": 993.2068112352539}, {"id": "Oj3t1oGqak2dxj6_WaehzA", "alias": "sideline-saloon-pittsfield-2", "name": "Sideline Saloon", "image_url": "https://s3-media3.fl.yelpcdn.com/bphoto/Wun5JrsjfMoLwAFvcTO4nw/o.jpg", "is_closed": false, "url": "https://www.yelp.com/biz/sideline-saloon-pittsfield-2?adjust_creative=h5HwbyQ0TYvQjBo6Ys5Bgw&utm_campaign=yelp_api_v3&utm_medium=api_v3_business_search&utm_source=h5HwbyQ0TYvQjBo6Ys5Bgw", "review_count": 1, "categories": [{"alias": "cocktailbars", "title": "Cocktail Bars"}, {"alias": "diners", "title": "Diners"}], "rating": 5.0, "coordinates": {"latitude": 42.4491628888418, "longitude": -73.2464299723506}, "transactions": [], "location": {"address1": "423 Fenn St", "address2": "", "address3": "", "city": "Pittsfield", "zip_code": "01201", "country": "US", "state": "MA", "display_address": ["423 Fenn St", "Pittsfield, MA 01201"]}, "phone": "+14134997337", "display_phone": "(413) 499-7337", "distance": 238.0339702214451}, {"id": "DtvBqKyG3RGwuR2kKlQDIg", "alias": "liberty-pizza-pittsfield", "name": "Liberty Pizza", "image_url": "https://s3-media4.fl.yelpcdn.com/bphoto/WkGRUbLAUhTKPbP8ap_MxQ/o.jpg", "is_closed": false, "url": "https://www.yelp.com/biz/liberty-pizza-pittsfield?adjust_creative=h5HwbyQ0TYvQjBo6Ys5Bgw&utm_campaign=yelp_api_v3&utm_medium=api_v3_business_search&utm_source=h5HwbyQ0TYvQjBo6Ys5Bgw", "review_count": 34, "categories": [{"alias": "pizza", "title": "Pizza"}], "rating": 4.0, "coordinates": {"latitude": 42.4526978, "longitude": -73.2525711}, "transactions": ["delivery", "pickup"], "price": "$", "location": {"address1": "308 North St", "address2": null, "address3": null, "city": "Pittsfield", "zip_code": "01201", "country": "US", "state": "MA", "display_address": ["308 North St", "Pittsfield, MA 01201"]}, "phone": "+14134997779", "display_phone": "(413) 499-7779", "distance": 451.03941488882765}, {"id": "WA3AjbPkZAy1V5ytokIrAQ", "alias": "hot-dog-ranch-pittsfield", "name": "Hot Dog Ranch", "image_url": "https://s3-media1.fl.yelpcdn.com/bphoto/S_hO2aJxj2YR4ZkjRCycJQ/o.jpg", "is_closed": false, "url": "https://www.yelp.com/biz/hot-dog-ranch-pittsfield?adjust_creative=h5HwbyQ0TYvQjBo6Ys5Bgw&utm_campaign=yelp_api_v3&utm_medium=api_v3_business_search&utm_source=h5HwbyQ0TYvQjBo6Ys5Bgw", "review_count": 43, "categories": [{"alias": "hotdog", "title": "Hot Dogs"}], "rating": 3.5, "coordinates": {"latitude": 42.4441632, "longitude": -73.2606906}, "transactions": ["delivery"], "price": "$", "location": {"address1": "114 W Housatonic St", "address2": "", "address3": "", "city": "Pittsfield", "zip_code": "01201", "country": "US", "state": "MA", "display_address": ["114 W Housatonic St", "Pittsfield, MA 01201"]}, "phone": "+14134990055", "display_phone": "(413) 499-0055", "distance": 1111.3790385135496}, {"id": "-hkuDHIQGUQ6Zm0KoVyRVA", "alias": "friends-grille-pittsfield", "name": "Friends Grille", "image_url": "https://s3-media4.fl.yelpcdn.com/bphoto/68BujOlXTppe2jtmefgkDw/o.jpg", "is_closed": false, "url": "https://www.yelp.com/biz/friends-grille-pittsfield?adjust_creative=h5HwbyQ0TYvQjBo6Ys5Bgw&utm_campaign=yelp_api_v3&utm_medium=api_v3_business_search&utm_source=h5HwbyQ0TYvQjBo6Ys5Bgw", "review_count": 5, "categories": [{"alias": "pizza", "title": "Pizza"}, {"alias": "sportsbars", "title": "Sports Bars"}, {"alias": "tradamerican", "title": "American (Traditional)"}], "rating": 4.5, "coordinates": {"latitude": 42.4595794677734, "longitude": -73.2519683837891}, "transactions": ["delivery"], "price": "$", "location": {"address1": "117 Seymour St", "address2": "", "address3": "", "city": "Pittsfield", "zip_code": "01201", "country": "US", "state": "MA", "display_address": ["117 Seymour St", "Pittsfield, MA 01201"]}, "phone": "+14134434477", "display_phone": "(413) 443-4477", "distance": 1136.5755660790965}, {"id": "MA2NlasKq1PYg-qeLqC-PA", "alias": "samels-deli-and-catering-pittsfield", "name": "Samel's Deli and Catering", "image_url": "https://s3-media4.fl.yelpcdn.com/bphoto/gBT6E8fKIo-R5m5Ay6VzRA/o.jpg", "is_closed": false, "url": "https://www.yelp.com/biz/samels-deli-and-catering-pittsfield?adjust_creative=h5HwbyQ0TYvQjBo6Ys5Bgw&utm_campaign=yelp_api_v3&utm_medium=api_v3_business_search&utm_source=h5HwbyQ0TYvQjBo6Ys5Bgw", "review_count": 11, "categories": [{"alias": "delis", "title": "Delis"}], "rating": 4.0, "coordinates": {"latitude": 42.4447784, "longitude": -73.2409363}, "transactions": ["delivery"], "price": "$", "location": {"address1": "115 Elm St", "address2": "", "address3": "", "city": "Pittsfield", "zip_code": "01201", "country": "US", "state": "MA", "display_address": ["115 Elm St", "Pittsfield, MA 01201"]}, "phone": "+14134425927", "display_phone": "(413) 442-5927", "distance": 876.8888405694723}, {"id": "fOEP_20-oZ-bihof_jQdJA", "alias": "papa-joes-ristorante-and-pizzeria-pittsfield", "name": "Papa Joe's Ristorante & Pizzeria", "image_url": "https://s3-media2.fl.yelpcdn.com/bphoto/GO3SKfNXtnlcrEf1nQZ75g/o.jpg", "is_closed": false, "url": "https://www.yelp.com/biz/papa-joes-ristorante-and-pizzeria-pittsfield?adjust_creative=h5HwbyQ0TYvQjBo6Ys5Bgw&utm_campaign=yelp_api_v3&utm_medium=api_v3_business_search&utm_source=h5HwbyQ0TYvQjBo6Ys5Bgw", "review_count": 25, "categories": [{"alias": "pizza", "title": "Pizza"}, {"alias": "italian", "title": "Italian"}], "rating": 3.5, "coordinates": {"latitude": 42.4464302062988, "longitude": -73.2355728149414}, "transactions": ["delivery", "pickup"], "price": "$$", "location": {"address1": "107 Newell St", "address2": "", "address3": "", "city": "Pittsfield", "zip_code": "01201", "country": "US", "state": "MA", "display_address": ["107 Newell St", "Pittsfield, MA 01201"]}, "phone": "+14134427272", "display_phone": "(413) 442-7272", "distance": 1179.5376335188282}, {"id": "YbAhWTAlPjBbxFb8Lp84fg", "alias": "daddyos-diner-pittsfield", "name": "Daddyo's Diner", "image_url": "https://s3-media4.fl.yelpcdn.com/bphoto/xU3zkFM1AR3dxOo3kMoIpQ/o.jpg", "is_closed": false, "url": "https://www.yelp.com/biz/daddyos-diner-pittsfield?adjust_creative=h5HwbyQ0TYvQjBo6Ys5Bgw&utm_campaign=yelp_api_v3&utm_medium=api_v3_business_search&utm_source=h5HwbyQ0TYvQjBo6Ys5Bgw", "review_count": 21, "categories": [{"alias": "diners", "title": "Diners"}], "rating": 3.5, "coordinates": {"latitude": 42.447735, "longitude": -73.244076}, "transactions": [], "price": "$", "location": {"address1": "505 East St", "address2": null, "address3": null, "city": "Pittsfield", "zip_code": "01201", "country": "US", "state": "MA", "display_address": ["505 East St", "Pittsfield, MA 01201"]}, "phone": "+14134991180", "display_phone": "(413) 499-1180", "distance": 474.32630165360075}, {"id": "u4dQZNZnZ_POC9FF3uL3AQ", "alias": "joannes-elm-street-luncheonette-pittsfield", "name": "Joanne's Elm Street Luncheonette", "image_url": "https://s3-media1.fl.yelpcdn.com/bphoto/rbQzISlzuLPsWIW2CHIdoQ/o.jpg", "is_closed": false, "url": "https://www.yelp.com/biz/joannes-elm-street-luncheonette-pittsfield?adjust_creative=h5HwbyQ0TYvQjBo6Ys5Bgw&utm_campaign=yelp_api_v3&utm_medium=api_v3_business_search&utm_source=h5HwbyQ0TYvQjBo6Ys5Bgw", "review_count": 7, "categories": [{"alias": "diners", "title": "Diners"}, {"alias": "breakfast_brunch", "title": "Breakfast & Brunch"}], "rating": 4.5, "coordinates": {"latitude": 42.4444, "longitude": -73.2403099}, "transactions": [], "location": {"address1": "123 Elm St", "address2": "", "address3": "", "city": "Pittsfield", "zip_code": "01201", "country": "US", "state": "MA", "display_address": ["123 Elm St", "Pittsfield, MA 01201"]}, "phone": "+14134479375", "display_phone": "(413) 447-9375", "distance": 906.4643473902715}, {"id": "5CXWAMF6RsmDg5MFMpMkCg", "alias": "romans-restaurant-and-ccuchifritos-pittsfield", "name": "Romans Restaurant and Ccuchifritos", "image_url": "https://s3-media1.fl.yelpcdn.com/bphoto/EE3xiWqHbUl5Ou_W3H1SBg/o.jpg", "is_closed": false, "url": "https://www.yelp.com/biz/romans-restaurant-and-ccuchifritos-pittsfield?adjust_creative=h5HwbyQ0TYvQjBo6Ys5Bgw&utm_campaign=yelp_api_v3&utm_medium=api_v3_business_search&utm_source=h5HwbyQ0TYvQjBo6Ys5Bgw", "review_count": 7, "categories": [{"alias": "puertorican", "title": "Puerto Rican"}, {"alias": "salad", "title": "Salad"}], "rating": 3.5, "coordinates": {"latitude": 42.4570997226981, "longitude": -73.2401690259576}, "transactions": ["delivery", "pickup"], "location": {"address1": "496 Tyler St", "address2": "", "address3": null, "city": "Pittsfield", "zip_code": "01201", "country": "US", "state": "MA", "display_address": ["496 Tyler St", "Pittsfield, MA 01201"]}, "phone": "+14133449166", "display_phone": "(413) 344-9166", "distance": 1124.0459165508164}, {"id": "llMqQ1MjpYDPPFII7aQU3g", "alias": "dotties-coffee-lounge-pittsfield", "name": "Dottie's Coffee Lounge", "image_url": "https://s3-media1.fl.yelpcdn.com/bphoto/Nlx2Ig4HbJ2cCPdThRir9A/o.jpg", "is_closed": false, "url": "https://www.yelp.com/biz/dotties-coffee-lounge-pittsfield?adjust_creative=h5HwbyQ0TYvQjBo6Ys5Bgw&utm_campaign=yelp_api_v3&utm_medium=api_v3_business_search&utm_source=h5HwbyQ0TYvQjBo6Ys5Bgw", "review_count": 121, "categories": [{"alias": "coffee", "title": "Coffee & Tea"}, {"alias": "breakfast_brunch", "title": "Breakfast & Brunch"}], "rating": 4.0, "coordinates": {"latitude": 42.4545999, "longitude": -73.2519895}, "transactions": ["delivery"], "price": "$$", "location": {"address1": "444 North St", "address2": "", "address3": "", "city": "Pittsfield", "zip_code": "01201", "country": "US", "state": "MA", "display_address": ["444 North St", "Pittsfield, MA 01201"]}, "phone": "+14134431792", "display_phone": "(413) 443-1792", "distance": 626.5738308373636}, {"id": "KXZDBNqwIsntbGrAiVDVuQ", "alias": "pizza-house-pittsfield", "name": "Pizza House", "image_url": "https://s3-media3.fl.yelpcdn.com/bphoto/bjKPkzRWO93QKXT7Pcf12w/o.jpg", "is_closed": false, "url": "https://www.yelp.com/biz/pizza-house-pittsfield?adjust_creative=h5HwbyQ0TYvQjBo6Ys5Bgw&utm_campaign=yelp_api_v3&utm_medium=api_v3_business_search&utm_source=h5HwbyQ0TYvQjBo6Ys5Bgw", "review_count": 13, "categories": [{"alias": "pizza", "title": "Pizza"}], "rating": 4.0, "coordinates": {"latitude": 42.4565597, "longitude": -73.2365501}, "transactions": ["delivery"], "price": "$$", "location": {"address1": "692 Tyler St", "address2": "", "address3": "", "city": "Pittsfield", "zip_code": "01201", "country": "US", "state": "MA", "display_address": ["692 Tyler St", "Pittsfield, MA 01201"]}, "phone": "+14134991842", "display_phone": "(413) 499-1842", "distance": 1300.2106990129253}, {"id": "KmMT3zDrNWO4geJzJBjB-A", "alias": "soda-chef-pittsfield", "name": "Soda Chef", "image_url": "https://s3-media1.fl.yelpcdn.com/bphoto/4pDNA59y_wrCPL4AMUVILw/o.jpg", "is_closed": false, "url": "https://www.yelp.com/biz/soda-chef-pittsfield?adjust_creative=h5HwbyQ0TYvQjBo6Ys5Bgw&utm_campaign=yelp_api_v3&utm_medium=api_v3_business_search&utm_source=h5HwbyQ0TYvQjBo6Ys5Bgw", "review_count": 6, "categories": [{"alias": "tradamerican", "title": "American (Traditional)"}, {"alias": "breakfast_brunch", "title": "Breakfast & Brunch"}, {"alias": "diners", "title": "Diners"}], "rating": 4.5, "coordinates": {"latitude": 42.4508553, "longitude": -73.2534561}, "transactions": ["delivery"], "price": "$", "location": {"address1": "161 N St", "address2": "", "address3": "", "city": "Pittsfield", "zip_code": "01201", "country": "US", "state": "MA", "display_address": ["161 N St", "Pittsfield, MA 01201"]}, "phone": "+14134479401", "display_phone": "(413) 447-9401", "distance": 576.3680228174941}, {"id": "-vv3RaiBn7yvefraT7zKKA", "alias": "hot-harrys-fresh-burritos-pittsfield-2", "name": "Hot Harry's Fresh Burritos", "image_url": "https://s3-media1.fl.yelpcdn.com/bphoto/uWrr9feCzlDNa2Wihi1M1w/o.jpg", "is_closed": false, "url": "https://www.yelp.com/biz/hot-harrys-fresh-burritos-pittsfield-2?adjust_creative=h5HwbyQ0TYvQjBo6Ys5Bgw&utm_campaign=yelp_api_v3&utm_medium=api_v3_business_search&utm_source=h5HwbyQ0TYvQjBo6Ys5Bgw", "review_count": 31, "categories": [{"alias": "mexican", "title": "Mexican"}], "rating": 3.0, "coordinates": {"latitude": 42.4491425, "longitude": -73.2539431}, "transactions": ["delivery", "pickup"], "price": "$", "location": {"address1": "37 North St", "address2": null, "address3": null, "city": "Pittsfield", "zip_code": "01201", "country": "US", "state": "MA", "display_address": ["37 North St", "Pittsfield, MA 01201"]}, "phone": "+14134486155", "display_phone": "(413) 448-6155", "distance": 385.06435042040266}, {"id": "HtGs8PlVveQGveMNfdLEDA", "alias": "hermanns-restaurant-pittsfield", "name": "Hermann's Restaurant", "image_url": "", "is_closed": false, "url": "https://www.yelp.com/biz/hermanns-restaurant-pittsfield?adjust_creative=h5HwbyQ0TYvQjBo6Ys5Bgw&utm_campaign=yelp_api_v3&utm_medium=api_v3_business_search&utm_source=h5HwbyQ0TYvQjBo6Ys5Bgw", "review_count": 1, "categories": [{"alias": "tradamerican", "title": "American (Traditional)"}], "rating": 5.0, "coordinates": {"latitude": 42.4483213, "longitude": -73.2384886}, "transactions": [], "location": {"address1": "24 Lyman St", "address2": "", "address3": "", "city": "Pittsfield", "zip_code": "01201", "country": "US", "state": "MA", "display_address": ["24 Lyman St", "Pittsfield, MA 01201"]}, "phone": "+14134439859", "display_phone": "(413) 443-9859", "distance": 887.2589063149105}, {"id": "A7JGLOn_YVRXkbaPpthlzQ", "alias": "east-side-cafe-pittsfield", "name": "East Side Cafe", "image_url": "https://s3-media2.fl.yelpcdn.com/bphoto/YNa8xMKyNtthl8beIWGhfA/o.jpg", "is_closed": false, "url": "https://www.yelp.com/biz/east-side-cafe-pittsfield?adjust_creative=h5HwbyQ0TYvQjBo6Ys5Bgw&utm_campaign=yelp_api_v3&utm_medium=api_v3_business_search&utm_source=h5HwbyQ0TYvQjBo6Ys5Bgw", "review_count": 27, "categories": [{"alias": "italian", "title": "Italian"}, {"alias": "pizza", "title": "Pizza"}], "rating": 3.5, "coordinates": {"latitude": 42.4518555795743, "longitude": -73.2267382570664}, "transactions": ["delivery"], "price": "$", "location": {"address1": "378 Newell St", "address2": "", "address3": "", "city": "Pittsfield", "zip_code": "01201", "country": "US", "state": "MA", "display_address": ["378 Newell St", "Pittsfield, MA 01201"]}, "phone": "+14134479405", "display_phone": "(413) 447-9405", "distance": 1867.34613107055}, {"id": "tGwILqB7e6xVa9GcreUsWQ", "alias": "southern-comfort-pittsfield", "name": "Southern Comfort", "image_url": "https://s3-media2.fl.yelpcdn.com/bphoto/_SyNRL6fJf9qm7jR8Y_55A/o.jpg", "is_closed": false, "url": "https://www.yelp.com/biz/southern-comfort-pittsfield?adjust_creative=h5HwbyQ0TYvQjBo6Ys5Bgw&utm_campaign=yelp_api_v3&utm_medium=api_v3_business_search&utm_source=h5HwbyQ0TYvQjBo6Ys5Bgw", "review_count": 1, "categories": [{"alias": "southern", "title": "Southern"}, {"alias": "soulfood", "title": "Soul Food"}], "rating": 1.0, "coordinates": {"latitude": 42.4527247428891, "longitude": -73.2609913498163}, "transactions": ["delivery", "pickup"], "location": {"address1": "302 Columbus Ave", "address2": "", "address3": null, "city": "Pittsfield", "zip_code": "01201", "country": "US", "state": "MA", "display_address": ["302 Columbus Ave", "Pittsfield, MA 01201"]}, "phone": "+14134648444", "display_phone": "(413) 464-8444", "distance": 1023.3682397149848}, {"id": "_bbCLnoJCG-QqGd1ShgItA", "alias": "amazing-pavilion-chinese-restaurant-pittsfield", "name": "Amazing Pavilion Chinese Restaurant", "image_url": "https://s3-media1.fl.yelpcdn.com/bphoto/BR_kdPrQ2PB4wyzcW3DJtQ/o.jpg", "is_closed": false, "url": "https://www.yelp.com/biz/amazing-pavilion-chinese-restaurant-pittsfield?adjust_creative=h5HwbyQ0TYvQjBo6Ys5Bgw&utm_campaign=yelp_api_v3&utm_medium=api_v3_business_search&utm_source=h5HwbyQ0TYvQjBo6Ys5Bgw", "review_count": 15, "categories": [{"alias": "chinese", "title": "Chinese"}, {"alias": "sushi", "title": "Sushi Bars"}, {"alias": "asianfusion", "title": "Asian Fusion"}], "rating": 2.5, "coordinates": {"latitude": 42.44973755422, "longitude": -73.2531631959556}, "transactions": ["delivery"], "price": "$$", "location": {"address1": "26 Dunham Mall", "address2": "", "address3": "", "city": "Pittsfield", "zip_code": "01201", "country": "US", "state": "MA", "display_address": ["26 Dunham Mall", "Pittsfield, MA 01201"]}, "phone": "+14134482647", "display_phone": "(413) 448-2647", "distance": 312.46619732423034}, {"id": "1J02t_gsLt_Rq2x0xPOzzg", "alias": "vivaldis-pizzeria-pittsfield", "name": "Vivaldi's Pizzeria", "image_url": "https://s3-media1.fl.yelpcdn.com/bphoto/4qvGd-y7a3vrDYNcI4-Cmw/o.jpg", "is_closed": false, "url": "https://www.yelp.com/biz/vivaldis-pizzeria-pittsfield?adjust_creative=h5HwbyQ0TYvQjBo6Ys5Bgw&utm_campaign=yelp_api_v3&utm_medium=api_v3_business_search&utm_source=h5HwbyQ0TYvQjBo6Ys5Bgw", "review_count": 32, "categories": [{"alias": "italian", "title": "Italian"}, {"alias": "pizza", "title": "Pizza"}, {"alias": "salad", "title": "Salad"}], "rating": 4.0, "coordinates": {"latitude": 42.46832, "longitude": -73.2038}, "transactions": ["delivery"], "price": "$", "location": {"address1": "5 Cheshire Rd", "address2": "", "address3": null, "city": "Pittsfield", "zip_code": "01201", "country": "US", "state": "MA", "display_address": ["5 Cheshire Rd", "Pittsfield, MA 01201"]}, "phone": "+14132365633", "display_phone": "(413) 236-5633", "distance": 4222.074103351893}, {"id": "dTPRhcx8OZw-LhH1wlGuoQ", "alias": "koto-hibachi-steak-house-pittsfield", "name": "Koto Hibachi Steak House", "image_url": "https://s3-media1.fl.yelpcdn.com/bphoto/PC1JPjHBxzdpIZ5uDnjRpQ/o.jpg", "is_closed": false, "url": "https://www.yelp.com/biz/koto-hibachi-steak-house-pittsfield?adjust_creative=h5HwbyQ0TYvQjBo6Ys5Bgw&utm_campaign=yelp_api_v3&utm_medium=api_v3_business_search&utm_source=h5HwbyQ0TYvQjBo6Ys5Bgw", "review_count": 50, "categories": [{"alias": "sushi", "title": "Sushi Bars"}, {"alias": "japanese", "title": "Japanese"}, {"alias": "steak", "title": "Steakhouses"}], "rating": 3.0, "coordinates": {"latitude": 42.4674977, "longitude": -73.2051329}, "transactions": ["delivery"], "price": "$$", "location": {"address1": "795 Dalton Ave", "address2": "", "address3": "", "city": "Pittsfield", "zip_code": "01201", "country": "US", "state": "MA", "display_address": ["795 Dalton Ave", "Pittsfield, MA 01201"]}, "phone": "+14137707128", "display_phone": "(413) 770-7128", "distance": 4135.204951156964}, {"id": "CoFihDflA9ff6k_s6QgMBA", "alias": "hot-tomatoes-neopolitan-pizza-pittsfield", "name": "Hot Tomatoes Neopolitan Pizza", "image_url": "https://s3-media2.fl.yelpcdn.com/bphoto/wJM9Yhn2QIUQRVFv4JOyCg/o.jpg", "is_closed": false, "url": "https://www.yelp.com/biz/hot-tomatoes-neopolitan-pizza-pittsfield?adjust_creative=h5HwbyQ0TYvQjBo6Ys5Bgw&utm_campaign=yelp_api_v3&utm_medium=api_v3_business_search&utm_source=h5HwbyQ0TYvQjBo6Ys5Bgw", "review_count": 30, "categories": [{"alias": "pizza", "title": "Pizza"}], "rating": 3.5, "coordinates": {"latitude": 42.4569893, "longitude": -73.2392578}, "transactions": ["delivery", "pickup"], "price": "$$", "location": {"address1": "542 Tyler St", "address2": null, "address3": null, "city": "Pittsfield", "zip_code": "01201", "country": "US", "state": "MA", "display_address": ["542 Tyler St", "Pittsfield, MA 01201"]}, "phone": "+14134436500", "display_phone": "(413) 443-6500", "distance": 1164.3855044749853}, {"id": "2rez1KJoNcibotK8dE_4nw", "alias": "thats-a-wrap-pittsfield", "name": "That's A Wrap!", "image_url": "https://s3-media3.fl.yelpcdn.com/bphoto/Cp5STveYdxejvoibdbXhmg/o.jpg", "is_closed": false, "url": "https://www.yelp.com/biz/thats-a-wrap-pittsfield?adjust_creative=h5HwbyQ0TYvQjBo6Ys5Bgw&utm_campaign=yelp_api_v3&utm_medium=api_v3_business_search&utm_source=h5HwbyQ0TYvQjBo6Ys5Bgw", "review_count": 1, "categories": [{"alias": "salad", "title": "Salad"}, {"alias": "sandwiches", "title": "Sandwiches"}], "rating": 5.0, "coordinates": {"latitude": 42.4571592360735, "longitude": -73.2398226857185}, "transactions": ["delivery"], "location": {"address1": "496 Tyler St", "address2": null, "address3": null, "city": "Pittsfield", "zip_code": "01201", "country": "US", "state": "MA", "display_address": ["496 Tyler St", "Pittsfield, MA 01201"]}, "phone": "+14134993414", "display_phone": "(413) 499-3414", "distance": 1123.1183948235573}, {"id": "6EQf1-9Jcha2gfDWTU2uCA", "alias": "hibachi-burffet-pittsfield", "name": "Hibachi Burffet", "image_url": "https://s3-media3.fl.yelpcdn.com/bphoto/Hw2AA6MhG3Xdq042h4nifA/o.jpg", "is_closed": false, "url": "https://www.yelp.com/biz/hibachi-burffet-pittsfield?adjust_creative=h5HwbyQ0TYvQjBo6Ys5Bgw&utm_campaign=yelp_api_v3&utm_medium=api_v3_business_search&utm_source=h5HwbyQ0TYvQjBo6Ys5Bgw", "review_count": 12, "categories": [{"alias": "chinese", "title": "Chinese"}], "rating": 3.0, "coordinates": {"latitude": 42.470356, "longitude": -73.2040024}, "transactions": [], "location": {"address1": "61 Cheshire Rd", "address2": "", "address3": "", "city": "Pittsfield", "zip_code": "01201", "country": "US", "state": "MA", "display_address": ["61 Cheshire Rd", "Pittsfield, MA 01201"]}, "phone": "", "display_phone": "", "distance": 4260.601274919605}, {"id": "jkc24FuEbMRC4IMotFup-Q", "alias": "teddys-pizza-and-restaurant-pittsfield", "name": "Teddy's Pizza & Restaurant", "image_url": "https://s3-media2.fl.yelpcdn.com/bphoto/aavh6T-sFHgSGeI-lditeg/o.jpg", "is_closed": false, "url": "https://www.yelp.com/biz/teddys-pizza-and-restaurant-pittsfield?adjust_creative=h5HwbyQ0TYvQjBo6Ys5Bgw&utm_campaign=yelp_api_v3&utm_medium=api_v3_business_search&utm_source=h5HwbyQ0TYvQjBo6Ys5Bgw", "review_count": 10, "categories": [{"alias": "pizza", "title": "Pizza"}], "rating": 3.0, "coordinates": {"latitude": 42.447055, "longitude": -73.243827}, "transactions": ["delivery"], "price": "$$", "location": {"address1": "508 East St", "address2": "", "address3": "", "city": "Pittsfield", "zip_code": "01201", "country": "US", "state": "MA", "display_address": ["508 East St", "Pittsfield, MA 01201"]}, "phone": "+14134439030", "display_phone": "(413) 443-9030", "distance": 523.2491674159373}, {"id": "wxQ4WF6IOxObxPXJM6AlYw", "alias": "misty-moonlight-diner-pittsfield", "name": "Misty Moonlight Diner", "image_url": "https://s3-media1.fl.yelpcdn.com/bphoto/HxRE5Va6F7N8hV8WYBNU2A/o.jpg", "is_closed": false, "url": "https://www.yelp.com/biz/misty-moonlight-diner-pittsfield?adjust_creative=h5HwbyQ0TYvQjBo6Ys5Bgw&utm_campaign=yelp_api_v3&utm_medium=api_v3_business_search&utm_source=h5HwbyQ0TYvQjBo6Ys5Bgw", "review_count": 49, "categories": [{"alias": "diners", "title": "Diners"}], "rating": 3.5, "coordinates": {"latitude": 42.4656219482422, "longitude": -73.2095642089844}, "transactions": ["delivery"], "price": "$$", "location": {"address1": "565 Dalton Ave", "address2": "", "address3": "", "city": "Pittsfield", "zip_code": "01201", "country": "US", "state": "MA", "display_address": ["565 Dalton Ave", "Pittsfield, MA 01201"]}, "phone": "+14134992483", "display_phone": "(413) 499-2483", "distance": 3716.008898614284}, {"id": "_yuFi7fMtXH-3DK_XgAa7Q", "alias": "elm-st-java-pittsfield", "name": "Elm St Java", "image_url": "https://s3-media2.fl.yelpcdn.com/bphoto/ULd2Lo8LZRQ_3dlVR28OMQ/o.jpg", "is_closed": false, "url": "https://www.yelp.com/biz/elm-st-java-pittsfield?adjust_creative=h5HwbyQ0TYvQjBo6Ys5Bgw&utm_campaign=yelp_api_v3&utm_medium=api_v3_business_search&utm_source=h5HwbyQ0TYvQjBo6Ys5Bgw", "review_count": 4, "categories": [{"alias": "coffee", "title": "Coffee & Tea"}, {"alias": "breakfast_brunch", "title": "Breakfast & Brunch"}, {"alias": "sandwiches", "title": "Sandwiches"}], "rating": 4.5, "coordinates": {"latitude": 42.443323, "longitude": -73.2355684}, "transactions": [], "price": "$", "location": {"address1": "216 Elm St", "address2": "", "address3": "", "city": "Pittsfield", "zip_code": "01201", "country": "US", "state": "MA", "display_address": ["216 Elm St", "Pittsfield, MA 01201"]}, "phone": "+14134995282", "display_phone": "(413) 499-5282", "distance": 1323.9996267994768}, {"id": "IaXoc2JQs-4CYd3P2YA6FA", "alias": "o-laughlins-restaurant-pittsfield", "name": "O'laughlin's Restaurant", "image_url": "https://s3-media4.fl.yelpcdn.com/bphoto/kt_rEUI0423gfdSTtKxL_g/o.jpg", "is_closed": false, "url": "https://www.yelp.com/biz/o-laughlins-restaurant-pittsfield?adjust_creative=h5HwbyQ0TYvQjBo6Ys5Bgw&utm_campaign=yelp_api_v3&utm_medium=api_v3_business_search&utm_source=h5HwbyQ0TYvQjBo6Ys5Bgw", "review_count": 2, "categories": [{"alias": "tradamerican", "title": "American (Traditional)"}, {"alias": "irish_pubs", "title": "Irish Pub"}], "rating": 4.0, "coordinates": {"latitude": 42.4568138122559, "longitude": -73.212158203125}, "transactions": ["delivery"], "location": {"address1": "342 Merrill Rd", "address2": "", "address3": "", "city": "Pittsfield", "zip_code": "01201", "country": "US", "state": "MA", "display_address": ["342 Merrill Rd", "Pittsfield, MA 01201"]}, "phone": "+14134479507", "display_phone": "(413) 447-9507", "distance": 3150.9934159584177}, {"id": "xtHhYUKdx7NYTTa14VeIRA", "alias": "home-plate-pittsfield", "name": "Home Plate", "image_url": "", "is_closed": false, "url": "https://www.yelp.com/biz/home-plate-pittsfield?adjust_creative=h5HwbyQ0TYvQjBo6Ys5Bgw&utm_campaign=yelp_api_v3&utm_medium=api_v3_business_search&utm_source=h5HwbyQ0TYvQjBo6Ys5Bgw", "review_count": 1, "categories": [{"alias": "restaurants", "title": "Restaurants"}], "rating": 3.0, "coordinates": {"latitude": 42.450077, "longitude": -73.239082}, "transactions": [], "price": "$", "location": {"address1": "751 East St", "address2": "", "address3": "", "city": "Pittsfield", "zip_code": "01201", "country": "US", "state": "MA", "display_address": ["751 East St", "Pittsfield, MA 01201"]}, "phone": "+14134479521", "display_phone": "(413) 447-9521", "distance": 847.5417973801212}, {"id": "RSZ2RNa8ckSPTlLmpff1hw", "alias": "burger-king-pittsfield-2", "name": "Burger King", "image_url": "https://s3-media1.fl.yelpcdn.com/bphoto/YJuSy1BcNBWa1iw33Gc5QQ/o.jpg", "is_closed": false, "url": "https://www.yelp.com/biz/burger-king-pittsfield-2?adjust_creative=h5HwbyQ0TYvQjBo6Ys5Bgw&utm_campaign=yelp_api_v3&utm_medium=api_v3_business_search&utm_source=h5HwbyQ0TYvQjBo6Ys5Bgw", "review_count": 4, "categories": [{"alias": "burgers", "title": "Burgers"}, {"alias": "hotdogs", "title": "Fast Food"}], "rating": 2.5, "coordinates": {"latitude": 42.44886, "longitude": -73.25139}, "transactions": [], "price": "$", "location": {"address1": "29 First Street", "address2": "", "address3": "", "city": "Pittsfield", "zip_code": "01201", "country": "US", "state": "MA", "display_address": ["29 First Street", "Pittsfield, MA 01201"]}, "phone": "", "display_phone": "", "distance": 182.2214101210521}, {"id": "_4k5a9V9p6oDd0h8kCJbgg", "alias": "zuccos-family-restaurant-pittsfield", "name": "Zucco's Family Restaurant", "image_url": "https://s3-media3.fl.yelpcdn.com/bphoto/8kDDvVuGiEDPXeMZBNEPXA/o.jpg", "is_closed": false, "url": "https://www.yelp.com/biz/zuccos-family-restaurant-pittsfield?adjust_creative=h5HwbyQ0TYvQjBo6Ys5Bgw&utm_campaign=yelp_api_v3&utm_medium=api_v3_business_search&utm_source=h5HwbyQ0TYvQjBo6Ys5Bgw", "review_count": 24, "categories": [{"alias": "mediterranean", "title": "Mediterranean"}, {"alias": "italian", "title": "Italian"}, {"alias": "gluten_free", "title": "Gluten-Free"}], "rating": 3.0, "coordinates": {"latitude": 42.4633698981432, "longitude": -73.2147974686028}, "transactions": ["delivery", "pickup"], "price": "$$", "location": {"address1": "451 Dalton Ave", "address2": "", "address3": "", "city": "Pittsfield", "zip_code": "01201", "country": "US", "state": "MA", "display_address": ["451 Dalton Ave", "Pittsfield, MA 01201"]}, "phone": "+14134438112", "display_phone": "(413) 443-8112", "distance": 3219.4358385534642}, {"id": "0VAkYUcPyFvhr62FVzbpZg", "alias": "99-restaurants-pittsfield-2", "name": "99 Restaurants", "image_url": "https://s3-media3.fl.yelpcdn.com/bphoto/mKSEJrY9DvPWBM9rtWzllQ/o.jpg", "is_closed": false, "url": "https://www.yelp.com/biz/99-restaurants-pittsfield-2?adjust_creative=h5HwbyQ0TYvQjBo6Ys5Bgw&utm_campaign=yelp_api_v3&utm_medium=api_v3_business_search&utm_source=h5HwbyQ0TYvQjBo6Ys5Bgw", "review_count": 31, "categories": [{"alias": "tradamerican", "title": "American (Traditional)"}, {"alias": "seafood", "title": "Seafood"}, {"alias": "pubs", "title": "Pubs"}], "rating": 2.5, "coordinates": {"latitude": 42.4663972, "longitude": -73.2058286}, "transactions": [], "price": "$$", "location": {"address1": "609 Merrill Rd", "address2": "", "address3": "", "city": "Pittsfield", "zip_code": "01201", "country": "US", "state": "MA", "display_address": ["609 Merrill Rd", "Pittsfield, MA 01201"]}, "phone": "+14132360980", "display_phone": "(413) 236-0980", "distance": 4026.9819862014374}, {"id": "D8xwwhEQSzQu9wOpX-lytA", "alias": "south-street-pizza-house-pittsfield", "name": "South Street Pizza House", "image_url": "https://s3-media1.fl.yelpcdn.com/bphoto/7KZpvjWkZFNQ2RAzzfCQ7A/o.jpg", "is_closed": false, "url": "https://www.yelp.com/biz/south-street-pizza-house-pittsfield?adjust_creative=h5HwbyQ0TYvQjBo6Ys5Bgw&utm_campaign=yelp_api_v3&utm_medium=api_v3_business_search&utm_source=h5HwbyQ0TYvQjBo6Ys5Bgw", "review_count": 12, "categories": [{"alias": "pizza", "title": "Pizza"}], "rating": 3.0, "coordinates": {"latitude": 42.4453999, "longitude": -73.2548167}, "transactions": ["delivery"], "price": "$", "location": {"address1": "148 South St", "address2": "", "address3": "", "city": "Pittsfield", "zip_code": "01201", "country": "US", "state": "MA", "display_address": ["148 South St", "Pittsfield, MA 01201"]}, "phone": "+14134991690", "display_phone": "(413) 499-1690", "distance": 647.5433833653243}, {"id": "7_vJvMcb3ioDXh4kRE4lOQ", "alias": "angelinas-submarine-shop-pittsfield", "name": "Angelina's Submarine Shop", "image_url": "https://s3-media3.fl.yelpcdn.com/bphoto/6HgEWRIjK9XNHTEnYL8T0g/o.jpg", "is_closed": false, "url": "https://www.yelp.com/biz/angelinas-submarine-shop-pittsfield?adjust_creative=h5HwbyQ0TYvQjBo6Ys5Bgw&utm_campaign=yelp_api_v3&utm_medium=api_v3_business_search&utm_source=h5HwbyQ0TYvQjBo6Ys5Bgw", "review_count": 3, "categories": [{"alias": "sandwiches", "title": "Sandwiches"}], "rating": 3.5, "coordinates": {"latitude": 42.4442558288574, "longitude": -73.2594528198242}, "transactions": ["delivery"], "price": "$", "location": {"address1": "97 W Housatonic St", "address2": "", "address3": "", "city": "Pittsfield", "zip_code": "01201", "country": "US", "state": "MA", "display_address": ["97 W Housatonic St", "Pittsfield, MA 01201"]}, "phone": "+14134437928", "display_phone": "(413) 443-7928", "distance": 1018.5969656054026}, {"id": "egLCj5yl7BlrQjj9X8EwMw", "alias": "tahiti-take-out-restaurant-and-lounge-pittsfield", "name": "Tahiti Take Out Restaurant & Lounge", "image_url": "https://s3-media2.fl.yelpcdn.com/bphoto/VXcWnkJQJIEQpJhalO2rhg/o.jpg", "is_closed": false, "url": "https://www.yelp.com/biz/tahiti-take-out-restaurant-and-lounge-pittsfield?adjust_creative=h5HwbyQ0TYvQjBo6Ys5Bgw&utm_campaign=yelp_api_v3&utm_medium=api_v3_business_search&utm_source=h5HwbyQ0TYvQjBo6Ys5Bgw", "review_count": 21, "categories": [{"alias": "chinese", "title": "Chinese"}, {"alias": "bars", "title": "Bars"}], "rating": 2.0, "coordinates": {"latitude": 42.46156, "longitude": -73.25136}, "transactions": ["delivery"], "price": "$$", "location": {"address1": "101 Wahconah St", "address2": "", "address3": "", "city": "Pittsfield", "zip_code": "01201", "country": "US", "state": "MA", "display_address": ["101 Wahconah St", "Pittsfield, MA 01201"]}, "phone": "+14134994711", "display_phone": "(413) 499-4711", "distance": 1349.2003040630084}, {"id": "_UOV6TpTX9oGunNqFNBT0g", "alias": "kellys-diner-pittsfield", "name": "Kelly's Diner", "image_url": "https://s3-media4.fl.yelpcdn.com/bphoto/dPhDpYeK2lP-PD8Qn1iPRA/o.jpg", "is_closed": false, "url": "https://www.yelp.com/biz/kellys-diner-pittsfield?adjust_creative=h5HwbyQ0TYvQjBo6Ys5Bgw&utm_campaign=yelp_api_v3&utm_medium=api_v3_business_search&utm_source=h5HwbyQ0TYvQjBo6Ys5Bgw", "review_count": 30, "categories": [{"alias": "breakfast_brunch", "title": "Breakfast & Brunch"}], "rating": 3.5, "coordinates": {"latitude": 42.467871, "longitude": -73.202713}, "transactions": ["delivery"], "price": "$", "location": {"address1": "860 Dalton Ave", "address2": "", "address3": "", "city": "Pittsfield", "zip_code": "01201", "country": "US", "state": "MA", "display_address": ["860 Dalton Ave", "Pittsfield, MA 01201"]}, "phone": "+14134421875", "display_phone": "(413) 442-1875", "distance": 4329.508435211918}, {"id": "pmy-RkBV3NjQYW2pQl9mQQ", "alias": "grand-buffet-star-chinese-restaurant-pittsfield", "name": "Grand Buffet Star Chinese Restaurant", "image_url": "https://s3-media2.fl.yelpcdn.com/bphoto/vZpisPXNq97CDzq8d_vqbA/o.jpg", "is_closed": false, "url": "https://www.yelp.com/biz/grand-buffet-star-chinese-restaurant-pittsfield?adjust_creative=h5HwbyQ0TYvQjBo6Ys5Bgw&utm_campaign=yelp_api_v3&utm_medium=api_v3_business_search&utm_source=h5HwbyQ0TYvQjBo6Ys5Bgw", "review_count": 11, "categories": [{"alias": "chinese", "title": "Chinese"}], "rating": 2.0, "coordinates": {"latitude": 42.470423, "longitude": -73.204747}, "transactions": [], "price": "$", "location": {"address1": "61 Cheshire Rd", "address2": "", "address3": "", "city": "Pittsfield", "zip_code": "01201", "country": "US", "state": "MA", "display_address": ["61 Cheshire Rd", "Pittsfield, MA 01201"]}, "phone": "+14134427000", "display_phone": "(413) 442-7000", "distance": 4328.23263120192}, {"id": "WpkbEYbNkC252tMTmhFAKg", "alias": "chilis-pittsfield", "name": "Chili's", "image_url": "https://s3-media2.fl.yelpcdn.com/bphoto/Jm4gEu-XCkmcC5Fql-XDTA/o.jpg", "is_closed": false, "url": "https://www.yelp.com/biz/chilis-pittsfield?adjust_creative=h5HwbyQ0TYvQjBo6Ys5Bgw&utm_campaign=yelp_api_v3&utm_medium=api_v3_business_search&utm_source=h5HwbyQ0TYvQjBo6Ys5Bgw", "review_count": 20, "categories": [{"alias": "tex-mex", "title": "Tex-Mex"}, {"alias": "bars", "title": "Bars"}, {"alias": "tradamerican", "title": "American (Traditional)"}], "rating": 2.5, "coordinates": {"latitude": 42.46652, "longitude": -73.19619}, "transactions": [], "location": {"address1": "555 Hubbard Ave", "address2": "", "address3": null, "city": "Pittsfield", "zip_code": "01201", "country": "US", "state": "MA", "display_address": ["555 Hubbard Ave", "Pittsfield, MA 01201"]}, "phone": "", "display_phone": "", "distance": 4407.842002532289}, {"id": "z0qioLtn44qHtv-fm4rd0w", "alias": "panda-garden-pittsfield", "name": "Panda Garden", "image_url": "https://s3-media1.fl.yelpcdn.com/bphoto/EuxaT94SmiyxMw6bH6_sSA/o.jpg", "is_closed": false, "url": "https://www.yelp.com/biz/panda-garden-pittsfield?adjust_creative=h5HwbyQ0TYvQjBo6Ys5Bgw&utm_campaign=yelp_api_v3&utm_medium=api_v3_business_search&utm_source=h5HwbyQ0TYvQjBo6Ys5Bgw", "review_count": 15, "categories": [{"alias": "chinese", "title": "Chinese"}], "rating": 2.5, "coordinates": {"latitude": 42.4563598632812, "longitude": -73.2361297607422}, "transactions": ["delivery"], "price": "$", "location": {"address1": "724 Tyler St", "address2": "", "address3": "", "city": "Pittsfield", "zip_code": "01201", "country": "US", "state": "MA", "display_address": ["724 Tyler St", "Pittsfield, MA 01201"]}, "phone": "+14134428881", "display_phone": "(413) 442-8881", "distance": 1318.9588062688103}, {"id": "afkdEqotY1dwKcwNsjK3xQ", "alias": "portsmitts-pittsfield", "name": "PortSmitt's", "image_url": "", "is_closed": false, "url": "https://www.yelp.com/biz/portsmitts-pittsfield?adjust_creative=h5HwbyQ0TYvQjBo6Ys5Bgw&utm_campaign=yelp_api_v3&utm_medium=api_v3_business_search&utm_source=h5HwbyQ0TYvQjBo6Ys5Bgw", "review_count": 8, "categories": [{"alias": "tradamerican", "title": "American (Traditional)"}, {"alias": "bars", "title": "Bars"}], "rating": 3.5, "coordinates": {"latitude": 42.47639, "longitude": -73.26546}, "transactions": ["delivery"], "price": "$$$", "location": {"address1": "370 Pecks Rd", "address2": "", "address3": "", "city": "Pittsfield", "zip_code": "01201", "country": "US", "state": "MA", "display_address": ["370 Pecks Rd", "Pittsfield, MA 01201"]}, "phone": "+14132365727", "display_phone": "(413) 236-5727", "distance": 3262.673975573746}, {"id": "ICzaAwlkrhgVYqV_btmzdA", "alias": "hot-harrys-fresh-burritos-pittsfield", "name": "Hot Harry's Fresh Burritos", "image_url": "https://s3-media3.fl.yelpcdn.com/bphoto/5uSvDlT-xZhiwdWLTOiWew/o.jpg", "is_closed": false, "url": "https://www.yelp.com/biz/hot-harrys-fresh-burritos-pittsfield?adjust_creative=h5HwbyQ0TYvQjBo6Ys5Bgw&utm_campaign=yelp_api_v3&utm_medium=api_v3_business_search&utm_source=h5HwbyQ0TYvQjBo6Ys5Bgw", "review_count": 18, "categories": [{"alias": "mexican", "title": "Mexican"}], "rating": 3.0, "coordinates": {"latitude": 42.456347, "longitude": -73.236124}, "transactions": ["delivery"], "price": "$", "location": {"address1": "724 Tyler St", "address2": null, "address3": null, "city": "Pittsfield", "zip_code": "01201", "country": "US", "state": "MA", "display_address": ["724 Tyler St", "Pittsfield, MA 01201"]}, "phone": "+14134482220", "display_phone": "(413) 448-2220", "distance": 1317.7338446488582}, {"id": "xa_98hTmK47xF4Mx72HNJA", "alias": "empire-pizza-restaurant-pittsfield", "name": "Empire Pizza Restaurant", "image_url": "https://s3-media2.fl.yelpcdn.com/bphoto/8Hlva0OuLY_7QnVhI0StUQ/o.jpg", "is_closed": false, "url": "https://www.yelp.com/biz/empire-pizza-restaurant-pittsfield?adjust_creative=h5HwbyQ0TYvQjBo6Ys5Bgw&utm_campaign=yelp_api_v3&utm_medium=api_v3_business_search&utm_source=h5HwbyQ0TYvQjBo6Ys5Bgw", "review_count": 16, "categories": [{"alias": "pizza", "title": "Pizza"}, {"alias": "salad", "title": "Salad"}, {"alias": "sandwiches", "title": "Sandwiches"}], "rating": 2.5, "coordinates": {"latitude": 42.45471, "longitude": -73.2527099}, "transactions": ["delivery"], "price": "$", "location": {"address1": "413 North St", "address2": null, "address3": null, "city": "Pittsfield", "zip_code": "01201", "country": "US", "state": "MA", "display_address": ["413 North St", "Pittsfield, MA 01201"]}, "phone": "+14134430043", "display_phone": "(413) 443-0043", "distance": 628.1702256657225}, {"id": "j0gbnpRxeNXdAUkM7v07tA", "alias": "angelinas-submarine-shops-pittsfield-3", "name": "Angelina's Submarine Shops", "image_url": "https://s3-media2.fl.yelpcdn.com/bphoto/boTt2q-zakPxgJ96TBvKUA/o.jpg", "is_closed": false, "url": "https://www.yelp.com/biz/angelinas-submarine-shops-pittsfield-3?adjust_creative=h5HwbyQ0TYvQjBo6Ys5Bgw&utm_campaign=yelp_api_v3&utm_medium=api_v3_business_search&utm_source=h5HwbyQ0TYvQjBo6Ys5Bgw", "review_count": 8, "categories": [{"alias": "sandwiches", "title": "Sandwiches"}], "rating": 3.0, "coordinates": {"latitude": 42.4446907, "longitude": -73.2400894}, "transactions": ["delivery"], "price": "$", "location": {"address1": "133 Elm St", "address2": null, "address3": null, "city": "Pittsfield", "zip_code": "01201", "country": "US", "state": "MA", "display_address": ["133 Elm St", "Pittsfield, MA 01201"]}, "phone": "+14134998892", "display_phone": "(413) 499-8892", "distance": 940.5520435846696}, {"id": "JE7ddPRkUKhgWO0Jmy7xNg", "alias": "china-wok-pittsfield", "name": "China Wok", "image_url": "https://s3-media1.fl.yelpcdn.com/bphoto/jWYAgXQeOzMzTTvhnHWKXg/o.jpg", "is_closed": false, "url": "https://www.yelp.com/biz/china-wok-pittsfield?adjust_creative=h5HwbyQ0TYvQjBo6Ys5Bgw&utm_campaign=yelp_api_v3&utm_medium=api_v3_business_search&utm_source=h5HwbyQ0TYvQjBo6Ys5Bgw", "review_count": 15, "categories": [{"alias": "chinese", "title": "Chinese"}], "rating": 3.5, "coordinates": {"latitude": 42.4633937, "longitude": -73.2146138}, "transactions": ["delivery"], "price": "$", "location": {"address1": "457 Dalton Ave", "address2": "Ste 6", "address3": "", "city": "Pittsfield", "zip_code": "01201", "country": "US", "state": "MA", "display_address": ["457 Dalton Ave", "Ste 6", "Pittsfield, MA 01201"]}, "phone": "+14134488810", "display_phone": "(413) 448-8810", "distance": 3289.1806571450807}, {"id": "G2TCWZQrMbz70Er_JimNJA", "alias": "subway-pittsfield-16", "name": "Subway", "image_url": "https://s3-media1.fl.yelpcdn.com/bphoto/Oha4-dP6Od1x5pfF5Fj7vA/o.jpg", "is_closed": false, "url": "https://www.yelp.com/biz/subway-pittsfield-16?adjust_creative=h5HwbyQ0TYvQjBo6Ys5Bgw&utm_campaign=yelp_api_v3&utm_medium=api_v3_business_search&utm_source=h5HwbyQ0TYvQjBo6Ys5Bgw", "review_count": 4, "categories": [{"alias": "sandwiches", "title": "Sandwiches"}], "rating": 3.0, "coordinates": {"latitude": 42.4439050543705, "longitude": -73.2547261}, "transactions": [], "price": "$", "location": {"address1": "179 South St", "address2": "", "address3": "", "city": "Pittsfield", "zip_code": "01201", "country": "US", "state": "MA", "display_address": ["179 South St", "Pittsfield, MA 01201"]}, "phone": "+14134990048", "display_phone": "(413) 499-0048", "distance": 770.5387588869569}, {"id": "9KNacuxUSbU6_v10Jn8Npg", "alias": "friendlys-pittsfield", "name": "Friendly's", "image_url": "https://s3-media3.fl.yelpcdn.com/bphoto/DAdk5s3FnedyuVpFxs0jfw/o.jpg", "is_closed": false, "url": "https://www.yelp.com/biz/friendlys-pittsfield?adjust_creative=h5HwbyQ0TYvQjBo6Ys5Bgw&utm_campaign=yelp_api_v3&utm_medium=api_v3_business_search&utm_source=h5HwbyQ0TYvQjBo6Ys5Bgw", "review_count": 22, "categories": [{"alias": "icecream", "title": "Ice Cream & Frozen Yogurt"}, {"alias": "burgers", "title": "Burgers"}, {"alias": "tradamerican", "title": "American (Traditional)"}], "rating": 2.5, "coordinates": {"latitude": 42.4683225899935, "longitude": -73.2024212926626}, "transactions": ["delivery"], "price": "$$", "location": {"address1": "841 Dalton Ave", "address2": "", "address3": "", "city": "Pittsfield", "zip_code": "01201", "country": "US", "state": "MA", "display_address": ["841 Dalton Ave", "Pittsfield, MA 01201"]}, "phone": "+14134430282", "display_phone": "(413) 443-0282", "distance": 4252.841231151436}, {"id": "LsJESTdNxIHgnlsYiep9YA", "alias": "parkside-restaurant-pittsfield", "name": "Parkside Restaurant", "image_url": "", "is_closed": false, "url": "https://www.yelp.com/biz/parkside-restaurant-pittsfield?adjust_creative=h5HwbyQ0TYvQjBo6Ys5Bgw&utm_campaign=yelp_api_v3&utm_medium=api_v3_business_search&utm_source=h5HwbyQ0TYvQjBo6Ys5Bgw", "review_count": 1, "categories": [{"alias": "restaurants", "title": "Restaurants"}], "rating": 1.0, "coordinates": {"latitude": 42.4428520202637, "longitude": -73.2650604248047}, "transactions": [], "location": {"address1": "220 W Housatonic St", "address2": "", "address3": "", "city": "Pittsfield", "zip_code": "01201", "country": "US", "state": "MA", "display_address": ["220 W Housatonic St", "Pittsfield, MA 01201"]}, "phone": "+14134479536", "display_phone": "(413) 447-9536", "distance": 1493.117476884148}, {"id": "hMY9WV4Z8BKgIWwHgnL01g", "alias": "applebees-grill-bar-pittsfield", "name": "Applebee's Grill + Bar", "image_url": "https://s3-media3.fl.yelpcdn.com/bphoto/lcgH8oFDmmaKXUDt_OBFfg/o.jpg", "is_closed": false, "url": "https://www.yelp.com/biz/applebees-grill-bar-pittsfield?adjust_creative=h5HwbyQ0TYvQjBo6Ys5Bgw&utm_campaign=yelp_api_v3&utm_medium=api_v3_business_search&utm_source=h5HwbyQ0TYvQjBo6Ys5Bgw", "review_count": 29, "categories": [{"alias": "tradamerican", "title": "American (Traditional)"}, {"alias": "sportsbars", "title": "Sports Bars"}, {"alias": "burgers", "title": "Burgers"}], "rating": 2.5, "coordinates": {"latitude": 42.468614, "longitude": -73.198755}, "transactions": [], "price": "$$", "location": {"address1": "555 Hubbard Ave", "address2": "Berkshire Crossing Shopping Center", "address3": "", "city": "Pittsfield", "zip_code": "01201", "country": "US", "state": "MA", "display_address": ["555 Hubbard Ave", "Berkshire Crossing Shopping Center", "Pittsfield, MA 01201"]}, "phone": "+14134995157", "display_phone": "(413) 499-5157", "distance": 4655.556390171536}, {"id": "CpZElk-i1bCuyEU_jTOazg", "alias": "piece-o-pizza-pittsfield", "name": "Piece O'pizza", "image_url": "", "is_closed": false, "url": "https://www.yelp.com/biz/piece-o-pizza-pittsfield?adjust_creative=h5HwbyQ0TYvQjBo6Ys5Bgw&utm_campaign=yelp_api_v3&utm_medium=api_v3_business_search&utm_source=h5HwbyQ0TYvQjBo6Ys5Bgw", "review_count": 1, "categories": [{"alias": "pizza", "title": "Pizza"}], "rating": 5.0, "coordinates": {"latitude": 42.4760894775391, "longitude": -73.2444534301758}, "transactions": [], "location": {"address1": "1206 North St", "address2": "", "address3": "", "city": "Pittsfield", "zip_code": "01201", "country": "US", "state": "MA", "display_address": ["1206 North St", "Pittsfield, MA 01201"]}, "phone": "+14134996567", "display_phone": "(413) 499-6567", "distance": 2976.21345284598}, {"id": "BPyXFtPX_6PirL4p4HfIGA", "alias": "five-guys-pittsfield", "name": "Five Guys", "image_url": "https://s3-media1.fl.yelpcdn.com/bphoto/XerdEcgL30G8_SN5W5W1uA/o.jpg", "is_closed": false, "url": "https://www.yelp.com/biz/five-guys-pittsfield?adjust_creative=h5HwbyQ0TYvQjBo6Ys5Bgw&utm_campaign=yelp_api_v3&utm_medium=api_v3_business_search&utm_source=h5HwbyQ0TYvQjBo6Ys5Bgw", "review_count": 12, "categories": [{"alias": "burgers", "title": "Burgers"}, {"alias": "hotdogs", "title": "Fast Food"}], "rating": 4.0, "coordinates": {"latitude": 42.46647, "longitude": -73.2041799}, "transactions": [], "price": "$", "location": {"address1": "660 Merrill Rd", "address2": "", "address3": "", "city": "Pittsfield", "zip_code": "01201", "country": "US", "state": "MA", "display_address": ["660 Merrill Rd", "Pittsfield, MA 01201"]}, "phone": "+14134995900", "display_phone": "(413) 499-5900", "distance": 4150.689331779048}, {"id": "61zJkuouSdfgDPGUXnD4xA", "alias": "harrys-supermarket-pittsfield", "name": "Harry's Supermarket", "image_url": "", "is_closed": false, "url": "https://www.yelp.com/biz/harrys-supermarket-pittsfield?adjust_creative=h5HwbyQ0TYvQjBo6Ys5Bgw&utm_campaign=yelp_api_v3&utm_medium=api_v3_business_search&utm_source=h5HwbyQ0TYvQjBo6Ys5Bgw", "review_count": 1, "categories": [{"alias": "delis", "title": "Delis"}], "rating": 4.0, "coordinates": {"latitude": 42.4669830847747, "longitude": -73.2516915403962}, "transactions": ["delivery"], "location": {"address1": "290 Wahconah St", "address2": "", "address3": "", "city": "Pittsfield", "zip_code": "01201", "country": "US", "state": "MA", "display_address": ["290 Wahconah St", "Pittsfield, MA 01201"]}, "phone": "+14134429084", "display_phone": "(413) 442-9084", "distance": 1948.3062792755334}, {"id": "naDTyJ1B4g-RjH_UE9-dcA", "alias": "williams-street-market-and-deli-pittsfield", "name": "Williams Street Market & Deli", "image_url": "", "is_closed": false, "url": "https://www.yelp.com/biz/williams-street-market-and-deli-pittsfield?adjust_creative=h5HwbyQ0TYvQjBo6Ys5Bgw&utm_campaign=yelp_api_v3&utm_medium=api_v3_business_search&utm_source=h5HwbyQ0TYvQjBo6Ys5Bgw", "review_count": 2, "categories": [{"alias": "delis", "title": "Delis"}], "rating": 2.5, "coordinates": {"latitude": 42.43171, "longitude": -73.2137}, "transactions": [], "location": {"address1": "740 Williams St", "address2": "", "address3": "", "city": "Pittsfield", "zip_code": "01201", "country": "US", "state": "MA", "display_address": ["740 Williams St", "Pittsfield, MA 01201"]}, "phone": "+14134478002", "display_phone": "(413) 447-8002", "distance": 3530.5419338227275}, {"id": "npvK3ybU9n5GPZzCwJtN5Q", "alias": "costanzos-package-variety-and-deli-pittsfield", "name": "Costanzo's Package Variety & Deli", "image_url": "", "is_closed": false, "url": "https://www.yelp.com/biz/costanzos-package-variety-and-deli-pittsfield?adjust_creative=h5HwbyQ0TYvQjBo6Ys5Bgw&utm_campaign=yelp_api_v3&utm_medium=api_v3_business_search&utm_source=h5HwbyQ0TYvQjBo6Ys5Bgw", "review_count": 1, "categories": [{"alias": "beer_and_wine", "title": "Beer, Wine & Spirits"}, {"alias": "catering", "title": "Caterers"}, {"alias": "delis", "title": "Delis"}], "rating": 4.0, "coordinates": {"latitude": 42.4566612243652, "longitude": -73.2628479003906}, "transactions": ["delivery"], "price": "$", "location": {"address1": "180 Onota St", "address2": "", "address3": "", "city": "Pittsfield", "zip_code": "01201", "country": "US", "state": "MA", "display_address": ["180 Onota St", "Pittsfield, MA 01201"]}, "phone": "+14134477661", "display_phone": "(413) 447-7661", "distance": 1378.7643096021034}, {"id": "4_6PwHV-yJnMqlnvXVOyxw", "alias": "pizza-works-pittsfield", "name": "Pizza Works", "image_url": "https://s3-media4.fl.yelpcdn.com/bphoto/VWeb8dJGSwemSHFfkxXbTg/o.jpg", "is_closed": false, "url": "https://www.yelp.com/biz/pizza-works-pittsfield?adjust_creative=h5HwbyQ0TYvQjBo6Ys5Bgw&utm_campaign=yelp_api_v3&utm_medium=api_v3_business_search&utm_source=h5HwbyQ0TYvQjBo6Ys5Bgw", "review_count": 13, "categories": [{"alias": "pizza", "title": "Pizza"}], "rating": 3.5, "coordinates": {"latitude": 42.4563250690699, "longitude": -73.2341511547565}, "transactions": ["delivery"], "price": "$$", "location": {"address1": "804 Tyler St", "address2": "", "address3": "", "city": "Pittsfield", "zip_code": "01201", "country": "US", "state": "MA", "display_address": ["804 Tyler St", "Pittsfield, MA 01201"]}, "phone": "+14134434444", "display_phone": "(413) 443-4444", "distance": 1424.1347351896695}, {"id": "44ajIWovMHN8UsBPLWw1GQ", "alias": "johnnies-variety-store-pittsfield", "name": "Johnnies Variety Store", "image_url": "", "is_closed": false, "url": "https://www.yelp.com/biz/johnnies-variety-store-pittsfield?adjust_creative=h5HwbyQ0TYvQjBo6Ys5Bgw&utm_campaign=yelp_api_v3&utm_medium=api_v3_business_search&utm_source=h5HwbyQ0TYvQjBo6Ys5Bgw", "review_count": 2, "categories": [{"alias": "delis", "title": "Delis"}], "rating": 4.0, "coordinates": {"latitude": 42.47631, "longitude": -73.26539}, "transactions": [], "location": {"address1": "370 Pecks Rd", "address2": "", "address3": "", "city": "Pittsfield", "zip_code": "01201", "country": "US", "state": "MA", "display_address": ["370 Pecks Rd", "Pittsfield, MA 01201"]}, "phone": "+14134991960", "display_phone": "(413) 499-1960", "distance": 3262.673975573746}, {"id": "eJuEEKGzbvtlLHXSblxR7Q", "alias": "dominos-pizza-pittsfield", "name": "Domino's Pizza", "image_url": "https://s3-media2.fl.yelpcdn.com/bphoto/LPePHVq_IXpXsw-ApM5XVw/o.jpg", "is_closed": false, "url": "https://www.yelp.com/biz/dominos-pizza-pittsfield?adjust_creative=h5HwbyQ0TYvQjBo6Ys5Bgw&utm_campaign=yelp_api_v3&utm_medium=api_v3_business_search&utm_source=h5HwbyQ0TYvQjBo6Ys5Bgw", "review_count": 7, "categories": [{"alias": "pizza", "title": "Pizza"}, {"alias": "chicken_wings", "title": "Chicken Wings"}, {"alias": "sandwiches", "title": "Sandwiches"}], "rating": 3.5, "coordinates": {"latitude": 42.44263, "longitude": -73.23051}, "transactions": [], "price": "$", "location": {"address1": "321 1/2 Elm St", "address2": "", "address3": "", "city": "Pittsfield", "zip_code": "01201", "country": "US", "state": "MA", "display_address": ["321 1/2 Elm St", "Pittsfield, MA 01201"]}, "phone": "+14134993994", "display_phone": "(413) 499-3994", "distance": 1722.232936518164}, {"id": "zf-nxO_RnpkuZwVPU0JknQ", "alias": "court-square-breakfast-and-deli-pittsfield", "name": "Court Square Breakfast & Deli", "image_url": "https://s3-media2.fl.yelpcdn.com/bphoto/ZPpPVGSxyEDjfJJ9edXxTg/o.jpg", "is_closed": false, "url": "https://www.yelp.com/biz/court-square-breakfast-and-deli-pittsfield?adjust_creative=h5HwbyQ0TYvQjBo6Ys5Bgw&utm_campaign=yelp_api_v3&utm_medium=api_v3_business_search&utm_source=h5HwbyQ0TYvQjBo6Ys5Bgw", "review_count": 1, "categories": [{"alias": "breakfast_brunch", "title": "Breakfast & Brunch"}], "rating": 3.0, "coordinates": {"latitude": 42.4482234567404, "longitude": -73.2521011680365}, "transactions": [], "price": "$", "location": {"address1": "95 East St", "address2": "", "address3": "", "city": "Pittsfield", "zip_code": "01201", "country": "US", "state": "MA", "display_address": ["95 East St", "Pittsfield, MA 01201"]}, "phone": "+14134429896", "display_phone": "(413) 442-9896", "distance": 259.0684813145133}, {"id": "KWeBXXzXh9OFbPqCm4_-nA", "alias": "panera-bread-pittsfield", "name": "Panera Bread", "image_url": "https://s3-media3.fl.yelpcdn.com/bphoto/uamCSTPMYSB1mNZV221n9g/o.jpg", "is_closed": false, "url": "https://www.yelp.com/biz/panera-bread-pittsfield?adjust_creative=h5HwbyQ0TYvQjBo6Ys5Bgw&utm_campaign=yelp_api_v3&utm_medium=api_v3_business_search&utm_source=h5HwbyQ0TYvQjBo6Ys5Bgw", "review_count": 18, "categories": [{"alias": "sandwiches", "title": "Sandwiches"}, {"alias": "salad", "title": "Salad"}, {"alias": "soup", "title": "Soup"}], "rating": 2.5, "coordinates": {"latitude": 42.465182, "longitude": -73.206932}, "transactions": [], "price": "$$", "location": {"address1": "635 Merrill Rd", "address2": null, "address3": null, "city": "Pittsfield", "zip_code": "01201", "country": "US", "state": "MA", "display_address": ["635 Merrill Rd", "Pittsfield, MA 01201"]}, "phone": "+14134433200", "display_phone": "(413) 443-3200", "distance": 3884.8031013850255}, {"id": "dPrW7czCTb9yQkZsiyhKcg", "alias": "papa-ginos-pizzeria-pittsfield", "name": "Papa Gino's Pizzeria", "image_url": "https://s3-media1.fl.yelpcdn.com/bphoto/NKN58oe59RYs8nXmvCD_Qg/o.jpg", "is_closed": false, "url": "https://www.yelp.com/biz/papa-ginos-pizzeria-pittsfield?adjust_creative=h5HwbyQ0TYvQjBo6Ys5Bgw&utm_campaign=yelp_api_v3&utm_medium=api_v3_business_search&utm_source=h5HwbyQ0TYvQjBo6Ys5Bgw", "review_count": 21, "categories": [{"alias": "pizza", "title": "Pizza"}], "rating": 2.5, "coordinates": {"latitude": 42.4659526682081, "longitude": -73.2064502022769}, "transactions": ["delivery"], "price": "$$", "location": {"address1": "685 Merrill Rd", "address2": null, "address3": null, "city": "Pittsfield", "zip_code": "01201", "country": "US", "state": "MA", "display_address": ["685 Merrill Rd", "Pittsfield, MA 01201"]}, "phone": "+14134455307", "display_phone": "(413) 445-5307", "distance": 3958.910219868826}, {"id": "PtjQ9BHdSh-InDjpYEoLAw", "alias": "pizza-hut-pittsfield-7", "name": "Pizza Hut", "image_url": "https://s3-media2.fl.yelpcdn.com/bphoto/0fWoaDnHsxJ4fqSSKwa4-w/o.jpg", "is_closed": false, "url": "https://www.yelp.com/biz/pizza-hut-pittsfield-7?adjust_creative=h5HwbyQ0TYvQjBo6Ys5Bgw&utm_campaign=yelp_api_v3&utm_medium=api_v3_business_search&utm_source=h5HwbyQ0TYvQjBo6Ys5Bgw", "review_count": 5, "categories": [{"alias": "italian", "title": "Italian"}, {"alias": "pizza", "title": "Pizza"}], "rating": 2.5, "coordinates": {"latitude": 42.465908213687, "longitude": -73.2030403283647}, "transactions": ["delivery", "pickup"], "price": "$", "location": {"address1": "660 Merrill Rd", "address2": null, "address3": null, "city": "Pittsfield", "zip_code": "01201", "country": "US", "state": "MA", "display_address": ["660 Merrill Rd", "Pittsfield, MA 01201"]}, "phone": "+14134999891", "display_phone": "(413) 499-9891", "distance": 4207.032436685048}, {"id": "xQ_jSCeekj2nmebWiUWVBQ", "alias": "subway-pittsfield-18", "name": "Subway", "image_url": "https://s3-media2.fl.yelpcdn.com/bphoto/Ns0oKq_wodrGXc3l_uQ-lQ/o.jpg", "is_closed": false, "url": "https://www.yelp.com/biz/subway-pittsfield-18?adjust_creative=h5HwbyQ0TYvQjBo6Ys5Bgw&utm_campaign=yelp_api_v3&utm_medium=api_v3_business_search&utm_source=h5HwbyQ0TYvQjBo6Ys5Bgw", "review_count": 1, "categories": [{"alias": "sandwiches", "title": "Sandwiches"}], "rating": 4.0, "coordinates": {"latitude": 42.464833, "longitude": -73.214439}, "transactions": [], "price": "$", "location": {"address1": "457 Dalton Ave", "address2": "", "address3": "", "city": "Pittsfield", "zip_code": "01201", "country": "US", "state": "MA", "display_address": ["457 Dalton Ave", "Pittsfield, MA 01201"]}, "phone": "+14134990067", "display_phone": "(413) 499-0067", "distance": 3325.3946772044046}, {"id": "JzFcNSTefetIDqcxnMRq8A", "alias": "angelinas-submarine-shops-pittsfield", "name": "Angelina's Submarine Shops", "image_url": "", "is_closed": false, "url": "https://www.yelp.com/biz/angelinas-submarine-shops-pittsfield?adjust_creative=h5HwbyQ0TYvQjBo6Ys5Bgw&utm_campaign=yelp_api_v3&utm_medium=api_v3_business_search&utm_source=h5HwbyQ0TYvQjBo6Ys5Bgw", "review_count": 7, "categories": [{"alias": "sandwiches", "title": "Sandwiches"}, {"alias": "salad", "title": "Salad"}, {"alias": "burgers", "title": "Burgers"}], "rating": 3.0, "coordinates": {"latitude": 42.457275390625, "longitude": -73.2288513183594}, "transactions": ["delivery", "pickup"], "price": "$", "location": {"address1": "100 Dalton Ave", "address2": "", "address3": "", "city": "Pittsfield", "zip_code": "01201", "country": "US", "state": "MA", "display_address": ["100 Dalton Ave", "Pittsfield, MA 01201"]}, "phone": "+14134439875", "display_phone": "(413) 443-9875", "distance": 1883.028078786667}, {"id": "j3iGXa2h_E9-JDTYhcBMEg", "alias": "hold-the-anchovies-pittsfield", "name": "Hold the Anchovies", "image_url": "", "is_closed": false, "url": "https://www.yelp.com/biz/hold-the-anchovies-pittsfield?adjust_creative=h5HwbyQ0TYvQjBo6Ys5Bgw&utm_campaign=yelp_api_v3&utm_medium=api_v3_business_search&utm_source=h5HwbyQ0TYvQjBo6Ys5Bgw", "review_count": 1, "categories": [{"alias": "pizza", "title": "Pizza"}], "rating": 1.0, "coordinates": {"latitude": 42.46429, "longitude": -73.21442}, "transactions": [], "price": "$$", "location": {"address1": "455 Dalton Ave", "address2": "", "address3": "", "city": "Pittsfield", "zip_code": "01201", "country": "US", "state": "MA", "display_address": ["455 Dalton Ave", "Pittsfield, MA 01201"]}, "phone": "+14134432400", "display_phone": "(413) 443-2400", "distance": 3295.9429360734284}, {"id": "5MUciMsGKM5fvGpkxadGuw", "alias": "dominos-pizza-pittsfield-2", "name": "Domino's Pizza", "image_url": "", "is_closed": false, "url": "https://www.yelp.com/biz/dominos-pizza-pittsfield-2?adjust_creative=h5HwbyQ0TYvQjBo6Ys5Bgw&utm_campaign=yelp_api_v3&utm_medium=api_v3_business_search&utm_source=h5HwbyQ0TYvQjBo6Ys5Bgw", "review_count": 4, "categories": [{"alias": "pizza", "title": "Pizza"}, {"alias": "chicken_wings", "title": "Chicken Wings"}, {"alias": "sandwiches", "title": "Sandwiches"}], "rating": 4.0, "coordinates": {"latitude": 42.47718, "longitude": -73.245323}, "transactions": [], "price": "$", "location": {"address1": "1229 North St", "address2": null, "address3": null, "city": "Pittsfield", "zip_code": "01201", "country": "US", "state": "MA", "display_address": ["1229 North St", "Pittsfield, MA 01201"]}, "phone": "+14134997979", "display_phone": "(413) 499-7979", "distance": 3084.1719829698536}, {"id": "F5RjLFPDJzWnN3fbL0-gDg", "alias": "mcdonalds-pittsfield-2", "name": "McDonald's", "image_url": "https://s3-media1.fl.yelpcdn.com/bphoto/GSTZvTKKW65XCBu70oor-w/o.jpg", "is_closed": false, "url": "https://www.yelp.com/biz/mcdonalds-pittsfield-2?adjust_creative=h5HwbyQ0TYvQjBo6Ys5Bgw&utm_campaign=yelp_api_v3&utm_medium=api_v3_business_search&utm_source=h5HwbyQ0TYvQjBo6Ys5Bgw", "review_count": 9, "categories": [{"alias": "burgers", "title": "Burgers"}, {"alias": "hotdogs", "title": "Fast Food"}, {"alias": "coffee", "title": "Coffee & Tea"}], "rating": 2.0, "coordinates": {"latitude": 42.442670060133, "longitude": -73.2749373774732}, "transactions": [], "price": "$", "location": {"address1": "445 W Housatonic St", "address2": "", "address3": "", "city": "Pittsfield", "zip_code": "01201", "country": "US", "state": "MA", "display_address": ["445 W Housatonic St", "Pittsfield, MA 01201"]}, "phone": "+14134424629", "display_phone": "(413) 442-4629", "distance": 2239.7811511503337}, {"id": "3TyINqqzEADspKjjStQOsQ", "alias": "mcdonalds-pittsfield", "name": "McDonald's", "image_url": "https://s3-media3.fl.yelpcdn.com/bphoto/JeCD1DpJ1rrasg9aYG7Eew/o.jpg", "is_closed": false, "url": "https://www.yelp.com/biz/mcdonalds-pittsfield?adjust_creative=h5HwbyQ0TYvQjBo6Ys5Bgw&utm_campaign=yelp_api_v3&utm_medium=api_v3_business_search&utm_source=h5HwbyQ0TYvQjBo6Ys5Bgw", "review_count": 5, "categories": [{"alias": "coffee", "title": "Coffee & Tea"}, {"alias": "burgers", "title": "Burgers"}, {"alias": "hotdogs", "title": "Fast Food"}], "rating": 3.0, "coordinates": {"latitude": 42.468519, "longitude": -73.2040031329598}, "transactions": [], "price": "$", "location": {"address1": "61 Cheshire Rd", "address2": "", "address3": "", "city": "Pittsfield", "zip_code": "01201", "country": "US", "state": "MA", "display_address": ["61 Cheshire Rd", "Pittsfield, MA 01201"]}, "phone": "+14134424602", "display_phone": "(413) 442-4602", "distance": 4271.506552805373}, {"id": "XvvFFVTRyb9-8OZPUVRSqw", "alias": "ginos-pizza-and-grill-pittsfield", "name": "Ginos Pizza and Grill", "image_url": "https://s3-media3.fl.yelpcdn.com/bphoto/2zq5ieHpYjnGxFee6p7YVw/o.jpg", "is_closed": false, "url": "https://www.yelp.com/biz/ginos-pizza-and-grill-pittsfield?adjust_creative=h5HwbyQ0TYvQjBo6Ys5Bgw&utm_campaign=yelp_api_v3&utm_medium=api_v3_business_search&utm_source=h5HwbyQ0TYvQjBo6Ys5Bgw", "review_count": 7, "categories": [{"alias": "pizza", "title": "Pizza"}, {"alias": "hotdogs", "title": "Fast Food"}, {"alias": "italian", "title": "Italian"}], "rating": 2.5, "coordinates": {"latitude": 42.4760729, "longitude": -73.2444672}, "transactions": ["delivery"], "price": "$$", "location": {"address1": "1206 North St", "address2": "", "address3": "", "city": "Pittsfield", "zip_code": "01201", "country": "US", "state": "MA", "display_address": ["1206 North St", "Pittsfield, MA 01201"]}, "phone": "+14134424466", "display_phone": "(413) 442-4466", "distance": 2975.3400116388616}, {"id": "W8wy2-f1tkjZQPFe_xT4vQ", "alias": "subway-pittsfield-13", "name": "Subway", "image_url": "https://s3-media3.fl.yelpcdn.com/bphoto/TKupqtDxQ-vh8HoIQgur5A/o.jpg", "is_closed": false, "url": "https://www.yelp.com/biz/subway-pittsfield-13?adjust_creative=h5HwbyQ0TYvQjBo6Ys5Bgw&utm_campaign=yelp_api_v3&utm_medium=api_v3_business_search&utm_source=h5HwbyQ0TYvQjBo6Ys5Bgw", "review_count": 1, "categories": [{"alias": "sandwiches", "title": "Sandwiches"}], "rating": 4.0, "coordinates": {"latitude": 42.4649194, "longitude": -73.1985031}, "transactions": [], "price": "$", "location": {"address1": "555 Hubbard Ave", "address2": "Ste 12", "address3": null, "city": "Pittsfield", "zip_code": "01201", "country": "US", "state": "MA", "display_address": ["555 Hubbard Ave", "Ste 12", "Pittsfield, MA 01201"]}, "phone": "+14134422539", "display_phone": "(413) 442-2539", "distance": 4502.686378730536}, {"id": "xeVfQxBzL4VmaH3gVLwwgA", "alias": "subway-pittsfield-15", "name": "Subway", "image_url": "https://s3-media3.fl.yelpcdn.com/bphoto/RlP8wlwgOMB0sWaAUZymsw/o.jpg", "is_closed": false, "url": "https://www.yelp.com/biz/subway-pittsfield-15?adjust_creative=h5HwbyQ0TYvQjBo6Ys5Bgw&utm_campaign=yelp_api_v3&utm_medium=api_v3_business_search&utm_source=h5HwbyQ0TYvQjBo6Ys5Bgw", "review_count": 2, "categories": [{"alias": "sandwiches", "title": "Sandwiches"}], "rating": 1.5, "coordinates": {"latitude": 42.4761589512098, "longitude": -73.2646737913772}, "transactions": [], "price": "$", "location": {"address1": "370 Pecks Rd", "address2": null, "address3": null, "city": "Pittsfield", "zip_code": "01201", "country": "US", "state": "MA", "display_address": ["370 Pecks Rd", "Pittsfield, MA 01201"]}, "phone": "+14134488001", "display_phone": "(413) 448-8001", "distance": 3216.6889848608325}, {"id": "qqA8YX58xnmEXLyanHfdUg", "alias": "stufd-food-truck-brooklyn", "name": "Stuf'd Food Truck", "image_url": "https://s3-media2.fl.yelpcdn.com/bphoto/_Wn0i-tLIOFinw8BPAqxPA/o.jpg", "is_closed": false, "url": "https://www.yelp.com/biz/stufd-food-truck-brooklyn?adjust_creative=h5HwbyQ0TYvQjBo6Ys5Bgw&utm_campaign=yelp_api_v3&utm_medium=api_v3_business_search&utm_source=h5HwbyQ0TYvQjBo6Ys5Bgw", "review_count": 4, "categories": [{"alias": "sandwiches", "title": "Sandwiches"}, {"alias": "foodtrucks", "title": "Food Trucks"}], "rating": 4.0, "coordinates": {"latitude": 40.7124539, "longitude": -73.9287374}, "transactions": [], "location": {"address1": "178 Varick Ave", "address2": "", "address3": null, "city": "Brooklyn", "zip_code": "11237", "country": "US", "state": "NY", "display_address": ["178 Varick Ave", "Brooklyn, NY 11237"]}, "phone": "+18457091808", "display_phone": "(845) 709-1808", "distance": 201251.96146532692}]