[{"id": "tKqf75fMPHTj85dyeSIZxQ", "alias": "blandford-country-store-and-cafe-blandford", "name": "Blandford Country Store & Cafe", "image_url": "", "is_closed": false, "url": "https://www.yelp.com/biz/blandford-country-store-and-cafe-blandford?adjust_creative=HdhkN5EEH6lAqE3kwhsHEQ&utm_campaign=yelp_api_v3&utm_medium=api_v3_business_search&utm_source=HdhkN5EEH6lAqE3kwhsHEQ", "review_count": 3, "categories": [{"alias": "restaurants", "title": "Restaurants"}], "rating": 4.5, "coordinates": {"latitude": 42.17962, "longitude": -72.92412}, "transactions": [], "location": {"address1": "98 Main St", "address2": "", "address3": "", "city": "Blandford", "zip_code": "01008", "country": "US", "state": "MA", "display_address": ["98 Main St", "Blandford, MA 01008"]}, "phone": "+14138482600", "display_phone": "(413) 848-2600", "distance": 2420.331474022309}, {"id": "L23iQ-ONcUb0edZeJJX_nA", "alias": "chester-common-table-chester", "name": "Chester Common Table", "image_url": "https://s3-media4.fl.yelpcdn.com/bphoto/DAStUuP7cBK4DbiHf3HhTQ/o.jpg", "is_closed": false, "url": "https://www.yelp.com/biz/chester-common-table-chester?adjust_creative=HdhkN5EEH6lAqE3kwhsHEQ&utm_campaign=yelp_api_v3&utm_medium=api_v3_business_search&utm_source=HdhkN5EEH6lAqE3kwhsHEQ", "review_count": 32, "categories": [{"alias": "comfortfood", "title": "Comfort Food"}, {"alias": "tradamerican", "title": "American (Traditional)"}], "rating": 4.5, "coordinates": {"latitude": 42.280002, "longitude": -72.980058}, "transactions": [], "price": "$$", "location": {"address1": "30 Main St", "address2": null, "address3": "", "city": "Chester", "zip_code": "01011", "country": "US", "state": "MA", "display_address": ["30 Main St", "Chester, MA 01011"]}, "phone": "+14133541076", "display_phone": "(413) 354-1076", "distance": 11096.846415076021}, {"id": "cdlN_aSJOn0EDVexGo0v5g", "alias": "comfort-kitchen-and-bar-huntington-2", "name": "Comfort Kitchen and Bar", "image_url": "https://s3-media2.fl.yelpcdn.com/bphoto/iKDnV5pwo5kA3mJBjTyPeQ/o.jpg", "is_closed": false, "url": "https://www.yelp.com/biz/comfort-kitchen-and-bar-huntington-2?adjust_creative=HdhkN5EEH6lAqE3kwhsHEQ&utm_campaign=yelp_api_v3&utm_medium=api_v3_business_search&utm_source=HdhkN5EEH6lAqE3kwhsHEQ", "review_count": 37, "categories": [{"alias": "bars", "title": "Bars"}, {"alias": "tradamerican", "title": "American (Traditional)"}], "rating": 4.5, "coordinates": {"latitude": 42.2348748399165, "longitude": -72.8799170197082}, "transactions": [], "price": "$$", "location": {"address1": "4 Main St", "address2": "", "address3": null, "city": "Huntington", "zip_code": "01050", "country": "US", "state": "MA", "display_address": ["4 Main St", "Huntington, MA 01050"]}, "phone": "+14132073011", "display_phone": "(413) 207-3011", "distance": 8419.785773115867}, {"id": "EjmoByvU0tm0QJaFe6EA6Q", "alias": "bread-basket-russell", "name": "Bread Basket", "image_url": "https://s3-media3.fl.yelpcdn.com/bphoto/ocWZQw9hDfydLXdpIv6d6Q/o.jpg", "is_closed": false, "url": "https://www.yelp.com/biz/bread-basket-russell?adjust_creative=HdhkN5EEH6lAqE3kwhsHEQ&utm_campaign=yelp_api_v3&utm_medium=api_v3_business_search&utm_source=HdhkN5EEH6lAqE3kwhsHEQ", "review_count": 11, "categories": [{"alias": "bakeries", "title": "Bakeries"}, {"alias": "sandwiches", "title": "Sandwiches"}, {"alias": "desserts", "title": "Desserts"}], "rating": 5.0, "coordinates": {"latitude": 42.16665, "longitude": -72.860528}, "transactions": [], "price": "$", "location": {"address1": "815 Blandford Rd", "address2": null, "address3": null, "city": "Russell", "zip_code": "01071", "country": "US", "state": "MA", "display_address": ["815 Blandford Rd", "Russell, MA 01071"]}, "phone": "+14138620044", "display_phone": "(413) 862-0044", "distance": 7840.919645387782}, {"id": "dszOlLrMfHdrsDTfV6YzCg", "alias": "knox-trail-inn-otis-2", "name": "Knox Trail Inn", "image_url": "https://s3-media4.fl.yelpcdn.com/bphoto/Q0tfwOgbXD_uuosWWW5ZYw/o.jpg", "is_closed": false, "url": "https://www.yelp.com/biz/knox-trail-inn-otis-2?adjust_creative=HdhkN5EEH6lAqE3kwhsHEQ&utm_campaign=yelp_api_v3&utm_medium=api_v3_business_search&utm_source=HdhkN5EEH6lAqE3kwhsHEQ", "review_count": 25, "categories": [{"alias": "pizza", "title": "Pizza"}, {"alias": "pubs", "title": "Pubs"}, {"alias": "tradamerican", "title": "American (Traditional)"}], "rating": 3.5, "coordinates": {"latitude": 42.17358, "longitude": -73.03564}, "transactions": [], "price": "$$", "location": {"address1": "1898 E Otis Rd", "address2": null, "address3": null, "city": "Otis", "zip_code": "01253", "country": "US", "state": "MA", "display_address": ["1898 E Otis Rd", "Otis, MA 01253"]}, "phone": "+14132694400", "display_phone": "(413) 269-4400", "distance": 6831.477511051103}, {"id": "E0wk9-VkuKMY6TKHReKETw", "alias": "the-grouse-house-otis", "name": "The Grouse House", "image_url": "https://s3-media4.fl.yelpcdn.com/bphoto/87Fh7pVCqwvC2JYJXj0GPA/o.jpg", "is_closed": false, "url": "https://www.yelp.com/biz/the-grouse-house-otis?adjust_creative=HdhkN5EEH6lAqE3kwhsHEQ&utm_campaign=yelp_api_v3&utm_medium=api_v3_business_search&utm_source=HdhkN5EEH6lAqE3kwhsHEQ", "review_count": 20, "categories": [{"alias": "bbq", "title": "Barbeque"}, {"alias": "tradamerican", "title": "American (Traditional)"}], "rating": 4.0, "coordinates": {"latitude": 42.196707, "longitude": -73.100016}, "transactions": [], "price": "$", "location": {"address1": "195 Monterey Rd", "address2": null, "address3": null, "city": "Otis", "zip_code": "01253", "country": "US", "state": "MA", "display_address": ["195 Monterey Rd", "Otis, MA 01253"]}, "phone": "+14132694446", "display_phone": "(413) 269-4446", "distance": 12191.753832288834}, {"id": "wrtX2ZzygWcN6PPLIJAZwA", "alias": "the-rapids-bar-and-grill-huntington-2", "name": "The Rapids Bar & Grill", "image_url": "https://s3-media3.fl.yelpcdn.com/bphoto/mlUj7X36KYNNjEEXZuNv-Q/o.jpg", "is_closed": false, "url": "https://www.yelp.com/biz/the-rapids-bar-and-grill-huntington-2?adjust_creative=HdhkN5EEH6lAqE3kwhsHEQ&utm_campaign=yelp_api_v3&utm_medium=api_v3_business_search&utm_source=HdhkN5EEH6lAqE3kwhsHEQ", "review_count": 15, "categories": [{"alias": "tradamerican", "title": "American (Traditional)"}, {"alias": "bars", "title": "Bars"}], "rating": 3.5, "coordinates": {"latitude": 42.27658, "longitude": -72.86391}, "transactions": [], "price": "$$", "location": {"address1": "200 Worthington Rd", "address2": null, "address3": "", "city": "Huntington", "zip_code": "01050", "country": "US", "state": "MA", "display_address": ["200 Worthington Rd", "Huntington, MA 01050"]}, "phone": "+14136673300", "display_phone": "(413) 667-3300", "distance": 12826.746185573162}, {"id": "EXUaFzhvXNjCRNmylmOhxw", "alias": "the-old-inn-on-the-green-at-the-pillow-becket", "name": "The Old Inn on the Green at the Pillow", "image_url": "https://s3-media2.fl.yelpcdn.com/bphoto/xeUMF_3ZHQOd0piGgU83RA/o.jpg", "is_closed": false, "url": "https://www.yelp.com/biz/the-old-inn-on-the-green-at-the-pillow-becket?adjust_creative=HdhkN5EEH6lAqE3kwhsHEQ&utm_campaign=yelp_api_v3&utm_medium=api_v3_business_search&utm_source=HdhkN5EEH6lAqE3kwhsHEQ", "review_count": 13, "categories": [{"alias": "newamerican", "title": "American (New)"}], "rating": 3.0, "coordinates": {"latitude": 42.26658, "longitude": -73.11659}, "transactions": [], "location": {"address1": "358 George Carter Rd", "address2": "", "address3": null, "city": "Becket", "zip_code": "01223", "country": "US", "state": "MA", "display_address": ["358 George Carter Rd", "Becket, MA 01223"]}, "phone": "+14132120303", "display_phone": "(413) 212-0303", "distance": 16303.610823157576}, {"id": "AuMVaEI5r5iP4I5Vs_iM6g", "alias": "skyline-beer-company-westfield", "name": "Skyline Beer Company", "image_url": "https://s3-media1.fl.yelpcdn.com/bphoto/i1CTaxwUqFsqQw4XnhOs8w/o.jpg", "is_closed": false, "url": "https://www.yelp.com/biz/skyline-beer-company-westfield?adjust_creative=HdhkN5EEH6lAqE3kwhsHEQ&utm_campaign=yelp_api_v3&utm_medium=api_v3_business_search&utm_source=HdhkN5EEH6lAqE3kwhsHEQ", "review_count": 6, "categories": [{"alias": "beerbar", "title": "Beer Bar"}, {"alias": "breweries", "title": "Breweries"}, {"alias": "wraps", "title": "Wraps"}], "rating": 3.5, "coordinates": {"latitude": 42.10701483, "longitude": -72.764182}, "transactions": [], "location": {"address1": "98 Southwick Rd", "address2": "", "address3": null, "city": "Westfield", "zip_code": "01085", "country": "US", "state": "MA", "display_address": ["98 Southwick Rd", "Westfield, MA 01085"]}, "phone": "+14133783333", "display_phone": "(413) 378-3333", "distance": 17651.670500611093}, {"id": "sZgz8QmrpPP9Bdb05duIIw", "alias": "sherwood-shoppe-becket", "name": "Sherwood Shoppe", "image_url": "https://s3-media4.fl.yelpcdn.com/bphoto/Aq0y_PiAhV_XqC56wD-m4Q/o.jpg", "is_closed": false, "url": "https://www.yelp.com/biz/sherwood-shoppe-becket?adjust_creative=HdhkN5EEH6lAqE3kwhsHEQ&utm_campaign=yelp_api_v3&utm_medium=api_v3_business_search&utm_source=HdhkN5EEH6lAqE3kwhsHEQ", "review_count": 12, "categories": [{"alias": "convenience", "title": "Convenience Stores"}, {"alias": "breakfast_brunch", "title": "Breakfast & Brunch"}, {"alias": "delis", "title": "Delis"}], "rating": 4.5, "coordinates": {"latitude": 42.2538082301617, "longitude": -73.0638302117586}, "transactions": [], "price": "$", "location": {"address1": "437 Wells Rd", "address2": "", "address3": "", "city": "Becket", "zip_code": "01223", "country": "US", "state": "MA", "display_address": ["437 Wells Rd", "Becket, MA 01223"]}, "phone": "+14136232338", "display_phone": "(413) 623-2338", "distance": 12088.361950055238}, {"id": "xrUfix7BCUzzfKi0208DMw", "alias": "the-rail-trail-ale-house-southwick", "name": "The Rail Trail Ale House", "image_url": "https://s3-media2.fl.yelpcdn.com/bphoto/nZ_sE51HZReJ9EB7s_09MQ/o.jpg", "is_closed": false, "url": "https://www.yelp.com/biz/the-rail-trail-ale-house-southwick?adjust_creative=HdhkN5EEH6lAqE3kwhsHEQ&utm_campaign=yelp_api_v3&utm_medium=api_v3_business_search&utm_source=HdhkN5EEH6lAqE3kwhsHEQ", "review_count": 2, "categories": [{"alias": "burgers", "title": "Burgers"}, {"alias": "hotdogs", "title": "Fast Food"}, {"alias": "pizza", "title": "Pizza"}], "rating": 5.0, "coordinates": {"latitude": 42.04578, "longitude": -72.76284}, "transactions": [], "location": {"address1": "23 Point Grove Rd", "address2": null, "address3": "", "city": "Southwick", "zip_code": "01077", "country": "US", "state": "MA", "display_address": ["23 Point Grove Rd", "Southwick, MA 01077"]}, "phone": "+14139980555", "display_phone": "(413) 998-0555", "distance": 21842.211278936353}, {"id": "ZiHnY5W-l_08UP9XuLkjQQ", "alias": "santiago-family-restaurant-westfield", "name": "Santiago Family Restaurant", "image_url": "https://s3-media2.fl.yelpcdn.com/bphoto/dQvWCSS7lXhGE8e2KwTsLQ/o.jpg", "is_closed": false, "url": "https://www.yelp.com/biz/santiago-family-restaurant-westfield?adjust_creative=HdhkN5EEH6lAqE3kwhsHEQ&utm_campaign=yelp_api_v3&utm_medium=api_v3_business_search&utm_source=HdhkN5EEH6lAqE3kwhsHEQ", "review_count": 130, "categories": [{"alias": "spanish", "title": "Spanish"}, {"alias": "latin", "title": "Latin American"}], "rating": 5.0, "coordinates": {"latitude": 42.1244010925293, "longitude": -72.7496871948242}, "transactions": ["delivery"], "price": "$$", "location": {"address1": "34 Franklin St", "address2": "", "address3": "", "city": "Westfield", "zip_code": "01085", "country": "US", "state": "MA", "display_address": ["34 Franklin St", "Westfield, MA 01085"]}, "phone": "+14135620210", "display_phone": "(413) 562-0210", "distance": 17962.718878073556}, {"id": "9E7bSiKklQQX5ITubqhy7Q", "alias": "m-j-tuckers-sandisfield-2", "name": "M J Tucker's", "image_url": "https://s3-media1.fl.yelpcdn.com/bphoto/1qAbTc07x0gekFUUKHnd2g/o.jpg", "is_closed": false, "url": "https://www.yelp.com/biz/m-j-tuckers-sandisfield-2?adjust_creative=HdhkN5EEH6lAqE3kwhsHEQ&utm_campaign=yelp_api_v3&utm_medium=api_v3_business_search&utm_source=HdhkN5EEH6lAqE3kwhsHEQ", "review_count": 6, "categories": [{"alias": "pizza", "title": "Pizza"}], "rating": 4.0, "coordinates": {"latitude": 42.0787, "longitude": -73.06869}, "transactions": [], "location": {"address1": "61 S Main St", "address2": null, "address3": null, "city": "Sandisfield", "zip_code": "01255", "country": "US", "state": "MA", "display_address": ["61 S Main St", "Sandisfield, MA 01255"]}, "phone": "+14132584040", "display_phone": "(413) 258-4040", "distance": 14912.9930348217}, {"id": "tzGeP8RTMlywrPLoufd_Fw", "alias": "farmington-river-diner-otis", "name": "Farmington River Diner", "image_url": "https://s3-media4.fl.yelpcdn.com/bphoto/ut6IiVEvNLgXTrhRu4jAHw/o.jpg", "is_closed": false, "url": "https://www.yelp.com/biz/farmington-river-diner-otis?adjust_creative=HdhkN5EEH6lAqE3kwhsHEQ&utm_campaign=yelp_api_v3&utm_medium=api_v3_business_search&utm_source=HdhkN5EEH6lAqE3kwhsHEQ", "review_count": 21, "categories": [{"alias": "diners", "title": "Diners"}, {"alias": "breakfast_brunch", "title": "Breakfast & Brunch"}], "rating": 3.5, "coordinates": {"latitude": 42.1899823524507, "longitude": -73.0904081204439}, "transactions": [], "price": "$$$", "location": {"address1": "119 S Main Rd", "address2": "", "address3": "", "city": "Otis", "zip_code": "01253", "country": "US", "state": "MA", "display_address": ["119 S Main Rd", "Otis, MA 01253"]}, "phone": "+14132696874", "display_phone": "(413) 269-6874", "distance": 11326.618265378467}, {"id": "9LrxgQh9i7vmsFqGmz5B9Q", "alias": "norwich-lake-farm-and-sugar-barn-restaurant-huntington", "name": "Norwich Lake Farm and Sugar Barn Restaurant", "image_url": "https://s3-media1.fl.yelpcdn.com/bphoto/sWWUQk2ZbqD_GBJa2JjCTQ/o.jpg", "is_closed": false, "url": "https://www.yelp.com/biz/norwich-lake-farm-and-sugar-barn-restaurant-huntington?adjust_creative=HdhkN5EEH6lAqE3kwhsHEQ&utm_campaign=yelp_api_v3&utm_medium=api_v3_business_search&utm_source=HdhkN5EEH6lAqE3kwhsHEQ", "review_count": 2, "categories": [{"alias": "breakfast_brunch", "title": "Breakfast & Brunch"}], "rating": 5.0, "coordinates": {"latitude": 42.3006329582653, "longitude": -72.8408531472087}, "transactions": [], "location": {"address1": "87 Searle Rd", "address2": "", "address3": null, "city": "Huntington", "zip_code": "01050", "country": "US", "state": "MA", "display_address": ["87 Searle Rd", "Huntington, MA 01050"]}, "phone": "+14136678830", "display_phone": "(413) 667-8830", "distance": 16099.978447731297}, {"id": "ARnHCxfth45qbu5AU2g3Og", "alias": "classic-pizza-chester", "name": "Classic Pizza", "image_url": "https://s3-media3.fl.yelpcdn.com/bphoto/eAl51P7XAPmveVMWETkH2g/o.jpg", "is_closed": false, "url": "https://www.yelp.com/biz/classic-pizza-chester?adjust_creative=HdhkN5EEH6lAqE3kwhsHEQ&utm_campaign=yelp_api_v3&utm_medium=api_v3_business_search&utm_source=HdhkN5EEH6lAqE3kwhsHEQ", "review_count": 8, "categories": [{"alias": "pizza", "title": "Pizza"}], "rating": 3.5, "coordinates": {"latitude": 42.2799491882324, "longitude": -72.9793853759766}, "transactions": [], "price": "$$", "location": {"address1": "29 Main St", "address2": "", "address3": "", "city": "Chester", "zip_code": "01011", "country": "US", "state": "MA", "display_address": ["29 Main St", "Chester, MA 01011"]}, "phone": "+14133546554", "display_phone": "(413) 354-6554", "distance": 11091.446161337615}, {"id": "5HeBUKMSh8MHAEcK3-XIFA", "alias": "wok-on-water-southwick", "name": "Wok on Water", "image_url": "https://s3-media2.fl.yelpcdn.com/bphoto/h-tNlAP82e82XJ9xJ5PwNw/o.jpg", "is_closed": false, "url": "https://www.yelp.com/biz/wok-on-water-southwick?adjust_creative=HdhkN5EEH6lAqE3kwhsHEQ&utm_campaign=yelp_api_v3&utm_medium=api_v3_business_search&utm_source=HdhkN5EEH6lAqE3kwhsHEQ", "review_count": 22, "categories": [{"alias": "asianfusion", "title": "Asian Fusion"}, {"alias": "cocktailbars", "title": "Cocktail Bars"}, {"alias": "tapas", "title": "Tapas Bars"}], "rating": 4.0, "coordinates": {"latitude": 42.041237, "longitude": -72.756134}, "transactions": ["delivery"], "location": {"address1": "101 Point Grove Rd", "address2": "", "address3": null, "city": "Southwick", "zip_code": "01077", "country": "US", "state": "MA", "display_address": ["101 Point Grove Rd", "Southwick, MA 01077"]}, "phone": "+14135699651", "display_phone": "(413) 569-9651", "distance": 22588.384162762857}, {"id": "fDnZGo3bxmQlMZo3m2T96w", "alias": "katies-country-store-east-otis", "name": "Katie's Country Store", "image_url": "https://s3-media3.fl.yelpcdn.com/bphoto/0XMo7glsemhUEwtfjwZuAQ/o.jpg", "is_closed": false, "url": "https://www.yelp.com/biz/katies-country-store-east-otis?adjust_creative=HdhkN5EEH6lAqE3kwhsHEQ&utm_campaign=yelp_api_v3&utm_medium=api_v3_business_search&utm_source=HdhkN5EEH6lAqE3kwhsHEQ", "review_count": 6, "categories": [{"alias": "grocery", "title": "Grocery"}, {"alias": "burgers", "title": "Burgers"}, {"alias": "sandwiches", "title": "Sandwiches"}], "rating": 3.5, "coordinates": {"latitude": 42.1731642, "longitude": -73.034965}, "transactions": [], "price": "$$", "location": {"address1": "1922 E Otis Rd", "address2": "", "address3": "", "city": "East Otis", "zip_code": "01029", "country": "US", "state": "MA", "display_address": ["1922 E Otis Rd", "East Otis, MA 01029"]}, "phone": "+14132694211", "display_phone": "(413) 269-4211", "distance": 6800.636611112871}, {"id": "E0JSl9ZF_hJgQ1c-Uw1CaA", "alias": "the-good-table-westfield-2", "name": "The Good Table", "image_url": "https://s3-media2.fl.yelpcdn.com/bphoto/1nVJ4_GHMQQ1QxpCfPEkhw/o.jpg", "is_closed": false, "url": "https://www.yelp.com/biz/the-good-table-westfield-2?adjust_creative=HdhkN5EEH6lAqE3kwhsHEQ&utm_campaign=yelp_api_v3&utm_medium=api_v3_business_search&utm_source=HdhkN5EEH6lAqE3kwhsHEQ", "review_count": 69, "categories": [{"alias": "breakfast_brunch", "title": "Breakfast & Brunch"}], "rating": 4.5, "coordinates": {"latitude": 42.121251, "longitude": -72.749693}, "transactions": ["delivery"], "price": "$", "location": {"address1": "12 School St", "address2": "", "address3": "", "city": "Westfield", "zip_code": "01085", "country": "US", "state": "MA", "display_address": ["12 School St", "Westfield, MA 01085"]}, "phone": "+14136425527", "display_phone": "(413) 642-5527", "distance": 18103.62383559863}, {"id": "yjoE7dKa-FC51WJ4XvcDwQ", "alias": "fratellis-restaurant-and-pizza-otis", "name": "Fratelli's Restaurant & Pizza", "image_url": "https://s3-media3.fl.yelpcdn.com/bphoto/q2Vymqd4Szn0S-cdT4CKMw/o.jpg", "is_closed": false, "url": "https://www.yelp.com/biz/fratellis-restaurant-and-pizza-otis?adjust_creative=HdhkN5EEH6lAqE3kwhsHEQ&utm_campaign=yelp_api_v3&utm_medium=api_v3_business_search&utm_source=HdhkN5EEH6lAqE3kwhsHEQ", "review_count": 34, "categories": [{"alias": "italian", "title": "Italian"}, {"alias": "pizza", "title": "Pizza"}], "rating": 4.0, "coordinates": {"latitude": 42.19269, "longitude": -73.09249}, "transactions": [], "price": "$$", "location": {"address1": "8 S Main Rd", "address2": "", "address3": "", "city": "Otis", "zip_code": "01253", "country": "US", "state": "MA", "display_address": ["8 S Main Rd", "Otis, MA 01253"]}, "phone": "+14132694900", "display_phone": "(413) 269-4900", "distance": 11508.354526379202}, {"id": "b4-4eClP0ksWjfBUMkI1-A", "alias": "becket-general-store-becket-2", "name": "Becket General Store", "image_url": "https://s3-media2.fl.yelpcdn.com/bphoto/O1QiC8MXq3W-AcqbU7FaFQ/o.jpg", "is_closed": false, "url": "https://www.yelp.com/biz/becket-general-store-becket-2?adjust_creative=HdhkN5EEH6lAqE3kwhsHEQ&utm_campaign=yelp_api_v3&utm_medium=api_v3_business_search&utm_source=HdhkN5EEH6lAqE3kwhsHEQ", "review_count": 11, "categories": [{"alias": "breakfast_brunch", "title": "Breakfast & Brunch"}, {"alias": "pizza", "title": "Pizza"}, {"alias": "bars", "title": "Bars"}], "rating": 4.5, "coordinates": {"latitude": 42.3275317514641, "longitude": -73.0836283305567}, "transactions": [], "location": {"address1": "3235 Main St", "address2": "", "address3": null, "city": "Becket", "zip_code": "01223", "country": "US", "state": "MA", "display_address": ["3235 Main St", "Becket, MA 01223"]}, "phone": "+14136236026", "display_phone": "(413) 623-6026", "distance": 19395.471173021124}, {"id": "YX9WlOS0UfQA8BEuegEw2A", "alias": "granville-country-store-granville", "name": "Granville Country Store", "image_url": "https://s3-media3.fl.yelpcdn.com/bphoto/RCnkxzc6kIDKQx2XA7uUzA/o.jpg", "is_closed": false, "url": "https://www.yelp.com/biz/granville-country-store-granville?adjust_creative=HdhkN5EEH6lAqE3kwhsHEQ&utm_campaign=yelp_api_v3&utm_medium=api_v3_business_search&utm_source=HdhkN5EEH6lAqE3kwhsHEQ", "review_count": 29, "categories": [{"alias": "convenience", "title": "Convenience Stores"}, {"alias": "delis", "title": "Delis"}], "rating": 4.0, "coordinates": {"latitude": 42.0661592438345, "longitude": -72.8618863520456}, "transactions": [], "price": "$$", "location": {"address1": "11 Granby Rd", "address2": "", "address3": "", "city": "Granville", "zip_code": "01034", "country": "US", "state": "MA", "display_address": ["11 Granby Rd", "Granville, MA 01034"]}, "phone": "+14133578555", "display_phone": "(413) 357-8555", "distance": 14944.474685742884}, {"id": "625FRIW_XeYQDooSanOH4w", "alias": "montgomery-grille-montgomery", "name": "Montgomery Grille", "image_url": "https://s3-media2.fl.yelpcdn.com/bphoto/6BeBWORyJKlyOFhaCubisg/o.jpg", "is_closed": false, "url": "https://www.yelp.com/biz/montgomery-grille-montgomery?adjust_creative=HdhkN5EEH6lAqE3kwhsHEQ&utm_campaign=yelp_api_v3&utm_medium=api_v3_business_search&utm_source=HdhkN5EEH6lAqE3kwhsHEQ", "review_count": 6, "categories": [{"alias": "tradamerican", "title": "American (Traditional)"}, {"alias": "mexican", "title": "Mexican"}, {"alias": "breakfast_brunch", "title": "Breakfast & Brunch"}], "rating": 5.0, "coordinates": {"latitude": 42.206230173471, "longitude": -72.8008604049683}, "transactions": [], "location": {"address1": "46 Main Rd", "address2": "", "address3": "", "city": "Montgomery", "zip_code": "01085", "country": "US", "state": "MA", "display_address": ["46 Main Rd", "Montgomery, MA 01085"]}, "phone": "+14138623663", "display_phone": "(413) 862-3663", "distance": 12842.701679374159}, {"id": "KwAaAZte_nWKeny_lAb0nA", "alias": "dream-away-lodge-becket", "name": "Dream Away Lodge", "image_url": "https://s3-media2.fl.yelpcdn.com/bphoto/Oh289v27yllCU-Zj_WK1MA/o.jpg", "is_closed": false, "url": "https://www.yelp.com/biz/dream-away-lodge-becket?adjust_creative=HdhkN5EEH6lAqE3kwhsHEQ&utm_campaign=yelp_api_v3&utm_medium=api_v3_business_search&utm_source=HdhkN5EEH6lAqE3kwhsHEQ", "review_count": 87, "categories": [{"alias": "bars", "title": "Bars"}, {"alias": "newamerican", "title": "American (New)"}], "rating": 3.5, "coordinates": {"latitude": 42.32495, "longitude": -73.14103}, "transactions": [], "price": "$$", "location": {"address1": "1342 County Rd", "address2": "", "address3": "", "city": "Becket", "zip_code": "01223", "country": "US", "state": "MA", "display_address": ["1342 County Rd", "Becket, MA 01223"]}, "phone": "+14136238725", "display_phone": "(413) 623-8725", "distance": 22150.625590253}, {"id": "PtDrRhB6DJDwua5LdVWKNQ", "alias": "emmas-everyday-gourmet-westfield", "name": "Emma's Everyday Gourmet", "image_url": "https://s3-media2.fl.yelpcdn.com/bphoto/K75RtAGP4uS4ASBVjzPCRQ/o.jpg", "is_closed": false, "url": "https://www.yelp.com/biz/emmas-everyday-gourmet-westfield?adjust_creative=HdhkN5EEH6lAqE3kwhsHEQ&utm_campaign=yelp_api_v3&utm_medium=api_v3_business_search&utm_source=HdhkN5EEH6lAqE3kwhsHEQ", "review_count": 83, "categories": [{"alias": "italian", "title": "Italian"}], "rating": 4.5, "coordinates": {"latitude": 42.12351, "longitude": -72.75134}, "transactions": ["delivery"], "price": "$$", "location": {"address1": "45 Washington St", "address2": "", "address3": "", "city": "Westfield", "zip_code": "01085", "country": "US", "state": "MA", "display_address": ["45 Washington St", "Westfield, MA 01085"]}, "phone": "+14136423221", "display_phone": "(413) 642-3221", "distance": 17875.144750703297}, {"id": "8w4W6zR1PESowk4u_aLYIg", "alias": "russell-inn-russell", "name": "Russell Inn", "image_url": "https://s3-media3.fl.yelpcdn.com/bphoto/KL8hMD_bTwenuL1D9cYS1w/o.jpg", "is_closed": false, "url": "https://www.yelp.com/biz/russell-inn-russell?adjust_creative=HdhkN5EEH6lAqE3kwhsHEQ&utm_campaign=yelp_api_v3&utm_medium=api_v3_business_search&utm_source=HdhkN5EEH6lAqE3kwhsHEQ", "review_count": 39, "categories": [{"alias": "hotels", "title": "Hotels"}, {"alias": "newamerican", "title": "American (New)"}, {"alias": "lounges", "title": "Lounges"}], "rating": 3.5, "coordinates": {"latitude": 42.163813860793, "longitude": -72.8284650158691}, "transactions": [], "price": "$$", "location": {"address1": "65 Westfield Rd", "address2": "", "address3": "", "city": "Russell", "zip_code": "01071", "country": "US", "state": "MA", "display_address": ["65 Westfield Rd", "Russell, MA 01071"]}, "phone": "+14138623608", "display_phone": "(413) 862-3608", "distance": 10491.505195688917}, {"id": "Hu57Hg5qRwIsmZyNPz8WDA", "alias": "alo-saigon-westfield", "name": "Alo Saigon", "image_url": "https://s3-media4.fl.yelpcdn.com/bphoto/87CBbfIp-NCajpjymxHoFA/o.jpg", "is_closed": false, "url": "https://www.yelp.com/biz/alo-saigon-westfield?adjust_creative=HdhkN5EEH6lAqE3kwhsHEQ&utm_campaign=yelp_api_v3&utm_medium=api_v3_business_search&utm_source=HdhkN5EEH6lAqE3kwhsHEQ", "review_count": 96, "categories": [{"alias": "vietnamese", "title": "Vietnamese"}, {"alias": "bubbletea", "title": "Bubble Tea"}, {"alias": "soup", "title": "Soup"}], "rating": 4.5, "coordinates": {"latitude": 42.123119354248, "longitude": -72.7487716674805}, "transactions": ["delivery"], "price": "$$", "location": {"address1": "116 Elm St", "address2": "", "address3": "", "city": "Westfield", "zip_code": "01085", "country": "US", "state": "MA", "display_address": ["116 Elm St", "Westfield, MA 01085"]}, "phone": "+14136426515", "display_phone": "(413) 642-6515", "distance": 18097.743202791575}, {"id": "nNCyiuwE-xtBc2H-vV9aDw", "alias": "debs-hot-dog-stand-granville", "name": "Deb's Hot Dog Stand", "image_url": "https://s3-media4.fl.yelpcdn.com/bphoto/wWE5qQEk5YvdWA0RDcew0Q/o.jpg", "is_closed": false, "url": "https://www.yelp.com/biz/debs-hot-dog-stand-granville?adjust_creative=HdhkN5EEH6lAqE3kwhsHEQ&utm_campaign=yelp_api_v3&utm_medium=api_v3_business_search&utm_source=HdhkN5EEH6lAqE3kwhsHEQ", "review_count": 3, "categories": [{"alias": "foodstands", "title": "Food Stands"}], "rating": 5.0, "coordinates": {"latitude": 42.0782279968262, "longitude": -72.9402923583984}, "transactions": [], "location": {"address1": "1542 Main Rd", "address2": "", "address3": null, "city": "Granville", "zip_code": "01034", "country": "US", "state": "MA", "display_address": ["1542 Main Rd", "Granville, MA 01034"]}, "phone": "", "display_phone": "", "distance": 11718.708005588176}, {"id": "9liFsX4ASC-aulosutlblQ", "alias": "mi-ranchito-tex-mex-westfield", "name": "Mi Ranchito Tex Mex", "image_url": "https://s3-media3.fl.yelpcdn.com/bphoto/oA1NsN_d4acQuw1Yrh6VSw/o.jpg", "is_closed": false, "url": "https://www.yelp.com/biz/mi-ranchito-tex-mex-westfield?adjust_creative=HdhkN5EEH6lAqE3kwhsHEQ&utm_campaign=yelp_api_v3&utm_medium=api_v3_business_search&utm_source=HdhkN5EEH6lAqE3kwhsHEQ", "review_count": 20, "categories": [{"alias": "mexican", "title": "Mexican"}, {"alias": "tex-mex", "title": "Tex-Mex"}], "rating": 4.0, "coordinates": {"latitude": 42.12576, "longitude": -72.75269}, "transactions": ["delivery"], "price": "$", "location": {"address1": "69 Franklin St", "address2": "", "address3": "", "city": "Westfield", "zip_code": "01085", "country": "US", "state": "MA", "display_address": ["69 Franklin St", "Westfield, MA 01085"]}, "phone": "+14135681150", "display_phone": "(413) 568-1150", "distance": 17692.202115138203}, {"id": "wGMb0UHJg7OtJSZ0dD7qvg", "alias": "mcdonalds-blandford-4", "name": "McDonald's", "image_url": "https://s3-media4.fl.yelpcdn.com/bphoto/pjUOJQaJPKc12XOIG90l6g/o.jpg", "is_closed": false, "url": "https://www.yelp.com/biz/mcdonalds-blandford-4?adjust_creative=HdhkN5EEH6lAqE3kwhsHEQ&utm_campaign=yelp_api_v3&utm_medium=api_v3_business_search&utm_source=HdhkN5EEH6lAqE3kwhsHEQ", "review_count": 3, "categories": [{"alias": "coffee", "title": "Coffee & Tea"}, {"alias": "burgers", "title": "Burgers"}, {"alias": "hotdogs", "title": "Fast Food"}], "rating": 1.5, "coordinates": {"latitude": 42.1954836, "longitude": -72.9326521}, "transactions": [], "price": "$", "location": {"address1": "50 Massachusetts Tpke", "address2": null, "address3": null, "city": "Blandford", "zip_code": "01008", "country": "US", "state": "MA", "display_address": ["50 Massachusetts Tpke", "Blandford, MA 01008"]}, "phone": "+14138482284", "display_phone": "(413) 848-2284", "distance": 2256.317817607311}, {"id": "KoovhR9aNO7ZNjIpAmR2Ag", "alias": "two-rivers-burrito-co-westfield", "name": "Two Rivers Burrito Co", "image_url": "https://s3-media3.fl.yelpcdn.com/bphoto/q_3xxv8ojNOUuaVOMJWYaA/o.jpg", "is_closed": false, "url": "https://www.yelp.com/biz/two-rivers-burrito-co-westfield?adjust_creative=HdhkN5EEH6lAqE3kwhsHEQ&utm_campaign=yelp_api_v3&utm_medium=api_v3_business_search&utm_source=HdhkN5EEH6lAqE3kwhsHEQ", "review_count": 162, "categories": [{"alias": "mexican", "title": "Mexican"}, {"alias": "newamerican", "title": "American (New)"}, {"alias": "tex-mex", "title": "Tex-Mex"}], "rating": 4.5, "coordinates": {"latitude": 42.1219372299061, "longitude": -72.7491059463501}, "transactions": ["delivery"], "price": "$", "location": {"address1": "36 Elm St", "address2": "", "address3": "", "city": "Westfield", "zip_code": "01085", "country": "US", "state": "MA", "display_address": ["36 Elm St", "Westfield, MA 01085"]}, "phone": "+14135795469", "display_phone": "(413) 579-5469", "distance": 18120.075369580525}, {"id": "VazvqfJnJ1Rv7K0pDBfE0w", "alias": "tuckers-restaurant-southwick-2", "name": "Tucker's Restaurant", "image_url": "https://s3-media4.fl.yelpcdn.com/bphoto/yyAUXCzOJezQrCJkQUotfA/o.jpg", "is_closed": false, "url": "https://www.yelp.com/biz/tuckers-restaurant-southwick-2?adjust_creative=HdhkN5EEH6lAqE3kwhsHEQ&utm_campaign=yelp_api_v3&utm_medium=api_v3_business_search&utm_source=HdhkN5EEH6lAqE3kwhsHEQ", "review_count": 19, "categories": [{"alias": "newamerican", "title": "American (New)"}, {"alias": "venues", "title": "Venues & Event Spaces"}, {"alias": "wine_bars", "title": "Wine Bars"}], "rating": 3.5, "coordinates": {"latitude": 42.0647039134398, "longitude": -72.7647228702056}, "transactions": ["delivery"], "price": "$$", "location": {"address1": "625 College Hwy", "address2": null, "address3": null, "city": "Southwick", "zip_code": "01077", "country": "US", "state": "MA", "display_address": ["625 College Hwy", "Southwick, MA 01077"]}, "phone": "+14135690120", "display_phone": "(413) 569-0120", "distance": 20313.412819091634}, {"id": "PIAU2nZyrxObZKLXumxNzQ", "alias": "zanto-southwick", "name": "Zanto", "image_url": "https://s3-media1.fl.yelpcdn.com/bphoto/sGny9w7M97NLitrTpwif-w/o.jpg", "is_closed": false, "url": "https://www.yelp.com/biz/zanto-southwick?adjust_creative=HdhkN5EEH6lAqE3kwhsHEQ&utm_campaign=yelp_api_v3&utm_medium=api_v3_business_search&utm_source=HdhkN5EEH6lAqE3kwhsHEQ", "review_count": 38, "categories": [{"alias": "pizza", "title": "Pizza"}, {"alias": "italian", "title": "Italian"}, {"alias": "tradamerican", "title": "American (Traditional)"}], "rating": 4.0, "coordinates": {"latitude": 42.06218, "longitude": -72.76549}, "transactions": ["delivery"], "price": "$$", "location": {"address1": "587 College Hwy", "address2": "", "address3": "", "city": "Southwick", "zip_code": "01077", "country": "US", "state": "MA", "display_address": ["587 College Hwy", "Southwick, MA 01077"]}, "phone": "+14135690164", "display_phone": "(413) 569-0164", "distance": 20432.951098734156}, {"id": "_fbnH1lHAzDKswzdn8J2yg", "alias": "noras-restaurant-southwick-2", "name": "Nora's Restaurant", "image_url": "https://s3-media1.fl.yelpcdn.com/bphoto/GzxzEDuPRLt2g43SLq550A/o.jpg", "is_closed": false, "url": "https://www.yelp.com/biz/noras-restaurant-southwick-2?adjust_creative=HdhkN5EEH6lAqE3kwhsHEQ&utm_campaign=yelp_api_v3&utm_medium=api_v3_business_search&utm_source=HdhkN5EEH6lAqE3kwhsHEQ", "review_count": 42, "categories": [{"alias": "bars", "title": "Bars"}, {"alias": "newamerican", "title": "American (New)"}], "rating": 3.5, "coordinates": {"latitude": 42.0415878295898, "longitude": -72.7553100585938}, "transactions": ["delivery"], "price": "$$$", "location": {"address1": "106 Point Grove Rd", "address2": "", "address3": "", "city": "Southwick", "zip_code": "01077", "country": "US", "state": "MA", "display_address": ["106 Point Grove Rd", "Southwick, MA 01077"]}, "phone": "+14135699585", "display_phone": "(413) 569-9585", "distance": 22612.967325237118}, {"id": "RbUXu0Dr79pTDSjOUFH-hA", "alias": "the-ranch-pub-house-southwick", "name": "The Ranch Pub House", "image_url": "https://s3-media3.fl.yelpcdn.com/bphoto/ox6c6Z0E8zleHskJxaRVBg/o.jpg", "is_closed": false, "url": "https://www.yelp.com/biz/the-ranch-pub-house-southwick?adjust_creative=HdhkN5EEH6lAqE3kwhsHEQ&utm_campaign=yelp_api_v3&utm_medium=api_v3_business_search&utm_source=HdhkN5EEH6lAqE3kwhsHEQ", "review_count": 2, "categories": [{"alias": "tradamerican", "title": "American (Traditional)"}, {"alias": "pubs", "title": "Pubs"}, {"alias": "sportsbars", "title": "Sports Bars"}], "rating": 3.0, "coordinates": {"latitude": 42.0847895, "longitude": -72.7736336}, "transactions": [], "price": "$$", "location": {"address1": "65 Sunny Side Rd", "address2": null, "address3": "", "city": "Southwick", "zip_code": "01077", "country": "US", "state": "MA", "display_address": ["65 Sunny Side Rd", "Southwick, MA 01077"]}, "phone": "+14135699333", "display_phone": "(413) 569-9333", "distance": 18354.225470981288}, {"id": "g_Z91F4sXjvoPPum7nSa7A", "alias": "village-pizza-restaurant-southwick", "name": "Village Pizza Restaurant", "image_url": "https://s3-media3.fl.yelpcdn.com/bphoto/fbqXe4QFXIrkMblsKZ6LFA/o.jpg", "is_closed": false, "url": "https://www.yelp.com/biz/village-pizza-restaurant-southwick?adjust_creative=HdhkN5EEH6lAqE3kwhsHEQ&utm_campaign=yelp_api_v3&utm_medium=api_v3_business_search&utm_source=HdhkN5EEH6lAqE3kwhsHEQ", "review_count": 18, "categories": [{"alias": "pizza", "title": "Pizza"}], "rating": 3.0, "coordinates": {"latitude": 42.057816, "longitude": -72.768672}, "transactions": ["delivery"], "price": "$$", "location": {"address1": "515 College Hwy", "address2": "", "address3": "", "city": "Southwick", "zip_code": "01077", "country": "US", "state": "MA", "display_address": ["515 College Hwy", "Southwick, MA 01077"]}, "phone": "+14135693160", "display_phone": "(413) 569-3160", "distance": 20572.559847336273}, {"id": "GBeWGwKZu_URwU1tl17VRQ", "alias": "new-main-moon-chinese-restaurant-southwick", "name": "New Main Moon Chinese Restaurant", "image_url": "https://s3-media1.fl.yelpcdn.com/bphoto/H7vsIe3-zFWWfOyGs_tM_w/o.jpg", "is_closed": false, "url": "https://www.yelp.com/biz/new-main-moon-chinese-restaurant-southwick?adjust_creative=HdhkN5EEH6lAqE3kwhsHEQ&utm_campaign=yelp_api_v3&utm_medium=api_v3_business_search&utm_source=HdhkN5EEH6lAqE3kwhsHEQ", "review_count": 34, "categories": [{"alias": "chinese", "title": "Chinese"}], "rating": 3.5, "coordinates": {"latitude": 42.063179, "longitude": -72.7645921}, "transactions": [], "price": "$", "location": {"address1": "610 College Hwy", "address2": "", "address3": "", "city": "Southwick", "zip_code": "01077", "country": "US", "state": "MA", "display_address": ["610 College Hwy", "Southwick, MA 01077"]}, "phone": "+14135691234", "display_phone": "(413) 569-1234", "distance": 20473.014926199146}, {"id": "J0BGjdVn8DRjfWcNGn_WVA", "alias": "mcdonalds-blandford-3", "name": "McDonald's", "image_url": "https://s3-media1.fl.yelpcdn.com/bphoto/J1bCYvv57ylU6zkDLAEnHw/o.jpg", "is_closed": false, "url": "https://www.yelp.com/biz/mcdonalds-blandford-3?adjust_creative=HdhkN5EEH6lAqE3kwhsHEQ&utm_campaign=yelp_api_v3&utm_medium=api_v3_business_search&utm_source=HdhkN5EEH6lAqE3kwhsHEQ", "review_count": 11, "categories": [{"alias": "burgers", "title": "Burgers"}, {"alias": "hotdogs", "title": "Fast Food"}, {"alias": "coffee", "title": "Coffee & Tea"}], "rating": 2.0, "coordinates": {"latitude": 42.194427, "longitude": -72.93425}, "transactions": [], "price": "$", "location": {"address1": "50 North St", "address2": "", "address3": "", "city": "Blandford", "zip_code": "01008", "country": "US", "state": "MA", "display_address": ["50 North St", "Blandford, MA 01008"]}, "phone": "+14138482518", "display_phone": "(413) 848-2518", "distance": 2079.896187630191}, {"id": "XqIn43rbVwYglfSI9aO5JA", "alias": "roma-restaurant-southwick", "name": "Roma Restaurant", "image_url": "https://s3-media4.fl.yelpcdn.com/bphoto/gSFBPiW0WScKZ2H57qbAYw/o.jpg", "is_closed": false, "url": "https://www.yelp.com/biz/roma-restaurant-southwick?adjust_creative=HdhkN5EEH6lAqE3kwhsHEQ&utm_campaign=yelp_api_v3&utm_medium=api_v3_business_search&utm_source=HdhkN5EEH6lAqE3kwhsHEQ", "review_count": 34, "categories": [{"alias": "pizza", "title": "Pizza"}], "rating": 2.5, "coordinates": {"latitude": 42.0605, "longitude": -72.76873}, "transactions": ["delivery"], "price": "$$", "location": {"address1": "561 College Hwy", "address2": "", "address3": "", "city": "Southwick", "zip_code": "01077", "country": "US", "state": "MA", "display_address": ["561 College Hwy", "Southwick, MA 01077"]}, "phone": "+14135696315", "display_phone": "(413) 569-6315", "distance": 20476.332192000493}, {"id": "nrLxUbJiQd6De_8yx7_jIQ", "alias": "crazy-arepas-springfield", "name": "Crazy Arepas", "image_url": "https://s3-media2.fl.yelpcdn.com/bphoto/xBRYNve2vxH1M1iG5Gm4lQ/o.jpg", "is_closed": false, "url": "https://www.yelp.com/biz/crazy-arepas-springfield?adjust_creative=HdhkN5EEH6lAqE3kwhsHEQ&utm_campaign=yelp_api_v3&utm_medium=api_v3_business_search&utm_source=HdhkN5EEH6lAqE3kwhsHEQ", "review_count": 3, "categories": [{"alias": "foodtrucks", "title": "Food Trucks"}, {"alias": "spanish", "title": "Spanish"}, {"alias": "tradamerican", "title": "American (Traditional)"}], "rating": 5.0, "coordinates": {"latitude": 42.1191, "longitude": -72.55044}, "transactions": [], "location": {"address1": null, "address2": null, "address3": null, "city": "Springfield", "zip_code": "01109", "country": "US", "state": "MA", "display_address": ["Springfield, MA 01109"]}, "phone": "+14138888083", "display_phone": "(413) 888-8083", "distance": 33874.062542536405}, {"id": "KlooJx4jsR0RDFY7qf5FBQ", "alias": "edgewood-golf-course-restaurant-southwick", "name": "Edgewood Golf Course Restaurant", "image_url": "", "is_closed": false, "url": "https://www.yelp.com/biz/edgewood-golf-course-restaurant-southwick?adjust_creative=HdhkN5EEH6lAqE3kwhsHEQ&utm_campaign=yelp_api_v3&utm_medium=api_v3_business_search&utm_source=HdhkN5EEH6lAqE3kwhsHEQ", "review_count": 2, "categories": [{"alias": "restaurants", "title": "Restaurants"}], "rating": 4.0, "coordinates": {"latitude": 42.0416877418756, "longitude": -72.7671906352043}, "transactions": [], "price": "$", "location": {"address1": "161 Sheep Pasture Rd", "address2": "", "address3": "", "city": "Southwick", "zip_code": "01077", "country": "US", "state": "MA", "display_address": ["161 Sheep Pasture Rd", "Southwick, MA 01077"]}, "phone": "+14135695401", "display_phone": "(413) 569-5401", "distance": 21955.89739782781}, {"id": "y5KWUtvx_BzkXwK1IYvzug", "alias": "summer-house-southwick", "name": "Summer House", "image_url": "https://s3-media3.fl.yelpcdn.com/bphoto/V6ucOhTsTvIFI0Zb3xYrgw/o.jpg", "is_closed": false, "url": "https://www.yelp.com/biz/summer-house-southwick?adjust_creative=HdhkN5EEH6lAqE3kwhsHEQ&utm_campaign=yelp_api_v3&utm_medium=api_v3_business_search&utm_source=HdhkN5EEH6lAqE3kwhsHEQ", "review_count": 51, "categories": [{"alias": "icecream", "title": "Ice Cream & Frozen Yogurt"}, {"alias": "tradamerican", "title": "American (Traditional)"}, {"alias": "burgers", "title": "Burgers"}], "rating": 4.0, "coordinates": {"latitude": 42.05895, "longitude": -72.76672}, "transactions": [], "price": "$", "location": {"address1": "552 College Hwy", "address2": "", "address3": "", "city": "Southwick", "zip_code": "01077", "country": "US", "state": "MA", "display_address": ["552 College Hwy", "Southwick, MA 01077"]}, "phone": "+14135693581", "display_phone": "(413) 569-3581", "distance": 20601.399473981663}, {"id": "MTzTTIUF_uMQp2P0WaZgpg", "alias": "tung-shing-dragon-westfield", "name": "Tung Shing Dragon", "image_url": "https://s3-media4.fl.yelpcdn.com/bphoto/VFJA7H-_qkWlRcc5JcyCjA/o.jpg", "is_closed": false, "url": "https://www.yelp.com/biz/tung-shing-dragon-westfield?adjust_creative=HdhkN5EEH6lAqE3kwhsHEQ&utm_campaign=yelp_api_v3&utm_medium=api_v3_business_search&utm_source=HdhkN5EEH6lAqE3kwhsHEQ", "review_count": 20, "categories": [{"alias": "chinese", "title": "Chinese"}], "rating": 3.5, "coordinates": {"latitude": 42.125347, "longitude": -72.753719}, "transactions": ["delivery"], "price": "$$", "location": {"address1": "76 Franklin St", "address2": "", "address3": "", "city": "Westfield", "zip_code": "01085", "country": "US", "state": "MA", "display_address": ["76 Franklin St", "Westfield, MA 01085"]}, "phone": "+14135724522", "display_phone": "(413) 572-4522", "distance": 17627.417536592617}, {"id": "GUft10qbwpxzThU3l_yQ5g", "alias": "the-hangar-pub-and-grill-westfield-westfield", "name": "The Hangar Pub and Grill - Westfield", "image_url": "https://s3-media2.fl.yelpcdn.com/bphoto/OqDAl40mPSOI45pYQGKRAA/o.jpg", "is_closed": false, "url": "https://www.yelp.com/biz/the-hangar-pub-and-grill-westfield-westfield?adjust_creative=HdhkN5EEH6lAqE3kwhsHEQ&utm_campaign=yelp_api_v3&utm_medium=api_v3_business_search&utm_source=HdhkN5EEH6lAqE3kwhsHEQ", "review_count": 92, "categories": [{"alias": "pubs", "title": "Pubs"}, {"alias": "sportsbars", "title": "Sports Bars"}, {"alias": "tradamerican", "title": "American (Traditional)"}], "rating": 3.5, "coordinates": {"latitude": 42.12166, "longitude": -72.75006}, "transactions": ["delivery", "pickup"], "price": "$$", "location": {"address1": "29 School St", "address2": "", "address3": "", "city": "Westfield", "zip_code": "01085", "country": "US", "state": "MA", "display_address": ["29 School St", "Westfield, MA 01085"]}, "phone": "+14135629464", "display_phone": "(413) 562-9464", "distance": 18050.673530308697}, {"id": "mHA-Vrq7cgnsFODSvZqHuA", "alias": "steves-sugar-shack-westhampton", "name": "Steve's Sugar Shack", "image_url": "", "is_closed": false, "url": "https://www.yelp.com/biz/steves-sugar-shack-westhampton?adjust_creative=HdhkN5EEH6lAqE3kwhsHEQ&utm_campaign=yelp_api_v3&utm_medium=api_v3_business_search&utm_source=HdhkN5EEH6lAqE3kwhsHEQ", "review_count": 2, "categories": [{"alias": "breakfast_brunch", "title": "Breakfast & Brunch"}], "rating": 5.0, "coordinates": {"latitude": 42.307695, "longitude": -72.77132}, "transactions": [], "location": {"address1": "34 N Rd", "address2": "", "address3": null, "city": "Westhampton", "zip_code": "01027", "country": "US", "state": "MA", "display_address": ["34 N Rd", "Westhampton, MA 01027"]}, "phone": "+14135270294", "display_phone": "(413) 527-0294", "distance": 20475.682369273}, {"id": "2Hxb37Ezwblm7x8czP40Vg", "alias": "outlook-farm-country-store-westhampton", "name": "Outlook Farm Country Store", "image_url": "https://s3-media3.fl.yelpcdn.com/bphoto/SzYQtgjZ-aGwS34mPU9vxQ/o.jpg", "is_closed": false, "url": "https://www.yelp.com/biz/outlook-farm-country-store-westhampton?adjust_creative=HdhkN5EEH6lAqE3kwhsHEQ&utm_campaign=yelp_api_v3&utm_medium=api_v3_business_search&utm_source=HdhkN5EEH6lAqE3kwhsHEQ", "review_count": 33, "categories": [{"alias": "bedbreakfast", "title": "Bed & Breakfast"}, {"alias": "meats", "title": "Meat Shops"}, {"alias": "sandwiches", "title": "Sandwiches"}], "rating": 3.5, "coordinates": {"latitude": 42.287347, "longitude": -72.7613498}, "transactions": [], "price": "$", "location": {"address1": "136 Main Rd", "address2": "", "address3": "", "city": "Westhampton", "zip_code": "01027", "country": "US", "state": "MA", "display_address": ["136 Main Rd", "Westhampton, MA 01027"]}, "phone": "+14135299388", "display_phone": "(413) 529-9388", "distance": 19665.406588347487}, {"id": "jNh6V1sIVF2dv9v3dsj4fw", "alias": "the-launch-southwick-2", "name": "The Launch", "image_url": "https://s3-media3.fl.yelpcdn.com/bphoto/9StIi1AiIvtOKWwM7KiYKA/o.jpg", "is_closed": false, "url": "https://www.yelp.com/biz/the-launch-southwick-2?adjust_creative=HdhkN5EEH6lAqE3kwhsHEQ&utm_campaign=yelp_api_v3&utm_medium=api_v3_business_search&utm_source=HdhkN5EEH6lAqE3kwhsHEQ", "review_count": 42, "categories": [{"alias": "breakfast_brunch", "title": "Breakfast & Brunch"}, {"alias": "burgers", "title": "Burgers"}, {"alias": "sandwiches", "title": "Sandwiches"}], "rating": 5.0, "coordinates": {"latitude": 42.04295, "longitude": -72.75892}, "transactions": ["delivery"], "location": {"address1": "81 Point Grove Rd", "address2": "", "address3": null, "city": "Southwick", "zip_code": "01077", "country": "US", "state": "MA", "display_address": ["81 Point Grove Rd", "Southwick, MA 01077"]}, "phone": "+14139983548", "display_phone": "(413) 998-3548", "distance": 22291.76995593556}, {"id": "Ih17NKWk7pb2yJX3HGw4aw", "alias": "new-king-yen-too-southwick", "name": "New King Yen Too", "image_url": "https://s3-media3.fl.yelpcdn.com/bphoto/eeBmesfC6oraz27zXm_9RQ/o.jpg", "is_closed": false, "url": "https://www.yelp.com/biz/new-king-yen-too-southwick?adjust_creative=HdhkN5EEH6lAqE3kwhsHEQ&utm_campaign=yelp_api_v3&utm_medium=api_v3_business_search&utm_source=HdhkN5EEH6lAqE3kwhsHEQ", "review_count": 16, "categories": [{"alias": "chinese", "title": "Chinese"}], "rating": 2.5, "coordinates": {"latitude": 42.067104, "longitude": -72.764068}, "transactions": ["delivery"], "price": "$$", "location": {"address1": "648 College Hwy", "address2": "", "address3": "", "city": "Southwick", "zip_code": "01077", "country": "US", "state": "MA", "display_address": ["648 College Hwy", "Southwick, MA 01077"]}, "phone": "+14135699888", "display_phone": "(413) 569-9888", "distance": 20184.33336429749}, {"id": "KKtvGPtMcIizZwV-HTfewQ", "alias": "valley-pizza-westfield", "name": "Valley Pizza", "image_url": "https://s3-media3.fl.yelpcdn.com/bphoto/0crtrmBB8OcTkgt5HOjyhA/o.jpg", "is_closed": false, "url": "https://www.yelp.com/biz/valley-pizza-westfield?adjust_creative=HdhkN5EEH6lAqE3kwhsHEQ&utm_campaign=yelp_api_v3&utm_medium=api_v3_business_search&utm_source=HdhkN5EEH6lAqE3kwhsHEQ", "review_count": 14, "categories": [{"alias": "pizza", "title": "Pizza"}], "rating": 3.0, "coordinates": {"latitude": 42.12474, "longitude": -72.7491}, "transactions": ["delivery"], "location": {"address1": "31B Franklin St", "address2": null, "address3": null, "city": "Westfield", "zip_code": "01085", "country": "US", "state": "MA", "display_address": ["31B Franklin St", "Westfield, MA 01085"]}, "phone": "+14134850066", "display_phone": "(413) 485-0066", "distance": 18010.45245776304}, {"id": "Q5GWdipUWMJomzgGx8SYoA", "alias": "leos-gallery-deli-westfield", "name": "Leo's Gallery Deli", "image_url": "https://s3-media4.fl.yelpcdn.com/bphoto/Sh1dpI6E6ZHqAgr9oLZOdw/o.jpg", "is_closed": false, "url": "https://www.yelp.com/biz/leos-gallery-deli-westfield?adjust_creative=HdhkN5EEH6lAqE3kwhsHEQ&utm_campaign=yelp_api_v3&utm_medium=api_v3_business_search&utm_source=HdhkN5EEH6lAqE3kwhsHEQ", "review_count": 8, "categories": [{"alias": "delis", "title": "Delis"}, {"alias": "tradamerican", "title": "American (Traditional)"}, {"alias": "sandwiches", "title": "Sandwiches"}], "rating": 3.5, "coordinates": {"latitude": 42.121242, "longitude": -72.7489103}, "transactions": ["delivery"], "price": "$", "location": {"address1": "3 Main St", "address2": "", "address3": "", "city": "Westfield", "zip_code": "01085", "country": "US", "state": "MA", "display_address": ["3 Main St", "Westfield, MA 01085"]}, "phone": "+14135682586", "display_phone": "(413) 568-2586", "distance": 18163.84775672056}, {"id": "kL-FqrnTERfQUpzlsKIrgw", "alias": "bella-roma-pizza-westfield-2", "name": "Bella Roma Pizza", "image_url": "https://s3-media3.fl.yelpcdn.com/bphoto/ZvcRpI_uNTQv0hJNEzityg/o.jpg", "is_closed": false, "url": "https://www.yelp.com/biz/bella-roma-pizza-westfield-2?adjust_creative=HdhkN5EEH6lAqE3kwhsHEQ&utm_campaign=yelp_api_v3&utm_medium=api_v3_business_search&utm_source=HdhkN5EEH6lAqE3kwhsHEQ", "review_count": 32, "categories": [{"alias": "newamerican", "title": "American (New)"}, {"alias": "pizza", "title": "Pizza"}], "rating": 3.0, "coordinates": {"latitude": 42.1088089, "longitude": -72.7648151}, "transactions": ["delivery", "pickup"], "price": "$", "location": {"address1": "57 Southwick Rd", "address2": null, "address3": "", "city": "Westfield", "zip_code": "01085", "country": "US", "state": "MA", "display_address": ["57 Southwick Rd", "Westfield, MA 01085"]}, "phone": "+14136425656", "display_phone": "(413) 642-5656", "distance": 17520.35519855509}, {"id": "R2JCabKs7-Fvhw184b_LPA", "alias": "wings-over-westfield-westfield", "name": "Wings Over Westfield", "image_url": "https://s3-media2.fl.yelpcdn.com/bphoto/DwMIsLSFSipaJ__B9cUhsw/o.jpg", "is_closed": false, "url": "https://www.yelp.com/biz/wings-over-westfield-westfield?adjust_creative=HdhkN5EEH6lAqE3kwhsHEQ&utm_campaign=yelp_api_v3&utm_medium=api_v3_business_search&utm_source=HdhkN5EEH6lAqE3kwhsHEQ", "review_count": 2, "categories": [{"alias": "chicken_wings", "title": "Chicken Wings"}, {"alias": "hotdogs", "title": "Fast Food"}, {"alias": "sandwiches", "title": "Sandwiches"}], "rating": 1.5, "coordinates": {"latitude": 42.121638, "longitude": -72.750222}, "transactions": [], "location": {"address1": "29 School St", "address2": null, "address3": null, "city": "Westfield", "zip_code": "01085", "country": "US", "state": "MA", "display_address": ["29 School St", "Westfield, MA 01085"]}, "phone": "+14135629464", "display_phone": "(413) 562-9464", "distance": 18050.673530308697}, {"id": "C8sZqgLpXgUAD4FoLwND9w", "alias": "gristmill-cafe-southwick", "name": "Gristmill Cafe", "image_url": "https://s3-media2.fl.yelpcdn.com/bphoto/q-OwIksCabt6QFQE-jkMjA/o.jpg", "is_closed": false, "url": "https://www.yelp.com/biz/gristmill-cafe-southwick?adjust_creative=HdhkN5EEH6lAqE3kwhsHEQ&utm_campaign=yelp_api_v3&utm_medium=api_v3_business_search&utm_source=HdhkN5EEH6lAqE3kwhsHEQ", "review_count": 8, "categories": [{"alias": "breakfast_brunch", "title": "Breakfast & Brunch"}, {"alias": "tradamerican", "title": "American (Traditional)"}], "rating": 4.5, "coordinates": {"latitude": 42.063179, "longitude": -72.7645921}, "transactions": ["delivery"], "location": {"address1": "610 College Hwy", "address2": "", "address3": null, "city": "Southwick", "zip_code": "01077", "country": "US", "state": "MA", "display_address": ["610 College Hwy", "Southwick, MA 01077"]}, "phone": "+14135693000", "display_phone": "(413) 569-3000", "distance": 20473.014926199146}, {"id": "GtL1D9N0eA0UuR4Hcu164Q", "alias": "gigis-pizzeria-westfield", "name": "Gigi's Pizzeria", "image_url": "https://s3-media1.fl.yelpcdn.com/bphoto/M0vDf-TJ87xCq7W3HXt0Yg/o.jpg", "is_closed": false, "url": "https://www.yelp.com/biz/gigis-pizzeria-westfield?adjust_creative=HdhkN5EEH6lAqE3kwhsHEQ&utm_campaign=yelp_api_v3&utm_medium=api_v3_business_search&utm_source=HdhkN5EEH6lAqE3kwhsHEQ", "review_count": 22, "categories": [{"alias": "pizza", "title": "Pizza"}, {"alias": "salad", "title": "Salad"}], "rating": 1.5, "coordinates": {"latitude": 42.0985981822014, "longitude": -72.7632819861174}, "transactions": ["delivery"], "price": "$$", "location": {"address1": "358 Southwick Rd", "address2": "", "address3": "", "city": "Westfield", "zip_code": "01085", "country": "US", "state": "MA", "display_address": ["358 Southwick Rd", "Westfield, MA 01085"]}, "phone": "+14135620887", "display_phone": "(413) 562-0887", "distance": 18261.840247912514}, {"id": "7WcO9LZyhcQcQo_qWKrm2w", "alias": "china-star-westfield", "name": "China Star", "image_url": "https://s3-media1.fl.yelpcdn.com/bphoto/50_daF0KIVehPHv7KUYa-A/o.jpg", "is_closed": false, "url": "https://www.yelp.com/biz/china-star-westfield?adjust_creative=HdhkN5EEH6lAqE3kwhsHEQ&utm_campaign=yelp_api_v3&utm_medium=api_v3_business_search&utm_source=HdhkN5EEH6lAqE3kwhsHEQ", "review_count": 15, "categories": [{"alias": "chinese", "title": "Chinese"}, {"alias": "buffets", "title": "Buffets"}], "rating": 3.0, "coordinates": {"latitude": 42.1093406677246, "longitude": -72.7643814086914}, "transactions": ["delivery"], "price": "$", "location": {"address1": "36 Southwick Rd", "address2": "", "address3": "", "city": "Westfield", "zip_code": "01085", "country": "US", "state": "MA", "display_address": ["36 Southwick Rd", "Westfield, MA 01085"]}, "phone": "+14135689698", "display_phone": "(413) 568-9698", "distance": 17558.328820279017}, {"id": "98NOrHpP8oM6MDcIbgM02g", "alias": "maple-leaf-bar-and-grill-westfield", "name": "Maple Leaf Bar & Grill", "image_url": "https://s3-media2.fl.yelpcdn.com/bphoto/xmBIe0wvLF2wBespwchHWw/o.jpg", "is_closed": false, "url": "https://www.yelp.com/biz/maple-leaf-bar-and-grill-westfield?adjust_creative=HdhkN5EEH6lAqE3kwhsHEQ&utm_campaign=yelp_api_v3&utm_medium=api_v3_business_search&utm_source=HdhkN5EEH6lAqE3kwhsHEQ", "review_count": 14, "categories": [{"alias": "bars", "title": "Bars"}, {"alias": "burgers", "title": "Burgers"}], "rating": 3.0, "coordinates": {"latitude": 42.1230392456055, "longitude": -72.7492218017578}, "transactions": [], "price": "$$", "location": {"address1": "11 Arnold St", "address2": "", "address3": "", "city": "Westfield", "zip_code": "01085", "country": "US", "state": "MA", "display_address": ["11 Arnold St", "Westfield, MA 01085"]}, "phone": "+14135625068", "display_phone": "(413) 562-5068", "distance": 18068.066202087444}, {"id": "xI-cP_d_HDTf2PutrKFWTg", "alias": "yankee-village-restaurant-westfield", "name": "Yankee Village Restaurant", "image_url": "https://s3-media4.fl.yelpcdn.com/bphoto/2HbClrnsRqu_h46mb7TN_w/o.jpg", "is_closed": false, "url": "https://www.yelp.com/biz/yankee-village-restaurant-westfield?adjust_creative=HdhkN5EEH6lAqE3kwhsHEQ&utm_campaign=yelp_api_v3&utm_medium=api_v3_business_search&utm_source=HdhkN5EEH6lAqE3kwhsHEQ", "review_count": 11, "categories": [{"alias": "newamerican", "title": "American (New)"}], "rating": 3.5, "coordinates": {"latitude": 42.1085356, "longitude": -72.7648185}, "transactions": ["delivery"], "price": "$", "location": {"address1": "63 Southwick Rd", "address2": "", "address3": "", "city": "Westfield", "zip_code": "01085", "country": "US", "state": "MA", "display_address": ["63 Southwick Rd", "Westfield, MA 01085"]}, "phone": "+14135721224", "display_phone": "(413) 572-1224", "distance": 17535.565795646566}, {"id": "3Z90M9iHtYd6ZsnMx_YoCA", "alias": "village-pizza-restaurant-southwick-2", "name": "Village Pizza Restaurant", "image_url": "", "is_closed": false, "url": "https://www.yelp.com/biz/village-pizza-restaurant-southwick-2?adjust_creative=HdhkN5EEH6lAqE3kwhsHEQ&utm_campaign=yelp_api_v3&utm_medium=api_v3_business_search&utm_source=HdhkN5EEH6lAqE3kwhsHEQ", "review_count": 1, "categories": [{"alias": "italian", "title": "Italian"}, {"alias": "pizza", "title": "Pizza"}], "rating": 4.0, "coordinates": {"latitude": 42.0574951, "longitude": -72.768158}, "transactions": [], "location": {"address1": "521 College Hwy", "address2": null, "address3": null, "city": "Southwick", "zip_code": "01077", "country": "US", "state": "MA", "display_address": ["521 College Hwy", "Southwick, MA 01077"]}, "phone": "+14135693403", "display_phone": "(413) 569-3403", "distance": 20543.491143669093}, {"id": "gf47Yv8PnATBDgkZ6rBI-w", "alias": "strawbale-cafe-westhampton-4", "name": "Strawbale Cafe", "image_url": "https://s3-media4.fl.yelpcdn.com/bphoto/Nvl_epjAp9rcnQwhjocLXg/o.jpg", "is_closed": false, "url": "https://www.yelp.com/biz/strawbale-cafe-westhampton-4?adjust_creative=HdhkN5EEH6lAqE3kwhsHEQ&utm_campaign=yelp_api_v3&utm_medium=api_v3_business_search&utm_source=HdhkN5EEH6lAqE3kwhsHEQ", "review_count": 30, "categories": [{"alias": "breakfast_brunch", "title": "Breakfast & Brunch"}, {"alias": "cafes", "title": "Cafes"}, {"alias": "bakeries", "title": "Bakeries"}], "rating": 4.5, "coordinates": {"latitude": 42.323103, "longitude": -72.754566}, "transactions": [], "price": "$$", "location": {"address1": "188 N Rd", "address2": "", "address3": "Hanging Mountain Farm", "city": "Westhampton", "zip_code": "01027", "country": "US", "state": "MA", "display_address": ["188 N Rd", "Hanging Mountain Farm", "Westhampton, MA 01027"]}, "phone": "+14135273210", "display_phone": "(413) 527-3210", "distance": 22653.305707758205}, {"id": "ON0INzwLTAeckQNNGr6WQg", "alias": "real-china-westfield", "name": "Real China", "image_url": "", "is_closed": false, "url": "https://www.yelp.com/biz/real-china-westfield?adjust_creative=HdhkN5EEH6lAqE3kwhsHEQ&utm_campaign=yelp_api_v3&utm_medium=api_v3_business_search&utm_source=HdhkN5EEH6lAqE3kwhsHEQ", "review_count": 3, "categories": [{"alias": "chinese", "title": "Chinese"}], "rating": 1.5, "coordinates": {"latitude": 42.123119354248, "longitude": -72.7487716674805}, "transactions": [], "location": {"address1": "116 Elm St", "address2": "", "address3": "", "city": "Westfield", "zip_code": "01085", "country": "US", "state": "MA", "display_address": ["116 Elm St", "Westfield, MA 01085"]}, "phone": "+14135689991", "display_phone": "(413) 568-9991", "distance": 18097.743202791575}, {"id": "BZ3NZeta65lK-8rsB5KuUg", "alias": "pasticceria-italia-southwick-2", "name": "Pasticceria Italia", "image_url": "https://s3-media1.fl.yelpcdn.com/bphoto/xyKXAt6NpPP8ewpXpMrcJA/o.jpg", "is_closed": false, "url": "https://www.yelp.com/biz/pasticceria-italia-southwick-2?adjust_creative=HdhkN5EEH6lAqE3kwhsHEQ&utm_campaign=yelp_api_v3&utm_medium=api_v3_business_search&utm_source=HdhkN5EEH6lAqE3kwhsHEQ", "review_count": 14, "categories": [{"alias": "delis", "title": "Delis"}, {"alias": "sandwiches", "title": "Sandwiches"}, {"alias": "bakeries", "title": "Bakeries"}], "rating": 3.0, "coordinates": {"latitude": 42.0629339737052, "longitude": -72.7636916321636}, "transactions": [], "price": "$$", "location": {"address1": "610 College Hwy", "address2": null, "address3": null, "city": "Southwick", "zip_code": "01077", "country": "US", "state": "MA", "display_address": ["610 College Hwy", "Southwick, MA 01077"]}, "phone": "+14135692250", "display_phone": "(413) 569-2250", "distance": 20505.499962643455}, {"id": "BpAyDg26jMIPVX5qWlZUxQ", "alias": "d-and-js-hash-house-southwick", "name": "D&J's Hash House", "image_url": "https://s3-media1.fl.yelpcdn.com/bphoto/nWC-ltLnwVVDSXRFyK8fVw/o.jpg", "is_closed": false, "url": "https://www.yelp.com/biz/d-and-js-hash-house-southwick?adjust_creative=HdhkN5EEH6lAqE3kwhsHEQ&utm_campaign=yelp_api_v3&utm_medium=api_v3_business_search&utm_source=HdhkN5EEH6lAqE3kwhsHEQ", "review_count": 39, "categories": [{"alias": "breakfast_brunch", "title": "Breakfast & Brunch"}, {"alias": "burgers", "title": "Burgers"}], "rating": 3.5, "coordinates": {"latitude": 42.0852923936762, "longitude": -72.7651793422864}, "transactions": [], "price": "$$", "location": {"address1": "784 College Hwy", "address2": "", "address3": "", "city": "Southwick", "zip_code": "01077", "country": "US", "state": "MA", "display_address": ["784 College Hwy", "Southwick, MA 01077"]}, "phone": "+14138316082", "display_phone": "(413) 831-6082", "distance": 18889.540898927826}, {"id": "fruKmXZY1tao07hOhJWtCA", "alias": "subway-southwick-2", "name": "Subway", "image_url": "https://s3-media2.fl.yelpcdn.com/bphoto/DryypQt7QGRq3xI5TJG_kw/o.jpg", "is_closed": false, "url": "https://www.yelp.com/biz/subway-southwick-2?adjust_creative=HdhkN5EEH6lAqE3kwhsHEQ&utm_campaign=yelp_api_v3&utm_medium=api_v3_business_search&utm_source=HdhkN5EEH6lAqE3kwhsHEQ", "review_count": 3, "categories": [{"alias": "sandwiches", "title": "Sandwiches"}], "rating": 2.5, "coordinates": {"latitude": 42.0585870849823, "longitude": -72.7677816536254}, "transactions": [], "price": "$", "location": {"address1": "535 College Hwy", "address2": "", "address3": "", "city": "Southwick", "zip_code": "01077", "country": "US", "state": "MA", "display_address": ["535 College Hwy", "Southwick, MA 01077"]}, "phone": "+14135690869", "display_phone": "(413) 569-0869", "distance": 20569.530092408557}, {"id": "qqA8YX58xnmEXLyanHfdUg", "alias": "stufd-food-truck-brooklyn", "name": "Stuf'd Food Truck", "image_url": "https://s3-media2.fl.yelpcdn.com/bphoto/_Wn0i-tLIOFinw8BPAqxPA/o.jpg", "is_closed": false, "url": "https://www.yelp.com/biz/stufd-food-truck-brooklyn?adjust_creative=HdhkN5EEH6lAqE3kwhsHEQ&utm_campaign=yelp_api_v3&utm_medium=api_v3_business_search&utm_source=HdhkN5EEH6lAqE3kwhsHEQ", "review_count": 4, "categories": [{"alias": "sandwiches", "title": "Sandwiches"}, {"alias": "foodtrucks", "title": "Food Trucks"}], "rating": 4.0, "coordinates": {"latitude": 40.7124539, "longitude": -73.9287374}, "transactions": [], "location": {"address1": "178 Varick Ave", "address2": "", "address3": null, "city": "Brooklyn", "zip_code": "11237", "country": "US", "state": "NY", "display_address": ["178 Varick Ave", "Brooklyn, NY 11237"]}, "phone": "+18457091808", "display_phone": "(845) 709-1808", "distance": 182527.296704998}]