[{"id": "jwLPIWGACP3mDVqh-mflQw", "alias": "the-blue-rock-shelburne-falls-3", "name": "The Blue Rock", "image_url": "https://s3-media4.fl.yelpcdn.com/bphoto/-WTcjD8LT2yr9p1hu191fw/o.jpg", "is_closed": false, "url": "https://www.yelp.com/biz/the-blue-rock-shelburne-falls-3?adjust_creative=asslzE1UV0XuKI953B1vtw&utm_campaign=yelp_api_v3&utm_medium=api_v3_business_search&utm_source=asslzE1UV0XuKI953B1vtw", "review_count": 45, "categories": [{"alias": "newamerican", "title": "American (New)"}, {"alias": "cocktailbars", "title": "Cocktail Bars"}, {"alias": "beerbar", "title": "Beer Bar"}], "rating": 4.5, "coordinates": {"latitude": 42.6031535, "longitude": -72.7412502}, "transactions": [], "price": "$$", "location": {"address1": "1 Ashfield St", "address2": null, "address3": "", "city": "Shelburne Falls", "zip_code": "01370", "country": "US", "state": "MA", "display_address": ["1 Ashfield St", "Shelburne Falls, MA 01370"]}, "phone": "+14136258133", "display_phone": "(413) 625-8133", "distance": 17687.424668013788}, {"id": "IRDbtfi_STNrrinh1V3csg", "alias": "the-rabbit-hole-worthington-3", "name": "The Rabbit Hole", "image_url": "https://s3-media1.fl.yelpcdn.com/bphoto/EdhUcHZXdrg_qRpOyqAsSw/o.jpg", "is_closed": false, "url": "https://www.yelp.com/biz/the-rabbit-hole-worthington-3?adjust_creative=asslzE1UV0XuKI953B1vtw&utm_campaign=yelp_api_v3&utm_medium=api_v3_business_search&utm_source=asslzE1UV0XuKI953B1vtw", "review_count": 5, "categories": [{"alias": "newamerican", "title": "American (New)"}], "rating": 4.0, "coordinates": {"latitude": 42.40078, "longitude": -72.93759}, "transactions": [], "location": {"address1": "144 Huntington Rd", "address2": null, "address3": "", "city": "Worthington", "zip_code": "01098", "country": "US", "state": "MA", "display_address": ["144 Huntington Rd", "Worthington, MA 01098"]}, "phone": "+14132380144", "display_phone": "(413) 238-0144", "distance": 13041.600603963623}, {"id": "wqQ-cLMbLmxzc_p4jjDSxw", "alias": "the-old-creamery-cummington-2", "name": "The Old Creamery", "image_url": "https://s3-media3.fl.yelpcdn.com/bphoto/suPv8fzXhQdsR8elaUVfzg/o.jpg", "is_closed": false, "url": "https://www.yelp.com/biz/the-old-creamery-cummington-2?adjust_creative=asslzE1UV0XuKI953B1vtw&utm_campaign=yelp_api_v3&utm_medium=api_v3_business_search&utm_source=asslzE1UV0XuKI953B1vtw", "review_count": 31, "categories": [{"alias": "grocery", "title": "Grocery"}, {"alias": "bakeries", "title": "Bakeries"}, {"alias": "sandwiches", "title": "Sandwiches"}], "rating": 4.5, "coordinates": {"latitude": 42.464115, "longitude": -72.90535}, "transactions": [], "price": "$$", "location": {"address1": "445 Berkshire Trl", "address2": "", "address3": "", "city": "Cummington", "zip_code": "01026", "country": "US", "state": "MA", "display_address": ["445 Berkshire Trl", "Cummington, MA 01026"]}, "phone": "+14136345560", "display_phone": "(413) 634-5560", "distance": 6152.840710604789}, {"id": "aw0FDqkiYDIE33KmHW7YHQ", "alias": "listons-bar-and-grill-worthington", "name": "Listons Bar & Grill", "image_url": "https://s3-media2.fl.yelpcdn.com/bphoto/Zw2va6P_vOdum1skN8J6cQ/o.jpg", "is_closed": false, "url": "https://www.yelp.com/biz/listons-bar-and-grill-worthington?adjust_creative=asslzE1UV0XuKI953B1vtw&utm_campaign=yelp_api_v3&utm_medium=api_v3_business_search&utm_source=asslzE1UV0XuKI953B1vtw", "review_count": 7, "categories": [{"alias": "sportsbars", "title": "Sports Bars"}, {"alias": "tradamerican", "title": "American (Traditional)"}], "rating": 4.5, "coordinates": {"latitude": 42.42713, "longitude": -72.95322}, "transactions": [], "location": {"address1": "324 Old North Rd Rte 143", "address2": "", "address3": null, "city": "Worthington", "zip_code": "01098", "country": "US", "state": "MA", "display_address": ["324 Old North Rd Rte 143", "Worthington, MA 01098"]}, "phone": "+14132385353", "display_phone": "(413) 238-5353", "distance": 10290.775142228935}, {"id": "rCi5XRAlbjFJBD05OWfR1A", "alias": "velvet-restaurant-worthington-2", "name": "Velvet Restaurant", "image_url": "https://s3-media3.fl.yelpcdn.com/bphoto/UlVYHq_A04HTAXFdC6ALBA/o.jpg", "is_closed": false, "url": "https://www.yelp.com/biz/velvet-restaurant-worthington-2?adjust_creative=asslzE1UV0XuKI953B1vtw&utm_campaign=yelp_api_v3&utm_medium=api_v3_business_search&utm_source=asslzE1UV0XuKI953B1vtw", "review_count": 6, "categories": [{"alias": "bars", "title": "Bars"}, {"alias": "newamerican", "title": "American (New)"}], "rating": 4.0, "coordinates": {"latitude": 42.40855, "longitude": -72.94236}, "transactions": [], "location": {"address1": "113 Ridge Rd", "address2": null, "address3": "", "city": "Worthington", "zip_code": "01098", "country": "US", "state": "MA", "display_address": ["113 Ridge Rd", "Worthington, MA 01098"]}, "phone": "+14132384492", "display_phone": "(413) 238-4492", "distance": 12215.368635449411}, {"id": "1FDg-B7ddSPoZirUJXsdtQ", "alias": "the-ashfield-lake-house-ashfield", "name": "The Ashfield Lake House", "image_url": "https://s3-media4.fl.yelpcdn.com/bphoto/YK6BItbmmR7rbQZzniZojQ/o.jpg", "is_closed": false, "url": "https://www.yelp.com/biz/the-ashfield-lake-house-ashfield?adjust_creative=asslzE1UV0XuKI953B1vtw&utm_campaign=yelp_api_v3&utm_medium=api_v3_business_search&utm_source=asslzE1UV0XuKI953B1vtw", "review_count": 38, "categories": [{"alias": "bars", "title": "Bars"}, {"alias": "tradamerican", "title": "American (Traditional)"}, {"alias": "comfortfood", "title": "Comfort Food"}], "rating": 3.0, "coordinates": {"latitude": 42.53083, "longitude": -72.8026299}, "transactions": [], "price": "$$", "location": {"address1": "141 Buckland Rd", "address2": "", "address3": "", "city": "Ashfield", "zip_code": "01330", "country": "US", "state": "MA", "display_address": ["141 Buckland Rd", "Ashfield, MA 01330"]}, "phone": "+14136280158", "display_phone": "(413) 628-0158", "distance": 10424.733152987883}, {"id": "oLM42PUJliWpu1_UN-G1fQ", "alias": "hearty-eats-shelburne-falls", "name": "Hearty Eats", "image_url": "https://s3-media4.fl.yelpcdn.com/bphoto/wjyt8KlfCKutpxkYg6F70Q/o.jpg", "is_closed": false, "url": "https://www.yelp.com/biz/hearty-eats-shelburne-falls?adjust_creative=asslzE1UV0XuKI953B1vtw&utm_campaign=yelp_api_v3&utm_medium=api_v3_business_search&utm_source=asslzE1UV0XuKI953B1vtw", "review_count": 79, "categories": [{"alias": "fishnchips", "title": "Fish & Chips"}, {"alias": "noodles", "title": "Noodles"}, {"alias": "indpak", "title": "Indian"}], "rating": 4.5, "coordinates": {"latitude": 42.6036331, "longitude": -72.7393198}, "transactions": [], "price": "$$", "location": {"address1": "24 Bridge St", "address2": null, "address3": "", "city": "Shelburne Falls", "zip_code": "01370", "country": "US", "state": "MA", "display_address": ["24 Bridge St", "Shelburne Falls, MA 01370"]}, "phone": "+14136256460", "display_phone": "(413) 625-6460", "distance": 17930.56779078651}, {"id": "6E4Wd60NQcqPCGYtiKvbWg", "alias": "gypsy-apple-bistro-shelburne-falls", "name": "Gypsy Apple Bistro", "image_url": "https://s3-media4.fl.yelpcdn.com/bphoto/KyaQbCFI5yX1AnN-9q-bIg/o.jpg", "is_closed": false, "url": "https://www.yelp.com/biz/gypsy-apple-bistro-shelburne-falls?adjust_creative=asslzE1UV0XuKI953B1vtw&utm_campaign=yelp_api_v3&utm_medium=api_v3_business_search&utm_source=asslzE1UV0XuKI953B1vtw", "review_count": 37, "categories": [{"alias": "french", "title": "French"}, {"alias": "bars", "title": "Bars"}], "rating": 4.5, "coordinates": {"latitude": 42.6034651, "longitude": -72.7377135}, "transactions": [], "price": "$$$", "location": {"address1": "65 Bridge St", "address2": "", "address3": "", "city": "Shelburne Falls", "zip_code": "01370", "country": "US", "state": "MA", "display_address": ["65 Bridge St", "Shelburne Falls, MA 01370"]}, "phone": "+14136256345", "display_phone": "(413) 625-6345", "distance": 17994.686347235966}, {"id": "JIUMuy58yl_k85Y_Fig7LQ", "alias": "el-sotano-shelburne", "name": "El Sotano", "image_url": "https://s3-media2.fl.yelpcdn.com/bphoto/CRDJumiKXIQXUhF2PlMGlA/o.jpg", "is_closed": false, "url": "https://www.yelp.com/biz/el-sotano-shelburne?adjust_creative=asslzE1UV0XuKI953B1vtw&utm_campaign=yelp_api_v3&utm_medium=api_v3_business_search&utm_source=asslzE1UV0XuKI953B1vtw", "review_count": 25, "categories": [{"alias": "mexican", "title": "Mexican"}], "rating": 4.5, "coordinates": {"latitude": 42.603818, "longitude": -72.739733}, "transactions": [], "location": {"address1": "10 Bridge St", "address2": null, "address3": "", "city": "Shelburne", "zip_code": "01370", "country": "US", "state": "MA", "display_address": ["10 Bridge St", "Shelburne, MA 01370"]}, "phone": "+14134893754", "display_phone": "(413) 489-3754", "distance": 17912.005866871725}, {"id": "Hz8ENDohZ-ZY2MooPz8-Eg", "alias": "spruce-corner-restaurant-goshen", "name": "Spruce Corner Restaurant", "image_url": "https://s3-media3.fl.yelpcdn.com/bphoto/Vf9B0rulKSpqtTS-E_lQrA/o.jpg", "is_closed": false, "url": "https://www.yelp.com/biz/spruce-corner-restaurant-goshen?adjust_creative=asslzE1UV0XuKI953B1vtw&utm_campaign=yelp_api_v3&utm_medium=api_v3_business_search&utm_source=asslzE1UV0XuKI953B1vtw", "review_count": 11, "categories": [{"alias": "tradamerican", "title": "American (Traditional)"}], "rating": 4.0, "coordinates": {"latitude": 42.45618, "longitude": -72.832747}, "transactions": [], "price": "$$", "location": {"address1": "188 Berkshire Trl W", "address2": "", "address3": "", "city": "Goshen", "zip_code": "01032", "country": "US", "state": "MA", "display_address": ["188 Berkshire Trl W", "Goshen, MA 01032"]}, "phone": "+14132683188", "display_phone": "(413) 268-3188", "distance": 10162.332851677096}, {"id": "_9sO066L6e1kjQRf2jzd7g", "alias": "countrypie-pizza-company-ashfield", "name": "Countrypie Pizza Company", "image_url": "https://s3-media2.fl.yelpcdn.com/bphoto/YIZ24sof1VTPO1xtqCK6cg/o.jpg", "is_closed": false, "url": "https://www.yelp.com/biz/countrypie-pizza-company-ashfield?adjust_creative=asslzE1UV0XuKI953B1vtw&utm_campaign=yelp_api_v3&utm_medium=api_v3_business_search&utm_source=asslzE1UV0XuKI953B1vtw", "review_count": 30, "categories": [{"alias": "pizza", "title": "Pizza"}], "rating": 4.5, "coordinates": {"latitude": 42.526902, "longitude": -72.794253}, "transactions": [], "price": "$", "location": {"address1": "343 Main St", "address2": "", "address3": "", "city": "Ashfield", "zip_code": "01330", "country": "US", "state": "MA", "display_address": ["343 Main St", "Ashfield, MA 01330"]}, "phone": "+14136284488", "display_phone": "(413) 628-4488", "distance": 10722.8816309297}, {"id": "wkIOjcec-3uGidfIXcOpJA", "alias": "elmers-store-restaurant-ashfield", "name": "Elmer's Store Restaurant", "image_url": "https://s3-media3.fl.yelpcdn.com/bphoto/2AgISV-Z2E7y_ISdmkzroA/o.jpg", "is_closed": false, "url": "https://www.yelp.com/biz/elmers-store-restaurant-ashfield?adjust_creative=asslzE1UV0XuKI953B1vtw&utm_campaign=yelp_api_v3&utm_medium=api_v3_business_search&utm_source=asslzE1UV0XuKI953B1vtw", "review_count": 45, "categories": [{"alias": "breakfast_brunch", "title": "Breakfast & Brunch"}, {"alias": "bars", "title": "Bars"}], "rating": 4.0, "coordinates": {"latitude": 42.5261756, "longitude": -72.7924932}, "transactions": [], "price": "$$", "location": {"address1": "396 Main St", "address2": null, "address3": "", "city": "Ashfield", "zip_code": "01330", "country": "US", "state": "MA", "display_address": ["396 Main St", "Ashfield, MA 01330"]}, "phone": "+14136284003", "display_phone": "(413) 628-4003", "distance": 10860.051195226584}, {"id": "NE3t2ECJh8NDDsUbrlhwYQ", "alias": "mollisons-windy-hill-sugar-shack-worthington", "name": "Mollison's Windy Hill Sugar Shack", "image_url": "https://s3-media4.fl.yelpcdn.com/bphoto/4qQPuYhpx4YYjIR2a6o29A/o.jpg", "is_closed": false, "url": "https://www.yelp.com/biz/mollisons-windy-hill-sugar-shack-worthington?adjust_creative=asslzE1UV0XuKI953B1vtw&utm_campaign=yelp_api_v3&utm_medium=api_v3_business_search&utm_source=asslzE1UV0XuKI953B1vtw", "review_count": 2, "categories": [{"alias": "breakfast_brunch", "title": "Breakfast & Brunch"}], "rating": 4.5, "coordinates": {"latitude": 42.394454581771, "longitude": -72.9491633361976}, "transactions": [], "price": "$", "location": {"address1": "1 W Sam Hill Rd", "address2": "", "address3": "", "city": "Worthington", "zip_code": "01098", "country": "US", "state": "MA", "display_address": ["1 W Sam Hill Rd", "Worthington, MA 01098"]}, "phone": "+14132385869", "display_phone": "(413) 238-5869", "distance": 13843.67332302343}, {"id": "cjeDbBpMLrjHMIeqHwU_jg", "alias": "west-end-pub-shelburne-falls", "name": "West End Pub", "image_url": "https://s3-media4.fl.yelpcdn.com/bphoto/AAWFoSbAVa7VtXW6U7uLVQ/o.jpg", "is_closed": false, "url": "https://www.yelp.com/biz/west-end-pub-shelburne-falls?adjust_creative=asslzE1UV0XuKI953B1vtw&utm_campaign=yelp_api_v3&utm_medium=api_v3_business_search&utm_source=asslzE1UV0XuKI953B1vtw", "review_count": 101, "categories": [{"alias": "tradamerican", "title": "American (Traditional)"}, {"alias": "pubs", "title": "Pubs"}, {"alias": "burgers", "title": "Burgers"}], "rating": 4.0, "coordinates": {"latitude": 42.603919, "longitude": -72.7413603}, "transactions": [], "price": "$$", "location": {"address1": "16 State St", "address2": "", "address3": "", "city": "Shelburne Falls", "zip_code": "01370", "country": "US", "state": "MA", "display_address": ["16 State St", "Shelburne Falls, MA 01370"]}, "phone": "+14136256216", "display_phone": "(413) 625-6216", "distance": 17806.5158374867}, {"id": "30xbqOCYLbCo841PyZFv6w", "alias": "bounti-fare-restaurant-adams", "name": "Bounti-Fare Restaurant", "image_url": "https://s3-media2.fl.yelpcdn.com/bphoto/Ynn4fqHMBNhd4iKc4T4JBQ/o.jpg", "is_closed": false, "url": "https://www.yelp.com/biz/bounti-fare-restaurant-adams?adjust_creative=asslzE1UV0XuKI953B1vtw&utm_campaign=yelp_api_v3&utm_medium=api_v3_business_search&utm_source=asslzE1UV0XuKI953B1vtw", "review_count": 11, "categories": [{"alias": "newamerican", "title": "American (New)"}], "rating": 4.0, "coordinates": {"latitude": 42.6568459876221, "longitude": -73.1102218017408}, "transactions": [], "price": "$$", "location": {"address1": "200 Howland Ave", "address2": "", "address3": "", "city": "Adams", "zip_code": "01220", "country": "US", "state": "MA", "display_address": ["200 Howland Ave", "Adams, MA 01220"]}, "phone": "+14137430193", "display_phone": "(413) 743-0193", "distance": 21699.202191234384}, {"id": "FzEewR1sdPRNgIqTvxfh7Q", "alias": "haflinger-haus-restaurant-tavern-and-inn-adams", "name": "Haflinger Haus Restaurant Tavern & Inn", "image_url": "https://s3-media2.fl.yelpcdn.com/bphoto/mNj8-QpVU52UbZt8wOqZ8A/o.jpg", "is_closed": false, "url": "https://www.yelp.com/biz/haflinger-haus-restaurant-tavern-and-inn-adams?adjust_creative=asslzE1UV0XuKI953B1vtw&utm_campaign=yelp_api_v3&utm_medium=api_v3_business_search&utm_source=asslzE1UV0XuKI953B1vtw", "review_count": 40, "categories": [{"alias": "austrian", "title": "Austrian"}, {"alias": "tradamerican", "title": "American (Traditional)"}], "rating": 4.0, "coordinates": {"latitude": 42.618738, "longitude": -73.121827}, "transactions": [], "price": "$$", "location": {"address1": "17 Commercial St", "address2": null, "address3": "", "city": "Adams", "zip_code": "01220", "country": "US", "state": "MA", "display_address": ["17 Commercial St", "Adams, MA 01220"]}, "phone": "+14137432221", "display_phone": "(413) 743-2221", "distance": 19659.05365167506}, {"id": "cSqUvTVIVcf0SxF2OnzQ4A", "alias": "delicatesse-shelburne-falls", "name": "Delicatesse", "image_url": "https://s3-media3.fl.yelpcdn.com/bphoto/QwYRU6Kwi9XUtW7cU1TMyw/o.jpg", "is_closed": false, "url": "https://www.yelp.com/biz/delicatesse-shelburne-falls?adjust_creative=asslzE1UV0XuKI953B1vtw&utm_campaign=yelp_api_v3&utm_medium=api_v3_business_search&utm_source=asslzE1UV0XuKI953B1vtw", "review_count": 15, "categories": [{"alias": "delis", "title": "Delis"}, {"alias": "cafes", "title": "Cafes"}, {"alias": "bagels", "title": "Bagels"}], "rating": 5.0, "coordinates": {"latitude": 42.6037749, "longitude": -72.7402612}, "transactions": [], "location": {"address1": "8 Bridge St", "address2": "", "address3": null, "city": "Shelburne Falls", "zip_code": "01370", "country": "US", "state": "MA", "display_address": ["8 Bridge St", "Shelburne Falls, MA 01370"]}, "phone": "+14134893257", "display_phone": "(413) 489-3257", "distance": 17886.228227844636}, {"id": "VvAcjLH87MhtrZC67tPpww", "alias": "cold-river-cafe-and-restaurant-charlemont", "name": "Cold River Cafe & Restaurant", "image_url": "https://s3-media2.fl.yelpcdn.com/bphoto/PV_66NvbKtHue0PFwzD6Eg/o.jpg", "is_closed": false, "url": "https://www.yelp.com/biz/cold-river-cafe-and-restaurant-charlemont?adjust_creative=asslzE1UV0XuKI953B1vtw&utm_campaign=yelp_api_v3&utm_medium=api_v3_business_search&utm_source=asslzE1UV0XuKI953B1vtw", "review_count": 48, "categories": [{"alias": "breakfast_brunch", "title": "Breakfast & Brunch"}, {"alias": "cafes", "title": "Cafes"}, {"alias": "pizza", "title": "Pizza"}], "rating": 3.5, "coordinates": {"latitude": 42.62666, "longitude": -72.88171}, "transactions": [], "price": "$$", "location": {"address1": "31A Main St", "address2": "", "address3": "", "city": "Charlemont", "zip_code": "01339", "country": "US", "state": "MA", "display_address": ["31A Main St", "Charlemont, MA 01339"]}, "phone": "+14133390000", "display_phone": "(413) 339-0000", "distance": 12617.856107564518}, {"id": "jJi_0_zVAENFO1jNHFr2QA", "alias": "ozzies-steak-and-eggs-hinsdale", "name": "Ozzie's Steak & Eggs", "image_url": "https://s3-media2.fl.yelpcdn.com/bphoto/HmbCm2yJiHYPp3ccuEY5Tg/o.jpg", "is_closed": false, "url": "https://www.yelp.com/biz/ozzies-steak-and-eggs-hinsdale?adjust_creative=asslzE1UV0XuKI953B1vtw&utm_campaign=yelp_api_v3&utm_medium=api_v3_business_search&utm_source=asslzE1UV0XuKI953B1vtw", "review_count": 51, "categories": [{"alias": "newamerican", "title": "American (New)"}, {"alias": "breakfast_brunch", "title": "Breakfast & Brunch"}, {"alias": "seafood", "title": "Seafood"}], "rating": 4.5, "coordinates": {"latitude": 42.43803, "longitude": -73.125002}, "transactions": [], "price": "$$", "location": {"address1": "26 Maple St", "address2": "", "address3": "", "city": "Hinsdale", "zip_code": "01235", "country": "US", "state": "MA", "display_address": ["26 Maple St", "Hinsdale, MA 01235"]}, "phone": "+14136558309", "display_phone": "(413) 655-8309", "distance": 18684.06657952768}, {"id": "rHXDd-R9ztUJxKRMj2Ziqw", "alias": "goshen-snack-bar-williamsburg", "name": "Goshen Snack Bar", "image_url": "", "is_closed": false, "url": "https://www.yelp.com/biz/goshen-snack-bar-williamsburg?adjust_creative=asslzE1UV0XuKI953B1vtw&utm_campaign=yelp_api_v3&utm_medium=api_v3_business_search&utm_source=asslzE1UV0XuKI953B1vtw", "review_count": 1, "categories": [{"alias": "hotdogs", "title": "Fast Food"}], "rating": 5.0, "coordinates": {"latitude": 42.443226, "longitude": -72.815647}, "transactions": [], "location": {"address1": "47 Ball Rd", "address2": null, "address3": null, "city": "Williamsburg", "zip_code": "01096", "country": "US", "state": "MA", "display_address": ["47 Ball Rd", "Williamsburg, MA 01096"]}, "phone": "+14132689240", "display_phone": "(413) 268-9240", "distance": 12170.022172115943}, {"id": "owKxbDnhxlBpqhcfiBjGiA", "alias": "berkshire-pizzeria-charlemont", "name": "Berkshire Pizzeria", "image_url": "https://s3-media1.fl.yelpcdn.com/bphoto/devT5oL9Ji6IwzHm5rv5sA/o.jpg", "is_closed": false, "url": "https://www.yelp.com/biz/berkshire-pizzeria-charlemont?adjust_creative=asslzE1UV0XuKI953B1vtw&utm_campaign=yelp_api_v3&utm_medium=api_v3_business_search&utm_source=asslzE1UV0XuKI953B1vtw", "review_count": 36, "categories": [{"alias": "pizza", "title": "Pizza"}, {"alias": "breakfast_brunch", "title": "Breakfast & Brunch"}, {"alias": "wraps", "title": "Wraps"}], "rating": 4.0, "coordinates": {"latitude": 42.6270903, "longitude": -72.8787897}, "transactions": [], "price": "$", "location": {"address1": "72 Main St", "address2": "", "address3": "", "city": "Charlemont", "zip_code": "01339", "country": "US", "state": "MA", "display_address": ["72 Main St", "Charlemont, MA 01339"]}, "phone": "+14133375501", "display_phone": "(413) 337-5501", "distance": 12735.348621159541}, {"id": "X_gLEwRckCC3wGGVIGhvuQ", "alias": "crazy-horse-lounge-charlemont", "name": "crazy horse lounge", "image_url": "https://s3-media2.fl.yelpcdn.com/bphoto/sh9BCRP3oQ9exZUdvJRQsw/o.jpg", "is_closed": false, "url": "https://www.yelp.com/biz/crazy-horse-lounge-charlemont?adjust_creative=asslzE1UV0XuKI953B1vtw&utm_campaign=yelp_api_v3&utm_medium=api_v3_business_search&utm_source=asslzE1UV0XuKI953B1vtw", "review_count": 1, "categories": [{"alias": "salad", "title": "Salad"}, {"alias": "cafes", "title": "Cafes"}], "rating": 3.0, "coordinates": {"latitude": 42.6225341098203, "longitude": -72.8777315857901}, "transactions": [], "location": {"address1": "66 S River Rd", "address2": "", "address3": "", "city": "Charlemont", "zip_code": "01339", "country": "US", "state": "MA", "display_address": ["66 S River Rd", "Charlemont, MA 01339"]}, "phone": "+14133396617", "display_phone": "(413) 339-6617", "distance": 12278.79558223645}, {"id": "U2zoVAZs8xYVuBW7tyDquA", "alias": "angelinas-submarine-shop-adams", "name": "Angelina's Submarine Shop", "image_url": "https://s3-media3.fl.yelpcdn.com/bphoto/7qF4VGEMh4WqzYTZ7XAsmA/o.jpg", "is_closed": false, "url": "https://www.yelp.com/biz/angelinas-submarine-shop-adams?adjust_creative=asslzE1UV0XuKI953B1vtw&utm_campaign=yelp_api_v3&utm_medium=api_v3_business_search&utm_source=asslzE1UV0XuKI953B1vtw", "review_count": 7, "categories": [{"alias": "sandwiches", "title": "Sandwiches"}], "rating": 5.0, "coordinates": {"latitude": 42.628297, "longitude": -73.116417}, "transactions": [], "price": "$", "location": {"address1": "34 1/2 Columbia St", "address2": "", "address3": "", "city": "Adams", "zip_code": "01220", "country": "US", "state": "MA", "display_address": ["34 1/2 Columbia St", "Adams, MA 01220"]}, "phone": "+14137439744", "display_phone": "(413) 743-9744", "distance": 19960.83884824801}, {"id": "GrjITzOl6sPP8DSv1RWxnw", "alias": "baked-shelburne-falls", "name": "Baked", "image_url": "https://s3-media4.fl.yelpcdn.com/bphoto/d3lzR8hA5CWajBKGBPND2A/o.jpg", "is_closed": false, "url": "https://www.yelp.com/biz/baked-shelburne-falls?adjust_creative=asslzE1UV0XuKI953B1vtw&utm_campaign=yelp_api_v3&utm_medium=api_v3_business_search&utm_source=asslzE1UV0XuKI953B1vtw", "review_count": 42, "categories": [{"alias": "cafes", "title": "Cafes"}, {"alias": "breakfast_brunch", "title": "Breakfast & Brunch"}, {"alias": "bakeries", "title": "Bakeries"}], "rating": 4.0, "coordinates": {"latitude": 42.6032697149586, "longitude": -72.7398762962963}, "transactions": [], "price": "$", "location": {"address1": "4 Deerfield Ave", "address2": "", "address3": null, "city": "Shelburne Falls", "zip_code": "01370", "country": "US", "state": "MA", "display_address": ["4 Deerfield Ave", "Shelburne Falls, MA 01370"]}, "phone": "+14134893139", "display_phone": "(413) 489-3139", "distance": 17870.501918005655}, {"id": "5pMuo6RdZ6JZF0E_Dl1eDQ", "alias": "home-club-hinsdale", "name": "Home Club", "image_url": "", "is_closed": false, "url": "https://www.yelp.com/biz/home-club-hinsdale?adjust_creative=asslzE1UV0XuKI953B1vtw&utm_campaign=yelp_api_v3&utm_medium=api_v3_business_search&utm_source=asslzE1UV0XuKI953B1vtw", "review_count": 1, "categories": [{"alias": "restaurants", "title": "Restaurants"}], "rating": 5.0, "coordinates": {"latitude": 42.4343329668045, "longitude": -73.1187625229359}, "transactions": [], "price": "$", "location": {"address1": "213 South St", "address2": "", "address3": "", "city": "Hinsdale", "zip_code": "01235", "country": "US", "state": "MA", "display_address": ["213 South St", "Hinsdale, MA 01235"]}, "phone": "+14136550167", "display_phone": "(413) 655-0167", "distance": 18414.722026267747}, {"id": "jkYGwogtKOwlNhz8juiGWQ", "alias": "daily-grind-adams", "name": "Daily Grind", "image_url": "https://s3-media3.fl.yelpcdn.com/bphoto/pTIbqnNn-8fbakgAdoCjIA/o.jpg", "is_closed": false, "url": "https://www.yelp.com/biz/daily-grind-adams?adjust_creative=asslzE1UV0XuKI953B1vtw&utm_campaign=yelp_api_v3&utm_medium=api_v3_business_search&utm_source=asslzE1UV0XuKI953B1vtw", "review_count": 18, "categories": [{"alias": "delis", "title": "Delis"}], "rating": 4.0, "coordinates": {"latitude": 42.6220003995806, "longitude": -73.1200815902789}, "transactions": [], "price": "$", "location": {"address1": "57 Park St", "address2": "", "address3": "", "city": "Adams", "zip_code": "01220", "country": "US", "state": "MA", "display_address": ["57 Park St", "Adams, MA 01220"]}, "phone": "+14137439577", "display_phone": "(413) 743-9577", "distance": 19779.73689605861}, {"id": "vie_fCh-eUqGfKNiNVjFow", "alias": "foxtown-diner-shelburne-falls", "name": "Foxtown Diner", "image_url": "https://s3-media2.fl.yelpcdn.com/bphoto/6w_uOYWUsL-1xZUOZtd9BA/o.jpg", "is_closed": false, "url": "https://www.yelp.com/biz/foxtown-diner-shelburne-falls?adjust_creative=asslzE1UV0XuKI953B1vtw&utm_campaign=yelp_api_v3&utm_medium=api_v3_business_search&utm_source=asslzE1UV0XuKI953B1vtw", "review_count": 35, "categories": [{"alias": "sandwiches", "title": "Sandwiches"}, {"alias": "breakfast_brunch", "title": "Breakfast & Brunch"}, {"alias": "burgers", "title": "Burgers"}], "rating": 4.0, "coordinates": {"latitude": 42.603473, "longitude": -72.739337}, "transactions": [], "price": "$", "location": {"address1": "25 Bridge St", "address2": "", "address3": "", "city": "Shelburne Falls", "zip_code": "01370", "country": "US", "state": "MA", "display_address": ["25 Bridge St", "Shelburne Falls, MA 01370"]}, "phone": "+14136256606", "display_phone": "(413) 625-6606", "distance": 17924.912879607633}, {"id": "q_XWxF3s5hTEnPiLbgmzjQ", "alias": "ajs-trailside-pub-adams", "name": "AJs trailside pub", "image_url": "https://s3-media2.fl.yelpcdn.com/bphoto/3soC_sfncbguc2LWX6Y1UQ/o.jpg", "is_closed": false, "url": "https://www.yelp.com/biz/ajs-trailside-pub-adams?adjust_creative=asslzE1UV0XuKI953B1vtw&utm_campaign=yelp_api_v3&utm_medium=api_v3_business_search&utm_source=asslzE1UV0XuKI953B1vtw", "review_count": 5, "categories": [{"alias": "tradamerican", "title": "American (Traditional)"}, {"alias": "pubs", "title": "Pubs"}], "rating": 3.0, "coordinates": {"latitude": 42.6217931885812, "longitude": -73.1190310791135}, "transactions": [], "location": {"address1": "12 Pleasant St", "address2": "", "address3": null, "city": "Adams", "zip_code": "01220", "country": "US", "state": "MA", "display_address": ["12 Pleasant St", "Adams, MA 01220"]}, "phone": "+14137437831", "display_phone": "(413) 743-7831", "distance": 19696.60595661437}, {"id": "IaujkYzYVYjwN4LNSZGWNg", "alias": "chees-chinese-cuisine-adams", "name": "Chee's Chinese Cuisine", "image_url": "https://s3-media1.fl.yelpcdn.com/bphoto/Txxm5ALf_ACvq2O4pkNR5g/o.jpg", "is_closed": false, "url": "https://www.yelp.com/biz/chees-chinese-cuisine-adams?adjust_creative=asslzE1UV0XuKI953B1vtw&utm_campaign=yelp_api_v3&utm_medium=api_v3_business_search&utm_source=asslzE1UV0XuKI953B1vtw", "review_count": 38, "categories": [{"alias": "chinese", "title": "Chinese"}], "rating": 4.0, "coordinates": {"latitude": 42.6247978, "longitude": -73.1190299}, "transactions": [], "price": "$$", "location": {"address1": "13 Columbia St", "address2": "", "address3": "", "city": "Adams", "zip_code": "01220", "country": "US", "state": "MA", "display_address": ["13 Columbia St", "Adams, MA 01220"]}, "phone": "+14137437270", "display_phone": "(413) 743-7270", "distance": 19887.172595981898}, {"id": "TIm9N1EDtxj_WR95fwR5Ow", "alias": "a-1-hilltown-pizza-williamsburg", "name": "A-1 Hilltown Pizza", "image_url": "https://s3-media3.fl.yelpcdn.com/bphoto/SjPcoIjB8ZpuMJKMc9pyhw/o.jpg", "is_closed": false, "url": "https://www.yelp.com/biz/a-1-hilltown-pizza-williamsburg?adjust_creative=asslzE1UV0XuKI953B1vtw&utm_campaign=yelp_api_v3&utm_medium=api_v3_business_search&utm_source=asslzE1UV0XuKI953B1vtw", "review_count": 12, "categories": [{"alias": "pizza", "title": "Pizza"}], "rating": 3.5, "coordinates": {"latitude": 42.391134, "longitude": -72.724329}, "transactions": [], "price": "$$", "location": {"address1": "35 Main St", "address2": "", "address3": "", "city": "Williamsburg", "zip_code": "01096", "country": "US", "state": "MA", "display_address": ["35 Main St", "Williamsburg, MA 01096"]}, "phone": "+14132680202", "display_phone": "(413) 268-0202", "distance": 21621.560041267356}, {"id": "bcJyzsejMPVlVLCjFJJDfw", "alias": "corner-lunch-adams", "name": "Corner Lunch", "image_url": "https://s3-media3.fl.yelpcdn.com/bphoto/cYVpOToipW6un16LK7S1FQ/o.jpg", "is_closed": false, "url": "https://www.yelp.com/biz/corner-lunch-adams?adjust_creative=asslzE1UV0XuKI953B1vtw&utm_campaign=yelp_api_v3&utm_medium=api_v3_business_search&utm_source=asslzE1UV0XuKI953B1vtw", "review_count": 5, "categories": [{"alias": "newamerican", "title": "American (New)"}], "rating": 4.0, "coordinates": {"latitude": 42.62182, "longitude": -73.11519}, "transactions": [], "price": "$", "location": {"address1": "50 Summer St", "address2": "", "address3": "", "city": "Adams", "zip_code": "01220", "country": "US", "state": "MA", "display_address": ["50 Summer St", "Adams, MA 01220"]}, "phone": "+14137439725", "display_phone": "(413) 743-9725", "distance": 19445.257380314826}, {"id": "0xEKvNlbiPjEpNXeX02LJA", "alias": "buckland-pizza-shelburne-falls", "name": "Buckland Pizza", "image_url": "https://s3-media2.fl.yelpcdn.com/bphoto/n1hVQ3vVJQjfRA_Nfzt3og/o.jpg", "is_closed": false, "url": "https://www.yelp.com/biz/buckland-pizza-shelburne-falls?adjust_creative=asslzE1UV0XuKI953B1vtw&utm_campaign=yelp_api_v3&utm_medium=api_v3_business_search&utm_source=asslzE1UV0XuKI953B1vtw", "review_count": 22, "categories": [{"alias": "pizza", "title": "Pizza"}], "rating": 3.5, "coordinates": {"latitude": 42.6038289562622, "longitude": -72.7414358539614}, "transactions": [], "price": "$$", "location": {"address1": "13 State St", "address2": "", "address3": "", "city": "Shelburne Falls", "zip_code": "01370", "country": "US", "state": "MA", "display_address": ["13 State St", "Shelburne Falls, MA 01370"]}, "phone": "+14136256342", "display_phone": "(413) 625-6342", "distance": 17779.281505478048}, {"id": "z7YgVWr4CI_SOOmdHH-ddQ", "alias": "lees-dynasty-adams", "name": "Lee's Dynasty", "image_url": "https://s3-media1.fl.yelpcdn.com/bphoto/AzqvxgGqymm2CP-B-dV-KA/o.jpg", "is_closed": false, "url": "https://www.yelp.com/biz/lees-dynasty-adams?adjust_creative=asslzE1UV0XuKI953B1vtw&utm_campaign=yelp_api_v3&utm_medium=api_v3_business_search&utm_source=asslzE1UV0XuKI953B1vtw", "review_count": 13, "categories": [{"alias": "chinese", "title": "Chinese"}, {"alias": "sushi", "title": "Sushi Bars"}], "rating": 4.5, "coordinates": {"latitude": 42.63389, "longitude": -73.1135}, "transactions": [], "location": {"address1": "131 Columbia St", "address2": "", "address3": null, "city": "Adams", "zip_code": "01220", "country": "US", "state": "MA", "display_address": ["131 Columbia St", "Adams, MA 01220"]}, "phone": "+14137433333", "display_phone": "(413) 743-3333", "distance": 20167.753407650296}, {"id": "4dhv5RSlcL7Eh61WydcjKg", "alias": "red-carpet-restaurant-adams", "name": "Red Carpet Restaurant", "image_url": "https://s3-media4.fl.yelpcdn.com/bphoto/WUODya8jL1WfLvOYffBxEw/o.jpg", "is_closed": false, "url": "https://www.yelp.com/biz/red-carpet-restaurant-adams?adjust_creative=asslzE1UV0XuKI953B1vtw&utm_campaign=yelp_api_v3&utm_medium=api_v3_business_search&utm_source=asslzE1UV0XuKI953B1vtw", "review_count": 7, "categories": [{"alias": "newamerican", "title": "American (New)"}], "rating": 3.0, "coordinates": {"latitude": 42.62308, "longitude": -73.11963}, "transactions": ["delivery"], "price": "$", "location": {"address1": "69 Park St", "address2": "", "address3": "", "city": "Adams", "zip_code": "01220", "country": "US", "state": "MA", "display_address": ["69 Park St", "Adams, MA 01220"]}, "phone": "+14137439781", "display_phone": "(413) 743-9781", "distance": 19829.60720709234}, {"id": "NXgDH-jG3KxXqKofvuHipg", "alias": "pedrins-dairy-bar-north-adams", "name": "Pedrin's Dairy Bar", "image_url": "https://s3-media2.fl.yelpcdn.com/bphoto/Byk9aRu_ZHRfUc7vcRCytA/o.jpg", "is_closed": false, "url": "https://www.yelp.com/biz/pedrins-dairy-bar-north-adams?adjust_creative=asslzE1UV0XuKI953B1vtw&utm_campaign=yelp_api_v3&utm_medium=api_v3_business_search&utm_source=asslzE1UV0XuKI953B1vtw", "review_count": 22, "categories": [{"alias": "tradamerican", "title": "American (Traditional)"}, {"alias": "hotdogs", "title": "Fast Food"}], "rating": 4.0, "coordinates": {"latitude": 42.6653894372648, "longitude": -73.1076757717891}, "transactions": [], "price": "$", "location": {"address1": "1360 Curran Hwy", "address2": "", "address3": "", "city": "North Adams", "zip_code": "01247", "country": "US", "state": "MA", "display_address": ["1360 Curran Hwy", "North Adams, MA 01247"]}, "phone": "+14136649540", "display_phone": "(413) 664-9540", "distance": 22257.779259641375}, {"id": "J_T8Gb4Zn_joUoGQkQ3u4A", "alias": "pizza-house-adams-2", "name": "Pizza House", "image_url": "https://s3-media2.fl.yelpcdn.com/bphoto/RRyt1MSGQxoP5XRfuHdUMg/o.jpg", "is_closed": false, "url": "https://www.yelp.com/biz/pizza-house-adams-2?adjust_creative=asslzE1UV0XuKI953B1vtw&utm_campaign=yelp_api_v3&utm_medium=api_v3_business_search&utm_source=asslzE1UV0XuKI953B1vtw", "review_count": 7, "categories": [{"alias": "pizza", "title": "Pizza"}], "rating": 3.5, "coordinates": {"latitude": 42.6254196166992, "longitude": -73.1136322021484}, "transactions": [], "location": {"address1": "26 Hoosac St", "address2": "", "address3": null, "city": "Adams", "zip_code": "01220", "country": "US", "state": "MA", "display_address": ["26 Hoosac St", "Adams, MA 01220"]}, "phone": "+14137434466", "display_phone": "(413) 743-4466", "distance": 19581.617244263005}, {"id": "YbZg252i3vJ9wmf-gsgUog", "alias": "panda-garden-williamsburg", "name": "Panda Garden", "image_url": "https://s3-media1.fl.yelpcdn.com/bphoto/GR__trIJi5zuhynUKh7owA/o.jpg", "is_closed": false, "url": "https://www.yelp.com/biz/panda-garden-williamsburg?adjust_creative=asslzE1UV0XuKI953B1vtw&utm_campaign=yelp_api_v3&utm_medium=api_v3_business_search&utm_source=asslzE1UV0XuKI953B1vtw", "review_count": 29, "categories": [{"alias": "chinese", "title": "Chinese"}], "rating": 3.0, "coordinates": {"latitude": 42.4294774979353, "longitude": -72.7925515919924}, "transactions": ["pickup", "delivery"], "price": "$$", "location": {"address1": "49 Main St", "address2": "", "address3": "", "city": "Williamsburg", "zip_code": "01096", "country": "US", "state": "MA", "display_address": ["49 Main St", "Williamsburg, MA 01096"]}, "phone": "+14132688811", "display_phone": "(413) 268-8811", "distance": 21894.19542311911}, {"id": "pZ5Q3wPrBLmHXmV6LKlpcg", "alias": "mcdonalds-adams-4", "name": "McDonald's", "image_url": "https://s3-media2.fl.yelpcdn.com/bphoto/dPKXKZX9SRSCG9YORg2u7Q/o.jpg", "is_closed": false, "url": "https://www.yelp.com/biz/mcdonalds-adams-4?adjust_creative=asslzE1UV0XuKI953B1vtw&utm_campaign=yelp_api_v3&utm_medium=api_v3_business_search&utm_source=asslzE1UV0XuKI953B1vtw", "review_count": 2, "categories": [{"alias": "coffee", "title": "Coffee & Tea"}, {"alias": "burgers", "title": "Burgers"}, {"alias": "hotdogs", "title": "Fast Food"}], "rating": 2.0, "coordinates": {"latitude": 42.6198977, "longitude": -73.1200694}, "transactions": [], "price": "$", "location": {"address1": "2 Commercial St", "address2": null, "address3": null, "city": "Adams", "zip_code": "01220", "country": "US", "state": "MA", "display_address": ["2 Commercial St", "Adams, MA 01220"]}, "phone": "+14137434678", "display_phone": "(413) 743-4678", "distance": 19605.10146745826}, {"id": "qqA8YX58xnmEXLyanHfdUg", "alias": "stufd-food-truck-brooklyn", "name": "Stuf'd Food Truck", "image_url": "https://s3-media2.fl.yelpcdn.com/bphoto/_Wn0i-tLIOFinw8BPAqxPA/o.jpg", "is_closed": false, "url": "https://www.yelp.com/biz/stufd-food-truck-brooklyn?adjust_creative=asslzE1UV0XuKI953B1vtw&utm_campaign=yelp_api_v3&utm_medium=api_v3_business_search&utm_source=asslzE1UV0XuKI953B1vtw", "review_count": 4, "categories": [{"alias": "sandwiches", "title": "Sandwiches"}, {"alias": "foodtrucks", "title": "Food Trucks"}], "rating": 4.0, "coordinates": {"latitude": 40.7124539, "longitude": -73.9287374}, "transactions": [], "location": {"address1": "178 Varick Ave", "address2": "", "address3": null, "city": "Brooklyn", "zip_code": "11237", "country": "US", "state": "NY", "display_address": ["178 Varick Ave", "Brooklyn, NY 11237"]}, "phone": "+18457091808", "display_phone": "(845) 709-1808", "distance": 217389.0775438489}]