[{"id": "HKyN2UJvkakOCblSOKQLUQ", "alias": "gardner-ale-house-gardner-2", "name": "Gardner Ale House", "image_url": "https://s3-media2.fl.yelpcdn.com/bphoto/6DhrQB5Hr_Z6hj-dZTN0hw/o.jpg", "is_closed": false, "url": "https://www.yelp.com/biz/gardner-ale-house-gardner-2?adjust_creative=h5HwbyQ0TYvQjBo6Ys5Bgw&utm_campaign=yelp_api_v3&utm_medium=api_v3_business_search&utm_source=h5HwbyQ0TYvQjBo6Ys5Bgw", "review_count": 274, "categories": [{"alias": "pubs", "title": "Pubs"}, {"alias": "tradamerican", "title": "American (Traditional)"}, {"alias": "brewpubs", "title": "Brewpubs"}], "rating": 4.0, "coordinates": {"latitude": 42.575771, "longitude": -71.997131}, "transactions": [], "price": "$$", "location": {"address1": "74 Parker St", "address2": "", "address3": "", "city": "Gardner", "zip_code": "01440", "country": "US", "state": "MA", "display_address": ["74 Parker St", "Gardner, MA 01440"]}, "phone": "+19786690122", "display_phone": "(978) 669-0122", "distance": 1702.1594601327902}, {"id": "xd-G4ijhAy3m3UUwecSF8w", "alias": "albatross-westminster", "name": "Albatross", "image_url": "https://s3-media2.fl.yelpcdn.com/bphoto/zOECZh7kMbmGuuFDpk4NEg/o.jpg", "is_closed": false, "url": "https://www.yelp.com/biz/albatross-westminster?adjust_creative=h5HwbyQ0TYvQjBo6Ys5Bgw&utm_campaign=yelp_api_v3&utm_medium=api_v3_business_search&utm_source=h5HwbyQ0TYvQjBo6Ys5Bgw", "review_count": 5, "categories": [{"alias": "newamerican", "title": "American (New)"}, {"alias": "breakfast_brunch", "title": "Breakfast & Brunch"}, {"alias": "bars", "title": "Bars"}], "rating": 5.0, "coordinates": {"latitude": 42.54569, "longitude": -71.93143}, "transactions": [], "location": {"address1": "51 Ellis Rd", "address2": null, "address3": "", "city": "Westminster", "zip_code": "01473", "country": "US", "state": "MA", "display_address": ["51 Ellis Rd", "Westminster, MA 01473"]}, "phone": "+19788745900", "display_phone": "(978) 874-5900", "distance": 7349.629638081461}, {"id": "v_Hpc-MgJvfyKWSspDETlw", "alias": "taco-rey-coliman-gardner-2", "name": "Taco Rey Coliman", "image_url": "https://s3-media4.fl.yelpcdn.com/bphoto/FZ0gWTPf72YnsmmM6OQNuA/o.jpg", "is_closed": false, "url": "https://www.yelp.com/biz/taco-rey-coliman-gardner-2?adjust_creative=h5HwbyQ0TYvQjBo6Ys5Bgw&utm_campaign=yelp_api_v3&utm_medium=api_v3_business_search&utm_source=h5HwbyQ0TYvQjBo6Ys5Bgw", "review_count": 35, "categories": [{"alias": "tex-mex", "title": "Tex-Mex"}, {"alias": "mexican", "title": "Mexican"}, {"alias": "spanish", "title": "Spanish"}], "rating": 4.5, "coordinates": {"latitude": 42.5757434, "longitude": -71.9951119}, "transactions": [], "price": "$", "location": {"address1": "7 Pleasant St", "address2": "", "address3": "", "city": "Gardner", "zip_code": "01440", "country": "US", "state": "MA", "display_address": ["7 Pleasant St", "Gardner, MA 01440"]}, "phone": "+19786327400", "display_phone": "(978) 632-7400", "distance": 1649.8694582359972}, {"id": "nfeb9YXVrPx1cJOlgOHDNA", "alias": "the-1761-old-mill-westminster", "name": "The 1761 Old Mill", "image_url": "https://s3-media2.fl.yelpcdn.com/bphoto/tdAVI4Xm0xA_WaHWSMPWfQ/o.jpg", "is_closed": false, "url": "https://www.yelp.com/biz/the-1761-old-mill-westminster?adjust_creative=h5HwbyQ0TYvQjBo6Ys5Bgw&utm_campaign=yelp_api_v3&utm_medium=api_v3_business_search&utm_source=h5HwbyQ0TYvQjBo6Ys5Bgw", "review_count": 204, "categories": [{"alias": "tradamerican", "title": "American (Traditional)"}], "rating": 3.5, "coordinates": {"latitude": 42.549262, "longitude": -71.885783}, "transactions": [], "price": "$$", "location": {"address1": "69 State Rd E", "address2": null, "address3": "", "city": "Westminster", "zip_code": "01473", "country": "US", "state": "MA", "display_address": ["69 State Rd E", "Westminster, MA 01473"]}, "phone": "+19788745941", "display_phone": "(978) 874-5941", "distance": 9583.49635854857}, {"id": "CFccQR7Fys9NkmeoWLid2Q", "alias": "darios-ristorante-fitchburg", "name": "Dario's Ristorante", "image_url": "https://s3-media1.fl.yelpcdn.com/bphoto/KB-KWcABs1cgWXKNSELT2A/o.jpg", "is_closed": false, "url": "https://www.yelp.com/biz/darios-ristorante-fitchburg?adjust_creative=h5HwbyQ0TYvQjBo6Ys5Bgw&utm_campaign=yelp_api_v3&utm_medium=api_v3_business_search&utm_source=h5HwbyQ0TYvQjBo6Ys5Bgw", "review_count": 45, "categories": [{"alias": "italian", "title": "Italian"}], "rating": 5.0, "coordinates": {"latitude": 42.5849594353718, "longitude": -71.8148773536086}, "transactions": ["delivery"], "price": "$$", "location": {"address1": "187 River St", "address2": "", "address3": "", "city": "Fitchburg", "zip_code": "01420", "country": "US", "state": "MA", "display_address": ["187 River St", "Fitchburg, MA 01420"]}, "phone": "+19786273974", "display_phone": "(978) 627-3974", "distance": 14289.21043460435}, {"id": "jTPPscieN_KRrwxq3Cvoxg", "alias": "sawa-asian-bistro-gardner", "name": "Sawa Asian Bistro", "image_url": "https://s3-media3.fl.yelpcdn.com/bphoto/6OeCkKRnF5CX73drFhHyaw/o.jpg", "is_closed": false, "url": "https://www.yelp.com/biz/sawa-asian-bistro-gardner?adjust_creative=h5HwbyQ0TYvQjBo6Ys5Bgw&utm_campaign=yelp_api_v3&utm_medium=api_v3_business_search&utm_source=h5HwbyQ0TYvQjBo6Ys5Bgw", "review_count": 76, "categories": [{"alias": "asianfusion", "title": "Asian Fusion"}], "rating": 3.5, "coordinates": {"latitude": 42.559041712705, "longitude": -71.989148206288}, "transactions": ["pickup"], "price": "$$", "location": {"address1": "360 Timpany Blvd", "address2": "", "address3": "", "city": "Gardner", "zip_code": "01440", "country": "US", "state": "MA", "display_address": ["360 Timpany Blvd", "Gardner, MA 01440"]}, "phone": "+19786323888", "display_phone": "(978) 632-3888", "distance": 3436.634328326005}, {"id": "wzs8aDcYZyAWOWghMoaGzw", "alias": "angler-fish-market-and-chowder-westminster-2", "name": "Angler Fish Market & Chowder", "image_url": "https://s3-media1.fl.yelpcdn.com/bphoto/rhCv_g0tD3O4VI19oGcsKA/o.jpg", "is_closed": false, "url": "https://www.yelp.com/biz/angler-fish-market-and-chowder-westminster-2?adjust_creative=h5HwbyQ0TYvQjBo6Ys5Bgw&utm_campaign=yelp_api_v3&utm_medium=api_v3_business_search&utm_source=h5HwbyQ0TYvQjBo6Ys5Bgw", "review_count": 105, "categories": [{"alias": "seafoodmarkets", "title": "Seafood Markets"}, {"alias": "seafood", "title": "Seafood"}], "rating": 4.0, "coordinates": {"latitude": 42.545545, "longitude": -71.914566}, "transactions": ["pickup", "delivery"], "price": "$$", "location": {"address1": "1 Village Sq", "address2": null, "address3": null, "city": "Westminster", "zip_code": "01473", "country": "US", "state": "MA", "display_address": ["1 Village Sq", "Westminster, MA 01473"]}, "phone": "+19788742202", "display_phone": "(978) 874-2202", "distance": 7862.717149106992}, {"id": "lfQN5QSEPMr4ng0eW3lvEA", "alias": "williams-restaurant-gardner", "name": "Williams Restaurant", "image_url": "https://s3-media2.fl.yelpcdn.com/bphoto/YEek_aEDa2SU79a1-TPvZA/o.jpg", "is_closed": false, "url": "https://www.yelp.com/biz/williams-restaurant-gardner?adjust_creative=h5HwbyQ0TYvQjBo6Ys5Bgw&utm_campaign=yelp_api_v3&utm_medium=api_v3_business_search&utm_source=h5HwbyQ0TYvQjBo6Ys5Bgw", "review_count": 38, "categories": [{"alias": "newamerican", "title": "American (New)"}, {"alias": "seafood", "title": "Seafood"}, {"alias": "sandwiches", "title": "Sandwiches"}], "rating": 3.5, "coordinates": {"latitude": 42.55953, "longitude": -71.98036}, "transactions": [], "price": "$$", "location": {"address1": "184 Pearson Blvd", "address2": "", "address3": "", "city": "Gardner", "zip_code": "01440", "country": "US", "state": "MA", "display_address": ["184 Pearson Blvd", "Gardner, MA 01440"]}, "phone": "+19786327794", "display_phone": "(978) 632-7794", "distance": 3463.341548332506}, {"id": "jQV1x9aI6gfQLtlpUcj2FA", "alias": "duguays-chicken-and-seafood-gardner", "name": "Duguays Chicken & Seafood", "image_url": "https://s3-media2.fl.yelpcdn.com/bphoto/C1iDu-eEp0WuUJJP1eNjVA/o.jpg", "is_closed": false, "url": "https://www.yelp.com/biz/duguays-chicken-and-seafood-gardner?adjust_creative=h5HwbyQ0TYvQjBo6Ys5Bgw&utm_campaign=yelp_api_v3&utm_medium=api_v3_business_search&utm_source=h5HwbyQ0TYvQjBo6Ys5Bgw", "review_count": 47, "categories": [{"alias": "seafood", "title": "Seafood"}, {"alias": "burgers", "title": "Burgers"}, {"alias": "chickenshop", "title": "Chicken Shop"}], "rating": 4.0, "coordinates": {"latitude": 42.57311, "longitude": -72.01599}, "transactions": [], "price": "$$", "location": {"address1": "632 Parker St", "address2": "", "address3": "", "city": "Gardner", "zip_code": "01440", "country": "US", "state": "MA", "display_address": ["632 Parker St", "Gardner, MA 01440"]}, "phone": "+19786324493", "display_phone": "(978) 632-4493", "distance": 2840.376465620447}, {"id": "YFUYllVibHXwawGD2WxG5g", "alias": "99-restaurants-gardner", "name": "99 Restaurants", "image_url": "https://s3-media3.fl.yelpcdn.com/bphoto/Z_yBm5P7QKjWhMHHvGTBcg/o.jpg", "is_closed": false, "url": "https://www.yelp.com/biz/99-restaurants-gardner?adjust_creative=h5HwbyQ0TYvQjBo6Ys5Bgw&utm_campaign=yelp_api_v3&utm_medium=api_v3_business_search&utm_source=h5HwbyQ0TYvQjBo6Ys5Bgw", "review_count": 10, "categories": [{"alias": "tradamerican", "title": "American (Traditional)"}, {"alias": "pubs", "title": "Pubs"}], "rating": 3.5, "coordinates": {"latitude": 42.5605143, "longitude": -71.9906149}, "transactions": [], "location": {"address1": "299 Timpany Blvd", "address2": null, "address3": "", "city": "Gardner", "zip_code": "01440", "country": "US", "state": "MA", "display_address": ["299 Timpany Blvd", "Gardner, MA 01440"]}, "phone": "+19789580399", "display_phone": "(978) 958-0399", "distance": 3366.215151382895}, {"id": "EZhQ41NJaq4no3RTzs7cmw", "alias": "colonial-grille-gardner", "name": "Colonial Grille", "image_url": "https://s3-media1.fl.yelpcdn.com/bphoto/voCLPpE2SaAJdfbfn5BHRg/o.jpg", "is_closed": false, "url": "https://www.yelp.com/biz/colonial-grille-gardner?adjust_creative=h5HwbyQ0TYvQjBo6Ys5Bgw&utm_campaign=yelp_api_v3&utm_medium=api_v3_business_search&utm_source=h5HwbyQ0TYvQjBo6Ys5Bgw", "review_count": 22, "categories": [{"alias": "tradamerican", "title": "American (Traditional)"}, {"alias": "seafood", "title": "Seafood"}, {"alias": "pizza", "title": "Pizza"}], "rating": 3.5, "coordinates": {"latitude": 42.562668, "longitude": -71.949158}, "transactions": [], "price": "$$", "location": {"address1": "625 Betty Spring Rd", "address2": "", "address3": "", "city": "Gardner", "zip_code": "01440", "country": "US", "state": "MA", "display_address": ["625 Betty Spring Rd", "Gardner, MA 01440"]}, "phone": "+19786302500", "display_phone": "(978) 630-2500", "distance": 4471.996143203074}, {"id": "KOmBaRuOp6ZrxiLC3hC-sw", "alias": "paramount-cafe-gardner", "name": "Paramount Cafe", "image_url": "https://s3-media2.fl.yelpcdn.com/bphoto/9ciEyCWZ1VdIAQoiqYjnfQ/o.jpg", "is_closed": false, "url": "https://www.yelp.com/biz/paramount-cafe-gardner?adjust_creative=h5HwbyQ0TYvQjBo6Ys5Bgw&utm_campaign=yelp_api_v3&utm_medium=api_v3_business_search&utm_source=h5HwbyQ0TYvQjBo6Ys5Bgw", "review_count": 5, "categories": [{"alias": "cafes", "title": "Cafes"}], "rating": 4.5, "coordinates": {"latitude": 42.575092, "longitude": -71.994545}, "transactions": [], "location": {"address1": "46 Main St", "address2": "", "address3": "", "city": "Gardner", "zip_code": "01440", "country": "US", "state": "MA", "display_address": ["46 Main St", "Gardner, MA 01440"]}, "phone": "+19786329869", "display_phone": "(978) 632-9869", "distance": 1707.0508154370316}, {"id": "mRj1oNilgeEiMyTDE-XRFA", "alias": "sorrentos-brick-oven-pizza-gardner", "name": "Sorrento's Brick Oven Pizza", "image_url": "https://s3-media2.fl.yelpcdn.com/bphoto/r5nIeUKuciMl8LP5jSvaWw/o.jpg", "is_closed": false, "url": "https://www.yelp.com/biz/sorrentos-brick-oven-pizza-gardner?adjust_creative=h5HwbyQ0TYvQjBo6Ys5Bgw&utm_campaign=yelp_api_v3&utm_medium=api_v3_business_search&utm_source=h5HwbyQ0TYvQjBo6Ys5Bgw", "review_count": 32, "categories": [{"alias": "pizza", "title": "Pizza"}], "rating": 3.5, "coordinates": {"latitude": 42.56806, "longitude": -71.98405}, "transactions": [], "price": "$$", "location": {"address1": "487 Chestnut St", "address2": "", "address3": "", "city": "Gardner", "zip_code": "01440", "country": "US", "state": "MA", "display_address": ["487 Chestnut St", "Gardner, MA 01440"]}, "phone": "+19786300045", "display_phone": "(978) 630-0045", "distance": 2474.4038235734124}, {"id": "7x3ahfSXy7WIbiyTWXP9Ow", "alias": "blueprint-american-bar-and-grille-westminster", "name": "Blueprint American Bar And Grille", "image_url": "https://s3-media1.fl.yelpcdn.com/bphoto/RZ-2SoH1vHklaszInf0x_w/o.jpg", "is_closed": false, "url": "https://www.yelp.com/biz/blueprint-american-bar-and-grille-westminster?adjust_creative=h5HwbyQ0TYvQjBo6Ys5Bgw&utm_campaign=yelp_api_v3&utm_medium=api_v3_business_search&utm_source=h5HwbyQ0TYvQjBo6Ys5Bgw", "review_count": 84, "categories": [{"alias": "newamerican", "title": "American (New)"}, {"alias": "bars", "title": "Bars"}], "rating": 3.5, "coordinates": {"latitude": 42.5457633862712, "longitude": -71.9147932863456}, "transactions": [], "price": "$$", "location": {"address1": "10 Village Square", "address2": "", "address3": null, "city": "Westminster", "zip_code": "01473", "country": "US", "state": "MA", "display_address": ["10 Village Square", "Westminster, MA 01473"]}, "phone": "+19786685580", "display_phone": "(978) 668-5580", "distance": 7832.977724061279}, {"id": "txZsuJHzyUuxauIRymkd1Q", "alias": "the-harbour-sports-bar-winchendon", "name": "The Harbour Sports Bar", "image_url": "https://s3-media2.fl.yelpcdn.com/bphoto/m-dA8xoxpq-BrqxttgifgA/o.jpg", "is_closed": false, "url": "https://www.yelp.com/biz/the-harbour-sports-bar-winchendon?adjust_creative=h5HwbyQ0TYvQjBo6Ys5Bgw&utm_campaign=yelp_api_v3&utm_medium=api_v3_business_search&utm_source=h5HwbyQ0TYvQjBo6Ys5Bgw", "review_count": 27, "categories": [{"alias": "newamerican", "title": "American (New)"}, {"alias": "sportsbars", "title": "Sports Bars"}, {"alias": "seafood", "title": "Seafood"}], "rating": 3.5, "coordinates": {"latitude": 42.6916458, "longitude": -72.0211916}, "transactions": [], "price": "$$", "location": {"address1": "456 Maple St", "address2": "", "address3": "", "city": "Winchendon", "zip_code": "01475", "country": "US", "state": "MA", "display_address": ["456 Maple St", "Winchendon, MA 01475"]}, "phone": "+19782972133", "display_phone": "(978) 297-2133", "distance": 11605.467025258868}, {"id": "UgstPkWGXVMhLagXG2sOZg", "alias": "tavern-on-central-ashburnham", "name": "Tavern on Central", "image_url": "https://s3-media3.fl.yelpcdn.com/bphoto/LPJsK0JrirZuwh0u049mmw/o.jpg", "is_closed": false, "url": "https://www.yelp.com/biz/tavern-on-central-ashburnham?adjust_creative=h5HwbyQ0TYvQjBo6Ys5Bgw&utm_campaign=yelp_api_v3&utm_medium=api_v3_business_search&utm_source=h5HwbyQ0TYvQjBo6Ys5Bgw", "review_count": 32, "categories": [{"alias": "bars", "title": "Bars"}, {"alias": "tradamerican", "title": "American (Traditional)"}], "rating": 4.0, "coordinates": {"latitude": 42.6352169, "longitude": -71.909670100163}, "transactions": [], "price": "$$", "location": {"address1": "3 Central St", "address2": "", "address3": "", "city": "Ashburnham", "zip_code": "01430", "country": "US", "state": "MA", "display_address": ["3 Central St", "Ashburnham, MA 01430"]}, "phone": "+19788271272", "display_phone": "(978) 827-1272", "distance": 8233.401724505778}, {"id": "MsAsPmMTX5uPzvmVov6B9w", "alias": "king-phillip-restaurant-phillipston", "name": "King Phillip Restaurant", "image_url": "https://s3-media2.fl.yelpcdn.com/bphoto/ojO3BoLwHN2nkE1FRdJ5Qw/o.jpg", "is_closed": false, "url": "https://www.yelp.com/biz/king-phillip-restaurant-phillipston?adjust_creative=h5HwbyQ0TYvQjBo6Ys5Bgw&utm_campaign=yelp_api_v3&utm_medium=api_v3_business_search&utm_source=h5HwbyQ0TYvQjBo6Ys5Bgw", "review_count": 48, "categories": [{"alias": "tradamerican", "title": "American (Traditional)"}], "rating": 3.0, "coordinates": {"latitude": 42.5698651, "longitude": -72.1321599}, "transactions": [], "price": "$$", "location": {"address1": "35 State Rd", "address2": "", "address3": "", "city": "Phillipston", "zip_code": "01331", "country": "US", "state": "MA", "display_address": ["35 State Rd", "Phillipston, MA 01331"]}, "phone": "+19782496300", "display_phone": "(978) 249-6300", "distance": 11910.185130539707}, {"id": "6eDMigdX2fH32_2cuaHzpw", "alias": "jk-crossroads-east-templeton", "name": "JK Crossroads", "image_url": "https://s3-media3.fl.yelpcdn.com/bphoto/X9b-I_ndI2z1jI4m_Fh-4g/o.jpg", "is_closed": false, "url": "https://www.yelp.com/biz/jk-crossroads-east-templeton?adjust_creative=h5HwbyQ0TYvQjBo6Ys5Bgw&utm_campaign=yelp_api_v3&utm_medium=api_v3_business_search&utm_source=h5HwbyQ0TYvQjBo6Ys5Bgw", "review_count": 22, "categories": [{"alias": "tradamerican", "title": "American (Traditional)"}], "rating": 3.0, "coordinates": {"latitude": 42.56267, "longitude": -72.03679}, "transactions": [], "price": "$$", "location": {"address1": "119 Patriots Rd", "address2": "", "address3": "", "city": "East Templeton", "zip_code": "01438", "country": "US", "state": "MA", "display_address": ["119 Patriots Rd", "East Templeton, MA 01438"]}, "phone": "+19786327070", "display_phone": "(978) 632-7070", "distance": 4934.099980226879}, {"id": "Hb1WV-XO3pZYMpZ3HaMf0Q", "alias": "kennys-house-gardner", "name": "Kenny's House", "image_url": "https://s3-media3.fl.yelpcdn.com/bphoto/ulcP7iOkpNHWa9bouLZbrQ/o.jpg", "is_closed": false, "url": "https://www.yelp.com/biz/kennys-house-gardner?adjust_creative=h5HwbyQ0TYvQjBo6Ys5Bgw&utm_campaign=yelp_api_v3&utm_medium=api_v3_business_search&utm_source=h5HwbyQ0TYvQjBo6Ys5Bgw", "review_count": 18, "categories": [{"alias": "chinese", "title": "Chinese"}, {"alias": "seafood", "title": "Seafood"}, {"alias": "soup", "title": "Soup"}], "rating": 4.0, "coordinates": {"latitude": 42.5757372, "longitude": -71.9983973}, "transactions": [], "location": {"address1": "128 Parker St", "address2": "", "address3": "", "city": "Gardner", "zip_code": "01440", "country": "US", "state": "MA", "display_address": ["128 Parker St", "Gardner, MA 01440"]}, "phone": "+19786322888", "display_phone": "(978) 632-2888", "distance": 1743.9476475982667}, {"id": "pFjkbm5Z5lYiaWHuOLRV8A", "alias": "little-anthonys-and-little-lizzys-winchendon", "name": "Little Anthonys & Little Lizzy's", "image_url": "https://s3-media3.fl.yelpcdn.com/bphoto/AYEd3ty3ul5yf4NuEUbz-g/o.jpg", "is_closed": false, "url": "https://www.yelp.com/biz/little-anthonys-and-little-lizzys-winchendon?adjust_creative=h5HwbyQ0TYvQjBo6Ys5Bgw&utm_campaign=yelp_api_v3&utm_medium=api_v3_business_search&utm_source=h5HwbyQ0TYvQjBo6Ys5Bgw", "review_count": 9, "categories": [{"alias": "seafood", "title": "Seafood"}, {"alias": "tradamerican", "title": "American (Traditional)"}, {"alias": "cocktailbars", "title": "Cocktail Bars"}], "rating": 4.0, "coordinates": {"latitude": 42.66681, "longitude": -72.00934}, "transactions": [], "price": "$$", "location": {"address1": "678 Spring St", "address2": null, "address3": null, "city": "Winchendon", "zip_code": "01475", "country": "US", "state": "MA", "display_address": ["678 Spring St", "Winchendon, MA 01475"]}, "phone": "+19782972669", "display_phone": "(978) 297-2669", "distance": 8685.855186487363}, {"id": "ilS9Gz1b8wKT1rJsfnKeFA", "alias": "zapata-mexican-cocina-fitchburg-3", "name": "Zapata Mexican Cocina", "image_url": "https://s3-media1.fl.yelpcdn.com/bphoto/Ow9-LaY8LQxQ043P-ZxsdA/o.jpg", "is_closed": false, "url": "https://www.yelp.com/biz/zapata-mexican-cocina-fitchburg-3?adjust_creative=h5HwbyQ0TYvQjBo6Ys5Bgw&utm_campaign=yelp_api_v3&utm_medium=api_v3_business_search&utm_source=h5HwbyQ0TYvQjBo6Ys5Bgw", "review_count": 138, "categories": [{"alias": "mexican", "title": "Mexican"}], "rating": 4.5, "coordinates": {"latitude": 42.5820764, "longitude": -71.7896202}, "transactions": ["pickup", "delivery"], "price": "$$", "location": {"address1": "23 Lunenburg St", "address2": "", "address3": null, "city": "Fitchburg", "zip_code": "01420", "country": "US", "state": "MA", "display_address": ["23 Lunenburg St", "Fitchburg, MA 01420"]}, "phone": "+19786965144", "display_phone": "(978) 696-5144", "distance": 16363.157323541314}, {"id": "XNhx5nEGbXKE4k0xXLijbw", "alias": "110-grill-athol", "name": "110 Grill", "image_url": "https://s3-media3.fl.yelpcdn.com/bphoto/_HxS-NfOJAqo0PFSUoOUxQ/o.jpg", "is_closed": false, "url": "https://www.yelp.com/biz/110-grill-athol?adjust_creative=h5HwbyQ0TYvQjBo6Ys5Bgw&utm_campaign=yelp_api_v3&utm_medium=api_v3_business_search&utm_source=h5HwbyQ0TYvQjBo6Ys5Bgw", "review_count": 57, "categories": [{"alias": "newamerican", "title": "American (New)"}, {"alias": "tradamerican", "title": "American (Traditional)"}, {"alias": "bars", "title": "Bars"}], "rating": 4.0, "coordinates": {"latitude": 42.580767, "longitude": -72.187031}, "transactions": [], "price": "$$", "location": {"address1": "307 Market Dr", "address2": null, "address3": "", "city": "Athol", "zip_code": "01331", "country": "US", "state": "MA", "display_address": ["307 Market Dr", "Athol, MA 01331"]}, "phone": "+19788304601", "display_phone": "(978) 830-4601", "distance": 16221.22665390552}, {"id": "TVd2898Jy_u8ro-GLrZEIQ", "alias": "green-tea-westminster", "name": "Green Tea", "image_url": "https://s3-media4.fl.yelpcdn.com/bphoto/mT4nA7r9_QfD0Nk7CiRqjg/o.jpg", "is_closed": false, "url": "https://www.yelp.com/biz/green-tea-westminster?adjust_creative=h5HwbyQ0TYvQjBo6Ys5Bgw&utm_campaign=yelp_api_v3&utm_medium=api_v3_business_search&utm_source=h5HwbyQ0TYvQjBo6Ys5Bgw", "review_count": 16, "categories": [{"alias": "chinese", "title": "Chinese"}], "rating": 4.5, "coordinates": {"latitude": 42.5467888580999, "longitude": -71.9142293930054}, "transactions": [], "price": "$$", "location": {"address1": "7 Village Sq", "address2": null, "address3": null, "city": "Westminster", "zip_code": "01473", "country": "US", "state": "MA", "display_address": ["7 Village Sq", "Westminster, MA 01473"]}, "phone": "+19788742288", "display_phone": "(978) 874-2288", "distance": 7798.271149559665}, {"id": "6X755NM6my9JyexFB_XX_A", "alias": "kays-dairy-bar-westminster-2", "name": "Kay's Dairy Bar", "image_url": "https://s3-media1.fl.yelpcdn.com/bphoto/ancJPX2z7M0R9o0hEeMVVw/o.jpg", "is_closed": false, "url": "https://www.yelp.com/biz/kays-dairy-bar-westminster-2?adjust_creative=h5HwbyQ0TYvQjBo6Ys5Bgw&utm_campaign=yelp_api_v3&utm_medium=api_v3_business_search&utm_source=h5HwbyQ0TYvQjBo6Ys5Bgw", "review_count": 29, "categories": [{"alias": "icecream", "title": "Ice Cream & Frozen Yogurt"}, {"alias": "seafood", "title": "Seafood"}], "rating": 4.0, "coordinates": {"latitude": 42.5517, "longitude": -71.9587}, "transactions": [], "price": "$$", "location": {"address1": "196 State Rd W", "address2": "", "address3": null, "city": "Westminster", "zip_code": "01473", "country": "US", "state": "MA", "display_address": ["196 State Rd W", "Westminster, MA 01473"]}, "phone": "+19786327191", "display_phone": "(978) 632-7191", "distance": 4922.068862391389}, {"id": "mPe60pDS3EXv22cdKwvBWg", "alias": "the-g-vegas-cafe-gardner-3", "name": "The G-Vegas Cafe", "image_url": "https://s3-media4.fl.yelpcdn.com/bphoto/J82gmv9lL6CPrBk8WMqzSg/o.jpg", "is_closed": false, "url": "https://www.yelp.com/biz/the-g-vegas-cafe-gardner-3?adjust_creative=h5HwbyQ0TYvQjBo6Ys5Bgw&utm_campaign=yelp_api_v3&utm_medium=api_v3_business_search&utm_source=h5HwbyQ0TYvQjBo6Ys5Bgw", "review_count": 41, "categories": [{"alias": "tradamerican", "title": "American (Traditional)"}, {"alias": "diners", "title": "Diners"}], "rating": 3.0, "coordinates": {"latitude": 42.57645, "longitude": -71.99463}, "transactions": [], "price": "$", "location": {"address1": "280 Central St", "address2": null, "address3": null, "city": "Gardner", "zip_code": "01440", "country": "US", "state": "MA", "display_address": ["280 Central St", "Gardner, MA 01440"]}, "phone": "+19786324040", "display_phone": "(978) 632-4040", "distance": 1553.8537159242653}, {"id": "1eB2vliYFtBP8or5oG5RuA", "alias": "the-hen-house-gardner", "name": "The Hen House", "image_url": "https://s3-media3.fl.yelpcdn.com/bphoto/w2gihixfKhsOAhUzKJPtSg/o.jpg", "is_closed": false, "url": "https://www.yelp.com/biz/the-hen-house-gardner?adjust_creative=h5HwbyQ0TYvQjBo6Ys5Bgw&utm_campaign=yelp_api_v3&utm_medium=api_v3_business_search&utm_source=h5HwbyQ0TYvQjBo6Ys5Bgw", "review_count": 21, "categories": [{"alias": "coffee", "title": "Coffee & Tea"}, {"alias": "breakfast_brunch", "title": "Breakfast & Brunch"}], "rating": 4.0, "coordinates": {"latitude": 42.576934, "longitude": -72.000701}, "transactions": [], "price": "$", "location": {"address1": "95 West St", "address2": null, "address3": null, "city": "Gardner", "zip_code": "01440", "country": "US", "state": "MA", "display_address": ["95 West St", "Gardner, MA 01440"]}, "phone": "+19786326322", "display_phone": "(978) 632-6322", "distance": 1718.9934836932437}, {"id": "Mip88PCakG5_gVLpi-jxXw", "alias": "yaka-sawa-sushi-and-grill-ashburnham", "name": "Yaka Sawa Sushi And Grill", "image_url": "https://s3-media1.fl.yelpcdn.com/bphoto/HB2TVqMlCxXp9nem4K2Ttw/o.jpg", "is_closed": false, "url": "https://www.yelp.com/biz/yaka-sawa-sushi-and-grill-ashburnham?adjust_creative=h5HwbyQ0TYvQjBo6Ys5Bgw&utm_campaign=yelp_api_v3&utm_medium=api_v3_business_search&utm_source=h5HwbyQ0TYvQjBo6Ys5Bgw", "review_count": 19, "categories": [{"alias": "sushi", "title": "Sushi Bars"}, {"alias": "japanese", "title": "Japanese"}, {"alias": "seafood", "title": "Seafood"}], "rating": 4.0, "coordinates": {"latitude": 42.6356778843989, "longitude": -71.9100105494592}, "transactions": [], "price": "$$", "location": {"address1": "57 Main St", "address2": "", "address3": "", "city": "Ashburnham", "zip_code": "01430", "country": "US", "state": "MA", "display_address": ["57 Main St", "Ashburnham, MA 01430"]}, "phone": "+19782525679", "display_phone": "(978) 252-5679", "distance": 8242.875409074953}, {"id": "46HA2dX8l3KZWHdLmu-U8Q", "alias": "parker-house-of-pizza-gardner-2", "name": "Parker House Of Pizza", "image_url": "https://s3-media1.fl.yelpcdn.com/bphoto/MhE4Kqq3cklu9CpgnS90ng/o.jpg", "is_closed": false, "url": "https://www.yelp.com/biz/parker-house-of-pizza-gardner-2?adjust_creative=h5HwbyQ0TYvQjBo6Ys5Bgw&utm_campaign=yelp_api_v3&utm_medium=api_v3_business_search&utm_source=h5HwbyQ0TYvQjBo6Ys5Bgw", "review_count": 10, "categories": [{"alias": "pizza", "title": "Pizza"}, {"alias": "burgers", "title": "Burgers"}, {"alias": "wraps", "title": "Wraps"}], "rating": 4.5, "coordinates": {"latitude": 42.5753219691741, "longitude": -71.9953142025354}, "transactions": [], "price": "$", "location": {"address1": "17 Pleasant St", "address2": "", "address3": "", "city": "Gardner", "zip_code": "01440", "country": "US", "state": "MA", "display_address": ["17 Pleasant St", "Gardner, MA 01440"]}, "phone": "+19786329383", "display_phone": "(978) 632-9383", "distance": 1699.5195301337167}, {"id": "3t_Qa1MxsD0KTBbvefT-hw", "alias": "great-wall-chinese-restaurant-templeton-2", "name": "Great Wall Chinese Restaurant", "image_url": "https://s3-media1.fl.yelpcdn.com/bphoto/xoVVGL1XAyzXWWCosHO5QQ/o.jpg", "is_closed": false, "url": "https://www.yelp.com/biz/great-wall-chinese-restaurant-templeton-2?adjust_creative=h5HwbyQ0TYvQjBo6Ys5Bgw&utm_campaign=yelp_api_v3&utm_medium=api_v3_business_search&utm_source=h5HwbyQ0TYvQjBo6Ys5Bgw", "review_count": 18, "categories": [{"alias": "chinese", "title": "Chinese"}], "rating": 4.0, "coordinates": {"latitude": 42.6069717, "longitude": -72.0744476}, "transactions": [], "price": "$$", "location": {"address1": "5 Central St", "address2": "", "address3": "", "city": "Templeton", "zip_code": "01436", "country": "US", "state": "MA", "display_address": ["5 Central St", "Templeton, MA 01436"]}, "phone": "+19789398600", "display_phone": "(978) 939-8600", "distance": 7227.590330732182}, {"id": "Er46vYBcDS6EjNNSUkZymA", "alias": "southside-grille-and-margarita-factory-gardner", "name": "Southside Grille & Margarita Factory", "image_url": "https://s3-media2.fl.yelpcdn.com/bphoto/tikYPLIQMd0z1iQErdjLag/o.jpg", "is_closed": false, "url": "https://www.yelp.com/biz/southside-grille-and-margarita-factory-gardner?adjust_creative=h5HwbyQ0TYvQjBo6Ys5Bgw&utm_campaign=yelp_api_v3&utm_medium=api_v3_business_search&utm_source=h5HwbyQ0TYvQjBo6Ys5Bgw", "review_count": 49, "categories": [{"alias": "tradamerican", "title": "American (Traditional)"}, {"alias": "mexican", "title": "Mexican"}], "rating": 2.5, "coordinates": {"latitude": 42.56069, "longitude": -71.98926}, "transactions": [], "price": "$$", "location": {"address1": "242 W Broadway", "address2": "", "address3": "", "city": "Gardner", "zip_code": "01440", "country": "US", "state": "MA", "display_address": ["242 W Broadway", "Gardner, MA 01440"]}, "phone": "+19786321057", "display_phone": "(978) 632-1057", "distance": 3250.038997544954}, {"id": "LD-RgCjEvITIBLap0VuSeA", "alias": "cafe-edesia-gardner-2", "name": "Cafe Edesia", "image_url": "https://s3-media3.fl.yelpcdn.com/bphoto/gAjSkL4-WZC7unuxStflaQ/o.jpg", "is_closed": false, "url": "https://www.yelp.com/biz/cafe-edesia-gardner-2?adjust_creative=h5HwbyQ0TYvQjBo6Ys5Bgw&utm_campaign=yelp_api_v3&utm_medium=api_v3_business_search&utm_source=h5HwbyQ0TYvQjBo6Ys5Bgw", "review_count": 41, "categories": [{"alias": "cafes", "title": "Cafes"}], "rating": 3.5, "coordinates": {"latitude": 42.5682063218004, "longitude": -71.9837307929993}, "transactions": [], "price": "$", "location": {"address1": "486 Chestnut St", "address2": "Ste 2", "address3": "", "city": "Gardner", "zip_code": "01440", "country": "US", "state": "MA", "display_address": ["486 Chestnut St", "Ste 2", "Gardner, MA 01440"]}, "phone": "+19786301555", "display_phone": "(978) 630-1555", "distance": 2460.009679732312}, {"id": "-6SXunk8sa57KHosd5CSYQ", "alias": "yen-yen-chinese-restaurant-gardner", "name": "Yen Yen Chinese Restaurant", "image_url": "https://s3-media1.fl.yelpcdn.com/bphoto/jIy4g7yVDJkBtuFpok2hVQ/o.jpg", "is_closed": false, "url": "https://www.yelp.com/biz/yen-yen-chinese-restaurant-gardner?adjust_creative=h5HwbyQ0TYvQjBo6Ys5Bgw&utm_campaign=yelp_api_v3&utm_medium=api_v3_business_search&utm_source=h5HwbyQ0TYvQjBo6Ys5Bgw", "review_count": 28, "categories": [{"alias": "chinese", "title": "Chinese"}], "rating": 3.0, "coordinates": {"latitude": 42.5662039, "longitude": -71.9769619}, "transactions": [], "price": "$$", "location": {"address1": "42 Pearson Blvd", "address2": "", "address3": "", "city": "Gardner", "zip_code": "01440", "country": "US", "state": "MA", "display_address": ["42 Pearson Blvd", "Gardner, MA 01440"]}, "phone": "+19786301535", "display_phone": "(978) 630-1535", "distance": 2826.5497228631366}, {"id": "P54MnoErmGdonro_OcbxCg", "alias": "gabbys-place-gardner", "name": "Gabbys Place", "image_url": "https://s3-media2.fl.yelpcdn.com/bphoto/UdASXZiw2uD8HiuyRbfmew/o.jpg", "is_closed": false, "url": "https://www.yelp.com/biz/gabbys-place-gardner?adjust_creative=h5HwbyQ0TYvQjBo6Ys5Bgw&utm_campaign=yelp_api_v3&utm_medium=api_v3_business_search&utm_source=h5HwbyQ0TYvQjBo6Ys5Bgw", "review_count": 34, "categories": [{"alias": "breakfast_brunch", "title": "Breakfast & Brunch"}], "rating": 4.5, "coordinates": {"latitude": 42.5602303, "longitude": -71.9806137}, "transactions": [], "price": "$", "location": {"address1": "173 Pearson Blvd", "address2": null, "address3": null, "city": "Gardner", "zip_code": "01440", "country": "US", "state": "MA", "display_address": ["173 Pearson Blvd", "Gardner, MA 01440"]}, "phone": "+19786322282", "display_phone": "(978) 632-2282", "distance": 3404.1040919416837}, {"id": "ZUx8xuz4bCXXXVGzpIOwtA", "alias": "pig-in-flames-fitchburg", "name": "Pig in Flames", "image_url": "https://s3-media2.fl.yelpcdn.com/bphoto/RMGk416G_rSvk984qIGfxg/o.jpg", "is_closed": false, "url": "https://www.yelp.com/biz/pig-in-flames-fitchburg?adjust_creative=h5HwbyQ0TYvQjBo6Ys5Bgw&utm_campaign=yelp_api_v3&utm_medium=api_v3_business_search&utm_source=h5HwbyQ0TYvQjBo6Ys5Bgw", "review_count": 14, "categories": [{"alias": "bbq", "title": "Barbeque"}], "rating": 3.5, "coordinates": {"latitude": 42.5689744903938, "longitude": -71.8152981251478}, "transactions": ["pickup", "delivery"], "location": {"address1": "96 Franklin Rd", "address2": "", "address3": null, "city": "Fitchburg", "zip_code": "01420", "country": "US", "state": "MA", "display_address": ["96 Franklin Rd", "Fitchburg, MA 01420"]}, "phone": "+19786965064", "display_phone": "(978) 696-5064", "distance": 14435.450567930426}, {"id": "PkUQS1Egv8vhxxJtDVjBaA", "alias": "asia-gourmet-athol", "name": "Asia Gourmet", "image_url": "https://s3-media1.fl.yelpcdn.com/bphoto/GjsJgR7BC4fSlGm2Eopppw/o.jpg", "is_closed": false, "url": "https://www.yelp.com/biz/asia-gourmet-athol?adjust_creative=h5HwbyQ0TYvQjBo6Ys5Bgw&utm_campaign=yelp_api_v3&utm_medium=api_v3_business_search&utm_source=h5HwbyQ0TYvQjBo6Ys5Bgw", "review_count": 7, "categories": [{"alias": "chinese", "title": "Chinese"}, {"alias": "sushi", "title": "Sushi Bars"}, {"alias": "thai", "title": "Thai"}], "rating": 3.5, "coordinates": {"latitude": 42.58012, "longitude": -72.18376}, "transactions": [], "location": {"address1": "144 Market Dr", "address2": "", "address3": null, "city": "Athol", "zip_code": "01331", "country": "US", "state": "MA", "display_address": ["144 Market Dr", "Athol, MA 01331"]}, "phone": "+19782493918", "display_phone": "(978) 249-3918", "distance": 16032.446875684767}, {"id": "yHRurK18GoXezP5QuyI39w", "alias": "carriage-house-restaurant-winchendon", "name": "Carriage House Restaurant", "image_url": "", "is_closed": false, "url": "https://www.yelp.com/biz/carriage-house-restaurant-winchendon?adjust_creative=h5HwbyQ0TYvQjBo6Ys5Bgw&utm_campaign=yelp_api_v3&utm_medium=api_v3_business_search&utm_source=h5HwbyQ0TYvQjBo6Ys5Bgw", "review_count": 34, "categories": [{"alias": "seafood", "title": "Seafood"}, {"alias": "hotdogs", "title": "Fast Food"}, {"alias": "tradamerican", "title": "American (Traditional)"}], "rating": 3.0, "coordinates": {"latitude": 42.668126, "longitude": -72.014773}, "transactions": [], "price": "$$", "location": {"address1": "660 Spring St", "address2": "", "address3": "", "city": "Winchendon", "zip_code": "01475", "country": "US", "state": "MA", "display_address": ["660 Spring St", "Winchendon, MA 01475"]}, "phone": "+19782971089", "display_phone": "(978) 297-1089", "distance": 8939.525192576126}, {"id": "a8wLG4HuNxWHoEYtNrYogw", "alias": "south-gardner-hotel-gardner", "name": "South Gardner Hotel", "image_url": "https://s3-media1.fl.yelpcdn.com/bphoto/iWdIsIGbCqXHbAVbQ7zyXw/o.jpg", "is_closed": false, "url": "https://www.yelp.com/biz/south-gardner-hotel-gardner?adjust_creative=h5HwbyQ0TYvQjBo6Ys5Bgw&utm_campaign=yelp_api_v3&utm_medium=api_v3_business_search&utm_source=h5HwbyQ0TYvQjBo6Ys5Bgw", "review_count": 5, "categories": [{"alias": "bars", "title": "Bars"}, {"alias": "tradamerican", "title": "American (Traditional)"}], "rating": 4.0, "coordinates": {"latitude": 42.557515, "longitude": -71.9801713}, "transactions": [], "price": "$", "location": {"address1": "8 E Broadway", "address2": "", "address3": "", "city": "Gardner", "zip_code": "01440", "country": "US", "state": "MA", "display_address": ["8 E Broadway", "Gardner, MA 01440"]}, "phone": "+19786301322", "display_phone": "(978) 630-1322", "distance": 3682.8371453538903}, {"id": "G_PPROO9ccur-m-GWzbZmA", "alias": "quabbin-woods-restaurant-petersham", "name": "Quabbin Woods Restaurant", "image_url": "https://s3-media3.fl.yelpcdn.com/bphoto/w6hsjy3EUcuAd17n0h42Eg/o.jpg", "is_closed": false, "url": "https://www.yelp.com/biz/quabbin-woods-restaurant-petersham?adjust_creative=h5HwbyQ0TYvQjBo6Ys5Bgw&utm_campaign=yelp_api_v3&utm_medium=api_v3_business_search&utm_source=h5HwbyQ0TYvQjBo6Ys5Bgw", "review_count": 15, "categories": [{"alias": "newamerican", "title": "American (New)"}, {"alias": "comfortfood", "title": "Comfort Food"}, {"alias": "burgers", "title": "Burgers"}], "rating": 4.0, "coordinates": {"latitude": 42.481931, "longitude": -72.183534}, "transactions": [], "price": "$", "location": {"address1": "8 Barre Rd", "address2": "Ste RT", "address3": "", "city": "Petersham", "zip_code": "01366", "country": "US", "state": "MA", "display_address": ["8 Barre Rd", "Ste RT", "Petersham, MA 01366"]}, "phone": "+19787243288", "display_phone": "(978) 724-3288", "distance": 19938.93672785629}, {"id": "Hy1POwROoA4iTsszJUHyFg", "alias": "blue-moon-diner-gardner", "name": "Blue Moon Diner", "image_url": "https://s3-media1.fl.yelpcdn.com/bphoto/eEMNRD6Zzb0WmuUSlybVVQ/o.jpg", "is_closed": false, "url": "https://www.yelp.com/biz/blue-moon-diner-gardner?adjust_creative=h5HwbyQ0TYvQjBo6Ys5Bgw&utm_campaign=yelp_api_v3&utm_medium=api_v3_business_search&utm_source=h5HwbyQ0TYvQjBo6Ys5Bgw", "review_count": 48, "categories": [{"alias": "diners", "title": "Diners"}, {"alias": "newamerican", "title": "American (New)"}], "rating": 3.5, "coordinates": {"latitude": 42.574156, "longitude": -71.994432}, "transactions": [], "price": "$", "location": {"address1": "102 Main St", "address2": "", "address3": "", "city": "Gardner", "zip_code": "01440", "country": "US", "state": "MA", "display_address": ["102 Main St", "Gardner, MA 01440"]}, "phone": "+19786324333", "display_phone": "(978) 632-4333", "distance": 1805.7782164814962}, {"id": "-PRPQJUowAthn2mmh0_mbA", "alias": "garden-pizza-and-seafood-gardner", "name": "Garden Pizza & Seafood", "image_url": "https://s3-media1.fl.yelpcdn.com/bphoto/Ma_A1uu1KF8sKgnz3eVygA/o.jpg", "is_closed": false, "url": "https://www.yelp.com/biz/garden-pizza-and-seafood-gardner?adjust_creative=h5HwbyQ0TYvQjBo6Ys5Bgw&utm_campaign=yelp_api_v3&utm_medium=api_v3_business_search&utm_source=h5HwbyQ0TYvQjBo6Ys5Bgw", "review_count": 14, "categories": [{"alias": "seafood", "title": "Seafood"}, {"alias": "pizza", "title": "Pizza"}], "rating": 3.0, "coordinates": {"latitude": 42.5759978, "longitude": -71.995618}, "transactions": [], "price": "$$", "location": {"address1": "24 Parker St", "address2": "", "address3": "", "city": "Gardner", "zip_code": "01440", "country": "US", "state": "MA", "display_address": ["24 Parker St", "Gardner, MA 01440"]}, "phone": "+19786302424", "display_phone": "(978) 630-2424", "distance": 1635.4624724975604}, {"id": "VxmU2p9pR5W0M8zxWrbQLA", "alias": "ss-lobster-ltd-fitchburg", "name": "SS Lobster Ltd", "image_url": "https://s3-media4.fl.yelpcdn.com/bphoto/xEPXP0Hvr7voxkxgNeHtdA/o.jpg", "is_closed": false, "url": "https://www.yelp.com/biz/ss-lobster-ltd-fitchburg?adjust_creative=h5HwbyQ0TYvQjBo6Ys5Bgw&utm_campaign=yelp_api_v3&utm_medium=api_v3_business_search&utm_source=h5HwbyQ0TYvQjBo6Ys5Bgw", "review_count": 138, "categories": [{"alias": "seafood", "title": "Seafood"}, {"alias": "seafoodmarkets", "title": "Seafood Markets"}], "rating": 3.5, "coordinates": {"latitude": 42.57953, "longitude": -71.83116}, "transactions": [], "price": "$$", "location": {"address1": "691 River St", "address2": "", "address3": "", "city": "Fitchburg", "zip_code": "01420", "country": "US", "state": "MA", "display_address": ["691 River St", "Fitchburg, MA 01420"]}, "phone": "+19783426135", "display_phone": "(978) 342-6135", "distance": 13004.034509314173}, {"id": "t7FbgEITiEReUrTte9mJiw", "alias": "clamber-hill-inn-and-restaurant-petersham-2", "name": "Clamber Hill Inn & Restaurant", "image_url": "https://s3-media1.fl.yelpcdn.com/bphoto/7rAzCt1SCY2BB_WPoLwT_g/o.jpg", "is_closed": false, "url": "https://www.yelp.com/biz/clamber-hill-inn-and-restaurant-petersham-2?adjust_creative=h5HwbyQ0TYvQjBo6Ys5Bgw&utm_campaign=yelp_api_v3&utm_medium=api_v3_business_search&utm_source=h5HwbyQ0TYvQjBo6Ys5Bgw", "review_count": 11, "categories": [{"alias": "tradamerican", "title": "American (Traditional)"}, {"alias": "whiskeybars", "title": "Whiskey Bars"}, {"alias": "winetasteclasses", "title": "Wine Tasting Classes"}], "rating": 4.0, "coordinates": {"latitude": 42.5031579313361, "longitude": -72.1865090608826}, "transactions": [], "price": "$$$", "location": {"address1": "111 N Main St", "address2": "", "address3": "", "city": "Petersham", "zip_code": "01366", "country": "US", "state": "MA", "display_address": ["111 N Main St", "Petersham, MA 01366"]}, "phone": "+19787248800", "display_phone": "(978) 724-8800", "distance": 18819.212399350163}, {"id": "QJYU56p7TYpLo_r61q0RZQ", "alias": "glen-caffe-winchendon", "name": "Glen Caffe", "image_url": "https://s3-media3.fl.yelpcdn.com/bphoto/hdLJzdQfBYu25yY9tFVkhg/o.jpg", "is_closed": false, "url": "https://www.yelp.com/biz/glen-caffe-winchendon?adjust_creative=h5HwbyQ0TYvQjBo6Ys5Bgw&utm_campaign=yelp_api_v3&utm_medium=api_v3_business_search&utm_source=h5HwbyQ0TYvQjBo6Ys5Bgw", "review_count": 5, "categories": [{"alias": "tradamerican", "title": "American (Traditional)"}], "rating": 5.0, "coordinates": {"latitude": 42.6826401, "longitude": -72.0235138}, "transactions": [], "location": {"address1": "63 Glenallen St", "address2": null, "address3": null, "city": "Winchendon", "zip_code": "01475", "country": "US", "state": "MA", "display_address": ["63 Glenallen St", "Winchendon, MA 01475"]}, "phone": "+19782970800", "display_phone": "(978) 297-0800", "distance": 10711.890592168207}, {"id": "nlaFN5Qx6OiwQfEZmaYYjw", "alias": "old-mill-restaurant-and-crackerbarrel-pub-and-lounge-westminster", "name": "Old Mill Restaurant & Crackerbarrel Pub & Lounge", "image_url": "https://s3-media1.fl.yelpcdn.com/bphoto/juP9N3sZcuP9IoYgwR62nw/o.jpg", "is_closed": false, "url": "https://www.yelp.com/biz/old-mill-restaurant-and-crackerbarrel-pub-and-lounge-westminster?adjust_creative=h5HwbyQ0TYvQjBo6Ys5Bgw&utm_campaign=yelp_api_v3&utm_medium=api_v3_business_search&utm_source=h5HwbyQ0TYvQjBo6Ys5Bgw", "review_count": 61, "categories": [{"alias": "newamerican", "title": "American (New)"}], "rating": 3.0, "coordinates": {"latitude": 42.5497726279832, "longitude": -71.8857302846505}, "transactions": [], "price": "$$", "location": {"address1": "Rt 2A", "address2": "", "address3": "", "city": "Westminster", "zip_code": "01473", "country": "US", "state": "MA", "display_address": ["Rt 2A", "Westminster, MA 01473"]}, "phone": "+19788745941", "display_phone": "(978) 874-5941", "distance": 9585.033373849685}, {"id": "RTLXoRUCWGbObYnKnRVZJg", "alias": "baldwinville-station-baldwinville", "name": "Baldwinville Station", "image_url": "https://s3-media1.fl.yelpcdn.com/bphoto/HXetzYz2BV8jltsAmMa1-g/o.jpg", "is_closed": false, "url": "https://www.yelp.com/biz/baldwinville-station-baldwinville?adjust_creative=h5HwbyQ0TYvQjBo6Ys5Bgw&utm_campaign=yelp_api_v3&utm_medium=api_v3_business_search&utm_source=h5HwbyQ0TYvQjBo6Ys5Bgw", "review_count": 18, "categories": [{"alias": "breakfast_brunch", "title": "Breakfast & Brunch"}, {"alias": "tradamerican", "title": "American (Traditional)"}], "rating": 3.5, "coordinates": {"latitude": 42.6078996849769, "longitude": -72.0744104798049}, "transactions": [], "price": "$", "location": {"address1": "9 Circle St", "address2": null, "address3": null, "city": "Baldwinville", "zip_code": "01436", "country": "US", "state": "MA", "display_address": ["9 Circle St", "Baldwinville, MA 01436"]}, "phone": "+19789394800", "display_phone": "(978) 939-4800", "distance": 7247.688094002058}, {"id": "KS7hkfBA2wvYH-lCqj2qJA", "alias": "waffle-cabin-princeton", "name": "Waffle Cabin", "image_url": "https://s3-media2.fl.yelpcdn.com/bphoto/1FIZrumSBd047c1l8Slixw/o.jpg", "is_closed": false, "url": "https://www.yelp.com/biz/waffle-cabin-princeton?adjust_creative=h5HwbyQ0TYvQjBo6Ys5Bgw&utm_campaign=yelp_api_v3&utm_medium=api_v3_business_search&utm_source=h5HwbyQ0TYvQjBo6Ys5Bgw", "review_count": 1, "categories": [{"alias": "waffles", "title": "Waffles"}], "rating": 5.0, "coordinates": {"latitude": 42.5021610258958, "longitude": -71.8870433580825}, "transactions": [], "location": {"address1": "499 Mountain Rd", "address2": "", "address3": null, "city": "Princeton", "zip_code": "01541", "country": "US", "state": "MA", "display_address": ["499 Mountain Rd", "Princeton, MA 01541"]}, "phone": "+19784642300", "display_phone": "(978) 464-2300", "distance": 12862.481658770328}, {"id": "pSBQkytH3cknYyZVcREyvg", "alias": "patriots-roast-beef-and-grill-templeton", "name": "Patriots Roast Beef and Grill", "image_url": "https://s3-media1.fl.yelpcdn.com/bphoto/jQT2dQaX-oAPGqS9MG8Mvg/o.jpg", "is_closed": false, "url": "https://www.yelp.com/biz/patriots-roast-beef-and-grill-templeton?adjust_creative=h5HwbyQ0TYvQjBo6Ys5Bgw&utm_campaign=yelp_api_v3&utm_medium=api_v3_business_search&utm_source=h5HwbyQ0TYvQjBo6Ys5Bgw", "review_count": 17, "categories": [{"alias": "pizza", "title": "Pizza"}, {"alias": "tradamerican", "title": "American (Traditional)"}], "rating": 3.5, "coordinates": {"latitude": 42.5615082, "longitude": -72.038887}, "transactions": ["pickup", "delivery"], "price": "$", "location": {"address1": "146 Patriots Rd", "address2": null, "address3": null, "city": "Templeton", "zip_code": "01468", "country": "US", "state": "MA", "display_address": ["146 Patriots Rd", "Templeton, MA 01468"]}, "phone": "+19786329951", "display_phone": "(978) 632-9951", "distance": 5151.961909840248}, {"id": "Vb20b_5n32gmeF94aF6s9Q", "alias": "slatterys-back-room-restaurant-fitchburg", "name": "Slattery's Back Room Restaurant", "image_url": "https://s3-media3.fl.yelpcdn.com/bphoto/qRqe4IJ0JwsdJaYbsSQxdg/o.jpg", "is_closed": false, "url": "https://www.yelp.com/biz/slatterys-back-room-restaurant-fitchburg?adjust_creative=h5HwbyQ0TYvQjBo6Ys5Bgw&utm_campaign=yelp_api_v3&utm_medium=api_v3_business_search&utm_source=h5HwbyQ0TYvQjBo6Ys5Bgw", "review_count": 75, "categories": [{"alias": "bars", "title": "Bars"}, {"alias": "newamerican", "title": "American (New)"}], "rating": 3.5, "coordinates": {"latitude": 42.58379, "longitude": -71.78622}, "transactions": ["delivery"], "price": "$$", "location": {"address1": "106 Lunenburg St", "address2": "", "address3": "", "city": "Fitchburg", "zip_code": "01420", "country": "US", "state": "MA", "display_address": ["106 Lunenburg St", "Fitchburg, MA 01420"]}, "phone": "+19783428880", "display_phone": "(978) 342-8880", "distance": 16632.505795492936}, {"id": "boiEL8LxY8US_zN67Hd8gQ", "alias": "patriot-pizza-and-subs-gardner", "name": "Patriot Pizza & Subs", "image_url": "https://s3-media2.fl.yelpcdn.com/bphoto/9HO7wpIHyROEIqk9G2C_lw/o.jpg", "is_closed": false, "url": "https://www.yelp.com/biz/patriot-pizza-and-subs-gardner?adjust_creative=h5HwbyQ0TYvQjBo6Ys5Bgw&utm_campaign=yelp_api_v3&utm_medium=api_v3_business_search&utm_source=h5HwbyQ0TYvQjBo6Ys5Bgw", "review_count": 18, "categories": [{"alias": "pizza", "title": "Pizza"}], "rating": 3.5, "coordinates": {"latitude": 42.5662419, "longitude": -71.9800468}, "transactions": [], "price": "$$", "location": {"address1": "52 Pearson Blvd", "address2": "Ste 1", "address3": null, "city": "Gardner", "zip_code": "01440", "country": "US", "state": "MA", "display_address": ["52 Pearson Blvd", "Ste 1", "Gardner, MA 01440"]}, "phone": "+19786324500", "display_phone": "(978) 632-4500", "distance": 2926.153147599503}, {"id": "i6J8CBgNw1t6rF2RR1B2uw", "alias": "pizza-palace-hubbardston", "name": "Pizza Palace", "image_url": "https://s3-media2.fl.yelpcdn.com/bphoto/8-977kXHTOlx3iDg8iVzkA/o.jpg", "is_closed": false, "url": "https://www.yelp.com/biz/pizza-palace-hubbardston?adjust_creative=h5HwbyQ0TYvQjBo6Ys5Bgw&utm_campaign=yelp_api_v3&utm_medium=api_v3_business_search&utm_source=h5HwbyQ0TYvQjBo6Ys5Bgw", "review_count": 19, "categories": [{"alias": "pizza", "title": "Pizza"}], "rating": 4.5, "coordinates": {"latitude": 42.490675, "longitude": -72.013496}, "transactions": [], "price": "$$", "location": {"address1": "53 Gardner Rd", "address2": null, "address3": null, "city": "Hubbardston", "zip_code": "01452", "country": "US", "state": "MA", "display_address": ["53 Gardner Rd", "Hubbardston, MA 01452"]}, "phone": "+19789285454", "display_phone": "(978) 928-5454", "distance": 11215.391552911171}, {"id": "TrnTjJ1-_E6C73HYGLwsKw", "alias": "renos-pizza-templeton", "name": "Reno's Pizza", "image_url": "https://s3-media3.fl.yelpcdn.com/bphoto/fqIJrOaa8cfgu-xw7htIzw/o.jpg", "is_closed": false, "url": "https://www.yelp.com/biz/renos-pizza-templeton?adjust_creative=h5HwbyQ0TYvQjBo6Ys5Bgw&utm_campaign=yelp_api_v3&utm_medium=api_v3_business_search&utm_source=h5HwbyQ0TYvQjBo6Ys5Bgw", "review_count": 2, "categories": [{"alias": "pizza", "title": "Pizza"}, {"alias": "burgers", "title": "Burgers"}, {"alias": "delis", "title": "Delis"}], "rating": 5.0, "coordinates": {"latitude": 42.5620072921407, "longitude": -72.0375560224056}, "transactions": [], "location": {"address1": "132 Patriots Rd", "address2": "", "address3": null, "city": "Templeton", "zip_code": "01438", "country": "US", "state": "MA", "display_address": ["132 Patriots Rd", "Templeton, MA 01438"]}, "phone": "+19786323200", "display_phone": "(978) 632-3200", "distance": 5027.204020115818}, {"id": "pHQcqNTFzYuP5ucOwy81zA", "alias": "bion-fitchburg-2", "name": "Bion", "image_url": "https://s3-media4.fl.yelpcdn.com/bphoto/fk7YgCldII0SQWuwbYudDA/o.jpg", "is_closed": false, "url": "https://www.yelp.com/biz/bion-fitchburg-2?adjust_creative=h5HwbyQ0TYvQjBo6Ys5Bgw&utm_campaign=yelp_api_v3&utm_medium=api_v3_business_search&utm_source=h5HwbyQ0TYvQjBo6Ys5Bgw", "review_count": 1, "categories": [{"alias": "greek", "title": "Greek"}], "rating": 5.0, "coordinates": {"latitude": 42.58219, "longitude": -71.797393}, "transactions": ["delivery"], "location": {"address1": "356 Main St", "address2": "", "address3": null, "city": "Fitchburg", "zip_code": "01420", "country": "US", "state": "MA", "display_address": ["356 Main St", "Fitchburg, MA 01420"]}, "phone": "", "display_phone": "", "distance": 15733.839510691192}, {"id": "sDv6kzV-OevGAoc8mhpZbw", "alias": "b-mans-140-tavern-sterling-2", "name": "B-Man's 140 Tavern", "image_url": "https://s3-media4.fl.yelpcdn.com/bphoto/NTIQFdGrvuQqk7cYs5jvnQ/o.jpg", "is_closed": false, "url": "https://www.yelp.com/biz/b-mans-140-tavern-sterling-2?adjust_creative=h5HwbyQ0TYvQjBo6Ys5Bgw&utm_campaign=yelp_api_v3&utm_medium=api_v3_business_search&utm_source=h5HwbyQ0TYvQjBo6Ys5Bgw", "review_count": 10, "categories": [{"alias": "tradamerican", "title": "American (Traditional)"}, {"alias": "pubs", "title": "Pubs"}], "rating": 4.0, "coordinates": {"latitude": 42.4507283682, "longitude": -71.8194062635}, "transactions": [], "price": "$$", "location": {"address1": "344 Redemption Rock Trl", "address2": "", "address3": "Rt 140", "city": "Sterling", "zip_code": "01541", "country": "US", "state": "MA", "display_address": ["344 Redemption Rock Trl", "Rt 140", "Sterling, MA 01541"]}, "phone": "+19784229763", "display_phone": "(978) 422-9763", "distance": 20820.309095319124}, {"id": "6rcmMBO7GBGAB356Pw05IQ", "alias": "hometown-cafe-winchendon", "name": "Hometown Cafe", "image_url": "https://s3-media2.fl.yelpcdn.com/bphoto/dlyJrrhtQsq3izUyKGZsAg/o.jpg", "is_closed": false, "url": "https://www.yelp.com/biz/hometown-cafe-winchendon?adjust_creative=h5HwbyQ0TYvQjBo6Ys5Bgw&utm_campaign=yelp_api_v3&utm_medium=api_v3_business_search&utm_source=h5HwbyQ0TYvQjBo6Ys5Bgw", "review_count": 28, "categories": [{"alias": "cafes", "title": "Cafes"}, {"alias": "breakfast_brunch", "title": "Breakfast & Brunch"}], "rating": 5.0, "coordinates": {"latitude": 42.6869202, "longitude": -72.0442123}, "transactions": [], "price": "$", "location": {"address1": "314 Central St", "address2": "", "address3": "", "city": "Winchendon", "zip_code": "01475", "country": "US", "state": "MA", "display_address": ["314 Central St", "Winchendon, MA 01475"]}, "phone": "+19782972233", "display_phone": "(978) 297-2233", "distance": 11694.16043501964}, {"id": "7BXlpaPDZcEgZGv80b_Pjg", "alias": "village-pizza-ashburnham", "name": "Village Pizza", "image_url": "", "is_closed": false, "url": "https://www.yelp.com/biz/village-pizza-ashburnham?adjust_creative=h5HwbyQ0TYvQjBo6Ys5Bgw&utm_campaign=yelp_api_v3&utm_medium=api_v3_business_search&utm_source=h5HwbyQ0TYvQjBo6Ys5Bgw", "review_count": 6, "categories": [{"alias": "pizza", "title": "Pizza"}], "rating": 4.0, "coordinates": {"latitude": 42.635459, "longitude": -71.910931}, "transactions": ["pickup", "delivery"], "price": "$$", "location": {"address1": "65 Main St", "address2": "", "address3": "", "city": "Ashburnham", "zip_code": "01430", "country": "US", "state": "MA", "display_address": ["65 Main St", "Ashburnham, MA 01430"]}, "phone": "+19788273007", "display_phone": "(978) 827-3007", "distance": 8167.28449263297}, {"id": "3PdRmNoO-NYX1eU3Zu3A1w", "alias": "jade-ii-gardner", "name": "Jade II", "image_url": "", "is_closed": false, "url": "https://www.yelp.com/biz/jade-ii-gardner?adjust_creative=h5HwbyQ0TYvQjBo6Ys5Bgw&utm_campaign=yelp_api_v3&utm_medium=api_v3_business_search&utm_source=h5HwbyQ0TYvQjBo6Ys5Bgw", "review_count": 4, "categories": [{"alias": "restaurants", "title": "Restaurants"}], "rating": 3.0, "coordinates": {"latitude": 42.567081451416, "longitude": -71.9835357666016}, "transactions": [], "location": {"address1": "19 Union Sq", "address2": null, "address3": null, "city": "Gardner", "zip_code": "01440", "country": "US", "state": "MA", "display_address": ["19 Union Sq", "Gardner, MA 01440"]}, "phone": "+19786308868", "display_phone": "(978) 630-8868", "distance": 2598.6818878680288}, {"id": "wKX-Vhcx0bxLCFvoM-qy7A", "alias": "crusin-12-diner-winchendon-2", "name": "Crusin 12 Diner", "image_url": "https://s3-media2.fl.yelpcdn.com/bphoto/8bzCj-b9CgHL_Z3EQlkDMA/o.jpg", "is_closed": false, "url": "https://www.yelp.com/biz/crusin-12-diner-winchendon-2?adjust_creative=h5HwbyQ0TYvQjBo6Ys5Bgw&utm_campaign=yelp_api_v3&utm_medium=api_v3_business_search&utm_source=h5HwbyQ0TYvQjBo6Ys5Bgw", "review_count": 13, "categories": [{"alias": "diners", "title": "Diners"}], "rating": 4.0, "coordinates": {"latitude": 42.688899, "longitude": -72.057312}, "transactions": [], "price": "$", "location": {"address1": "241 School St", "address2": null, "address3": "", "city": "Winchendon", "zip_code": "01475", "country": "US", "state": "MA", "display_address": ["241 School St", "Winchendon, MA 01475"]}, "phone": "+19782972001", "display_phone": "(978) 297-2001", "distance": 12334.212495658356}, {"id": "vQEPXofHH0kpngbE4fdDng", "alias": "country-mile-greenville", "name": "Country Mile", "image_url": "https://s3-media3.fl.yelpcdn.com/bphoto/DkF3-P7CkRFfl9aFp4xejg/o.jpg", "is_closed": false, "url": "https://www.yelp.com/biz/country-mile-greenville?adjust_creative=h5HwbyQ0TYvQjBo6Ys5Bgw&utm_campaign=yelp_api_v3&utm_medium=api_v3_business_search&utm_source=h5HwbyQ0TYvQjBo6Ys5Bgw", "review_count": 10, "categories": [{"alias": "beer_and_wine", "title": "Beer, Wine & Spirits"}, {"alias": "convenience", "title": "Convenience Stores"}, {"alias": "delis", "title": "Delis"}], "rating": 4.0, "coordinates": {"latitude": 42.740694, "longitude": -71.795902}, "transactions": [], "price": "$$", "location": {"address1": "758 Fitchburg Rd Rt 31", "address2": "", "address3": "", "city": "Greenville", "zip_code": "03048", "country": "US", "state": "NH", "display_address": ["758 Fitchburg Rd Rt 31", "Greenville, NH 03048"]}, "phone": "+16038781040", "display_phone": "(603) 878-1040", "distance": 23043.27234466421}, {"id": "M5aNw3UEOPiibQ_zBw_Ohg", "alias": "lees-hot-dog-stand-baldwinville", "name": "Lee's Hot Dog Stand", "image_url": "https://s3-media1.fl.yelpcdn.com/bphoto/i-DbLkQboOz9my41GtJ_8g/o.jpg", "is_closed": false, "url": "https://www.yelp.com/biz/lees-hot-dog-stand-baldwinville?adjust_creative=h5HwbyQ0TYvQjBo6Ys5Bgw&utm_campaign=yelp_api_v3&utm_medium=api_v3_business_search&utm_source=h5HwbyQ0TYvQjBo6Ys5Bgw", "review_count": 5, "categories": [{"alias": "restaurants", "title": "Restaurants"}], "rating": 2.5, "coordinates": {"latitude": 42.60635, "longitude": -72.072093}, "transactions": [], "price": "$", "location": {"address1": "31 Central St", "address2": "", "address3": "", "city": "Baldwinville", "zip_code": "01436", "country": "US", "state": "MA", "display_address": ["31 Central St", "Baldwinville, MA 01436"]}, "phone": "+19789395346", "display_phone": "(978) 939-5346", "distance": 7018.839150365399}, {"id": "tR-90QTzmqgR9u2nHnz73A", "alias": "lucky-dragon-ii-ashburnham", "name": "Lucky Dragon II", "image_url": "https://s3-media4.fl.yelpcdn.com/bphoto/XQDljQI7rXmPqxpMWy852g/o.jpg", "is_closed": false, "url": "https://www.yelp.com/biz/lucky-dragon-ii-ashburnham?adjust_creative=h5HwbyQ0TYvQjBo6Ys5Bgw&utm_campaign=yelp_api_v3&utm_medium=api_v3_business_search&utm_source=h5HwbyQ0TYvQjBo6Ys5Bgw", "review_count": 5, "categories": [{"alias": "chinese", "title": "Chinese"}], "rating": 3.5, "coordinates": {"latitude": 42.60912, "longitude": -71.94059}, "transactions": ["pickup", "delivery"], "price": "$", "location": {"address1": "2 S Pleasant St", "address2": null, "address3": null, "city": "Ashburnham", "zip_code": "01430", "country": "US", "state": "MA", "display_address": ["2 S Pleasant St", "Ashburnham, MA 01430"]}, "phone": "+19788271318", "display_phone": "(978) 827-1318", "distance": 4508.315566819594}, {"id": "OCz5muYPUncuu6_eTwY_aQ", "alias": "royalston-general-store-royalston", "name": "Royalston General Store", "image_url": "https://s3-media2.fl.yelpcdn.com/bphoto/dwJ29OIt0IIcgVpQOvnGPw/o.jpg", "is_closed": false, "url": "https://www.yelp.com/biz/royalston-general-store-royalston?adjust_creative=h5HwbyQ0TYvQjBo6Ys5Bgw&utm_campaign=yelp_api_v3&utm_medium=api_v3_business_search&utm_source=h5HwbyQ0TYvQjBo6Ys5Bgw", "review_count": 2, "categories": [{"alias": "breakfast_brunch", "title": "Breakfast & Brunch"}], "rating": 4.0, "coordinates": {"latitude": 42.63058, "longitude": -72.14802}, "transactions": [], "location": {"address1": "21 Main St", "address2": "", "address3": "", "city": "Royalston", "zip_code": "01368", "country": "US", "state": "MA", "display_address": ["21 Main St", "Royalston, MA 01368"]}, "phone": "+19782499798", "display_phone": "(978) 249-9798", "distance": 13771.915406723061}, {"id": "G6aP7ybRAR1k8_7PuIsmpw", "alias": "mill-no-3-farmstand-fitchburg", "name": "Mill No 3 Farmstand", "image_url": "https://s3-media3.fl.yelpcdn.com/bphoto/v1hJI5yDgkZGheZjr8L8dg/o.jpg", "is_closed": false, "url": "https://www.yelp.com/biz/mill-no-3-farmstand-fitchburg?adjust_creative=h5HwbyQ0TYvQjBo6Ys5Bgw&utm_campaign=yelp_api_v3&utm_medium=api_v3_business_search&utm_source=h5HwbyQ0TYvQjBo6Ys5Bgw", "review_count": 49, "categories": [{"alias": "sandwiches", "title": "Sandwiches"}, {"alias": "beer_and_wine", "title": "Beer, Wine & Spirits"}], "rating": 4.0, "coordinates": {"latitude": 42.57485, "longitude": -71.83574}, "transactions": ["delivery"], "price": "$$", "location": {"address1": "85 Westminster St", "address2": "", "address3": "", "city": "Fitchburg", "zip_code": "01420", "country": "US", "state": "MA", "display_address": ["85 Westminster St", "Fitchburg, MA 01420"]}, "phone": "+19783451100", "display_phone": "(978) 345-1100", "distance": 12675.927658182558}, {"id": "3Y9OnIQ55G13AcdxFZkHjw", "alias": "high-tides-seafood-barre", "name": "High Tides Seafood", "image_url": "", "is_closed": false, "url": "https://www.yelp.com/biz/high-tides-seafood-barre?adjust_creative=h5HwbyQ0TYvQjBo6Ys5Bgw&utm_campaign=yelp_api_v3&utm_medium=api_v3_business_search&utm_source=h5HwbyQ0TYvQjBo6Ys5Bgw", "review_count": 7, "categories": [{"alias": "seafood", "title": "Seafood"}, {"alias": "beer_and_wine", "title": "Beer, Wine & Spirits"}, {"alias": "icecream", "title": "Ice Cream & Frozen Yogurt"}], "rating": 4.5, "coordinates": {"latitude": 42.442644144625, "longitude": -72.165020017677}, "transactions": [], "location": {"address1": "2291 West St", "address2": "", "address3": null, "city": "Barre", "zip_code": "01005", "country": "US", "state": "MA", "display_address": ["2291 West St", "Barre, MA 01005"]}, "phone": "+19783556715", "display_phone": "(978) 355-6715", "distance": 21811.250187613656}, {"id": "3ejotiHbd3qB8M1ZSr6iuw", "alias": "friendlys-gardner", "name": "Friendly's", "image_url": "https://s3-media2.fl.yelpcdn.com/bphoto/wcoUh5wyZ3aTbl6usrO4Ww/o.jpg", "is_closed": false, "url": "https://www.yelp.com/biz/friendlys-gardner?adjust_creative=h5HwbyQ0TYvQjBo6Ys5Bgw&utm_campaign=yelp_api_v3&utm_medium=api_v3_business_search&utm_source=h5HwbyQ0TYvQjBo6Ys5Bgw", "review_count": 24, "categories": [{"alias": "icecream", "title": "Ice Cream & Frozen Yogurt"}, {"alias": "burgers", "title": "Burgers"}, {"alias": "tradamerican", "title": "American (Traditional)"}], "rating": 2.0, "coordinates": {"latitude": 42.566247470663, "longitude": -71.979320066874}, "transactions": [], "price": "$", "location": {"address1": "18 Pearson Blvd", "address2": "", "address3": "", "city": "Gardner", "zip_code": "01440", "country": "US", "state": "MA", "display_address": ["18 Pearson Blvd", "Gardner, MA 01440"]}, "phone": "+19786301821", "display_phone": "(978) 630-1821", "distance": 2758.8683755071006}, {"id": "xwSzGef4tPpesauXKLmMfQ", "alias": "country-pizza-fitchburg", "name": "Country Pizza", "image_url": "https://s3-media1.fl.yelpcdn.com/bphoto/hPPZK3N_Lg4OezKmU4ShIg/o.jpg", "is_closed": false, "url": "https://www.yelp.com/biz/country-pizza-fitchburg?adjust_creative=h5HwbyQ0TYvQjBo6Ys5Bgw&utm_campaign=yelp_api_v3&utm_medium=api_v3_business_search&utm_source=h5HwbyQ0TYvQjBo6Ys5Bgw", "review_count": 15, "categories": [{"alias": "pizza", "title": "Pizza"}], "rating": 4.5, "coordinates": {"latitude": 42.6026846431036, "longitude": -71.8011677104406}, "transactions": ["pickup", "delivery"], "price": "$", "location": {"address1": "6 Ashby State Rd", "address2": "", "address3": "", "city": "Fitchburg", "zip_code": "01420", "country": "US", "state": "MA", "display_address": ["6 Ashby State Rd", "Fitchburg, MA 01420"]}, "phone": "+19783422028", "display_phone": "(978) 342-2028", "distance": 15442.74809133298}, {"id": "97y3gmLhu_nXnFtofF_p-A", "alias": "snowland-gingerbread-house-at-great-wolf-lodge-fitchburg-2", "name": "Snowland Gingerbread House at Great Wolf Lodge", "image_url": "https://s3-media3.fl.yelpcdn.com/bphoto/nldxMYf_HBD38HDX5U2ihw/o.jpg", "is_closed": false, "url": "https://www.yelp.com/biz/snowland-gingerbread-house-at-great-wolf-lodge-fitchburg-2?adjust_creative=h5HwbyQ0TYvQjBo6Ys5Bgw&utm_campaign=yelp_api_v3&utm_medium=api_v3_business_search&utm_source=h5HwbyQ0TYvQjBo6Ys5Bgw", "review_count": 4, "categories": [{"alias": "gourmet", "title": "Specialty Food"}, {"alias": "newamerican", "title": "American (New)"}, {"alias": "resorts", "title": "Resorts"}], "rating": 4.5, "coordinates": {"latitude": 42.54711, "longitude": -71.854378}, "transactions": [], "price": "$$", "location": {"address1": "150 Great Wolf Dr", "address2": null, "address3": null, "city": "Fitchburg", "zip_code": "01420", "country": "US", "state": "MA", "display_address": ["150 Great Wolf Dr", "Fitchburg, MA 01420"]}, "phone": "+19783439653", "display_phone": "(978) 343-9653", "distance": 12031.128668779395}, {"id": "SB9nvFYt5w_dBqmblN9diQ", "alias": "c-and-s-pizza-of-winchendon-winchendon", "name": "C & S Pizza of Winchendon", "image_url": "https://s3-media2.fl.yelpcdn.com/bphoto/amwciQINWANoDPgIgLwlEw/o.jpg", "is_closed": false, "url": "https://www.yelp.com/biz/c-and-s-pizza-of-winchendon-winchendon?adjust_creative=h5HwbyQ0TYvQjBo6Ys5Bgw&utm_campaign=yelp_api_v3&utm_medium=api_v3_business_search&utm_source=h5HwbyQ0TYvQjBo6Ys5Bgw", "review_count": 20, "categories": [{"alias": "pizza", "title": "Pizza"}], "rating": 4.0, "coordinates": {"latitude": 42.68464, "longitude": -72.04595}, "transactions": [], "price": "$$", "location": {"address1": "188 Central St", "address2": "", "address3": "", "city": "Winchendon", "zip_code": "01475", "country": "US", "state": "MA", "display_address": ["188 Central St", "Winchendon, MA 01475"]}, "phone": "+19782972202", "display_phone": "(978) 297-2202", "distance": 11510.61266304748}, {"id": "InO-YBiVrA6sBTU0nwzKlg", "alias": "zoes-restaurant-winchendon", "name": "Zoe's Restaurant", "image_url": "https://s3-media3.fl.yelpcdn.com/bphoto/w7KLHPgrEAbKwf9akJ8wtw/o.jpg", "is_closed": false, "url": "https://www.yelp.com/biz/zoes-restaurant-winchendon?adjust_creative=h5HwbyQ0TYvQjBo6Ys5Bgw&utm_campaign=yelp_api_v3&utm_medium=api_v3_business_search&utm_source=h5HwbyQ0TYvQjBo6Ys5Bgw", "review_count": 12, "categories": [{"alias": "pizza", "title": "Pizza"}], "rating": 3.0, "coordinates": {"latitude": 42.67668833, "longitude": -72.02859667}, "transactions": [], "location": {"address1": "435 Spring St", "address2": "", "address3": "", "city": "Winchendon", "zip_code": "01475", "country": "US", "state": "MA", "display_address": ["435 Spring St", "Winchendon, MA 01475"]}, "phone": "", "display_phone": "", "distance": 10166.707244238787}, {"id": "MMDcTPhGXYDu0-HhBHqMrw", "alias": "shanes-hot-dogs-gardner", "name": "Shane's Hot Dogs", "image_url": "", "is_closed": false, "url": "https://www.yelp.com/biz/shanes-hot-dogs-gardner?adjust_creative=h5HwbyQ0TYvQjBo6Ys5Bgw&utm_campaign=yelp_api_v3&utm_medium=api_v3_business_search&utm_source=h5HwbyQ0TYvQjBo6Ys5Bgw", "review_count": 1, "categories": [{"alias": "hotdog", "title": "Hot Dogs"}, {"alias": "foodstands", "title": "Food Stands"}], "rating": 2.0, "coordinates": {"latitude": 42.5677898, "longitude": -71.9836277}, "transactions": [], "price": "$", "location": {"address1": "500 Chestnut St", "address2": "", "address3": null, "city": "Gardner", "zip_code": "01440", "country": "US", "state": "MA", "display_address": ["500 Chestnut St", "Gardner, MA 01440"]}, "phone": "+19782735068", "display_phone": "(978) 273-5068", "distance": 2514.7327703764054}, {"id": "ZotvCkZnaImGJUyIEBX4Mw", "alias": "gabbys-pizza-winchendon-2", "name": "Gabby's Pizza", "image_url": "https://s3-media4.fl.yelpcdn.com/bphoto/eb75nQNfktU1Fzfdz6ya4g/o.jpg", "is_closed": false, "url": "https://www.yelp.com/biz/gabbys-pizza-winchendon-2?adjust_creative=h5HwbyQ0TYvQjBo6Ys5Bgw&utm_campaign=yelp_api_v3&utm_medium=api_v3_business_search&utm_source=h5HwbyQ0TYvQjBo6Ys5Bgw", "review_count": 21, "categories": [{"alias": "pizza", "title": "Pizza"}], "rating": 4.0, "coordinates": {"latitude": 42.6858862, "longitude": -72.0447741}, "transactions": [], "price": "$", "location": {"address1": "255 Central St", "address2": "", "address3": "", "city": "Winchendon", "zip_code": "01475", "country": "US", "state": "MA", "display_address": ["255 Central St", "Winchendon, MA 01475"]}, "phone": "+19782973909", "display_phone": "(978) 297-3909", "distance": 11593.227898635887}, {"id": "8LMS-2CQc5eU1Eg7OnDZng", "alias": "brothers-pizza-ashburnham", "name": "Brothers Pizza", "image_url": "", "is_closed": false, "url": "https://www.yelp.com/biz/brothers-pizza-ashburnham?adjust_creative=h5HwbyQ0TYvQjBo6Ys5Bgw&utm_campaign=yelp_api_v3&utm_medium=api_v3_business_search&utm_source=h5HwbyQ0TYvQjBo6Ys5Bgw", "review_count": 10, "categories": [{"alias": "pizza", "title": "Pizza"}], "rating": 4.5, "coordinates": {"latitude": 42.6355896, "longitude": -71.9095764}, "transactions": [], "location": {"address1": "47 Main St", "address2": null, "address3": "", "city": "Ashburnham", "zip_code": "01430", "country": "US", "state": "MA", "display_address": ["47 Main St", "Ashburnham, MA 01430"]}, "phone": "+19788271111", "display_phone": "(978) 827-1111", "distance": 8261.177329379172}, {"id": "kKKJ4J05Jii-oAc6oEJifg", "alias": "town-house-of-pizza-westminster", "name": "Town House of Pizza", "image_url": "https://s3-media3.fl.yelpcdn.com/bphoto/mJvtfHsssMJqGTvEAJ-uyw/o.jpg", "is_closed": false, "url": "https://www.yelp.com/biz/town-house-of-pizza-westminster?adjust_creative=h5HwbyQ0TYvQjBo6Ys5Bgw&utm_campaign=yelp_api_v3&utm_medium=api_v3_business_search&utm_source=h5HwbyQ0TYvQjBo6Ys5Bgw", "review_count": 23, "categories": [{"alias": "pizza", "title": "Pizza"}, {"alias": "italian", "title": "Italian"}, {"alias": "breakfast_brunch", "title": "Breakfast & Brunch"}], "rating": 3.5, "coordinates": {"latitude": 42.5484099, "longitude": -71.91575}, "transactions": [], "price": "$", "location": {"address1": "68 Main St", "address2": "", "address3": "", "city": "Westminster", "zip_code": "01473", "country": "US", "state": "MA", "display_address": ["68 Main St", "Westminster, MA 01473"]}, "phone": "+19788740326", "display_phone": "(978) 874-0326", "distance": 7582.295816074792}, {"id": "y7uF47HIjx7uAPiXSiVEOQ", "alias": "christos-place-winchendon", "name": "Christo's Place", "image_url": "https://s3-media1.fl.yelpcdn.com/bphoto/eONDEM9lZv_mrtIPdkTx8w/o.jpg", "is_closed": false, "url": "https://www.yelp.com/biz/christos-place-winchendon?adjust_creative=h5HwbyQ0TYvQjBo6Ys5Bgw&utm_campaign=yelp_api_v3&utm_medium=api_v3_business_search&utm_source=h5HwbyQ0TYvQjBo6Ys5Bgw", "review_count": 10, "categories": [{"alias": "pizza", "title": "Pizza"}], "rating": 3.0, "coordinates": {"latitude": 42.681835, "longitude": -72.047646}, "transactions": [], "price": "$$", "location": {"address1": "51 Central St", "address2": "", "address3": "", "city": "Winchendon", "zip_code": "01475", "country": "US", "state": "MA", "display_address": ["51 Central St", "Winchendon, MA 01475"]}, "phone": "+19782971142", "display_phone": "(978) 297-1142", "distance": 11277.584523059966}, {"id": "Rz2LOWZqJUAqqOFicexOVQ", "alias": "tikki-tikki-restaurant-fitchburg", "name": "Tikki Tikki Restaurant", "image_url": "https://s3-media2.fl.yelpcdn.com/bphoto/fwq8-wDajCpBNub8IoK5Zg/o.jpg", "is_closed": false, "url": "https://www.yelp.com/biz/tikki-tikki-restaurant-fitchburg?adjust_creative=h5HwbyQ0TYvQjBo6Ys5Bgw&utm_campaign=yelp_api_v3&utm_medium=api_v3_business_search&utm_source=h5HwbyQ0TYvQjBo6Ys5Bgw", "review_count": 9, "categories": [{"alias": "chinese", "title": "Chinese"}], "rating": 4.0, "coordinates": {"latitude": 42.5823664, "longitude": -71.7969205}, "transactions": ["delivery"], "price": "$", "location": {"address1": "335 Main St", "address2": "", "address3": "", "city": "Fitchburg", "zip_code": "01420", "country": "US", "state": "MA", "display_address": ["335 Main St", "Fitchburg, MA 01420"]}, "phone": "+19783481038", "display_phone": "(978) 348-1038", "distance": 15771.593238056059}, {"id": "cmbDmIZzy72xY4jHt6pnXw", "alias": "cleghorn-house-of-pizza-fitchburg", "name": "Cleghorn House of Pizza", "image_url": "https://s3-media2.fl.yelpcdn.com/bphoto/dv2xuBLuDNc1azwZpKxT4w/o.jpg", "is_closed": false, "url": "https://www.yelp.com/biz/cleghorn-house-of-pizza-fitchburg?adjust_creative=h5HwbyQ0TYvQjBo6Ys5Bgw&utm_campaign=yelp_api_v3&utm_medium=api_v3_business_search&utm_source=h5HwbyQ0TYvQjBo6Ys5Bgw", "review_count": 23, "categories": [{"alias": "pizza", "title": "Pizza"}], "rating": 3.5, "coordinates": {"latitude": 42.568867, "longitude": -71.826717}, "transactions": [], "price": "$$", "location": {"address1": "416 Franklin Rd", "address2": "", "address3": "", "city": "Fitchburg", "zip_code": "01420", "country": "US", "state": "MA", "display_address": ["416 Franklin Rd", "Fitchburg, MA 01420"]}, "phone": "+19783457558", "display_phone": "(978) 345-7558", "distance": 13511.378125784944}, {"id": "kqir5dO2JZ5Y0HYO33wbCQ", "alias": "dominos-pizza-gardner", "name": "Domino's Pizza", "image_url": "https://s3-media1.fl.yelpcdn.com/bphoto/xblCtNJCS2ds7BgENryLEw/o.jpg", "is_closed": false, "url": "https://www.yelp.com/biz/dominos-pizza-gardner?adjust_creative=h5HwbyQ0TYvQjBo6Ys5Bgw&utm_campaign=yelp_api_v3&utm_medium=api_v3_business_search&utm_source=h5HwbyQ0TYvQjBo6Ys5Bgw", "review_count": 6, "categories": [{"alias": "pizza", "title": "Pizza"}, {"alias": "chicken_wings", "title": "Chicken Wings"}, {"alias": "sandwiches", "title": "Sandwiches"}], "rating": 2.5, "coordinates": {"latitude": 42.5749306, "longitude": -72.006989}, "transactions": [], "price": "$", "location": {"address1": "401 Parker St", "address2": "", "address3": "", "city": "Gardner", "zip_code": "01440", "country": "US", "state": "MA", "display_address": ["401 Parker St", "Gardner, MA 01440"]}, "phone": "+19786328170", "display_phone": "(978) 632-8170", "distance": 2203.281527856182}, {"id": "NbgDeLbiysCEZcfOQax2Tw", "alias": "waites-corner-variety-and-luncheonette-fitchburg", "name": "Waites Corner Variety & Luncheonette", "image_url": "", "is_closed": false, "url": "https://www.yelp.com/biz/waites-corner-variety-and-luncheonette-fitchburg?adjust_creative=h5HwbyQ0TYvQjBo6Ys5Bgw&utm_campaign=yelp_api_v3&utm_medium=api_v3_business_search&utm_source=h5HwbyQ0TYvQjBo6Ys5Bgw", "review_count": 3, "categories": [{"alias": "restaurants", "title": "Restaurants"}], "rating": 3.5, "coordinates": {"latitude": 42.5653047901206, "longitude": -71.8454228242399}, "transactions": [], "location": {"address1": "550 Westminster St", "address2": "", "address3": "", "city": "Fitchburg", "zip_code": "01420", "country": "US", "state": "MA", "display_address": ["550 Westminster St", "Fitchburg, MA 01420"]}, "phone": "+19783452011", "display_phone": "(978) 345-2011", "distance": 12063.00492185406}, {"id": "JsyervcPMfFnRwRbtdsIAg", "alias": "the-pizza-barn-baldwinville", "name": "The Pizza Barn", "image_url": "https://s3-media1.fl.yelpcdn.com/bphoto/Ce7-bTdAMVVbfEbue3hUog/o.jpg", "is_closed": false, "url": "https://www.yelp.com/biz/the-pizza-barn-baldwinville?adjust_creative=h5HwbyQ0TYvQjBo6Ys5Bgw&utm_campaign=yelp_api_v3&utm_medium=api_v3_business_search&utm_source=h5HwbyQ0TYvQjBo6Ys5Bgw", "review_count": 5, "categories": [{"alias": "pizza", "title": "Pizza"}, {"alias": "italian", "title": "Italian"}, {"alias": "mediterranean", "title": "Mediterranean"}], "rating": 2.0, "coordinates": {"latitude": 42.60673, "longitude": -72.07426}, "transactions": [], "price": "$$", "location": {"address1": "9 Central St", "address2": "", "address3": "", "city": "Baldwinville", "zip_code": "01436", "country": "US", "state": "MA", "display_address": ["9 Central St", "Baldwinville, MA 01436"]}, "phone": "+19789392156", "display_phone": "(978) 939-2156", "distance": 7200.942986201955}, {"id": "PhQ3uxMgUl-T6aAKhoQZ9A", "alias": "west-broadway-pizza-gardner", "name": "West Broadway Pizza", "image_url": "https://s3-media2.fl.yelpcdn.com/bphoto/ypGtnWkRqQLnXkiHN6nWHg/o.jpg", "is_closed": false, "url": "https://www.yelp.com/biz/west-broadway-pizza-gardner?adjust_creative=h5HwbyQ0TYvQjBo6Ys5Bgw&utm_campaign=yelp_api_v3&utm_medium=api_v3_business_search&utm_source=h5HwbyQ0TYvQjBo6Ys5Bgw", "review_count": 11, "categories": [{"alias": "pizza", "title": "Pizza"}], "rating": 3.5, "coordinates": {"latitude": 42.5579833984375, "longitude": -71.9809036254883}, "transactions": [], "price": "$$", "location": {"address1": "15 W Broadway", "address2": "", "address3": "", "city": "Gardner", "zip_code": "01440", "country": "US", "state": "MA", "display_address": ["15 W Broadway", "Gardner, MA 01440"]}, "phone": "+19786303111", "display_phone": "(978) 630-3111", "distance": 3619.9992020963755}, {"id": "iVk5L0JWf_92isJK9JWpwA", "alias": "village-pizza-and-subs-baldwinville-2", "name": "Village Pizza & Subs", "image_url": "https://s3-media2.fl.yelpcdn.com/bphoto/MccvnRH-t1sS0jyeKzBrCQ/o.jpg", "is_closed": false, "url": "https://www.yelp.com/biz/village-pizza-and-subs-baldwinville-2?adjust_creative=h5HwbyQ0TYvQjBo6Ys5Bgw&utm_campaign=yelp_api_v3&utm_medium=api_v3_business_search&utm_source=h5HwbyQ0TYvQjBo6Ys5Bgw", "review_count": 6, "categories": [{"alias": "pizza", "title": "Pizza"}, {"alias": "seafood", "title": "Seafood"}], "rating": 4.0, "coordinates": {"latitude": 42.60683, "longitude": -72.07494}, "transactions": [], "price": "$", "location": {"address1": "5 Elm St", "address2": "", "address3": "", "city": "Baldwinville", "zip_code": "01436", "country": "US", "state": "MA", "display_address": ["5 Elm St", "Baldwinville, MA 01436"]}, "phone": "+19789394401", "display_phone": "(978) 939-4401", "distance": 7258.413964028986}, {"id": "a09TbXjN4Eft4dOaLDcssQ", "alias": "el-bohio-restaurant-fitchburg", "name": "El Bohio Restaurant", "image_url": "https://s3-media3.fl.yelpcdn.com/bphoto/GHZJVgmXOhqwuvAiuqTsZg/o.jpg", "is_closed": false, "url": "https://www.yelp.com/biz/el-bohio-restaurant-fitchburg?adjust_creative=h5HwbyQ0TYvQjBo6Ys5Bgw&utm_campaign=yelp_api_v3&utm_medium=api_v3_business_search&utm_source=h5HwbyQ0TYvQjBo6Ys5Bgw", "review_count": 32, "categories": [{"alias": "spanish", "title": "Spanish"}, {"alias": "dominican", "title": "Dominican"}, {"alias": "desserts", "title": "Desserts"}], "rating": 4.5, "coordinates": {"latitude": 42.5822489, "longitude": -71.7973464}, "transactions": ["delivery"], "price": "$", "location": {"address1": "362 Main St", "address2": "", "address3": "", "city": "Fitchburg", "zip_code": "01420", "country": "US", "state": "MA", "display_address": ["362 Main St", "Fitchburg, MA 01420"]}, "phone": "+19783427510", "display_phone": "(978) 342-7510", "distance": 15724.674380505287}, {"id": "IDT7CdASgaTgTO8vx2ihRw", "alias": "fuzzys-cafe-fitchburg", "name": "Fuzzy's Cafe", "image_url": "https://s3-media2.fl.yelpcdn.com/bphoto/rRWyLLSWEKuTd6Bm0VMaYw/o.jpg", "is_closed": false, "url": "https://www.yelp.com/biz/fuzzys-cafe-fitchburg?adjust_creative=h5HwbyQ0TYvQjBo6Ys5Bgw&utm_campaign=yelp_api_v3&utm_medium=api_v3_business_search&utm_source=h5HwbyQ0TYvQjBo6Ys5Bgw", "review_count": 7, "categories": [{"alias": "tradamerican", "title": "American (Traditional)"}], "rating": 4.5, "coordinates": {"latitude": 42.5816917419434, "longitude": -71.7921295166016}, "transactions": ["delivery"], "price": "$", "location": {"address1": "100 Main St", "address2": "", "address3": "", "city": "Fitchburg", "zip_code": "01420", "country": "US", "state": "MA", "display_address": ["100 Main St", "Fitchburg, MA 01420"]}, "phone": "+19783537890", "display_phone": "(978) 353-7890", "distance": 16167.237495771538}, {"id": "ybkcxwJrjVxwHu5LCWT71Q", "alias": "d-angelo-gardner", "name": "D'Angelo", "image_url": "", "is_closed": false, "url": "https://www.yelp.com/biz/d-angelo-gardner?adjust_creative=h5HwbyQ0TYvQjBo6Ys5Bgw&utm_campaign=yelp_api_v3&utm_medium=api_v3_business_search&utm_source=h5HwbyQ0TYvQjBo6Ys5Bgw", "review_count": 5, "categories": [{"alias": "sandwiches", "title": "Sandwiches"}], "rating": 2.5, "coordinates": {"latitude": 42.5666254, "longitude": -71.9823995}, "transactions": [], "location": {"address1": "43 Union Sq", "address2": "", "address3": "", "city": "Gardner", "zip_code": "01440", "country": "US", "state": "MA", "display_address": ["43 Union Sq", "Gardner, MA 01440"]}, "phone": "+19786327533", "display_phone": "(978) 632-7533", "distance": 2657.824687141569}, {"id": "e331pQV1I-SSnWw_w0PfMA", "alias": "wendys-gardner", "name": "Wendy's", "image_url": "https://s3-media1.fl.yelpcdn.com/bphoto/yGojYMgHFk_orMJG7_CAdQ/o.jpg", "is_closed": false, "url": "https://www.yelp.com/biz/wendys-gardner?adjust_creative=h5HwbyQ0TYvQjBo6Ys5Bgw&utm_campaign=yelp_api_v3&utm_medium=api_v3_business_search&utm_source=h5HwbyQ0TYvQjBo6Ys5Bgw", "review_count": 5, "categories": [{"alias": "hotdogs", "title": "Fast Food"}, {"alias": "burgers", "title": "Burgers"}], "rating": 3.5, "coordinates": {"latitude": 42.56622, "longitude": -71.97991}, "transactions": [], "price": "$", "location": {"address1": "28 Pearson Blvd", "address2": "", "address3": "", "city": "Gardner", "zip_code": "01440", "country": "US", "state": "MA", "display_address": ["28 Pearson Blvd", "Gardner, MA 01440"]}, "phone": "+19786303490", "display_phone": "(978) 630-3490", "distance": 2801.924613916467}, {"id": "E2PBDgjjwdGvZPnFX8_P4A", "alias": "princeton-house-of-pizza-princeton", "name": "Princeton House of Pizza", "image_url": "https://s3-media2.fl.yelpcdn.com/bphoto/xo0WUiNcc8y2UMGDMwh6qg/o.jpg", "is_closed": false, "url": "https://www.yelp.com/biz/princeton-house-of-pizza-princeton?adjust_creative=h5HwbyQ0TYvQjBo6Ys5Bgw&utm_campaign=yelp_api_v3&utm_medium=api_v3_business_search&utm_source=h5HwbyQ0TYvQjBo6Ys5Bgw", "review_count": 13, "categories": [{"alias": "pizza", "title": "Pizza"}], "rating": 3.0, "coordinates": {"latitude": 42.4501459300518, "longitude": -71.8805374950171}, "transactions": [], "price": "$$", "location": {"address1": "25 Hubbardston Rd", "address2": "", "address3": "", "city": "Princeton", "zip_code": "01541", "country": "US", "state": "MA", "display_address": ["25 Hubbardston Rd", "Princeton, MA 01541"]}, "phone": "+19784645858", "display_phone": "(978) 464-5858", "distance": 17909.528804222435}, {"id": "bxPkkUUZSgpcIECmiOVHBA", "alias": "westminster-cafe-westminster", "name": "Westminster Cafe", "image_url": "https://s3-media2.fl.yelpcdn.com/bphoto/oDlOcq4-1Lwei9pIqBrCIw/o.jpg", "is_closed": false, "url": "https://www.yelp.com/biz/westminster-cafe-westminster?adjust_creative=h5HwbyQ0TYvQjBo6Ys5Bgw&utm_campaign=yelp_api_v3&utm_medium=api_v3_business_search&utm_source=h5HwbyQ0TYvQjBo6Ys5Bgw", "review_count": 29, "categories": [{"alias": "breakfast_brunch", "title": "Breakfast & Brunch"}, {"alias": "seafood", "title": "Seafood"}, {"alias": "icecream", "title": "Ice Cream & Frozen Yogurt"}], "rating": 4.0, "coordinates": {"latitude": 42.548792, "longitude": -71.917325}, "transactions": [], "price": "$", "location": {"address1": "51 Main St", "address2": null, "address3": null, "city": "Westminster", "zip_code": "01473", "country": "US", "state": "MA", "display_address": ["51 Main St", "Westminster, MA 01473"]}, "phone": "+19788741833", "display_phone": "(978) 874-1833", "distance": 7461.332432918491}, {"id": "bAL665kXddTfRzkqQxDQ9w", "alias": "gold-bowl-fitchburg-fitchburg", "name": "Gold Bowl Fitchburg", "image_url": "https://s3-media3.fl.yelpcdn.com/bphoto/_XOKA3RRjTDFF4vXnWNzlg/o.jpg", "is_closed": false, "url": "https://www.yelp.com/biz/gold-bowl-fitchburg-fitchburg?adjust_creative=h5HwbyQ0TYvQjBo6Ys5Bgw&utm_campaign=yelp_api_v3&utm_medium=api_v3_business_search&utm_source=h5HwbyQ0TYvQjBo6Ys5Bgw", "review_count": 39, "categories": [{"alias": "chinese", "title": "Chinese"}], "rating": 4.0, "coordinates": {"latitude": 42.60306, "longitude": -71.80145}, "transactions": ["pickup", "delivery"], "price": "$$", "location": {"address1": "22 Ashby State Rd", "address2": null, "address3": "", "city": "Fitchburg", "zip_code": "01420", "country": "US", "state": "MA", "display_address": ["22 Ashby State Rd", "Fitchburg, MA 01420"]}, "phone": "+19783482088", "display_phone": "(978) 348-2088", "distance": 15441.47085758649}, {"id": "lBW15hrQi7ZmoviO03sEuw", "alias": "mikes-pizza-of-westminster-westminster-2", "name": "Mike's Pizza of Westminster", "image_url": "https://s3-media2.fl.yelpcdn.com/bphoto/DWQliLLzaiE-SAQ25l-70Q/o.jpg", "is_closed": false, "url": "https://www.yelp.com/biz/mikes-pizza-of-westminster-westminster-2?adjust_creative=h5HwbyQ0TYvQjBo6Ys5Bgw&utm_campaign=yelp_api_v3&utm_medium=api_v3_business_search&utm_source=h5HwbyQ0TYvQjBo6Ys5Bgw", "review_count": 14, "categories": [{"alias": "pizza", "title": "Pizza"}, {"alias": "salad", "title": "Salad"}, {"alias": "italian", "title": "Italian"}], "rating": 2.5, "coordinates": {"latitude": 42.5572891235352, "longitude": -71.8745956420898}, "transactions": [], "price": "$", "location": {"address1": "158 State Rd E", "address2": "", "address3": "", "city": "Westminster", "zip_code": "01473", "country": "US", "state": "MA", "display_address": ["158 State Rd E", "Westminster, MA 01473"]}, "phone": "+19788741800", "display_phone": "(978) 874-1800", "distance": 10058.807541819477}, {"id": "LXITAZq1Yt9oxO80KN8P3A", "alias": "873-tavern-ashby", "name": "873 Tavern", "image_url": "https://s3-media3.fl.yelpcdn.com/bphoto/ODYGizPPqRjeApvPPPku1Q/o.jpg", "is_closed": false, "url": "https://www.yelp.com/biz/873-tavern-ashby?adjust_creative=h5HwbyQ0TYvQjBo6Ys5Bgw&utm_campaign=yelp_api_v3&utm_medium=api_v3_business_search&utm_source=h5HwbyQ0TYvQjBo6Ys5Bgw", "review_count": 7, "categories": [{"alias": "tradamerican", "title": "American (Traditional)"}, {"alias": "beer_and_wine", "title": "Beer, Wine & Spirits"}], "rating": 2.5, "coordinates": {"latitude": 42.6786, "longitude": -71.8213899}, "transactions": [], "price": "$$", "location": {"address1": "873 Main St", "address2": "", "address3": "", "city": "Ashby", "zip_code": "01431", "country": "US", "state": "MA", "display_address": ["873 Main St", "Ashby, MA 01431"]}, "phone": "+19783861078", "display_phone": "(978) 386-1078", "distance": 16906.308205681697}, {"id": "eIRuELHslKEMAmHm0DHbxw", "alias": "pleasant-house-of-pizza-gardner", "name": "Pleasant House of Pizza", "image_url": "", "is_closed": false, "url": "https://www.yelp.com/biz/pleasant-house-of-pizza-gardner?adjust_creative=h5HwbyQ0TYvQjBo6Ys5Bgw&utm_campaign=yelp_api_v3&utm_medium=api_v3_business_search&utm_source=h5HwbyQ0TYvQjBo6Ys5Bgw", "review_count": 1, "categories": [{"alias": "pizza", "title": "Pizza"}], "rating": 3.0, "coordinates": {"latitude": 42.5748923481699, "longitude": -71.9946629036695}, "transactions": [], "location": {"address1": "68 Main St", "address2": "", "address3": "", "city": "Gardner", "zip_code": "01440", "country": "US", "state": "MA", "display_address": ["68 Main St", "Gardner, MA 01440"]}, "phone": "", "display_phone": "", "distance": 1730.971879249089}, {"id": "5um6bgKp_RBrNh3pyS5Gig", "alias": "family-kitchen-hubbardston", "name": "Family Kitchen", "image_url": "", "is_closed": false, "url": "https://www.yelp.com/biz/family-kitchen-hubbardston?adjust_creative=h5HwbyQ0TYvQjBo6Ys5Bgw&utm_campaign=yelp_api_v3&utm_medium=api_v3_business_search&utm_source=h5HwbyQ0TYvQjBo6Ys5Bgw", "review_count": 1, "categories": [{"alias": "pizza", "title": "Pizza"}], "rating": 1.0, "coordinates": {"latitude": 42.4784779082112, "longitude": -72.0091371899555}, "transactions": [], "location": {"address1": "32 Main Street", "address2": "", "address3": null, "city": "Hubbardston", "zip_code": "01452", "country": "US", "state": "MA", "display_address": ["32 Main Street", "Hubbardston, MA 01452"]}, "phone": "+19788201440", "display_phone": "(978) 820-1440", "distance": 12501.133471657618}, {"id": "ca-cNiTee3s_oxTewG1CDg", "alias": "subway-gardner-7", "name": "Subway", "image_url": "https://s3-media3.fl.yelpcdn.com/bphoto/-GDNHfONoo-cnd-5mtzipg/o.jpg", "is_closed": false, "url": "https://www.yelp.com/biz/subway-gardner-7?adjust_creative=h5HwbyQ0TYvQjBo6Ys5Bgw&utm_campaign=yelp_api_v3&utm_medium=api_v3_business_search&utm_source=h5HwbyQ0TYvQjBo6Ys5Bgw", "review_count": 3, "categories": [{"alias": "sandwiches", "title": "Sandwiches"}], "rating": 3.5, "coordinates": {"latitude": 42.566047, "longitude": -71.977501}, "transactions": [], "price": "$", "location": {"address1": "30 Pearson Blvd", "address2": "", "address3": "", "city": "Gardner", "zip_code": "01440", "country": "US", "state": "MA", "display_address": ["30 Pearson Blvd", "Gardner, MA 01440"]}, "phone": "+19786325213", "display_phone": "(978) 632-5213", "distance": 2827.483448784389}, {"id": "mHVXYsbwYcJg1M7rirDNXQ", "alias": "partners-pub-fitchburg", "name": "Partner's Pub", "image_url": "https://s3-media3.fl.yelpcdn.com/bphoto/vn63VMOBRRJWyVON8YKKMA/o.jpg", "is_closed": false, "url": "https://www.yelp.com/biz/partners-pub-fitchburg?adjust_creative=h5HwbyQ0TYvQjBo6Ys5Bgw&utm_campaign=yelp_api_v3&utm_medium=api_v3_business_search&utm_source=h5HwbyQ0TYvQjBo6Ys5Bgw", "review_count": 20, "categories": [{"alias": "pubs", "title": "Pubs"}, {"alias": "pizza", "title": "Pizza"}], "rating": 4.0, "coordinates": {"latitude": 42.557128, "longitude": -71.786827}, "transactions": ["delivery"], "price": "$", "location": {"address1": "970 South St", "address2": "", "address3": "", "city": "Fitchburg", "zip_code": "01420", "country": "US", "state": "MA", "display_address": ["970 South St", "Fitchburg, MA 01420"]}, "phone": "+19783455051", "display_phone": "(978) 345-5051", "distance": 16965.719410872072}, {"id": "UobatlVMDwz7k_iYHqn8NQ", "alias": "ashburnham-wine-and-spirits-ashburnham", "name": "Ashburnham Wine & Spirits", "image_url": "", "is_closed": false, "url": "https://www.yelp.com/biz/ashburnham-wine-and-spirits-ashburnham?adjust_creative=h5HwbyQ0TYvQjBo6Ys5Bgw&utm_campaign=yelp_api_v3&utm_medium=api_v3_business_search&utm_source=h5HwbyQ0TYvQjBo6Ys5Bgw", "review_count": 4, "categories": [{"alias": "beer_and_wine", "title": "Beer, Wine & Spirits"}, {"alias": "delis", "title": "Delis"}], "rating": 5.0, "coordinates": {"latitude": 42.63619, "longitude": -71.90957}, "transactions": [], "price": "$", "location": {"address1": "3 Memorial Dr", "address2": "", "address3": "", "city": "Ashburnham", "zip_code": "01430", "country": "US", "state": "MA", "display_address": ["3 Memorial Dr", "Ashburnham, MA 01430"]}, "phone": "+19788275872", "display_phone": "(978) 827-5872", "distance": 8312.192921386177}, {"id": "OpRAzgT3CzIx2qpZ2V2_1w", "alias": "the-50-50-diner-fitchburg", "name": "The 50/50 Diner", "image_url": "https://s3-media3.fl.yelpcdn.com/bphoto/dOL50X7gZLdF6p8SsVz3dQ/o.jpg", "is_closed": false, "url": "https://www.yelp.com/biz/the-50-50-diner-fitchburg?adjust_creative=h5HwbyQ0TYvQjBo6Ys5Bgw&utm_campaign=yelp_api_v3&utm_medium=api_v3_business_search&utm_source=h5HwbyQ0TYvQjBo6Ys5Bgw", "review_count": 35, "categories": [{"alias": "diners", "title": "Diners"}, {"alias": "coffee", "title": "Coffee & Tea"}], "rating": 3.5, "coordinates": {"latitude": 42.58123, "longitude": -71.82228}, "transactions": ["delivery"], "price": "$", "location": {"address1": "440 River St", "address2": "", "address3": "", "city": "Fitchburg", "zip_code": "01420", "country": "US", "state": "MA", "display_address": ["440 River St", "Fitchburg, MA 01420"]}, "phone": "+19783458030", "display_phone": "(978) 345-8030", "distance": 13706.646453777388}, {"id": "Je1gbLcoqWn-R9Wsw09J2g", "alias": "burger-king-gardner-2", "name": "Burger King", "image_url": "https://s3-media4.fl.yelpcdn.com/bphoto/PtHJDw19UTmeX8yvo60qtw/o.jpg", "is_closed": false, "url": "https://www.yelp.com/biz/burger-king-gardner-2?adjust_creative=h5HwbyQ0TYvQjBo6Ys5Bgw&utm_campaign=yelp_api_v3&utm_medium=api_v3_business_search&utm_source=h5HwbyQ0TYvQjBo6Ys5Bgw", "review_count": 2, "categories": [{"alias": "burgers", "title": "Burgers"}, {"alias": "hotdogs", "title": "Fast Food"}], "rating": 1.0, "coordinates": {"latitude": 42.565589, "longitude": -71.991512}, "transactions": [], "price": "$", "location": {"address1": "9 Crawford Street", "address2": "", "address3": "", "city": "Gardner", "zip_code": "01440", "country": "US", "state": "MA", "display_address": ["9 Crawford Street", "Gardner, MA 01440"]}, "phone": "", "display_phone": "", "distance": 2711.084862992717}, {"id": "A0w8OvREopJC9IoInjXWog", "alias": "parkhill-pizza-fitchburg", "name": "Parkhill Pizza", "image_url": "https://s3-media3.fl.yelpcdn.com/bphoto/QX4gB8A0cW5waHVvAiAxuw/o.jpg", "is_closed": false, "url": "https://www.yelp.com/biz/parkhill-pizza-fitchburg?adjust_creative=h5HwbyQ0TYvQjBo6Ys5Bgw&utm_campaign=yelp_api_v3&utm_medium=api_v3_business_search&utm_source=h5HwbyQ0TYvQjBo6Ys5Bgw", "review_count": 42, "categories": [{"alias": "pizza", "title": "Pizza"}], "rating": 3.5, "coordinates": {"latitude": 42.56837, "longitude": -71.81707}, "transactions": ["delivery"], "price": "$$", "location": {"address1": "96 Franklin Rd", "address2": "", "address3": "", "city": "Fitchburg", "zip_code": "01420", "country": "US", "state": "MA", "display_address": ["96 Franklin Rd", "Fitchburg, MA 01420"]}, "phone": "+19783437100", "display_phone": "(978) 343-7100", "distance": 14435.431692442502}, {"id": "y7vkJQLTHcfXEF_7XKjJdw", "alias": "crown-fried-chicken-fitchburg", "name": "Crown Fried Chicken", "image_url": "https://s3-media2.fl.yelpcdn.com/bphoto/PlPeb8RVc1aIJWUb5yl-gw/o.jpg", "is_closed": false, "url": "https://www.yelp.com/biz/crown-fried-chicken-fitchburg?adjust_creative=h5HwbyQ0TYvQjBo6Ys5Bgw&utm_campaign=yelp_api_v3&utm_medium=api_v3_business_search&utm_source=h5HwbyQ0TYvQjBo6Ys5Bgw", "review_count": 1, "categories": [{"alias": "chicken_wings", "title": "Chicken Wings"}], "rating": 4.0, "coordinates": {"latitude": 42.58387, "longitude": -71.79322}, "transactions": ["pickup", "delivery"], "location": {"address1": "70 North St", "address2": "", "address3": null, "city": "Fitchburg", "zip_code": "01420", "country": "US", "state": "MA", "display_address": ["70 North St", "Fitchburg, MA 01420"]}, "phone": "+19783422600", "display_phone": "(978) 342-2600", "distance": 16070.76614544682}, {"id": "Kr3vRRhCDsLj6LY6OEaR5A", "alias": "king-phillip-motel-phillipston", "name": "King Phillip Motel", "image_url": "", "is_closed": false, "url": "https://www.yelp.com/biz/king-phillip-motel-phillipston?adjust_creative=h5HwbyQ0TYvQjBo6Ys5Bgw&utm_campaign=yelp_api_v3&utm_medium=api_v3_business_search&utm_source=h5HwbyQ0TYvQjBo6Ys5Bgw", "review_count": 3, "categories": [{"alias": "hotels", "title": "Hotels"}, {"alias": "restaurants", "title": "Restaurants"}], "rating": 3.0, "coordinates": {"latitude": 42.5698651, "longitude": -72.1321599}, "transactions": [], "location": {"address1": "35 State Rd", "address2": "", "address3": "", "city": "Phillipston", "zip_code": "01331", "country": "US", "state": "MA", "display_address": ["35 State Rd", "Phillipston, MA 01331"]}, "phone": "+19782495300", "display_phone": "(978) 249-5300", "distance": 11910.185130539707}, {"id": "dPl-f19bIGd1AT9kP85zqQ", "alias": "873-cafe-ashby", "name": "873 Cafe", "image_url": "https://s3-media1.fl.yelpcdn.com/bphoto/WQcdKLlhcDKv3ras9bv2QQ/o.jpg", "is_closed": false, "url": "https://www.yelp.com/biz/873-cafe-ashby?adjust_creative=h5HwbyQ0TYvQjBo6Ys5Bgw&utm_campaign=yelp_api_v3&utm_medium=api_v3_business_search&utm_source=h5HwbyQ0TYvQjBo6Ys5Bgw", "review_count": 31, "categories": [{"alias": "coffee", "title": "Coffee & Tea"}, {"alias": "diners", "title": "Diners"}, {"alias": "cafes", "title": "Cafes"}], "rating": 3.0, "coordinates": {"latitude": 42.6786079, "longitude": -71.821397}, "transactions": [], "price": "$$", "location": {"address1": "873 Main St", "address2": "", "address3": "", "city": "Ashby", "zip_code": "01431", "country": "US", "state": "MA", "display_address": ["873 Main St", "Ashby, MA 01431"]}, "phone": "+19783861078", "display_phone": "(978) 386-1078", "distance": 16906.308205681697}, {"id": "NSR3gnnaeCJfL99xif_PNQ", "alias": "petersham-country-store-petersham", "name": "Petersham Country Store", "image_url": "https://s3-media2.fl.yelpcdn.com/bphoto/MGNdpq_qs24ltsY9fBcmWQ/o.jpg", "is_closed": false, "url": "https://www.yelp.com/biz/petersham-country-store-petersham?adjust_creative=h5HwbyQ0TYvQjBo6Ys5Bgw&utm_campaign=yelp_api_v3&utm_medium=api_v3_business_search&utm_source=h5HwbyQ0TYvQjBo6Ys5Bgw", "review_count": 29, "categories": [{"alias": "grocery", "title": "Grocery"}, {"alias": "cafes", "title": "Cafes"}, {"alias": "artsandcrafts", "title": "Arts & Crafts"}], "rating": 4.5, "coordinates": {"latitude": 42.48871, "longitude": -72.18573}, "transactions": [], "price": "$$", "location": {"address1": "2 N Main St", "address2": "", "address3": "", "city": "Petersham", "zip_code": "01366", "country": "US", "state": "MA", "display_address": ["2 N Main St", "Petersham, MA 01366"]}, "phone": "+19787240000", "display_phone": "(978) 724-0000", "distance": 19663.417811336218}, {"id": "ZwYyrEJO-ypoRtSTfRuDLQ", "alias": "tko-round-2-fitchburg", "name": "TKO Round 2", "image_url": "https://s3-media1.fl.yelpcdn.com/bphoto/D6WYmGp4Pi3oUvHxhLlRWw/o.jpg", "is_closed": false, "url": "https://www.yelp.com/biz/tko-round-2-fitchburg?adjust_creative=h5HwbyQ0TYvQjBo6Ys5Bgw&utm_campaign=yelp_api_v3&utm_medium=api_v3_business_search&utm_source=h5HwbyQ0TYvQjBo6Ys5Bgw", "review_count": 11, "categories": [{"alias": "spanish", "title": "Spanish"}], "rating": 3.0, "coordinates": {"latitude": 42.5983954, "longitude": -71.8024426}, "transactions": ["delivery"], "price": "$", "location": {"address1": "436 Mechanic St", "address2": "", "address3": "", "city": "Fitchburg", "zip_code": "01420", "country": "US", "state": "MA", "display_address": ["436 Mechanic St", "Fitchburg, MA 01420"]}, "phone": "+19786963212", "display_phone": "(978) 696-3212", "distance": 15309.716645389253}, {"id": "Rhdy-ajpkVZWhoFlBWhd-g", "alias": "stooges-pub-fitchburg", "name": "Stooges Pub", "image_url": "", "is_closed": false, "url": "https://www.yelp.com/biz/stooges-pub-fitchburg?adjust_creative=h5HwbyQ0TYvQjBo6Ys5Bgw&utm_campaign=yelp_api_v3&utm_medium=api_v3_business_search&utm_source=h5HwbyQ0TYvQjBo6Ys5Bgw", "review_count": 2, "categories": [{"alias": "restaurants", "title": "Restaurants"}], "rating": 2.5, "coordinates": {"latitude": 42.5855128, "longitude": -71.8130188}, "transactions": ["delivery"], "location": {"address1": "114 River St", "address2": "", "address3": "", "city": "Fitchburg", "zip_code": "01420", "country": "US", "state": "MA", "display_address": ["114 River St", "Fitchburg, MA 01420"]}, "phone": "+19783420017", "display_phone": "(978) 342-0017", "distance": 14508.825310123855}, {"id": "6zgm4JX3gyWFWXFktXHMbQ", "alias": "burger-king-restaurant-gardner", "name": "Burger King Restaurant", "image_url": "", "is_closed": false, "url": "https://www.yelp.com/biz/burger-king-restaurant-gardner?adjust_creative=h5HwbyQ0TYvQjBo6Ys5Bgw&utm_campaign=yelp_api_v3&utm_medium=api_v3_business_search&utm_source=h5HwbyQ0TYvQjBo6Ys5Bgw", "review_count": 5, "categories": [{"alias": "restaurants", "title": "Restaurants"}], "rating": 1.0, "coordinates": {"latitude": 42.5658, "longitude": -71.99153}, "transactions": [], "price": "$", "location": {"address1": "9 Crawford St", "address2": "", "address3": "", "city": "Gardner", "zip_code": "01440", "country": "US", "state": "MA", "display_address": ["9 Crawford St", "Gardner, MA 01440"]}, "phone": "+19786326015", "display_phone": "(978) 632-6015", "distance": 2711.084862992717}, {"id": "iFhZ31feMlCA1F6H-rLVUA", "alias": "subway-westminster-42", "name": "Subway", "image_url": "https://s3-media3.fl.yelpcdn.com/bphoto/Q4DHyx93UuD2MKm09Qp6ZA/o.jpg", "is_closed": false, "url": "https://www.yelp.com/biz/subway-westminster-42?adjust_creative=h5HwbyQ0TYvQjBo6Ys5Bgw&utm_campaign=yelp_api_v3&utm_medium=api_v3_business_search&utm_source=h5HwbyQ0TYvQjBo6Ys5Bgw", "review_count": 4, "categories": [{"alias": "sandwiches", "title": "Sandwiches"}], "rating": 3.5, "coordinates": {"latitude": 42.5464934656065, "longitude": -71.9140293000952}, "transactions": [], "price": "$", "location": {"address1": "97 Main St", "address2": "", "address3": null, "city": "Westminster", "zip_code": "01473", "country": "US", "state": "MA", "display_address": ["97 Main St", "Westminster, MA 01473"]}, "phone": "+19788742185", "display_phone": "(978) 874-2185", "distance": 7831.427756755278}, {"id": "M4pDTg4c5gUmYsvHXpTllw", "alias": "friends-garden-winchendon", "name": "Friend's Garden", "image_url": "https://s3-media2.fl.yelpcdn.com/bphoto/jKW6chQtwYeR_MQZkExGIA/o.jpg", "is_closed": false, "url": "https://www.yelp.com/biz/friends-garden-winchendon?adjust_creative=h5HwbyQ0TYvQjBo6Ys5Bgw&utm_campaign=yelp_api_v3&utm_medium=api_v3_business_search&utm_source=h5HwbyQ0TYvQjBo6Ys5Bgw", "review_count": 10, "categories": [{"alias": "chinese", "title": "Chinese"}], "rating": 3.0, "coordinates": {"latitude": 42.6819683, "longitude": -72.04811}, "transactions": [], "price": "$$", "location": {"address1": "56 Central St", "address2": "", "address3": "", "city": "Winchendon", "zip_code": "01475", "country": "US", "state": "MA", "display_address": ["56 Central St", "Winchendon, MA 01475"]}, "phone": "+19782972277", "display_phone": "(978) 297-2277", "distance": 11320.014416152546}, {"id": "CoD6a7I12uB3UIbCdgXQHQ", "alias": "rock-bottom-cafe-fitchburg", "name": "Rock Bottom Cafe", "image_url": "", "is_closed": false, "url": "https://www.yelp.com/biz/rock-bottom-cafe-fitchburg?adjust_creative=h5HwbyQ0TYvQjBo6Ys5Bgw&utm_campaign=yelp_api_v3&utm_medium=api_v3_business_search&utm_source=h5HwbyQ0TYvQjBo6Ys5Bgw", "review_count": 2, "categories": [{"alias": "cafes", "title": "Cafes"}], "rating": 3.0, "coordinates": {"latitude": 42.583032, "longitude": -71.816149}, "transactions": [], "location": {"address1": "6 Beech Street Ln", "address2": "", "address3": "", "city": "Fitchburg", "zip_code": "01420", "country": "US", "state": "MA", "display_address": ["6 Beech Street Ln", "Fitchburg, MA 01420"]}, "phone": "+19786274313", "display_phone": "(978) 627-4313", "distance": 14195.3992688175}, {"id": "yky16s488oE_WITfFsHrpw", "alias": "5th-street-diner-fitchburg", "name": "5th Street Diner", "image_url": "", "is_closed": false, "url": "https://www.yelp.com/biz/5th-street-diner-fitchburg?adjust_creative=h5HwbyQ0TYvQjBo6Ys5Bgw&utm_campaign=yelp_api_v3&utm_medium=api_v3_business_search&utm_source=h5HwbyQ0TYvQjBo6Ys5Bgw", "review_count": 6, "categories": [{"alias": "diners", "title": "Diners"}], "rating": 4.0, "coordinates": {"latitude": 42.575862, "longitude": -71.786807}, "transactions": [], "price": "$", "location": {"address1": "134 Harvard St", "address2": "", "address3": "", "city": "Fitchburg", "zip_code": "01420", "country": "US", "state": "MA", "display_address": ["134 Harvard St", "Fitchburg, MA 01420"]}, "phone": "+19788680616", "display_phone": "(978) 868-0616", "distance": 16651.501934397776}, {"id": "I5Gi0MyFbQncQ9J1W6_wIA", "alias": "zedas-pizza-fitchburg", "name": "Zedas Pizza", "image_url": "https://s3-media2.fl.yelpcdn.com/bphoto/jEdR1iMw_ZKdEkkS22tVbg/o.jpg", "is_closed": false, "url": "https://www.yelp.com/biz/zedas-pizza-fitchburg?adjust_creative=h5HwbyQ0TYvQjBo6Ys5Bgw&utm_campaign=yelp_api_v3&utm_medium=api_v3_business_search&utm_source=h5HwbyQ0TYvQjBo6Ys5Bgw", "review_count": 21, "categories": [{"alias": "pizza", "title": "Pizza"}], "rating": 2.5, "coordinates": {"latitude": 42.580952, "longitude": -71.798851}, "transactions": ["delivery"], "price": "$$", "location": {"address1": "65 Laurel St", "address2": null, "address3": null, "city": "Fitchburg", "zip_code": "01420", "country": "US", "state": "MA", "display_address": ["65 Laurel St", "Fitchburg, MA 01420"]}, "phone": "+19783429876", "display_phone": "(978) 342-9876", "distance": 15622.633608047214}, {"id": "OR1oEc_Nb3xXDQMBypMg-Q", "alias": "lodge-wood-fired-grill-fitchburg-2", "name": "Lodge Wood Fired Grill", "image_url": "https://s3-media1.fl.yelpcdn.com/bphoto/A0-aQ0DSrYUfk98nswiuUw/o.jpg", "is_closed": false, "url": "https://www.yelp.com/biz/lodge-wood-fired-grill-fitchburg-2?adjust_creative=h5HwbyQ0TYvQjBo6Ys5Bgw&utm_campaign=yelp_api_v3&utm_medium=api_v3_business_search&utm_source=h5HwbyQ0TYvQjBo6Ys5Bgw", "review_count": 38, "categories": [{"alias": "tradamerican", "title": "American (Traditional)"}], "rating": 2.5, "coordinates": {"latitude": 42.547116, "longitude": -71.854376}, "transactions": [], "price": "$$", "location": {"address1": "150 Great Wolf Dr", "address2": "", "address3": "Great Wolf Lodge", "city": "Fitchburg", "zip_code": "01420", "country": "US", "state": "MA", "display_address": ["150 Great Wolf Dr", "Great Wolf Lodge", "Fitchburg, MA 01420"]}, "phone": "+18666789653", "display_phone": "(866) 678-9653", "distance": 12031.01445437074}, {"id": "DOw6h_K6tTafiWgR2bSufg", "alias": "hubb-town-diner-hubbardston", "name": "Hubb Town Diner", "image_url": "https://s3-media3.fl.yelpcdn.com/bphoto/Oaec6pAdS2SoUdRTyIIzAA/o.jpg", "is_closed": false, "url": "https://www.yelp.com/biz/hubb-town-diner-hubbardston?adjust_creative=h5HwbyQ0TYvQjBo6Ys5Bgw&utm_campaign=yelp_api_v3&utm_medium=api_v3_business_search&utm_source=h5HwbyQ0TYvQjBo6Ys5Bgw", "review_count": 10, "categories": [{"alias": "breakfast_brunch", "title": "Breakfast & Brunch"}, {"alias": "diners", "title": "Diners"}, {"alias": "sandwiches", "title": "Sandwiches"}], "rating": 3.5, "coordinates": {"latitude": 42.4781684875488, "longitude": -72.0094299316406}, "transactions": [], "price": "$$", "location": {"address1": "32 Main St", "address2": null, "address3": "", "city": "Hubbardston", "zip_code": "01452", "country": "US", "state": "MA", "display_address": ["32 Main St", "Hubbardston, MA 01452"]}, "phone": "+19788201600", "display_phone": "(978) 820-1600", "distance": 12571.730779435133}, {"id": "37gP7ifq1CpZz9L9Pz80YQ", "alias": "stefanos-house-of-pizza-westminster", "name": "Stefanos' House of Pizza", "image_url": "https://s3-media1.fl.yelpcdn.com/bphoto/tE-DWbxiKdwXZItchnG96w/o.jpg", "is_closed": false, "url": "https://www.yelp.com/biz/stefanos-house-of-pizza-westminster?adjust_creative=h5HwbyQ0TYvQjBo6Ys5Bgw&utm_campaign=yelp_api_v3&utm_medium=api_v3_business_search&utm_source=h5HwbyQ0TYvQjBo6Ys5Bgw", "review_count": 15, "categories": [{"alias": "pizza", "title": "Pizza"}, {"alias": "salad", "title": "Salad"}, {"alias": "sandwiches", "title": "Sandwiches"}], "rating": 3.0, "coordinates": {"latitude": 42.546079, "longitude": -71.91376}, "transactions": [], "price": "$", "location": {"address1": "105 Main St", "address2": "", "address3": "", "city": "Westminster", "zip_code": "01473", "country": "US", "state": "MA", "display_address": ["105 Main St", "Westminster, MA 01473"]}, "phone": "+19788741922", "display_phone": "(978) 874-1922", "distance": 7877.26681091971}, {"id": "eIl4-S0XOnUZ4SLZrcaJgw", "alias": "papa-ginos-pizzeria-gardner", "name": "Papa Gino's Pizzeria", "image_url": "https://s3-media2.fl.yelpcdn.com/bphoto/k7kt3dUGqz2Ptw87y3fvtw/o.jpg", "is_closed": false, "url": "https://www.yelp.com/biz/papa-ginos-pizzeria-gardner?adjust_creative=h5HwbyQ0TYvQjBo6Ys5Bgw&utm_campaign=yelp_api_v3&utm_medium=api_v3_business_search&utm_source=h5HwbyQ0TYvQjBo6Ys5Bgw", "review_count": 14, "categories": [{"alias": "pizza", "title": "Pizza"}], "rating": 2.5, "coordinates": {"latitude": 42.55884, "longitude": -71.98973}, "transactions": [], "price": "$", "location": {"address1": "326 Timpany Blvd", "address2": "", "address3": "", "city": "Gardner", "zip_code": "01440", "country": "US", "state": "MA", "display_address": ["326 Timpany Blvd", "Gardner, MA 01440"]}, "phone": "+19786328051", "display_phone": "(978) 632-8051", "distance": 3318.9378545200852}, {"id": "d48AT3yBv0yC-dw7Kf0mAA", "alias": "centre-pizza-fitchburg", "name": "Centre Pizza", "image_url": "https://s3-media1.fl.yelpcdn.com/bphoto/RDB4vVMlk5C2t-tKpKRUbQ/o.jpg", "is_closed": false, "url": "https://www.yelp.com/biz/centre-pizza-fitchburg?adjust_creative=h5HwbyQ0TYvQjBo6Ys5Bgw&utm_campaign=yelp_api_v3&utm_medium=api_v3_business_search&utm_source=h5HwbyQ0TYvQjBo6Ys5Bgw", "review_count": 19, "categories": [{"alias": "pizza", "title": "Pizza"}, {"alias": "catering", "title": "Caterers"}], "rating": 3.0, "coordinates": {"latitude": 42.5855874791702, "longitude": -71.813104037766}, "transactions": ["delivery"], "price": "$$", "location": {"address1": "118 River St", "address2": "", "address3": "", "city": "Fitchburg", "zip_code": "01420", "country": "US", "state": "MA", "display_address": ["118 River St", "Fitchburg, MA 01420"]}, "phone": "+19783423350", "display_phone": "(978) 342-3350", "distance": 14482.268680276062}, {"id": "-K-JE-XwyrytnEQlSqJwXg", "alias": "subway-winchendon-2", "name": "Subway", "image_url": "https://s3-media1.fl.yelpcdn.com/bphoto/zYt-V8vyTjY46dvcLXezdg/o.jpg", "is_closed": false, "url": "https://www.yelp.com/biz/subway-winchendon-2?adjust_creative=h5HwbyQ0TYvQjBo6Ys5Bgw&utm_campaign=yelp_api_v3&utm_medium=api_v3_business_search&utm_source=h5HwbyQ0TYvQjBo6Ys5Bgw", "review_count": 3, "categories": [{"alias": "sandwiches", "title": "Sandwiches"}], "rating": 3.5, "coordinates": {"latitude": 42.6810712435512, "longitude": -72.0476153215999}, "transactions": [], "price": "$", "location": {"address1": "29 Central St", "address2": "", "address3": "", "city": "Winchendon", "zip_code": "01475", "country": "US", "state": "MA", "display_address": ["29 Central St", "Winchendon, MA 01475"]}, "phone": "+19782970011", "display_phone": "(978) 297-0011", "distance": 11199.643586069717}, {"id": "Om8GYpWVr0YoGGCGXsgYCw", "alias": "taco-bell-gardner-3", "name": "Taco Bell", "image_url": "https://s3-media4.fl.yelpcdn.com/bphoto/w6z4YtPLkgbXbxvfC01nIw/o.jpg", "is_closed": false, "url": "https://www.yelp.com/biz/taco-bell-gardner-3?adjust_creative=h5HwbyQ0TYvQjBo6Ys5Bgw&utm_campaign=yelp_api_v3&utm_medium=api_v3_business_search&utm_source=h5HwbyQ0TYvQjBo6Ys5Bgw", "review_count": 2, "categories": [{"alias": "hotdogs", "title": "Fast Food"}, {"alias": "tacos", "title": "Tacos"}], "rating": 1.0, "coordinates": {"latitude": 42.566521, "longitude": -71.981384}, "transactions": [], "price": "$", "location": {"address1": "8 Pearson Blvd", "address2": null, "address3": null, "city": "Gardner", "zip_code": "01440", "country": "US", "state": "MA", "display_address": ["8 Pearson Blvd", "Gardner, MA 01440"]}, "phone": "+19786302011", "display_phone": "(978) 630-2011", "distance": 2684.1509046939573}, {"id": "hce2WyKR6p9j0zGa3cl1lg", "alias": "wendys-athol", "name": "Wendy's", "image_url": "https://s3-media1.fl.yelpcdn.com/bphoto/eVXgbWFKJOuB6TAuoTftyw/o.jpg", "is_closed": false, "url": "https://www.yelp.com/biz/wendys-athol?adjust_creative=h5HwbyQ0TYvQjBo6Ys5Bgw&utm_campaign=yelp_api_v3&utm_medium=api_v3_business_search&utm_source=h5HwbyQ0TYvQjBo6Ys5Bgw", "review_count": 1, "categories": [{"alias": "burgers", "title": "Burgers"}, {"alias": "hotdogs", "title": "Fast Food"}], "rating": 1.0, "coordinates": {"latitude": 42.58012, "longitude": -72.18376}, "transactions": [], "location": {"address1": "56 Market Dr", "address2": null, "address3": null, "city": "Athol", "zip_code": "01331", "country": "US", "state": "MA", "display_address": ["56 Market Dr", "Athol, MA 01331"]}, "phone": "", "display_phone": "", "distance": 15907.59644215582}, {"id": "EBwUkdPLGZI95YTDCfoT9Q", "alias": "espresso-pizza-fitchburg-fitchburg", "name": "Espresso Pizza - Fitchburg", "image_url": "https://s3-media1.fl.yelpcdn.com/bphoto/rJz8-swuT0VEU9vSTHIOrw/o.jpg", "is_closed": false, "url": "https://www.yelp.com/biz/espresso-pizza-fitchburg-fitchburg?adjust_creative=h5HwbyQ0TYvQjBo6Ys5Bgw&utm_campaign=yelp_api_v3&utm_medium=api_v3_business_search&utm_source=h5HwbyQ0TYvQjBo6Ys5Bgw", "review_count": 95, "categories": [{"alias": "pizza", "title": "Pizza"}], "rating": 3.5, "coordinates": {"latitude": 42.5832557678223, "longitude": -71.8012771606445}, "transactions": ["delivery"], "price": "$", "location": {"address1": "584 Main St", "address2": "", "address3": "", "city": "Fitchburg", "zip_code": "01420", "country": "US", "state": "MA", "display_address": ["584 Main St", "Fitchburg, MA 01420"]}, "phone": "+19783451918", "display_phone": "(978) 345-1918", "distance": 15414.086804350003}, {"id": "486c4Pznd00sbs2wh7eNyg", "alias": "campus-pizza-and-variety-fitchburg", "name": "Campus Pizza & Variety", "image_url": "https://s3-media3.fl.yelpcdn.com/bphoto/OdTU__GMYFf__-83PyAO4g/o.jpg", "is_closed": false, "url": "https://www.yelp.com/biz/campus-pizza-and-variety-fitchburg?adjust_creative=h5HwbyQ0TYvQjBo6Ys5Bgw&utm_campaign=yelp_api_v3&utm_medium=api_v3_business_search&utm_source=h5HwbyQ0TYvQjBo6Ys5Bgw", "review_count": 11, "categories": [{"alias": "pizza", "title": "Pizza"}], "rating": 2.5, "coordinates": {"latitude": 42.58796, "longitude": -71.78844}, "transactions": [], "price": "$", "location": {"address1": "219 Highland Ave", "address2": "", "address3": "", "city": "Fitchburg", "zip_code": "01420", "country": "US", "state": "MA", "display_address": ["219 Highland Ave", "Fitchburg, MA 01420"]}, "phone": "+19783423464", "display_phone": "(978) 342-3464", "distance": 16440.18158634531}, {"id": "o686NvNNRF8TecM4j0KxwQ", "alias": "lickity-splitz-winchendon", "name": "Lickity Splitz", "image_url": "https://s3-media3.fl.yelpcdn.com/bphoto/P12JecDQJnJB5lVQK8AepQ/o.jpg", "is_closed": false, "url": "https://www.yelp.com/biz/lickity-splitz-winchendon?adjust_creative=h5HwbyQ0TYvQjBo6Ys5Bgw&utm_campaign=yelp_api_v3&utm_medium=api_v3_business_search&utm_source=h5HwbyQ0TYvQjBo6Ys5Bgw", "review_count": 18, "categories": [{"alias": "icecream", "title": "Ice Cream & Frozen Yogurt"}, {"alias": "burgers", "title": "Burgers"}, {"alias": "hotdog", "title": "Hot Dogs"}], "rating": 4.0, "coordinates": {"latitude": 42.67049, "longitude": -72.07639}, "transactions": [], "price": "$", "location": {"address1": "231 Main St", "address2": "", "address3": "", "city": "Winchendon", "zip_code": "01475", "country": "US", "state": "MA", "display_address": ["231 Main St", "Winchendon, MA 01475"]}, "phone": "+19782971777", "display_phone": "(978) 297-1777", "distance": 11454.847342584531}, {"id": "gXJkeGf-vJYQivkcC58nUA", "alias": "fitchburg-jade-chinese-restaurant-fitchburg", "name": "Fitchburg Jade Chinese Restaurant", "image_url": "https://s3-media1.fl.yelpcdn.com/bphoto/jddJt88rsE4VQBwIsZD3UQ/o.jpg", "is_closed": false, "url": "https://www.yelp.com/biz/fitchburg-jade-chinese-restaurant-fitchburg?adjust_creative=h5HwbyQ0TYvQjBo6Ys5Bgw&utm_campaign=yelp_api_v3&utm_medium=api_v3_business_search&utm_source=h5HwbyQ0TYvQjBo6Ys5Bgw", "review_count": 25, "categories": [{"alias": "chinese", "title": "Chinese"}], "rating": 3.5, "coordinates": {"latitude": 42.5824347, "longitude": -71.7970744}, "transactions": ["delivery"], "price": "$", "location": {"address1": "345 Main St", "address2": "", "address3": "", "city": "Fitchburg", "zip_code": "01420", "country": "US", "state": "MA", "display_address": ["345 Main St", "Fitchburg, MA 01420"]}, "phone": "+19783430288", "display_phone": "(978) 343-0288", "distance": 15761.656155427583}, {"id": "UX9vRV0Pk4JJ9Mo6LxSI4Q", "alias": "boston-donuts-fitchburg", "name": "Boston Donuts", "image_url": "", "is_closed": false, "url": "https://www.yelp.com/biz/boston-donuts-fitchburg?adjust_creative=h5HwbyQ0TYvQjBo6Ys5Bgw&utm_campaign=yelp_api_v3&utm_medium=api_v3_business_search&utm_source=h5HwbyQ0TYvQjBo6Ys5Bgw", "review_count": 5, "categories": [{"alias": "restaurants", "title": "Restaurants"}], "rating": 3.0, "coordinates": {"latitude": 42.57825, "longitude": -71.800833}, "transactions": [], "price": "$", "location": {"address1": "120 Massachusetts 2A", "address2": "", "address3": "", "city": "Fitchburg", "zip_code": "01420", "country": "US", "state": "MA", "display_address": ["120 Massachusetts 2A", "Fitchburg, MA 01420"]}, "phone": "+19785344443", "display_phone": "(978) 534-4443", "distance": 15483.766830333792}, {"id": "Y-INEv-QS9f7qJVDe5HjTA", "alias": "kfc-gardner-4", "name": "KFC", "image_url": "https://s3-media2.fl.yelpcdn.com/bphoto/oUqXZ9cnIUXRt_Gkqj7t2Q/o.jpg", "is_closed": false, "url": "https://www.yelp.com/biz/kfc-gardner-4?adjust_creative=h5HwbyQ0TYvQjBo6Ys5Bgw&utm_campaign=yelp_api_v3&utm_medium=api_v3_business_search&utm_source=h5HwbyQ0TYvQjBo6Ys5Bgw", "review_count": 5, "categories": [{"alias": "hotdogs", "title": "Fast Food"}, {"alias": "chicken_wings", "title": "Chicken Wings"}, {"alias": "chickenshop", "title": "Chicken Shop"}], "rating": 2.0, "coordinates": {"latitude": 42.566685997889, "longitude": -71.980529}, "transactions": ["pickup"], "price": "$", "location": {"address1": "8 Pearson Blvd", "address2": "", "address3": "", "city": "Gardner", "zip_code": "01440", "country": "US", "state": "MA", "display_address": ["8 Pearson Blvd", "Gardner, MA 01440"]}, "phone": "+19786302011", "display_phone": "(978) 630-2011", "distance": 2684.2004638600865}, {"id": "hDvkTp4bTKcR9AsXA-5_IQ", "alias": "subway-gardner-8", "name": "Subway", "image_url": "https://s3-media1.fl.yelpcdn.com/bphoto/WM4Y6gUg-7rY_jCSUH8bZw/o.jpg", "is_closed": false, "url": "https://www.yelp.com/biz/subway-gardner-8?adjust_creative=h5HwbyQ0TYvQjBo6Ys5Bgw&utm_campaign=yelp_api_v3&utm_medium=api_v3_business_search&utm_source=h5HwbyQ0TYvQjBo6Ys5Bgw", "review_count": 1, "categories": [{"alias": "sandwiches", "title": "Sandwiches"}], "rating": 1.0, "coordinates": {"latitude": 42.5514561, "longitude": -71.9946827}, "transactions": [], "price": "$", "location": {"address1": "677 Timpany Blvd", "address2": null, "address3": null, "city": "Gardner", "zip_code": "01440", "country": "US", "state": "MA", "display_address": ["677 Timpany Blvd", "Gardner, MA 01440"]}, "phone": "+19786301113", "display_phone": "(978) 630-1113", "distance": 4302.8308044281575}, {"id": "bVbAQw_laKoEw8HUBEdj5w", "alias": "mcdonalds-gardner-2", "name": "McDonald's", "image_url": "https://s3-media3.fl.yelpcdn.com/bphoto/tkmz1oWJb4xuSYkFE_absg/o.jpg", "is_closed": false, "url": "https://www.yelp.com/biz/mcdonalds-gardner-2?adjust_creative=h5HwbyQ0TYvQjBo6Ys5Bgw&utm_campaign=yelp_api_v3&utm_medium=api_v3_business_search&utm_source=h5HwbyQ0TYvQjBo6Ys5Bgw", "review_count": 15, "categories": [{"alias": "hotdogs", "title": "Fast Food"}, {"alias": "burgers", "title": "Burgers"}, {"alias": "coffee", "title": "Coffee & Tea"}], "rating": 2.5, "coordinates": {"latitude": 42.5632433186274, "longitude": -71.99085699943}, "transactions": [], "price": "$", "location": {"address1": "223 Timpany Blvd", "address2": "", "address3": "", "city": "Gardner", "zip_code": "01440", "country": "US", "state": "MA", "display_address": ["223 Timpany Blvd", "Gardner, MA 01440"]}, "phone": "+19786329859", "display_phone": "(978) 632-9859", "distance": 2972.1950966856443}, {"id": "Z6I1yY7uBkBmaLe1L_3VJQ", "alias": "taco-bell-athol-2", "name": "Taco Bell", "image_url": "https://s3-media3.fl.yelpcdn.com/bphoto/BlCGgvYn63MYBYfFFhnDrg/o.jpg", "is_closed": false, "url": "https://www.yelp.com/biz/taco-bell-athol-2?adjust_creative=h5HwbyQ0TYvQjBo6Ys5Bgw&utm_campaign=yelp_api_v3&utm_medium=api_v3_business_search&utm_source=h5HwbyQ0TYvQjBo6Ys5Bgw", "review_count": 1, "categories": [{"alias": "tacos", "title": "Tacos"}, {"alias": "breakfast_brunch", "title": "Breakfast & Brunch"}], "rating": 4.0, "coordinates": {"latitude": 42.58012, "longitude": -72.18376}, "transactions": [], "location": {"address1": "79 Market Dr", "address2": null, "address3": null, "city": "Athol", "zip_code": "01331", "country": "US", "state": "MA", "display_address": ["79 Market Dr", "Athol, MA 01331"]}, "phone": "", "display_phone": "", "distance": 16007.211646847052}, {"id": "EEtExmA7AQIDbzWTv7tobA", "alias": "subway-fitchburg-7", "name": "Subway", "image_url": "https://s3-media2.fl.yelpcdn.com/bphoto/ynKfCirSLYh0WJYdiNB1bg/o.jpg", "is_closed": false, "url": "https://www.yelp.com/biz/subway-fitchburg-7?adjust_creative=h5HwbyQ0TYvQjBo6Ys5Bgw&utm_campaign=yelp_api_v3&utm_medium=api_v3_business_search&utm_source=h5HwbyQ0TYvQjBo6Ys5Bgw", "review_count": 5, "categories": [{"alias": "sandwiches", "title": "Sandwiches"}], "rating": 4.0, "coordinates": {"latitude": 42.5689816703519, "longitude": -71.813609}, "transactions": ["pickup", "delivery"], "price": "$", "location": {"address1": "493 Electric Ave", "address2": "Unit 118", "address3": null, "city": "Fitchburg", "zip_code": "01420", "country": "US", "state": "MA", "display_address": ["493 Electric Ave", "Unit 118", "Fitchburg, MA 01420"]}, "phone": "+19783457788", "display_phone": "(978) 345-7788", "distance": 14571.823003557594}, {"id": "QXGfHjXIa07MPhpuliKaTA", "alias": "liberty-pizza-fitchburg", "name": "Liberty Pizza", "image_url": "", "is_closed": false, "url": "https://www.yelp.com/biz/liberty-pizza-fitchburg?adjust_creative=h5HwbyQ0TYvQjBo6Ys5Bgw&utm_campaign=yelp_api_v3&utm_medium=api_v3_business_search&utm_source=h5HwbyQ0TYvQjBo6Ys5Bgw", "review_count": 4, "categories": [{"alias": "pizza", "title": "Pizza"}], "rating": 2.5, "coordinates": {"latitude": 42.581985, "longitude": -71.789658}, "transactions": ["delivery"], "price": "$$", "location": {"address1": "15 Lunenburg St", "address2": "", "address3": "", "city": "Fitchburg", "zip_code": "01420", "country": "US", "state": "MA", "display_address": ["15 Lunenburg St", "Fitchburg, MA 01420"]}, "phone": "+19783437777", "display_phone": "(978) 343-7777", "distance": 16352.685980646547}, {"id": "EseiX0MDxRxSqGHLanw18w", "alias": "taco-bell-rindge", "name": "Taco Bell", "image_url": "https://s3-media1.fl.yelpcdn.com/bphoto/I47Rf9KGThaEenJieZM-9g/o.jpg", "is_closed": false, "url": "https://www.yelp.com/biz/taco-bell-rindge?adjust_creative=h5HwbyQ0TYvQjBo6Ys5Bgw&utm_campaign=yelp_api_v3&utm_medium=api_v3_business_search&utm_source=h5HwbyQ0TYvQjBo6Ys5Bgw", "review_count": 12, "categories": [{"alias": "tex-mex", "title": "Tex-Mex"}, {"alias": "hotdogs", "title": "Fast Food"}, {"alias": "mexican", "title": "Mexican"}], "rating": 1.5, "coordinates": {"latitude": 42.737707, "longitude": -72.034688}, "transactions": [], "price": "$", "location": {"address1": "5 Sonja Road", "address2": null, "address3": null, "city": "Rindge", "zip_code": "03461", "country": "US", "state": "NH", "display_address": ["5 Sonja Road", "Rindge, NH 03461"]}, "phone": "+16038995711", "display_phone": "(603) 899-5711", "distance": 16844.17440692275}, {"id": "ZuiYzeLI0xkuaKtK344W7g", "alias": "mcdonalds-winchendon", "name": "McDonald's", "image_url": "https://s3-media3.fl.yelpcdn.com/bphoto/rvm1pTAhYvCSxMfjEkZ2Ig/o.jpg", "is_closed": false, "url": "https://www.yelp.com/biz/mcdonalds-winchendon?adjust_creative=h5HwbyQ0TYvQjBo6Ys5Bgw&utm_campaign=yelp_api_v3&utm_medium=api_v3_business_search&utm_source=h5HwbyQ0TYvQjBo6Ys5Bgw", "review_count": 10, "categories": [{"alias": "hotdogs", "title": "Fast Food"}, {"alias": "burgers", "title": "Burgers"}, {"alias": "coffee", "title": "Coffee & Tea"}], "rating": 3.0, "coordinates": {"latitude": 42.6788121982942, "longitude": -72.039158642292}, "transactions": [], "price": "$", "location": {"address1": "235 Spring St", "address2": "", "address3": "", "city": "Winchendon", "zip_code": "01475", "country": "US", "state": "MA", "display_address": ["235 Spring St", "Winchendon, MA 01475"]}, "phone": "+19782973528", "display_phone": "(978) 297-3528", "distance": 10690.293120833107}, {"id": "mpoPUUs0-Whuq8EKKXzt7w", "alias": "dominos-pizza-fitchburg-3", "name": "Domino's Pizza", "image_url": "https://s3-media2.fl.yelpcdn.com/bphoto/FHUuVbHfTizPFCRoJ96Q0g/o.jpg", "is_closed": false, "url": "https://www.yelp.com/biz/dominos-pizza-fitchburg-3?adjust_creative=h5HwbyQ0TYvQjBo6Ys5Bgw&utm_campaign=yelp_api_v3&utm_medium=api_v3_business_search&utm_source=h5HwbyQ0TYvQjBo6Ys5Bgw", "review_count": 3, "categories": [{"alias": "pizza", "title": "Pizza"}], "rating": 1.0, "coordinates": {"latitude": 42.579213, "longitude": -71.794828}, "transactions": [], "price": "$", "location": {"address1": "141 Water St", "address2": "", "address3": null, "city": "Fitchburg", "zip_code": "01420", "country": "US", "state": "MA", "display_address": ["141 Water St", "Fitchburg, MA 01420"]}, "phone": "+19783420050", "display_phone": "(978) 342-0050", "distance": 15965.232176848913}, {"id": "F1K8iHcH22xWJoLHJ898sw", "alias": "mountainside-bakery-and-cafe-princeton-2", "name": "Mountainside Bakery & Cafe", "image_url": "https://s3-media2.fl.yelpcdn.com/bphoto/UagP18_tn441kCP6vNF6ag/o.jpg", "is_closed": false, "url": "https://www.yelp.com/biz/mountainside-bakery-and-cafe-princeton-2?adjust_creative=h5HwbyQ0TYvQjBo6Ys5Bgw&utm_campaign=yelp_api_v3&utm_medium=api_v3_business_search&utm_source=h5HwbyQ0TYvQjBo6Ys5Bgw", "review_count": 46, "categories": [{"alias": "bakeries", "title": "Bakeries"}, {"alias": "cafes", "title": "Cafes"}, {"alias": "communitycenters", "title": "Community Centers"}], "rating": 4.5, "coordinates": {"latitude": 42.475367139192, "longitude": -71.8835869731025}, "transactions": [], "price": "$$", "location": {"address1": "213 Mountain Rd", "address2": null, "address3": null, "city": "Princeton", "zip_code": "01541", "country": "US", "state": "MA", "display_address": ["213 Mountain Rd", "Princeton, MA 01541"]}, "phone": "+19784640300", "display_phone": "(978) 464-0300", "distance": 15382.28887330852}]