[{"id": "cHRcqEfOxKAWTPK5JxFmRA", "alias": "the-rustic-table-winchester", "name": "The Rustic Table", "image_url": "https://s3-media3.fl.yelpcdn.com/bphoto/UXgEYMn0JYMb49BI3iKWGQ/o.jpg", "is_closed": false, "url": "https://www.yelp.com/biz/the-rustic-table-winchester?adjust_creative=ywY5UnLZrNrRl2b93Ruy_g&utm_campaign=yelp_api_v3&utm_medium=api_v3_business_search&utm_source=ywY5UnLZrNrRl2b93Ruy_g", "review_count": 45, "categories": [{"alias": "tradamerican", "title": "American (Traditional)"}, {"alias": "seafood", "title": "Seafood"}, {"alias": "italian", "title": "Italian"}], "rating": 4.5, "coordinates": {"latitude": 42.793927, "longitude": -72.373842}, "transactions": [], "price": "$$", "location": {"address1": "320 Keene Rd", "address2": "", "address3": "", "city": "Winchester", "zip_code": "03470", "country": "US", "state": "NH", "display_address": ["320 Keene Rd", "Winchester, NH 03470"]}, "phone": "+16033920296", "display_phone": "(603) 392-0296", "distance": 19767.0985042187}, {"id": "mxWNNxba4bmQ5ke5wQsQdw", "alias": "boiler-bar-and-grille-orange-2", "name": "Boiler Bar & Grille", "image_url": "https://s3-media2.fl.yelpcdn.com/bphoto/SxpP3zjHjOUTLdGZ_FWCXw/o.jpg", "is_closed": false, "url": "https://www.yelp.com/biz/boiler-bar-and-grille-orange-2?adjust_creative=ywY5UnLZrNrRl2b93Ruy_g&utm_campaign=yelp_api_v3&utm_medium=api_v3_business_search&utm_source=ywY5UnLZrNrRl2b93Ruy_g", "review_count": 33, "categories": [{"alias": "bars", "title": "Bars"}, {"alias": "tradamerican", "title": "American (Traditional)"}, {"alias": "bbq", "title": "Barbeque"}], "rating": 3.0, "coordinates": {"latitude": 42.636516, "longitude": -72.247943}, "transactions": [], "price": "$$", "location": {"address1": "245 Tully Rd", "address2": "", "address3": "", "city": "Orange", "zip_code": "01364", "country": "US", "state": "MA", "display_address": ["245 Tully Rd", "Orange, MA 01364"]}, "phone": "+19782489700", "display_phone": "(978) 248-9700", "distance": 5740.213260180822}, {"id": "q0qhifHcJgTSAWMVAy4O-w", "alias": "old-time-new-england-seafood-company-athol-2", "name": "Old Time New England Seafood Company", "image_url": "https://s3-media1.fl.yelpcdn.com/bphoto/Sp6PDSBoupOkUCeEtuHD-g/o.jpg", "is_closed": false, "url": "https://www.yelp.com/biz/old-time-new-england-seafood-company-athol-2?adjust_creative=ywY5UnLZrNrRl2b93Ruy_g&utm_campaign=yelp_api_v3&utm_medium=api_v3_business_search&utm_source=ywY5UnLZrNrRl2b93Ruy_g", "review_count": 20, "categories": [{"alias": "seafood", "title": "Seafood"}], "rating": 4.0, "coordinates": {"latitude": 42.5840096, "longitude": -72.204467}, "transactions": [], "price": "$$", "location": {"address1": "2294 Main St", "address2": "", "address3": "", "city": "Athol", "zip_code": "01331", "country": "US", "state": "MA", "display_address": ["2294 Main St", "Athol, MA 01331"]}, "phone": "+19782495373", "display_phone": "(978) 249-5373", "distance": 9813.946466983034}, {"id": "lUxVsuNo5syFd_cxEplvaA", "alias": "herricks-tavern-orange", "name": "Herrick's Tavern", "image_url": "https://s3-media1.fl.yelpcdn.com/bphoto/mAHqpOXGI32xph2DHpHtHg/o.jpg", "is_closed": false, "url": "https://www.yelp.com/biz/herricks-tavern-orange?adjust_creative=ywY5UnLZrNrRl2b93Ruy_g&utm_campaign=yelp_api_v3&utm_medium=api_v3_business_search&utm_source=ywY5UnLZrNrRl2b93Ruy_g", "review_count": 49, "categories": [{"alias": "tradamerican", "title": "American (Traditional)"}, {"alias": "sportsbars", "title": "Sports Bars"}], "rating": 4.0, "coordinates": {"latitude": 42.5542299, "longitude": -72.28915}, "transactions": [], "price": "$$", "location": {"address1": "207 Daniel Shays Hwy", "address2": null, "address3": null, "city": "Orange", "zip_code": "01364", "country": "US", "state": "MA", "display_address": ["207 Daniel Shays Hwy", "Orange, MA 01364"]}, "phone": "+19785443902", "display_phone": "(978) 544-3902", "distance": 15164.853949128785}, {"id": "OCz5muYPUncuu6_eTwY_aQ", "alias": "royalston-general-store-royalston", "name": "Royalston General Store", "image_url": "https://s3-media2.fl.yelpcdn.com/bphoto/dwJ29OIt0IIcgVpQOvnGPw/o.jpg", "is_closed": false, "url": "https://www.yelp.com/biz/royalston-general-store-royalston?adjust_creative=ywY5UnLZrNrRl2b93Ruy_g&utm_campaign=yelp_api_v3&utm_medium=api_v3_business_search&utm_source=ywY5UnLZrNrRl2b93Ruy_g", "review_count": 2, "categories": [{"alias": "breakfast_brunch", "title": "Breakfast & Brunch"}], "rating": 4.0, "coordinates": {"latitude": 42.63058, "longitude": -72.14802}, "transactions": [], "location": {"address1": "21 Main St", "address2": "", "address3": "", "city": "Royalston", "zip_code": "01368", "country": "US", "state": "MA", "display_address": ["21 Main St", "Royalston, MA 01368"]}, "phone": "+19782499798", "display_phone": "(978) 249-9798", "distance": 6133.296625514271}, {"id": "XNhx5nEGbXKE4k0xXLijbw", "alias": "110-grill-athol", "name": "110 Grill", "image_url": "https://s3-media3.fl.yelpcdn.com/bphoto/_HxS-NfOJAqo0PFSUoOUxQ/o.jpg", "is_closed": false, "url": "https://www.yelp.com/biz/110-grill-athol?adjust_creative=ywY5UnLZrNrRl2b93Ruy_g&utm_campaign=yelp_api_v3&utm_medium=api_v3_business_search&utm_source=ywY5UnLZrNrRl2b93Ruy_g", "review_count": 57, "categories": [{"alias": "newamerican", "title": "American (New)"}, {"alias": "tradamerican", "title": "American (Traditional)"}, {"alias": "bars", "title": "Bars"}], "rating": 4.0, "coordinates": {"latitude": 42.580767, "longitude": -72.187031}, "transactions": [], "price": "$$", "location": {"address1": "307 Market Dr", "address2": null, "address3": "", "city": "Athol", "zip_code": "01331", "country": "US", "state": "MA", "display_address": ["307 Market Dr", "Athol, MA 01331"]}, "phone": "+19788304601", "display_phone": "(978) 830-4601", "distance": 10212.12643929416}, {"id": "HKyN2UJvkakOCblSOKQLUQ", "alias": "gardner-ale-house-gardner-2", "name": "Gardner Ale House", "image_url": "https://s3-media2.fl.yelpcdn.com/bphoto/6DhrQB5Hr_Z6hj-dZTN0hw/o.jpg", "is_closed": false, "url": "https://www.yelp.com/biz/gardner-ale-house-gardner-2?adjust_creative=ywY5UnLZrNrRl2b93Ruy_g&utm_campaign=yelp_api_v3&utm_medium=api_v3_business_search&utm_source=ywY5UnLZrNrRl2b93Ruy_g", "review_count": 273, "categories": [{"alias": "pubs", "title": "Pubs"}, {"alias": "tradamerican", "title": "American (Traditional)"}, {"alias": "brewpubs", "title": "Brewpubs"}], "rating": 4.0, "coordinates": {"latitude": 42.575771, "longitude": -71.997131}, "transactions": [], "price": "$$", "location": {"address1": "74 Parker St", "address2": "", "address3": "", "city": "Gardner", "zip_code": "01440", "country": "US", "state": "MA", "display_address": ["74 Parker St", "Gardner, MA 01440"]}, "phone": "+19786690122", "display_phone": "(978) 669-0122", "distance": 19583.87115506282}, {"id": "C7ThqIKJfCAMEvReN7_MYg", "alias": "main-street-grill-athol", "name": "Main Street Grill", "image_url": "https://s3-media4.fl.yelpcdn.com/bphoto/qwvmLJSTR3M4l7j2Bg9Z6g/o.jpg", "is_closed": false, "url": "https://www.yelp.com/biz/main-street-grill-athol?adjust_creative=ywY5UnLZrNrRl2b93Ruy_g&utm_campaign=yelp_api_v3&utm_medium=api_v3_business_search&utm_source=ywY5UnLZrNrRl2b93Ruy_g", "review_count": 5, "categories": [{"alias": "tradamerican", "title": "American (Traditional)"}], "rating": 4.0, "coordinates": {"latitude": 42.5938164, "longitude": -72.2300407}, "transactions": [], "location": {"address1": "491 Main St", "address2": "", "address3": "", "city": "Athol", "zip_code": "01331", "country": "US", "state": "MA", "display_address": ["491 Main St", "Athol, MA 01331"]}, "phone": "+19788304374", "display_phone": "(978) 830-4374", "distance": 9126.995752682358}, {"id": "wKX-Vhcx0bxLCFvoM-qy7A", "alias": "crusin-12-diner-winchendon-2", "name": "Crusin 12 Diner", "image_url": "https://s3-media2.fl.yelpcdn.com/bphoto/8bzCj-b9CgHL_Z3EQlkDMA/o.jpg", "is_closed": false, "url": "https://www.yelp.com/biz/crusin-12-diner-winchendon-2?adjust_creative=ywY5UnLZrNrRl2b93Ruy_g&utm_campaign=yelp_api_v3&utm_medium=api_v3_business_search&utm_source=ywY5UnLZrNrRl2b93Ruy_g", "review_count": 13, "categories": [{"alias": "diners", "title": "Diners"}], "rating": 4.0, "coordinates": {"latitude": 42.688899, "longitude": -72.057312}, "transactions": [], "price": "$", "location": {"address1": "241 School St", "address2": null, "address3": "", "city": "Winchendon", "zip_code": "01475", "country": "US", "state": "MA", "display_address": ["241 School St", "Winchendon, MA 01475"]}, "phone": "+19782972001", "display_phone": "(978) 297-2001", "distance": 11588.192766822318}, {"id": "MsAsPmMTX5uPzvmVov6B9w", "alias": "king-phillip-restaurant-phillipston", "name": "King Phillip Restaurant", "image_url": "https://s3-media1.fl.yelpcdn.com/bphoto/Pl_gxkYhcpKQ_chGNyuoqw/o.jpg", "is_closed": false, "url": "https://www.yelp.com/biz/king-phillip-restaurant-phillipston?adjust_creative=ywY5UnLZrNrRl2b93Ruy_g&utm_campaign=yelp_api_v3&utm_medium=api_v3_business_search&utm_source=ywY5UnLZrNrRl2b93Ruy_g", "review_count": 46, "categories": [{"alias": "tradamerican", "title": "American (Traditional)"}], "rating": 3.0, "coordinates": {"latitude": 42.5698651, "longitude": -72.1321599}, "transactions": [], "price": "$$", "location": {"address1": "35 State Rd", "address2": "", "address3": "", "city": "Phillipston", "zip_code": "01331", "country": "US", "state": "MA", "display_address": ["35 State Rd", "Phillipston, MA 01331"]}, "phone": "+19782496300", "display_phone": "(978) 249-6300", "distance": 12596.770428009435}, {"id": "phJ5V31ofZKCOXByamdsWg", "alias": "woodbound-inn-rindge-3", "name": "Woodbound Inn", "image_url": "https://s3-media3.fl.yelpcdn.com/bphoto/BeMn2cM_wbNgWORUImVTfw/o.jpg", "is_closed": false, "url": "https://www.yelp.com/biz/woodbound-inn-rindge-3?adjust_creative=ywY5UnLZrNrRl2b93Ruy_g&utm_campaign=yelp_api_v3&utm_medium=api_v3_business_search&utm_source=ywY5UnLZrNrRl2b93Ruy_g", "review_count": 77, "categories": [{"alias": "newamerican", "title": "American (New)"}, {"alias": "hotels", "title": "Hotels"}], "rating": 3.5, "coordinates": {"latitude": 42.7883186, "longitude": -72.0034637}, "transactions": [], "price": "$$", "location": {"address1": "247 Wooodbound Rd", "address2": "", "address3": "", "city": "Rindge", "zip_code": "03461", "country": "US", "state": "NH", "display_address": ["247 Wooodbound Rd", "Rindge, NH 03461"]}, "phone": "+16035328341", "display_phone": "(603) 532-8341", "distance": 20276.189129731723}, {"id": "Gfjq1BF0s1vocvs5GDBtiQ", "alias": "soup-on-the-fly-athol", "name": "Soup On The Fly", "image_url": "https://s3-media3.fl.yelpcdn.com/bphoto/pLSSAJEqXccZVoYjC3fxTg/o.jpg", "is_closed": false, "url": "https://www.yelp.com/biz/soup-on-the-fly-athol?adjust_creative=ywY5UnLZrNrRl2b93Ruy_g&utm_campaign=yelp_api_v3&utm_medium=api_v3_business_search&utm_source=ywY5UnLZrNrRl2b93Ruy_g", "review_count": 60, "categories": [{"alias": "breakfast_brunch", "title": "Breakfast & Brunch"}, {"alias": "soup", "title": "Soup"}, {"alias": "sandwiches", "title": "Sandwiches"}], "rating": 5.0, "coordinates": {"latitude": 42.5901547959732, "longitude": -72.216189316008}, "transactions": [], "price": "$$", "location": {"address1": "1493 Main St", "address2": "", "address3": "", "city": "Athol", "zip_code": "01331", "country": "US", "state": "MA", "display_address": ["1493 Main St", "Athol, MA 01331"]}, "phone": "+19788304633", "display_phone": "(978) 830-4633", "distance": 9262.585752663648}, {"id": "qPpO6p-5m9mojV9W99f4Xg", "alias": "sandwich-master-plus-rindge", "name": "Sandwich Master Plus", "image_url": "https://s3-media4.fl.yelpcdn.com/bphoto/uagHBT3BbG9o1jgwBz3KmQ/o.jpg", "is_closed": false, "url": "https://www.yelp.com/biz/sandwich-master-plus-rindge?adjust_creative=ywY5UnLZrNrRl2b93Ruy_g&utm_campaign=yelp_api_v3&utm_medium=api_v3_business_search&utm_source=ywY5UnLZrNrRl2b93Ruy_g", "review_count": 93, "categories": [{"alias": "tradamerican", "title": "American (Traditional)"}, {"alias": "sandwiches", "title": "Sandwiches"}], "rating": 4.0, "coordinates": {"latitude": 42.742544, "longitude": -72.036752}, "transactions": [], "price": "$$", "location": {"address1": "19 Sonja Dr", "address2": "", "address3": "", "city": "Rindge", "zip_code": "03461", "country": "US", "state": "NH", "display_address": ["19 Sonja Dr", "Rindge, NH 03461"]}, "phone": "+16038992211", "display_phone": "(603) 899-2211", "distance": 15270.79368056059}, {"id": "PkUQS1Egv8vhxxJtDVjBaA", "alias": "asia-gourmet-athol", "name": "Asia Gourmet", "image_url": "https://s3-media1.fl.yelpcdn.com/bphoto/GjsJgR7BC4fSlGm2Eopppw/o.jpg", "is_closed": false, "url": "https://www.yelp.com/biz/asia-gourmet-athol?adjust_creative=ywY5UnLZrNrRl2b93Ruy_g&utm_campaign=yelp_api_v3&utm_medium=api_v3_business_search&utm_source=ywY5UnLZrNrRl2b93Ruy_g", "review_count": 7, "categories": [{"alias": "chinese", "title": "Chinese"}, {"alias": "sushi", "title": "Sushi Bars"}, {"alias": "thai", "title": "Thai"}], "rating": 3.0, "coordinates": {"latitude": 42.58012, "longitude": -72.18376}, "transactions": [], "location": {"address1": "144 Market Dr", "address2": "", "address3": null, "city": "Athol", "zip_code": "01331", "country": "US", "state": "MA", "display_address": ["144 Market Dr", "Athol, MA 01331"]}, "phone": "+19782493918", "display_phone": "(978) 249-3918", "distance": 10441.877265680989}, {"id": "6UMagm0birNEiTvYBBWvmg", "alias": "cafe-532-and-deli-jaffrey-2", "name": "Cafe 532 & Deli", "image_url": "https://s3-media2.fl.yelpcdn.com/bphoto/8lXD9v6DL_PrqTf-bCC0aA/o.jpg", "is_closed": false, "url": "https://www.yelp.com/biz/cafe-532-and-deli-jaffrey-2?adjust_creative=ywY5UnLZrNrRl2b93Ruy_g&utm_campaign=yelp_api_v3&utm_medium=api_v3_business_search&utm_source=ywY5UnLZrNrRl2b93Ruy_g", "review_count": 20, "categories": [{"alias": "delis", "title": "Delis"}, {"alias": "tradamerican", "title": "American (Traditional)"}], "rating": 4.5, "coordinates": {"latitude": 42.8234179, "longitude": -71.9965822}, "transactions": [], "price": "$", "location": {"address1": "79 Hadley Rd", "address2": "unit 5", "address3": "", "city": "Jaffrey", "zip_code": "03452", "country": "US", "state": "NH", "display_address": ["79 Hadley Rd", "unit 5", "Jaffrey, NH 03452"]}, "phone": "+16035327777", "display_phone": "(603) 532-7777", "distance": 23475.938300693808}, {"id": "KIzGy3Vh5zYbB0AD3aV_6w", "alias": "village-grill-and-pizzeria-athol", "name": "Village Grill & Pizzeria", "image_url": "https://s3-media3.fl.yelpcdn.com/bphoto/mcattaeuVmzdUjgB3xs8_g/o.jpg", "is_closed": false, "url": "https://www.yelp.com/biz/village-grill-and-pizzeria-athol?adjust_creative=ywY5UnLZrNrRl2b93Ruy_g&utm_campaign=yelp_api_v3&utm_medium=api_v3_business_search&utm_source=ywY5UnLZrNrRl2b93Ruy_g", "review_count": 5, "categories": [{"alias": "pizza", "title": "Pizza"}, {"alias": "tradamerican", "title": "American (Traditional)"}, {"alias": "chicken_wings", "title": "Chicken Wings"}], "rating": 4.5, "coordinates": {"latitude": 42.5919225, "longitude": -72.2411213}, "transactions": [], "price": "$", "location": {"address1": "131 S Main St", "address2": "", "address3": "", "city": "Athol", "zip_code": "01331", "country": "US", "state": "MA", "display_address": ["131 S Main St", "Athol, MA 01331"]}, "phone": "+19785750058", "display_phone": "(978) 575-0058", "distance": 9627.739609046443}, {"id": "o-YDa0b_hjwLFHYeEnvywA", "alias": "pigknuckles-burger-and-barbeque-rindge", "name": "Pigknuckles Burger & Barbeque", "image_url": "https://s3-media3.fl.yelpcdn.com/bphoto/SON2_NUeH3vaIcEYvOmftQ/o.jpg", "is_closed": false, "url": "https://www.yelp.com/biz/pigknuckles-burger-and-barbeque-rindge?adjust_creative=ywY5UnLZrNrRl2b93Ruy_g&utm_campaign=yelp_api_v3&utm_medium=api_v3_business_search&utm_source=ywY5UnLZrNrRl2b93Ruy_g", "review_count": 1, "categories": [{"alias": "bbq", "title": "Barbeque"}, {"alias": "burgers", "title": "Burgers"}, {"alias": "hotdog", "title": "Hot Dogs"}], "rating": 4.0, "coordinates": {"latitude": 42.7638516091877, "longitude": -72.0441821661107}, "transactions": [], "location": {"address1": "NH-119", "address2": "", "address3": null, "city": "Rindge", "zip_code": "03461", "country": "US", "state": "NH", "display_address": ["NH-119", "Rindge, NH 03461"]}, "phone": "", "display_phone": "", "distance": 16130.982857412306}, {"id": "QJYU56p7TYpLo_r61q0RZQ", "alias": "glen-caffe-winchendon", "name": "Glen Caffe", "image_url": "https://s3-media3.fl.yelpcdn.com/bphoto/hdLJzdQfBYu25yY9tFVkhg/o.jpg", "is_closed": false, "url": "https://www.yelp.com/biz/glen-caffe-winchendon?adjust_creative=ywY5UnLZrNrRl2b93Ruy_g&utm_campaign=yelp_api_v3&utm_medium=api_v3_business_search&utm_source=ywY5UnLZrNrRl2b93Ruy_g", "review_count": 5, "categories": [{"alias": "tradamerican", "title": "American (Traditional)"}], "rating": 5.0, "coordinates": {"latitude": 42.6826401, "longitude": -72.0235138}, "transactions": [], "location": {"address1": "63 Glenallen St", "address2": null, "address3": null, "city": "Winchendon", "zip_code": "01475", "country": "US", "state": "MA", "display_address": ["63 Glenallen St", "Winchendon, MA 01475"]}, "phone": "+19782970800", "display_phone": "(978) 297-0800", "distance": 14290.782733579788}, {"id": "yiV75hVHG23qJ3ESA1MzRg", "alias": "202-grill-nos-age-orange", "name": "202 Grill Nos/Age", "image_url": "https://s3-media3.fl.yelpcdn.com/bphoto/opbKFoo58C8lRuy_kJ53VQ/o.jpg", "is_closed": false, "url": "https://www.yelp.com/biz/202-grill-nos-age-orange?adjust_creative=ywY5UnLZrNrRl2b93Ruy_g&utm_campaign=yelp_api_v3&utm_medium=api_v3_business_search&utm_source=ywY5UnLZrNrRl2b93Ruy_g", "review_count": 8, "categories": [{"alias": "tradamerican", "title": "American (Traditional)"}], "rating": 3.5, "coordinates": {"latitude": 42.55423, "longitude": -72.28915}, "transactions": [], "price": "$$$", "location": {"address1": "207 Daniel Shay Hwy", "address2": "Route 202", "address3": "", "city": "Orange", "zip_code": "01364", "country": "US", "state": "MA", "display_address": ["207 Daniel Shay Hwy", "Route 202", "Orange, MA 01364"]}, "phone": "+19785443902", "display_phone": "(978) 544-3902", "distance": 15164.853949128785}, {"id": "pFjkbm5Z5lYiaWHuOLRV8A", "alias": "little-anthonys-and-little-lizzys-winchendon", "name": "Little Anthonys & Little Lizzy's", "image_url": "https://s3-media3.fl.yelpcdn.com/bphoto/AYEd3ty3ul5yf4NuEUbz-g/o.jpg", "is_closed": false, "url": "https://www.yelp.com/biz/little-anthonys-and-little-lizzys-winchendon?adjust_creative=ywY5UnLZrNrRl2b93Ruy_g&utm_campaign=yelp_api_v3&utm_medium=api_v3_business_search&utm_source=ywY5UnLZrNrRl2b93Ruy_g", "review_count": 9, "categories": [{"alias": "seafood", "title": "Seafood"}, {"alias": "tradamerican", "title": "American (Traditional)"}, {"alias": "cocktailbars", "title": "Cocktail Bars"}], "rating": 4.0, "coordinates": {"latitude": 42.66681, "longitude": -72.00934}, "transactions": [], "price": "$$", "location": {"address1": "678 Spring St", "address2": null, "address3": null, "city": "Winchendon", "zip_code": "01475", "country": "US", "state": "MA", "display_address": ["678 Spring St", "Winchendon, MA 01475"]}, "phone": "+19782972669", "display_phone": "(978) 297-2669", "distance": 15368.570009610161}, {"id": "txZsuJHzyUuxauIRymkd1Q", "alias": "the-harbour-sports-bar-winchendon", "name": "The Harbour Sports Bar", "image_url": "https://s3-media2.fl.yelpcdn.com/bphoto/m-dA8xoxpq-BrqxttgifgA/o.jpg", "is_closed": false, "url": "https://www.yelp.com/biz/the-harbour-sports-bar-winchendon?adjust_creative=ywY5UnLZrNrRl2b93Ruy_g&utm_campaign=yelp_api_v3&utm_medium=api_v3_business_search&utm_source=ywY5UnLZrNrRl2b93Ruy_g", "review_count": 28, "categories": [{"alias": "newamerican", "title": "American (New)"}, {"alias": "sportsbars", "title": "Sports Bars"}, {"alias": "seafood", "title": "Seafood"}], "rating": 3.5, "coordinates": {"latitude": 42.6916458, "longitude": -72.0211916}, "transactions": [], "price": "$$", "location": {"address1": "456 Maple St", "address2": "", "address3": "", "city": "Winchendon", "zip_code": "01475", "country": "US", "state": "MA", "display_address": ["456 Maple St", "Winchendon, MA 01475"]}, "phone": "+19782972133", "display_phone": "(978) 297-2133", "distance": 14558.863171642115}, {"id": "hM-aqTg7jPQA4ABfu0oofQ", "alias": "lab-n-lager-jaffrey", "name": "Lab 'n Lager", "image_url": "https://s3-media4.fl.yelpcdn.com/bphoto/pH4s1TnNUXD0xxSMyLcTmQ/o.jpg", "is_closed": false, "url": "https://www.yelp.com/biz/lab-n-lager-jaffrey?adjust_creative=ywY5UnLZrNrRl2b93Ruy_g&utm_campaign=yelp_api_v3&utm_medium=api_v3_business_search&utm_source=ywY5UnLZrNrRl2b93Ruy_g", "review_count": 38, "categories": [{"alias": "sportsbars", "title": "Sports Bars"}, {"alias": "pubs", "title": "Pubs"}, {"alias": "tradamerican", "title": "American (Traditional)"}], "rating": 3.5, "coordinates": {"latitude": 42.8138466, "longitude": -72.0222244}, "transactions": [], "price": "$$", "location": {"address1": "4 Stratton Rd", "address2": "", "address3": "", "city": "Jaffrey", "zip_code": "03452", "country": "US", "state": "NH", "display_address": ["4 Stratton Rd", "Jaffrey, NH 03452"]}, "phone": "+16035321195", "display_phone": "(603) 532-1195", "distance": 21256.612391556046}, {"id": "P3gCKTfiKvq8JhCiqI-XVg", "alias": "tea-garden-restaurant-athol", "name": "Tea Garden Restaurant", "image_url": "https://s3-media3.fl.yelpcdn.com/bphoto/YikdjBs7rlNRUh78y0HYEQ/o.jpg", "is_closed": false, "url": "https://www.yelp.com/biz/tea-garden-restaurant-athol?adjust_creative=ywY5UnLZrNrRl2b93Ruy_g&utm_campaign=yelp_api_v3&utm_medium=api_v3_business_search&utm_source=ywY5UnLZrNrRl2b93Ruy_g", "review_count": 12, "categories": [{"alias": "chinese", "title": "Chinese"}], "rating": 2.5, "coordinates": {"latitude": 42.5936470031738, "longitude": -72.2273483276367}, "transactions": [], "price": "$$", "location": {"address1": "631 Main St", "address2": null, "address3": null, "city": "Athol", "zip_code": "01331", "country": "US", "state": "MA", "display_address": ["631 Main St", "Athol, MA 01331"]}, "phone": "+19782498388", "display_phone": "(978) 249-8388", "distance": 9090.857943390205}, {"id": "421ECUnYmdE2Ct1Wm4O4gQ", "alias": "tea-house-orange", "name": "Tea House", "image_url": "https://s3-media1.fl.yelpcdn.com/bphoto/KvF3hIcpyxXCyvSXlCV0aQ/o.jpg", "is_closed": false, "url": "https://www.yelp.com/biz/tea-house-orange?adjust_creative=ywY5UnLZrNrRl2b93Ruy_g&utm_campaign=yelp_api_v3&utm_medium=api_v3_business_search&utm_source=ywY5UnLZrNrRl2b93Ruy_g", "review_count": 24, "categories": [{"alias": "chinese", "title": "Chinese"}], "rating": 3.0, "coordinates": {"latitude": 42.58773, "longitude": -72.2954}, "transactions": [], "price": "$$", "location": {"address1": "326 E Main St", "address2": "", "address3": "", "city": "Orange", "zip_code": "01364", "country": "US", "state": "MA", "display_address": ["326 E Main St", "Orange, MA 01364"]}, "phone": "+19785443802", "display_phone": "(978) 544-3802", "distance": 12354.366536539093}, {"id": "3t_Qa1MxsD0KTBbvefT-hw", "alias": "great-wall-chinese-restaurant-templeton-2", "name": "Great Wall Chinese Restaurant", "image_url": "https://s3-media1.fl.yelpcdn.com/bphoto/xoVVGL1XAyzXWWCosHO5QQ/o.jpg", "is_closed": false, "url": "https://www.yelp.com/biz/great-wall-chinese-restaurant-templeton-2?adjust_creative=ywY5UnLZrNrRl2b93Ruy_g&utm_campaign=yelp_api_v3&utm_medium=api_v3_business_search&utm_source=ywY5UnLZrNrRl2b93Ruy_g", "review_count": 18, "categories": [{"alias": "chinese", "title": "Chinese"}], "rating": 4.0, "coordinates": {"latitude": 42.6069717, "longitude": -72.0744476}, "transactions": [], "price": "$$", "location": {"address1": "5 Central St", "address2": "", "address3": "", "city": "Templeton", "zip_code": "01436", "country": "US", "state": "MA", "display_address": ["5 Central St", "Templeton, MA 01436"]}, "phone": "+19789398600", "display_phone": "(978) 939-8600", "distance": 12395.91229263826}, {"id": "n0JWe_ju9sEOGte3yeq4Cw", "alias": "hometown-diner-rindge", "name": "Hometown Diner", "image_url": "https://s3-media3.fl.yelpcdn.com/bphoto/sfjHGoVhBQsoOGzr0cKAgw/o.jpg", "is_closed": false, "url": "https://www.yelp.com/biz/hometown-diner-rindge?adjust_creative=ywY5UnLZrNrRl2b93Ruy_g&utm_campaign=yelp_api_v3&utm_medium=api_v3_business_search&utm_source=ywY5UnLZrNrRl2b93Ruy_g", "review_count": 79, "categories": [{"alias": "diners", "title": "Diners"}], "rating": 4.0, "coordinates": {"latitude": 42.7615736483221, "longitude": -72.0366055184967}, "transactions": [], "price": "$$", "location": {"address1": "1421 Nh Rt 119", "address2": "", "address3": "", "city": "Rindge", "zip_code": "03461", "country": "US", "state": "NH", "display_address": ["1421 Nh Rt 119", "Rindge, NH 03461"]}, "phone": "+16038993200", "display_phone": "(603) 899-3200", "distance": 16461.90458007598}, {"id": "6rcmMBO7GBGAB356Pw05IQ", "alias": "hometown-cafe-winchendon", "name": "Hometown Cafe", "image_url": "https://s3-media2.fl.yelpcdn.com/bphoto/dlyJrrhtQsq3izUyKGZsAg/o.jpg", "is_closed": false, "url": "https://www.yelp.com/biz/hometown-cafe-winchendon?adjust_creative=ywY5UnLZrNrRl2b93Ruy_g&utm_campaign=yelp_api_v3&utm_medium=api_v3_business_search&utm_source=ywY5UnLZrNrRl2b93Ruy_g", "review_count": 28, "categories": [{"alias": "cafes", "title": "Cafes"}, {"alias": "breakfast_brunch", "title": "Breakfast & Brunch"}], "rating": 5.0, "coordinates": {"latitude": 42.6869202, "longitude": -72.0442123}, "transactions": [], "price": "$", "location": {"address1": "314 Central St", "address2": "", "address3": "", "city": "Winchendon", "zip_code": "01475", "country": "US", "state": "MA", "display_address": ["314 Central St", "Winchendon, MA 01475"]}, "phone": "+19782972233", "display_phone": "(978) 297-2233", "distance": 12617.735790037097}, {"id": "RTLXoRUCWGbObYnKnRVZJg", "alias": "baldwinville-station-baldwinville", "name": "Baldwinville Station", "image_url": "https://s3-media1.fl.yelpcdn.com/bphoto/HXetzYz2BV8jltsAmMa1-g/o.jpg", "is_closed": false, "url": "https://www.yelp.com/biz/baldwinville-station-baldwinville?adjust_creative=ywY5UnLZrNrRl2b93Ruy_g&utm_campaign=yelp_api_v3&utm_medium=api_v3_business_search&utm_source=ywY5UnLZrNrRl2b93Ruy_g", "review_count": 18, "categories": [{"alias": "breakfast_brunch", "title": "Breakfast & Brunch"}, {"alias": "tradamerican", "title": "American (Traditional)"}], "rating": 3.5, "coordinates": {"latitude": 42.6078996849769, "longitude": -72.0744104798049}, "transactions": [], "price": "$", "location": {"address1": "9 Circle St", "address2": null, "address3": null, "city": "Baldwinville", "zip_code": "01436", "country": "US", "state": "MA", "display_address": ["9 Circle St", "Baldwinville, MA 01436"]}, "phone": "+19789394800", "display_phone": "(978) 939-4800", "distance": 12344.280774445488}, {"id": "2MVvyKZRr98i4egs3LMHHw", "alias": "white-cloud-diner-orange", "name": "White Cloud Diner", "image_url": "https://s3-media3.fl.yelpcdn.com/bphoto/VLhBY2lGr9Xf6KzBoWteoA/o.jpg", "is_closed": false, "url": "https://www.yelp.com/biz/white-cloud-diner-orange?adjust_creative=ywY5UnLZrNrRl2b93Ruy_g&utm_campaign=yelp_api_v3&utm_medium=api_v3_business_search&utm_source=ywY5UnLZrNrRl2b93Ruy_g", "review_count": 13, "categories": [{"alias": "diners", "title": "Diners"}], "rating": 4.0, "coordinates": {"latitude": 42.5746688842773, "longitude": -72.2816772460938}, "transactions": [], "price": "$", "location": {"address1": "627 E River St", "address2": null, "address3": "", "city": "Orange", "zip_code": "01364", "country": "US", "state": "MA", "display_address": ["627 E River St", "Orange, MA 01364"]}, "phone": "+19785446821", "display_phone": "(978) 544-6821", "distance": 12859.455245888577}, {"id": "KOmBaRuOp6ZrxiLC3hC-sw", "alias": "paramount-cafe-gardner", "name": "Paramount Cafe", "image_url": "https://s3-media2.fl.yelpcdn.com/bphoto/9ciEyCWZ1VdIAQoiqYjnfQ/o.jpg", "is_closed": false, "url": "https://www.yelp.com/biz/paramount-cafe-gardner?adjust_creative=ywY5UnLZrNrRl2b93Ruy_g&utm_campaign=yelp_api_v3&utm_medium=api_v3_business_search&utm_source=ywY5UnLZrNrRl2b93Ruy_g", "review_count": 5, "categories": [{"alias": "cafes", "title": "Cafes"}], "rating": 4.5, "coordinates": {"latitude": 42.575092, "longitude": -71.994545}, "transactions": [], "location": {"address1": "46 Main St", "address2": "", "address3": "", "city": "Gardner", "zip_code": "01440", "country": "US", "state": "MA", "display_address": ["46 Main St", "Gardner, MA 01440"]}, "phone": "+19786329869", "display_phone": "(978) 632-9869", "distance": 19802.37373439215}, {"id": "agVzx3wkIbsVsEnzWWzVzw", "alias": "identity-coffee-lab-rindge", "name": "Identity Coffee Lab", "image_url": "https://s3-media1.fl.yelpcdn.com/bphoto/yKgAXDqQk_0WO43-F5bXTQ/o.jpg", "is_closed": false, "url": "https://www.yelp.com/biz/identity-coffee-lab-rindge?adjust_creative=ywY5UnLZrNrRl2b93Ruy_g&utm_campaign=yelp_api_v3&utm_medium=api_v3_business_search&utm_source=ywY5UnLZrNrRl2b93Ruy_g", "review_count": 9, "categories": [{"alias": "cafes", "title": "Cafes"}], "rating": 5.0, "coordinates": {"latitude": 42.7564995849597, "longitude": -72.0063982183255}, "transactions": [], "location": {"address1": "1090 Nh Route 119", "address2": "", "address3": null, "city": "Rindge", "zip_code": "03461", "country": "US", "state": "NH", "display_address": ["1090 Nh Route 119", "Rindge, NH 03461"]}, "phone": "+14015759444", "display_phone": "(401) 575-9444", "distance": 18194.317009658786}, {"id": "yHRurK18GoXezP5QuyI39w", "alias": "carriage-house-restaurant-winchendon", "name": "Carriage House Restaurant", "image_url": "", "is_closed": false, "url": "https://www.yelp.com/biz/carriage-house-restaurant-winchendon?adjust_creative=ywY5UnLZrNrRl2b93Ruy_g&utm_campaign=yelp_api_v3&utm_medium=api_v3_business_search&utm_source=ywY5UnLZrNrRl2b93Ruy_g", "review_count": 34, "categories": [{"alias": "seafood", "title": "Seafood"}, {"alias": "hotdogs", "title": "Fast Food"}, {"alias": "tradamerican", "title": "American (Traditional)"}], "rating": 3.0, "coordinates": {"latitude": 42.668126, "longitude": -72.014773}, "transactions": [], "price": "$$", "location": {"address1": "660 Spring St", "address2": "", "address3": "", "city": "Winchendon", "zip_code": "01475", "country": "US", "state": "MA", "display_address": ["660 Spring St", "Winchendon, MA 01475"]}, "phone": "+19782971089", "display_phone": "(978) 297-1089", "distance": 14933.635130212922}, {"id": "jQV1x9aI6gfQLtlpUcj2FA", "alias": "duguays-chicken-and-seafood-gardner", "name": "Duguays Chicken & Seafood", "image_url": "https://s3-media2.fl.yelpcdn.com/bphoto/our6AxMGnFD1wkX_HZVa0w/o.jpg", "is_closed": false, "url": "https://www.yelp.com/biz/duguays-chicken-and-seafood-gardner?adjust_creative=ywY5UnLZrNrRl2b93Ruy_g&utm_campaign=yelp_api_v3&utm_medium=api_v3_business_search&utm_source=ywY5UnLZrNrRl2b93Ruy_g", "review_count": 47, "categories": [{"alias": "seafood", "title": "Seafood"}, {"alias": "burgers", "title": "Burgers"}, {"alias": "chickenshop", "title": "Chicken Shop"}], "rating": 4.0, "coordinates": {"latitude": 42.57311, "longitude": -72.01599}, "transactions": [], "price": "$$", "location": {"address1": "632 Parker St", "address2": "", "address3": "", "city": "Gardner", "zip_code": "01440", "country": "US", "state": "MA", "display_address": ["632 Parker St", "Gardner, MA 01440"]}, "phone": "+19786324493", "display_phone": "(978) 632-4493", "distance": 18496.700763213776}, {"id": "QvbRLA7kxFgs89Y1UnghsA", "alias": "mt-pisgah-diner-winchester", "name": "Mt Pisgah Diner", "image_url": "https://s3-media2.fl.yelpcdn.com/bphoto/WKFI92oGtCabaaKKwigPEA/o.jpg", "is_closed": false, "url": "https://www.yelp.com/biz/mt-pisgah-diner-winchester?adjust_creative=ywY5UnLZrNrRl2b93Ruy_g&utm_campaign=yelp_api_v3&utm_medium=api_v3_business_search&utm_source=ywY5UnLZrNrRl2b93Ruy_g", "review_count": 8, "categories": [{"alias": "diners", "title": "Diners"}], "rating": 4.0, "coordinates": {"latitude": 42.7729, "longitude": -72.38411}, "transactions": [], "price": "$", "location": {"address1": "118 Main St", "address2": "", "address3": "", "city": "Winchester", "zip_code": "03470", "country": "US", "state": "NH", "display_address": ["118 Main St", "Winchester, NH 03470"]}, "phone": "+16032394101", "display_phone": "(603) 239-4101", "distance": 18920.786757895796}, {"id": "o1Xpz68xeOYNEvl132r79g", "alias": "domino-s-athol", "name": "Domino\u2019s", "image_url": "", "is_closed": false, "url": "https://www.yelp.com/biz/domino-s-athol?adjust_creative=ywY5UnLZrNrRl2b93Ruy_g&utm_campaign=yelp_api_v3&utm_medium=api_v3_business_search&utm_source=ywY5UnLZrNrRl2b93Ruy_g", "review_count": 1, "categories": [{"alias": "pizza", "title": "Pizza"}], "rating": 2.0, "coordinates": {"latitude": 42.593632, "longitude": -72.23293}, "transactions": [], "location": {"address1": "321 Main St", "address2": "", "address3": null, "city": "Athol", "zip_code": "01331", "country": "US", "state": "MA", "display_address": ["321 Main St", "Athol, MA 01331"]}, "phone": "+19783307676", "display_phone": "(978) 330-7676", "distance": 9218.500587689325}, {"id": "v_Hpc-MgJvfyKWSspDETlw", "alias": "taco-rey-coliman-gardner-2", "name": "Taco Rey Coliman", "image_url": "https://s3-media4.fl.yelpcdn.com/bphoto/FZ0gWTPf72YnsmmM6OQNuA/o.jpg", "is_closed": false, "url": "https://www.yelp.com/biz/taco-rey-coliman-gardner-2?adjust_creative=ywY5UnLZrNrRl2b93Ruy_g&utm_campaign=yelp_api_v3&utm_medium=api_v3_business_search&utm_source=ywY5UnLZrNrRl2b93Ruy_g", "review_count": 35, "categories": [{"alias": "tex-mex", "title": "Tex-Mex"}, {"alias": "mexican", "title": "Mexican"}, {"alias": "spanish", "title": "Spanish"}], "rating": 4.5, "coordinates": {"latitude": 42.5757434, "longitude": -71.9951119}, "transactions": [], "price": "$", "location": {"address1": "7 Pleasant St", "address2": "", "address3": "", "city": "Gardner", "zip_code": "01440", "country": "US", "state": "MA", "display_address": ["7 Pleasant St", "Gardner, MA 01440"]}, "phone": "+19786327400", "display_phone": "(978) 632-7400", "distance": 19723.933951860414}, {"id": "InO-YBiVrA6sBTU0nwzKlg", "alias": "zoes-restaurant-winchendon", "name": "Zoe's Restaurant", "image_url": "https://s3-media3.fl.yelpcdn.com/bphoto/w7KLHPgrEAbKwf9akJ8wtw/o.jpg", "is_closed": false, "url": "https://www.yelp.com/biz/zoes-restaurant-winchendon?adjust_creative=ywY5UnLZrNrRl2b93Ruy_g&utm_campaign=yelp_api_v3&utm_medium=api_v3_business_search&utm_source=ywY5UnLZrNrRl2b93Ruy_g", "review_count": 11, "categories": [{"alias": "pizza", "title": "Pizza"}], "rating": 2.5, "coordinates": {"latitude": 42.67668833, "longitude": -72.02859667}, "transactions": [], "location": {"address1": "435 Spring St", "address2": "", "address3": "", "city": "Winchendon", "zip_code": "01475", "country": "US", "state": "MA", "display_address": ["435 Spring St", "Winchendon, MA 01475"]}, "phone": "", "display_phone": "", "distance": 13805.942220108735}, {"id": "6eDMigdX2fH32_2cuaHzpw", "alias": "jk-crossroads-east-templeton", "name": "JK Crossroads", "image_url": "https://s3-media3.fl.yelpcdn.com/bphoto/X9b-I_ndI2z1jI4m_Fh-4g/o.jpg", "is_closed": false, "url": "https://www.yelp.com/biz/jk-crossroads-east-templeton?adjust_creative=ywY5UnLZrNrRl2b93Ruy_g&utm_campaign=yelp_api_v3&utm_medium=api_v3_business_search&utm_source=ywY5UnLZrNrRl2b93Ruy_g", "review_count": 22, "categories": [{"alias": "tradamerican", "title": "American (Traditional)"}], "rating": 3.0, "coordinates": {"latitude": 42.56267, "longitude": -72.03679}, "transactions": [], "price": "$$", "location": {"address1": "119 Patriots Rd", "address2": "", "address3": "", "city": "East Templeton", "zip_code": "01438", "country": "US", "state": "MA", "display_address": ["119 Patriots Rd", "East Templeton, MA 01438"]}, "phone": "+19786327070", "display_phone": "(978) 632-7070", "distance": 17925.514591834177}, {"id": "y7uF47HIjx7uAPiXSiVEOQ", "alias": "christos-place-winchendon", "name": "Christo's Place", "image_url": "https://s3-media1.fl.yelpcdn.com/bphoto/eONDEM9lZv_mrtIPdkTx8w/o.jpg", "is_closed": false, "url": "https://www.yelp.com/biz/christos-place-winchendon?adjust_creative=ywY5UnLZrNrRl2b93Ruy_g&utm_campaign=yelp_api_v3&utm_medium=api_v3_business_search&utm_source=ywY5UnLZrNrRl2b93Ruy_g", "review_count": 9, "categories": [{"alias": "pizza", "title": "Pizza"}], "rating": 3.0, "coordinates": {"latitude": 42.681835, "longitude": -72.047646}, "transactions": [], "price": "$$", "location": {"address1": "51 Central St", "address2": "", "address3": "", "city": "Winchendon", "zip_code": "01475", "country": "US", "state": "MA", "display_address": ["51 Central St", "Winchendon, MA 01475"]}, "phone": "+19782971142", "display_phone": "(978) 297-1142", "distance": 12283.379452384093}, {"id": "SB9nvFYt5w_dBqmblN9diQ", "alias": "c-and-s-pizza-of-winchendon-winchendon", "name": "C & S Pizza of Winchendon", "image_url": "https://s3-media2.fl.yelpcdn.com/bphoto/amwciQINWANoDPgIgLwlEw/o.jpg", "is_closed": false, "url": "https://www.yelp.com/biz/c-and-s-pizza-of-winchendon-winchendon?adjust_creative=ywY5UnLZrNrRl2b93Ruy_g&utm_campaign=yelp_api_v3&utm_medium=api_v3_business_search&utm_source=ywY5UnLZrNrRl2b93Ruy_g", "review_count": 20, "categories": [{"alias": "pizza", "title": "Pizza"}], "rating": 4.0, "coordinates": {"latitude": 42.68464, "longitude": -72.04595}, "transactions": [], "price": "$$", "location": {"address1": "188 Central St", "address2": "", "address3": "", "city": "Winchendon", "zip_code": "01475", "country": "US", "state": "MA", "display_address": ["188 Central St", "Winchendon, MA 01475"]}, "phone": "+19782972202", "display_phone": "(978) 297-2202", "distance": 12444.224169066998}, {"id": "M5aNw3UEOPiibQ_zBw_Ohg", "alias": "lees-hot-dog-stand-baldwinville", "name": "Lee's Hot Dog Stand", "image_url": "https://s3-media4.fl.yelpcdn.com/bphoto/J3cQ7PZ1EOSmKIgQ-UpBRw/o.jpg", "is_closed": false, "url": "https://www.yelp.com/biz/lees-hot-dog-stand-baldwinville?adjust_creative=ywY5UnLZrNrRl2b93Ruy_g&utm_campaign=yelp_api_v3&utm_medium=api_v3_business_search&utm_source=ywY5UnLZrNrRl2b93Ruy_g", "review_count": 5, "categories": [{"alias": "restaurants", "title": "Restaurants"}], "rating": 2.5, "coordinates": {"latitude": 42.60635, "longitude": -72.072093}, "transactions": [], "price": "$", "location": {"address1": "31 Central St", "address2": "", "address3": "", "city": "Baldwinville", "zip_code": "01436", "country": "US", "state": "MA", "display_address": ["31 Central St", "Baldwinville, MA 01436"]}, "phone": "+19789395346", "display_phone": "(978) 939-5346", "distance": 12598.821534547526}, {"id": "OOfG7vHmJhU1ii-XvDu1oA", "alias": "nicks-breakfast-and-lunch-athol", "name": "Nicks Breakfast and Lunch", "image_url": "https://s3-media3.fl.yelpcdn.com/bphoto/DkQ81_0J-azZTYh2pL_hfg/o.jpg", "is_closed": false, "url": "https://www.yelp.com/biz/nicks-breakfast-and-lunch-athol?adjust_creative=ywY5UnLZrNrRl2b93Ruy_g&utm_campaign=yelp_api_v3&utm_medium=api_v3_business_search&utm_source=ywY5UnLZrNrRl2b93Ruy_g", "review_count": 16, "categories": [{"alias": "breakfast_brunch", "title": "Breakfast & Brunch"}], "rating": 3.5, "coordinates": {"latitude": 42.5937958, "longitude": -72.228775}, "transactions": [], "price": "$$", "location": {"address1": "567 Main St", "address2": "", "address3": "", "city": "Athol", "zip_code": "01331", "country": "US", "state": "MA", "display_address": ["567 Main St", "Athol, MA 01331"]}, "phone": "+19782498400", "display_phone": "(978) 249-8400", "distance": 9098.947839277396}, {"id": "6pLlwN3TsOCPYOtaPtIQlw", "alias": "crossroads-pizza-and-subs-fitzwilliam-2", "name": "Crossroads Pizza & Subs", "image_url": "https://s3-media4.fl.yelpcdn.com/bphoto/cQ7jVv8jjjKC7OqzXBl34w/o.jpg", "is_closed": false, "url": "https://www.yelp.com/biz/crossroads-pizza-and-subs-fitzwilliam-2?adjust_creative=ywY5UnLZrNrRl2b93Ruy_g&utm_campaign=yelp_api_v3&utm_medium=api_v3_business_search&utm_source=ywY5UnLZrNrRl2b93Ruy_g", "review_count": 21, "categories": [{"alias": "pizza", "title": "Pizza"}, {"alias": "sandwiches", "title": "Sandwiches"}, {"alias": "sportsbars", "title": "Sports Bars"}], "rating": 3.0, "coordinates": {"latitude": 42.7800676, "longitude": -72.1385717}, "transactions": [], "price": "$$", "location": {"address1": "21 NH Rte 12 S", "address2": "", "address3": "", "city": "Fitzwilliam", "zip_code": "03447", "country": "US", "state": "NH", "display_address": ["21 NH Rte 12 S", "Fitzwilliam, NH 03447"]}, "phone": "+16035857077", "display_phone": "(603) 585-7077", "distance": 12958.562509638155}, {"id": "BTJ-cXSsKXrXtSrhPFqD8A", "alias": "eight-dragons-take-out-restaurant-athol", "name": "Eight Dragons Take-Out Restaurant", "image_url": "https://s3-media3.fl.yelpcdn.com/bphoto/zJLO1P1o6vR28A5g2tRc0w/o.jpg", "is_closed": false, "url": "https://www.yelp.com/biz/eight-dragons-take-out-restaurant-athol?adjust_creative=ywY5UnLZrNrRl2b93Ruy_g&utm_campaign=yelp_api_v3&utm_medium=api_v3_business_search&utm_source=ywY5UnLZrNrRl2b93Ruy_g", "review_count": 17, "categories": [{"alias": "chinese", "title": "Chinese"}, {"alias": "seafood", "title": "Seafood"}], "rating": 2.5, "coordinates": {"latitude": 42.593049, "longitude": -72.234464}, "transactions": [], "price": "$$", "location": {"address1": "32 Freedom St", "address2": "", "address3": "", "city": "Athol", "zip_code": "01331", "country": "US", "state": "MA", "display_address": ["32 Freedom St", "Athol, MA 01331"]}, "phone": "+19782492777", "display_phone": "(978) 249-2777", "distance": 9321.480879013156}, {"id": "iVk5L0JWf_92isJK9JWpwA", "alias": "village-pizza-and-subs-baldwinville-2", "name": "Village Pizza & Subs", "image_url": "https://s3-media2.fl.yelpcdn.com/bphoto/MccvnRH-t1sS0jyeKzBrCQ/o.jpg", "is_closed": false, "url": "https://www.yelp.com/biz/village-pizza-and-subs-baldwinville-2?adjust_creative=ywY5UnLZrNrRl2b93Ruy_g&utm_campaign=yelp_api_v3&utm_medium=api_v3_business_search&utm_source=ywY5UnLZrNrRl2b93Ruy_g", "review_count": 6, "categories": [{"alias": "pizza", "title": "Pizza"}, {"alias": "seafood", "title": "Seafood"}], "rating": 4.0, "coordinates": {"latitude": 42.60683, "longitude": -72.07494}, "transactions": [], "price": "$", "location": {"address1": "5 Elm St", "address2": "", "address3": "", "city": "Baldwinville", "zip_code": "01436", "country": "US", "state": "MA", "display_address": ["5 Elm St", "Baldwinville, MA 01436"]}, "phone": "+19789394401", "display_phone": "(978) 939-4401", "distance": 12378.326923047223}, {"id": "hCMxwnucaO1NBv_U5rT8tw", "alias": "win-win-express-winchester", "name": "Win Win Express", "image_url": "https://s3-media2.fl.yelpcdn.com/bphoto/5eVCXa_8sXOkGk9Wggyj_A/o.jpg", "is_closed": false, "url": "https://www.yelp.com/biz/win-win-express-winchester?adjust_creative=ywY5UnLZrNrRl2b93Ruy_g&utm_campaign=yelp_api_v3&utm_medium=api_v3_business_search&utm_source=ywY5UnLZrNrRl2b93Ruy_g", "review_count": 14, "categories": [{"alias": "chinese", "title": "Chinese"}], "rating": 4.0, "coordinates": {"latitude": 42.77272, "longitude": -72.38429}, "transactions": [], "location": {"address1": "112 Main St", "address2": "", "address3": "", "city": "Winchester", "zip_code": "03470", "country": "US", "state": "NH", "display_address": ["112 Main St", "Winchester, NH 03470"]}, "phone": "+16032396886", "display_phone": "(603) 239-6886", "distance": 18921.292766895578}, {"id": "FTG4lwB-GXEBbUwK17x-7g", "alias": "pizza-haven-rindge-2", "name": "Pizza Haven", "image_url": "https://s3-media1.fl.yelpcdn.com/bphoto/LZZn0sRrrSGh7NMc7U6PJA/o.jpg", "is_closed": false, "url": "https://www.yelp.com/biz/pizza-haven-rindge-2?adjust_creative=ywY5UnLZrNrRl2b93Ruy_g&utm_campaign=yelp_api_v3&utm_medium=api_v3_business_search&utm_source=ywY5UnLZrNrRl2b93Ruy_g", "review_count": 30, "categories": [{"alias": "pizza", "title": "Pizza"}, {"alias": "gluten_free", "title": "Gluten-Free"}, {"alias": "salad", "title": "Salad"}], "rating": 3.0, "coordinates": {"latitude": 42.7604579173385, "longitude": -72.0282044518038}, "transactions": [], "price": "$", "location": {"address1": "1343 Nh Rt 119", "address2": "", "address3": "", "city": "Rindge", "zip_code": "03461", "country": "US", "state": "NH", "display_address": ["1343 Nh Rt 119", "Rindge, NH 03461"]}, "phone": "+16038992828", "display_phone": "(603) 899-2828", "distance": 16942.43945945752}, {"id": "H__h8LbRx8ZZodGEimE4gQ", "alias": "sunflowers-cafe-and-catering-jaffrey", "name": "Sunflower's Cafe and Catering", "image_url": "https://s3-media3.fl.yelpcdn.com/bphoto/Ucrm56pdRWTeXo31xkKAZQ/o.jpg", "is_closed": false, "url": "https://www.yelp.com/biz/sunflowers-cafe-and-catering-jaffrey?adjust_creative=ywY5UnLZrNrRl2b93Ruy_g&utm_campaign=yelp_api_v3&utm_medium=api_v3_business_search&utm_source=ywY5UnLZrNrRl2b93Ruy_g", "review_count": 60, "categories": [{"alias": "cafes", "title": "Cafes"}], "rating": 4.0, "coordinates": {"latitude": 42.8149787431751, "longitude": -72.0240746882165}, "transactions": [], "price": "$$", "location": {"address1": "21 Main St", "address2": "", "address3": "", "city": "Jaffrey", "zip_code": "03452", "country": "US", "state": "NH", "display_address": ["21 Main St", "Jaffrey, NH 03452"]}, "phone": "+16035933303", "display_phone": "(603) 593-3303", "distance": 21258.569956844945}, {"id": "qhFqS8F57n7vmKKfrFZu-w", "alias": "friendly-town-pizza-orange", "name": "Friendly Town Pizza", "image_url": "", "is_closed": false, "url": "https://www.yelp.com/biz/friendly-town-pizza-orange?adjust_creative=ywY5UnLZrNrRl2b93Ruy_g&utm_campaign=yelp_api_v3&utm_medium=api_v3_business_search&utm_source=ywY5UnLZrNrRl2b93Ruy_g", "review_count": 1, "categories": [{"alias": "pizza", "title": "Pizza"}], "rating": 4.0, "coordinates": {"latitude": 42.5891990661621, "longitude": -72.3095703125}, "transactions": [], "location": {"address1": "", "address2": "", "address3": "", "city": "Orange", "zip_code": "", "country": "US", "state": "MA", "display_address": ["Orange, MA"]}, "phone": "+19782493651", "display_phone": "(978) 249-3651", "distance": 13615.87297817216}, {"id": "xQfv2E7amk5JvB4TBJ2fAg", "alias": "golden-wok-jaffrey", "name": "Golden Wok", "image_url": "https://s3-media2.fl.yelpcdn.com/bphoto/Ckt7aP-0cikV2H_ydpUpiw/o.jpg", "is_closed": false, "url": "https://www.yelp.com/biz/golden-wok-jaffrey?adjust_creative=ywY5UnLZrNrRl2b93Ruy_g&utm_campaign=yelp_api_v3&utm_medium=api_v3_business_search&utm_source=ywY5UnLZrNrRl2b93Ruy_g", "review_count": 28, "categories": [{"alias": "chinese", "title": "Chinese"}], "rating": 4.0, "coordinates": {"latitude": 42.8144574097394, "longitude": -72.0226013660431}, "transactions": [], "price": "$$", "location": {"address1": "2 Main St", "address2": "", "address3": "", "city": "Jaffrey", "zip_code": "03452", "country": "US", "state": "NH", "display_address": ["2 Main St", "Jaffrey, NH 03452"]}, "phone": "+16035935290", "display_phone": "(603) 593-5290", "distance": 21295.810313149497}, {"id": "yeqwDdLvP_9693lzRpAPug", "alias": "zedas-athol", "name": "Zedas", "image_url": "https://s3-media2.fl.yelpcdn.com/bphoto/Vn1AWiq6c0ATtDW7Za8U8w/o.jpg", "is_closed": false, "url": "https://www.yelp.com/biz/zedas-athol?adjust_creative=ywY5UnLZrNrRl2b93Ruy_g&utm_campaign=yelp_api_v3&utm_medium=api_v3_business_search&utm_source=ywY5UnLZrNrRl2b93Ruy_g", "review_count": 11, "categories": [{"alias": "pizza", "title": "Pizza"}], "rating": 3.0, "coordinates": {"latitude": 42.5920096, "longitude": -72.2316385}, "transactions": [], "price": "$$", "location": {"address1": "11 Tunnel St", "address2": "", "address3": "", "city": "Athol", "zip_code": "01331", "country": "US", "state": "MA", "display_address": ["11 Tunnel St", "Athol, MA 01331"]}, "phone": "+19782499876", "display_phone": "(978) 249-9876", "distance": 9381.562367452705}, {"id": "Kr3vRRhCDsLj6LY6OEaR5A", "alias": "king-phillip-motel-phillipston", "name": "King Phillip Motel", "image_url": "", "is_closed": false, "url": "https://www.yelp.com/biz/king-phillip-motel-phillipston?adjust_creative=ywY5UnLZrNrRl2b93Ruy_g&utm_campaign=yelp_api_v3&utm_medium=api_v3_business_search&utm_source=ywY5UnLZrNrRl2b93Ruy_g", "review_count": 3, "categories": [{"alias": "hotels", "title": "Hotels"}, {"alias": "restaurants", "title": "Restaurants"}], "rating": 3.0, "coordinates": {"latitude": 42.5698651, "longitude": -72.1321599}, "transactions": [], "location": {"address1": "35 State Rd", "address2": "", "address3": "", "city": "Phillipston", "zip_code": "01331", "country": "US", "state": "MA", "display_address": ["35 State Rd", "Phillipston, MA 01331"]}, "phone": "+19782495300", "display_phone": "(978) 249-5300", "distance": 12596.770428009435}, {"id": "8UGk7xXWl2S1sukzncygOA", "alias": "friendly-town-pizza-athol", "name": "Friendly Town Pizza", "image_url": "https://s3-media2.fl.yelpcdn.com/bphoto/p3xHl6JjujdkBj7l85xrnw/o.jpg", "is_closed": false, "url": "https://www.yelp.com/biz/friendly-town-pizza-athol?adjust_creative=ywY5UnLZrNrRl2b93Ruy_g&utm_campaign=yelp_api_v3&utm_medium=api_v3_business_search&utm_source=ywY5UnLZrNrRl2b93Ruy_g", "review_count": 30, "categories": [{"alias": "pizza", "title": "Pizza"}], "rating": 4.5, "coordinates": {"latitude": 42.581438, "longitude": -72.261868}, "transactions": [], "price": "$$", "location": {"address1": "1604 S Main St", "address2": null, "address3": null, "city": "Athol", "zip_code": "01331", "country": "US", "state": "MA", "display_address": ["1604 S Main St", "Athol, MA 01331"]}, "phone": "+19782493651", "display_phone": "(978) 249-3651", "distance": 11398.79924561491}, {"id": "ZotvCkZnaImGJUyIEBX4Mw", "alias": "gabbys-pizza-winchendon-2", "name": "Gabby's Pizza", "image_url": "https://s3-media4.fl.yelpcdn.com/bphoto/eb75nQNfktU1Fzfdz6ya4g/o.jpg", "is_closed": false, "url": "https://www.yelp.com/biz/gabbys-pizza-winchendon-2?adjust_creative=ywY5UnLZrNrRl2b93Ruy_g&utm_campaign=yelp_api_v3&utm_medium=api_v3_business_search&utm_source=ywY5UnLZrNrRl2b93Ruy_g", "review_count": 21, "categories": [{"alias": "pizza", "title": "Pizza"}], "rating": 4.0, "coordinates": {"latitude": 42.6858862, "longitude": -72.0447741}, "transactions": [], "price": "$", "location": {"address1": "255 Central St", "address2": "", "address3": "", "city": "Winchendon", "zip_code": "01475", "country": "US", "state": "MA", "display_address": ["255 Central St", "Winchendon, MA 01475"]}, "phone": "+19782973909", "display_phone": "(978) 297-3909", "distance": 12563.093455531616}, {"id": "JsyervcPMfFnRwRbtdsIAg", "alias": "the-pizza-barn-baldwinville", "name": "The Pizza Barn", "image_url": "https://s3-media1.fl.yelpcdn.com/bphoto/Ce7-bTdAMVVbfEbue3hUog/o.jpg", "is_closed": false, "url": "https://www.yelp.com/biz/the-pizza-barn-baldwinville?adjust_creative=ywY5UnLZrNrRl2b93Ruy_g&utm_campaign=yelp_api_v3&utm_medium=api_v3_business_search&utm_source=ywY5UnLZrNrRl2b93Ruy_g", "review_count": 5, "categories": [{"alias": "pizza", "title": "Pizza"}, {"alias": "italian", "title": "Italian"}, {"alias": "mediterranean", "title": "Mediterranean"}], "rating": 2.0, "coordinates": {"latitude": 42.60673, "longitude": -72.07426}, "transactions": [], "price": "$$", "location": {"address1": "9 Central St", "address2": "", "address3": "", "city": "Baldwinville", "zip_code": "01436", "country": "US", "state": "MA", "display_address": ["9 Central St", "Baldwinville, MA 01436"]}, "phone": "+19789392156", "display_phone": "(978) 939-2156", "distance": 12423.73004515644}, {"id": "Hb1WV-XO3pZYMpZ3HaMf0Q", "alias": "kennys-house-gardner", "name": "Kenny's House", "image_url": "https://s3-media3.fl.yelpcdn.com/bphoto/ulcP7iOkpNHWa9bouLZbrQ/o.jpg", "is_closed": false, "url": "https://www.yelp.com/biz/kennys-house-gardner?adjust_creative=ywY5UnLZrNrRl2b93Ruy_g&utm_campaign=yelp_api_v3&utm_medium=api_v3_business_search&utm_source=ywY5UnLZrNrRl2b93Ruy_g", "review_count": 18, "categories": [{"alias": "chinese", "title": "Chinese"}, {"alias": "seafood", "title": "Seafood"}, {"alias": "soup", "title": "Soup"}], "rating": 4.0, "coordinates": {"latitude": 42.5757372, "longitude": -71.9983973}, "transactions": [], "location": {"address1": "128 Parker St", "address2": "", "address3": "", "city": "Gardner", "zip_code": "01440", "country": "US", "state": "MA", "display_address": ["128 Parker St", "Gardner, MA 01440"]}, "phone": "+19786322888", "display_phone": "(978) 632-2888", "distance": 19505.68356858995}, {"id": "pSBQkytH3cknYyZVcREyvg", "alias": "patriots-roast-beef-and-grill-templeton", "name": "Patriots Roast Beef and Grill", "image_url": "https://s3-media1.fl.yelpcdn.com/bphoto/jQT2dQaX-oAPGqS9MG8Mvg/o.jpg", "is_closed": false, "url": "https://www.yelp.com/biz/patriots-roast-beef-and-grill-templeton?adjust_creative=ywY5UnLZrNrRl2b93Ruy_g&utm_campaign=yelp_api_v3&utm_medium=api_v3_business_search&utm_source=ywY5UnLZrNrRl2b93Ruy_g", "review_count": 16, "categories": [{"alias": "pizza", "title": "Pizza"}, {"alias": "tradamerican", "title": "American (Traditional)"}], "rating": 3.5, "coordinates": {"latitude": 42.5615082, "longitude": -72.038887}, "transactions": ["delivery", "pickup"], "price": "$", "location": {"address1": "146 Patriots Rd", "address2": null, "address3": null, "city": "Templeton", "zip_code": "01468", "country": "US", "state": "MA", "display_address": ["146 Patriots Rd", "Templeton, MA 01468"]}, "phone": "+19786329951", "display_phone": "(978) 632-9951", "distance": 17889.98116995417}, {"id": "7ccuuvYz9PAUMZ-2VVBZZw", "alias": "pizza-factory-orange", "name": "Pizza Factory", "image_url": "https://s3-media3.fl.yelpcdn.com/bphoto/bb8FyfINlCRnHsfbwKu_jA/o.jpg", "is_closed": false, "url": "https://www.yelp.com/biz/pizza-factory-orange?adjust_creative=ywY5UnLZrNrRl2b93Ruy_g&utm_campaign=yelp_api_v3&utm_medium=api_v3_business_search&utm_source=ywY5UnLZrNrRl2b93Ruy_g", "review_count": 5, "categories": [{"alias": "pizza", "title": "Pizza"}], "rating": 3.0, "coordinates": {"latitude": 42.59063, "longitude": -72.31046}, "transactions": [], "price": "$", "location": {"address1": "11 W Main St", "address2": "", "address3": "", "city": "Orange", "zip_code": "01364", "country": "US", "state": "MA", "display_address": ["11 W Main St", "Orange, MA 01364"]}, "phone": "+19785445818", "display_phone": "(978) 544-5818", "distance": 12958.71449694351}, {"id": "MUs396IkY6SHf4pI0l9gnA", "alias": "tool-town-pizza-athol", "name": "Tool Town Pizza", "image_url": "https://s3-media3.fl.yelpcdn.com/bphoto/UGHTbZneNVMJgB1e2ziCow/o.jpg", "is_closed": false, "url": "https://www.yelp.com/biz/tool-town-pizza-athol?adjust_creative=ywY5UnLZrNrRl2b93Ruy_g&utm_campaign=yelp_api_v3&utm_medium=api_v3_business_search&utm_source=ywY5UnLZrNrRl2b93Ruy_g", "review_count": 11, "categories": [{"alias": "pizza", "title": "Pizza"}, {"alias": "italian", "title": "Italian"}], "rating": 3.5, "coordinates": {"latitude": 42.595664, "longitude": -72.232418}, "transactions": [], "price": "$", "location": {"address1": "246 Exchange St", "address2": "", "address3": "", "city": "Athol", "zip_code": "01331", "country": "US", "state": "MA", "display_address": ["246 Exchange St", "Athol, MA 01331"]}, "phone": "+19782493366", "display_phone": "(978) 249-3366", "distance": 8990.929317056933}, {"id": "EyLPztQeYwpgILRjSV1mqw", "alias": "kimball-farm-seafood-and-grill-shack-jaffrey", "name": "Kimball Farm Seafood & Grill Shack", "image_url": "https://s3-media4.fl.yelpcdn.com/bphoto/OWN9yxUr4D-XyblFO39QaA/o.jpg", "is_closed": false, "url": "https://www.yelp.com/biz/kimball-farm-seafood-and-grill-shack-jaffrey?adjust_creative=ywY5UnLZrNrRl2b93Ruy_g&utm_campaign=yelp_api_v3&utm_medium=api_v3_business_search&utm_source=ywY5UnLZrNrRl2b93Ruy_g", "review_count": 16, "categories": [{"alias": "seafood", "title": "Seafood"}, {"alias": "icecream", "title": "Ice Cream & Frozen Yogurt"}, {"alias": "mini_golf", "title": "Mini Golf"}], "rating": 2.5, "coordinates": {"latitude": 42.8099118960997, "longitude": -72.0073337708406}, "transactions": [], "price": "$$", "location": {"address1": "158 Turnpike Rd", "address2": "", "address3": "", "city": "Jaffrey", "zip_code": "03452", "country": "US", "state": "NH", "display_address": ["158 Turnpike Rd", "Jaffrey, NH 03452"]}, "phone": "+16035325765", "display_phone": "(603) 532-5765", "distance": 21793.14449435104}, {"id": "F4yelOONhwZOpJIDLvnHMQ", "alias": "nikis-pizza-athol", "name": "Niki's Pizza", "image_url": "https://s3-media3.fl.yelpcdn.com/bphoto/9wYpf3PUarCCpmLsrm2dNg/o.jpg", "is_closed": false, "url": "https://www.yelp.com/biz/nikis-pizza-athol?adjust_creative=ywY5UnLZrNrRl2b93Ruy_g&utm_campaign=yelp_api_v3&utm_medium=api_v3_business_search&utm_source=ywY5UnLZrNrRl2b93Ruy_g", "review_count": 5, "categories": [{"alias": "pizza", "title": "Pizza"}], "rating": 2.5, "coordinates": {"latitude": 42.58874, "longitude": -72.215375}, "transactions": [], "price": "$", "location": {"address1": "1261 Chestnut St", "address2": null, "address3": null, "city": "Athol", "zip_code": "01331", "country": "US", "state": "MA", "display_address": ["1261 Chestnut St", "Athol, MA 01331"]}, "phone": "+19782492500", "display_phone": "(978) 249-2500", "distance": 9407.070450968851}, {"id": "6-zw4ZlZlamO-felkRuQEA", "alias": "pizza-pie-rindge", "name": "Pizza Pie", "image_url": "https://s3-media4.fl.yelpcdn.com/bphoto/P3D19wUOY7QjsqJuAoFaUw/o.jpg", "is_closed": false, "url": "https://www.yelp.com/biz/pizza-pie-rindge?adjust_creative=ywY5UnLZrNrRl2b93Ruy_g&utm_campaign=yelp_api_v3&utm_medium=api_v3_business_search&utm_source=ywY5UnLZrNrRl2b93Ruy_g", "review_count": 6, "categories": [{"alias": "pizza", "title": "Pizza"}], "rating": 4.0, "coordinates": {"latitude": 42.7585, "longitude": -72.00948}, "transactions": [], "price": "$$", "location": {"address1": "1116 Nh Route 119", "address2": null, "address3": null, "city": "Rindge", "zip_code": "03461", "country": "US", "state": "NH", "display_address": ["1116 Nh Route 119", "Rindge, NH 03461"]}, "phone": "+16038992080", "display_phone": "(603) 899-2080", "distance": 18088.327404360512}, {"id": "x29F4HcyieBpyaqo7WqVxg", "alias": "a-1-pizza-winchester", "name": "A-1 Pizza", "image_url": "https://s3-media4.fl.yelpcdn.com/bphoto/On4KzHKIYkdr_NiV5W1JNg/o.jpg", "is_closed": false, "url": "https://www.yelp.com/biz/a-1-pizza-winchester?adjust_creative=ywY5UnLZrNrRl2b93Ruy_g&utm_campaign=yelp_api_v3&utm_medium=api_v3_business_search&utm_source=ywY5UnLZrNrRl2b93Ruy_g", "review_count": 12, "categories": [{"alias": "pizza", "title": "Pizza"}], "rating": 2.5, "coordinates": {"latitude": 42.7662579109911, "longitude": -72.3884633613147}, "transactions": [], "price": "$$", "location": {"address1": "15 Warwick Rd", "address2": "", "address3": "", "city": "Winchester", "zip_code": "03470", "country": "US", "state": "NH", "display_address": ["15 Warwick Rd", "Winchester, NH 03470"]}, "phone": "+16032398118", "display_phone": "(603) 239-8118", "distance": 18796.746467345718}, {"id": "Z6I1yY7uBkBmaLe1L_3VJQ", "alias": "taco-bell-athol-2", "name": "Taco Bell", "image_url": "https://s3-media2.fl.yelpcdn.com/bphoto/8PYbTsrS-GRRYMzbtp7Kaw/o.jpg", "is_closed": false, "url": "https://www.yelp.com/biz/taco-bell-athol-2?adjust_creative=ywY5UnLZrNrRl2b93Ruy_g&utm_campaign=yelp_api_v3&utm_medium=api_v3_business_search&utm_source=ywY5UnLZrNrRl2b93Ruy_g", "review_count": 1, "categories": [{"alias": "tacos", "title": "Tacos"}, {"alias": "hotdogs", "title": "Fast Food"}], "rating": 4.0, "coordinates": {"latitude": 42.58012, "longitude": -72.18376}, "transactions": [], "location": {"address1": "79 Market Dr", "address2": null, "address3": null, "city": "Athol", "zip_code": "01331", "country": "US", "state": "MA", "display_address": ["79 Market Dr", "Athol, MA 01331"]}, "phone": "", "display_phone": "", "distance": 10303.382133034087}, {"id": "hce2WyKR6p9j0zGa3cl1lg", "alias": "wendys-athol", "name": "Wendy's", "image_url": "https://s3-media1.fl.yelpcdn.com/bphoto/eVXgbWFKJOuB6TAuoTftyw/o.jpg", "is_closed": false, "url": "https://www.yelp.com/biz/wendys-athol?adjust_creative=ywY5UnLZrNrRl2b93Ruy_g&utm_campaign=yelp_api_v3&utm_medium=api_v3_business_search&utm_source=ywY5UnLZrNrRl2b93Ruy_g", "review_count": 1, "categories": [{"alias": "burgers", "title": "Burgers"}, {"alias": "hotdogs", "title": "Fast Food"}], "rating": 1.0, "coordinates": {"latitude": 42.58012, "longitude": -72.18376}, "transactions": [], "location": {"address1": "56 Market Dr", "address2": null, "address3": null, "city": "Athol", "zip_code": "01331", "country": "US", "state": "MA", "display_address": ["56 Market Dr", "Athol, MA 01331"]}, "phone": "", "display_phone": "", "distance": 10287.92772308671}, {"id": "M4pDTg4c5gUmYsvHXpTllw", "alias": "friends-garden-winchendon", "name": "Friend's Garden", "image_url": "https://s3-media2.fl.yelpcdn.com/bphoto/jKW6chQtwYeR_MQZkExGIA/o.jpg", "is_closed": false, "url": "https://www.yelp.com/biz/friends-garden-winchendon?adjust_creative=ywY5UnLZrNrRl2b93Ruy_g&utm_campaign=yelp_api_v3&utm_medium=api_v3_business_search&utm_source=ywY5UnLZrNrRl2b93Ruy_g", "review_count": 10, "categories": [{"alias": "chinese", "title": "Chinese"}], "rating": 3.0, "coordinates": {"latitude": 42.6819683, "longitude": -72.04811}, "transactions": [], "price": "$$", "location": {"address1": "56 Central St", "address2": "", "address3": "", "city": "Winchendon", "zip_code": "01475", "country": "US", "state": "MA", "display_address": ["56 Central St", "Winchendon, MA 01475"]}, "phone": "+19782972277", "display_phone": "(978) 297-2277", "distance": 12245.930362444306}, {"id": "RiVxyVtL8fxMb2kYP0zutA", "alias": "moms-country-kitchen-orange", "name": "Moms Country Kitchen", "image_url": "https://s3-media2.fl.yelpcdn.com/bphoto/3_oYhJcGjKqGj3iuDH_r1Q/o.jpg", "is_closed": false, "url": "https://www.yelp.com/biz/moms-country-kitchen-orange?adjust_creative=ywY5UnLZrNrRl2b93Ruy_g&utm_campaign=yelp_api_v3&utm_medium=api_v3_business_search&utm_source=ywY5UnLZrNrRl2b93Ruy_g", "review_count": 2, "categories": [{"alias": "breakfast_brunch", "title": "Breakfast & Brunch"}], "rating": 1.0, "coordinates": {"latitude": 42.58912, "longitude": -72.29988}, "transactions": [], "location": {"address1": "217 E Main St", "address2": "", "address3": null, "city": "Orange", "zip_code": "01364", "country": "US", "state": "MA", "display_address": ["217 E Main St", "Orange, MA 01364"]}, "phone": "+19789393233", "display_phone": "(978) 939-3233", "distance": 12507.159285156773}, {"id": "TrnTjJ1-_E6C73HYGLwsKw", "alias": "renos-pizza-templeton", "name": "Reno's Pizza", "image_url": "https://s3-media3.fl.yelpcdn.com/bphoto/fqIJrOaa8cfgu-xw7htIzw/o.jpg", "is_closed": false, "url": "https://www.yelp.com/biz/renos-pizza-templeton?adjust_creative=ywY5UnLZrNrRl2b93Ruy_g&utm_campaign=yelp_api_v3&utm_medium=api_v3_business_search&utm_source=ywY5UnLZrNrRl2b93Ruy_g", "review_count": 2, "categories": [{"alias": "pizza", "title": "Pizza"}, {"alias": "burgers", "title": "Burgers"}, {"alias": "delis", "title": "Delis"}], "rating": 5.0, "coordinates": {"latitude": 42.5620072921407, "longitude": -72.0375560224056}, "transactions": [], "location": {"address1": "132 Patriots Rd", "address2": "", "address3": null, "city": "Templeton", "zip_code": "01438", "country": "US", "state": "MA", "display_address": ["132 Patriots Rd", "Templeton, MA 01438"]}, "phone": "+19786323200", "display_phone": "(978) 632-3200", "distance": 17925.932393554296}, {"id": "R-vkZRm9n6wLsApICyGAaw", "alias": "athol-house-of-pizza-restaurant-and-bakery-athol", "name": "Athol House of Pizza Restaurant & Bakery", "image_url": "https://s3-media4.fl.yelpcdn.com/bphoto/3FRiTWJglhE7qOR6gZdMTw/o.jpg", "is_closed": false, "url": "https://www.yelp.com/biz/athol-house-of-pizza-restaurant-and-bakery-athol?adjust_creative=ywY5UnLZrNrRl2b93Ruy_g&utm_campaign=yelp_api_v3&utm_medium=api_v3_business_search&utm_source=ywY5UnLZrNrRl2b93Ruy_g", "review_count": 25, "categories": [{"alias": "bakeries", "title": "Bakeries"}, {"alias": "pizza", "title": "Pizza"}], "rating": 3.0, "coordinates": {"latitude": 42.594047, "longitude": -72.229459}, "transactions": [], "price": "$$", "location": {"address1": "522 Main St", "address2": null, "address3": "", "city": "Athol", "zip_code": "01331", "country": "US", "state": "MA", "display_address": ["522 Main St", "Athol, MA 01331"]}, "phone": "+19782493762", "display_phone": "(978) 249-3762", "distance": 9088.611202381964}, {"id": "mPe60pDS3EXv22cdKwvBWg", "alias": "the-g-vegas-cafe-gardner-3", "name": "The G-Vegas Cafe", "image_url": "https://s3-media4.fl.yelpcdn.com/bphoto/J82gmv9lL6CPrBk8WMqzSg/o.jpg", "is_closed": false, "url": "https://www.yelp.com/biz/the-g-vegas-cafe-gardner-3?adjust_creative=ywY5UnLZrNrRl2b93Ruy_g&utm_campaign=yelp_api_v3&utm_medium=api_v3_business_search&utm_source=ywY5UnLZrNrRl2b93Ruy_g", "review_count": 41, "categories": [{"alias": "tradamerican", "title": "American (Traditional)"}, {"alias": "diners", "title": "Diners"}], "rating": 3.0, "coordinates": {"latitude": 42.57645, "longitude": -71.99463}, "transactions": [], "price": "$", "location": {"address1": "280 Central St", "address2": null, "address3": null, "city": "Gardner", "zip_code": "01440", "country": "US", "state": "MA", "display_address": ["280 Central St", "Gardner, MA 01440"]}, "phone": "+19786324040", "display_phone": "(978) 632-4040", "distance": 19717.858464326782}, {"id": "-PRPQJUowAthn2mmh0_mbA", "alias": "garden-pizza-and-seafood-gardner", "name": "Garden Pizza & Seafood", "image_url": "https://s3-media1.fl.yelpcdn.com/bphoto/Ma_A1uu1KF8sKgnz3eVygA/o.jpg", "is_closed": false, "url": "https://www.yelp.com/biz/garden-pizza-and-seafood-gardner?adjust_creative=ywY5UnLZrNrRl2b93Ruy_g&utm_campaign=yelp_api_v3&utm_medium=api_v3_business_search&utm_source=ywY5UnLZrNrRl2b93Ruy_g", "review_count": 14, "categories": [{"alias": "seafood", "title": "Seafood"}, {"alias": "pizza", "title": "Pizza"}], "rating": 3.0, "coordinates": {"latitude": 42.5759978, "longitude": -71.995618}, "transactions": [], "price": "$$", "location": {"address1": "24 Parker St", "address2": "", "address3": "", "city": "Gardner", "zip_code": "01440", "country": "US", "state": "MA", "display_address": ["24 Parker St", "Gardner, MA 01440"]}, "phone": "+19786302424", "display_phone": "(978) 630-2424", "distance": 19673.77150682535}, {"id": "gBZjaMTBtJ23_XmplNl0iw", "alias": "original-house-of-pizza-gardner", "name": "Original House of Pizza", "image_url": "", "is_closed": false, "url": "https://www.yelp.com/biz/original-house-of-pizza-gardner?adjust_creative=ywY5UnLZrNrRl2b93Ruy_g&utm_campaign=yelp_api_v3&utm_medium=api_v3_business_search&utm_source=ywY5UnLZrNrRl2b93Ruy_g", "review_count": 1, "categories": [{"alias": "pizza", "title": "Pizza"}], "rating": 4.0, "coordinates": {"latitude": 42.5755004882812, "longitude": -71.9955596923828}, "transactions": [], "location": {"address1": "17 Pleasant St", "address2": null, "address3": null, "city": "Gardner", "zip_code": "01440", "country": "US", "state": "MA", "display_address": ["17 Pleasant St", "Gardner, MA 01440"]}, "phone": "+19786320044", "display_phone": "(978) 632-0044", "distance": 19716.660096816762}, {"id": "o686NvNNRF8TecM4j0KxwQ", "alias": "lickity-splitz-winchendon", "name": "Lickity Splitz", "image_url": "https://s3-media3.fl.yelpcdn.com/bphoto/P12JecDQJnJB5lVQK8AepQ/o.jpg", "is_closed": false, "url": "https://www.yelp.com/biz/lickity-splitz-winchendon?adjust_creative=ywY5UnLZrNrRl2b93Ruy_g&utm_campaign=yelp_api_v3&utm_medium=api_v3_business_search&utm_source=ywY5UnLZrNrRl2b93Ruy_g", "review_count": 17, "categories": [{"alias": "icecream", "title": "Ice Cream & Frozen Yogurt"}, {"alias": "burgers", "title": "Burgers"}, {"alias": "hotdog", "title": "Hot Dogs"}], "rating": 4.0, "coordinates": {"latitude": 42.67049, "longitude": -72.07639}, "transactions": [], "price": "$", "location": {"address1": "231 Main St", "address2": "", "address3": "", "city": "Winchendon", "zip_code": "01475", "country": "US", "state": "MA", "display_address": ["231 Main St", "Winchendon, MA 01475"]}, "phone": "+19782971777", "display_phone": "(978) 297-1777", "distance": 9769.26747355133}, {"id": "WY4tfGTemDlVoqEA7TnZLw", "alias": "subway-orange-65", "name": "Subway", "image_url": "https://s3-media1.fl.yelpcdn.com/bphoto/yHsfwTIjg-rqZZxw4IC2Ww/o.jpg", "is_closed": false, "url": "https://www.yelp.com/biz/subway-orange-65?adjust_creative=ywY5UnLZrNrRl2b93Ruy_g&utm_campaign=yelp_api_v3&utm_medium=api_v3_business_search&utm_source=ywY5UnLZrNrRl2b93Ruy_g", "review_count": 3, "categories": [{"alias": "sandwiches", "title": "Sandwiches"}], "rating": 3.0, "coordinates": {"latitude": 42.5906842536539, "longitude": -72.309052020203}, "transactions": [], "price": "$", "location": {"address1": "12 E Main St", "address2": null, "address3": null, "city": "Orange", "zip_code": "01364", "country": "US", "state": "MA", "display_address": ["12 E Main St", "Orange, MA 01364"]}, "phone": "+19785442498", "display_phone": "(978) 544-2498", "distance": 12878.858015914564}, {"id": "VIUwZgCQnwpbB2w2Xbr5CA", "alias": "annes-dairy-drive-in-orange", "name": "Anne's Dairy Drive-In", "image_url": "https://s3-media2.fl.yelpcdn.com/bphoto/-Z0ToiFKnU69bQkKByRxHQ/o.jpg", "is_closed": false, "url": "https://www.yelp.com/biz/annes-dairy-drive-in-orange?adjust_creative=ywY5UnLZrNrRl2b93Ruy_g&utm_campaign=yelp_api_v3&utm_medium=api_v3_business_search&utm_source=ywY5UnLZrNrRl2b93Ruy_g", "review_count": 31, "categories": [{"alias": "seafood", "title": "Seafood"}, {"alias": "icecream", "title": "Ice Cream & Frozen Yogurt"}], "rating": 4.0, "coordinates": {"latitude": 42.587263, "longitude": -72.292644}, "transactions": [], "price": "$", "location": {"address1": "360 E Main St", "address2": "", "address3": "", "city": "Orange", "zip_code": "01364", "country": "US", "state": "MA", "display_address": ["360 E Main St", "Orange, MA 01364"]}, "phone": "+19785442093", "display_phone": "(978) 544-2093", "distance": 12246.883776487506}, {"id": "46HA2dX8l3KZWHdLmu-U8Q", "alias": "parker-house-of-pizza-gardner-2", "name": "Parker House Of Pizza", "image_url": "https://s3-media1.fl.yelpcdn.com/bphoto/MhE4Kqq3cklu9CpgnS90ng/o.jpg", "is_closed": false, "url": "https://www.yelp.com/biz/parker-house-of-pizza-gardner-2?adjust_creative=ywY5UnLZrNrRl2b93Ruy_g&utm_campaign=yelp_api_v3&utm_medium=api_v3_business_search&utm_source=ywY5UnLZrNrRl2b93Ruy_g", "review_count": 10, "categories": [{"alias": "pizza", "title": "Pizza"}, {"alias": "burgers", "title": "Burgers"}, {"alias": "wraps", "title": "Wraps"}], "rating": 4.5, "coordinates": {"latitude": 42.5753219691741, "longitude": -71.9953142025354}, "transactions": [], "price": "$", "location": {"address1": "17 Pleasant St", "address2": "", "address3": "", "city": "Gardner", "zip_code": "01440", "country": "US", "state": "MA", "display_address": ["17 Pleasant St", "Gardner, MA 01440"]}, "phone": "+19786329383", "display_phone": "(978) 632-9383", "distance": 19735.661161072458}, {"id": "-K-JE-XwyrytnEQlSqJwXg", "alias": "subway-winchendon-2", "name": "Subway", "image_url": "https://s3-media1.fl.yelpcdn.com/bphoto/zYt-V8vyTjY46dvcLXezdg/o.jpg", "is_closed": false, "url": "https://www.yelp.com/biz/subway-winchendon-2?adjust_creative=ywY5UnLZrNrRl2b93Ruy_g&utm_campaign=yelp_api_v3&utm_medium=api_v3_business_search&utm_source=ywY5UnLZrNrRl2b93Ruy_g", "review_count": 3, "categories": [{"alias": "sandwiches", "title": "Sandwiches"}], "rating": 3.5, "coordinates": {"latitude": 42.6810712435512, "longitude": -72.0476153215999}, "transactions": [], "price": "$", "location": {"address1": "29 Central St", "address2": "", "address3": "", "city": "Winchendon", "zip_code": "01475", "country": "US", "state": "MA", "display_address": ["29 Central St", "Winchendon, MA 01475"]}, "phone": "+19782970011", "display_phone": "(978) 297-0011", "distance": 12278.910280119215}, {"id": "_v5NFR4TiT3FdNgXaiKRhg", "alias": "jaffrey-pizza-barn-jaffrey", "name": "Jaffrey Pizza Barn", "image_url": "https://s3-media2.fl.yelpcdn.com/bphoto/sFnrtdKk5oYEaoyyDEQ_xg/o.jpg", "is_closed": false, "url": "https://www.yelp.com/biz/jaffrey-pizza-barn-jaffrey?adjust_creative=ywY5UnLZrNrRl2b93Ruy_g&utm_campaign=yelp_api_v3&utm_medium=api_v3_business_search&utm_source=ywY5UnLZrNrRl2b93Ruy_g", "review_count": 17, "categories": [{"alias": "pizza", "title": "Pizza"}], "rating": 3.0, "coordinates": {"latitude": 42.81395, "longitude": -72.0228}, "transactions": [], "price": "$", "location": {"address1": "6 Blake St", "address2": "", "address3": "", "city": "Jaffrey", "zip_code": "03452", "country": "US", "state": "NH", "display_address": ["6 Blake St", "Jaffrey, NH 03452"]}, "phone": "+16035328383", "display_phone": "(603) 532-8383", "distance": 21241.789766952134}, {"id": "g-lnAiJGJxEtpM15bOfBeA", "alias": "jaffreys-country-cafe-jaffrey-3", "name": "Jaffrey's Country Cafe", "image_url": "https://s3-media3.fl.yelpcdn.com/bphoto/fq9oK2FxRQVB14tm3JcGqQ/o.jpg", "is_closed": false, "url": "https://www.yelp.com/biz/jaffreys-country-cafe-jaffrey-3?adjust_creative=ywY5UnLZrNrRl2b93Ruy_g&utm_campaign=yelp_api_v3&utm_medium=api_v3_business_search&utm_source=ywY5UnLZrNrRl2b93Ruy_g", "review_count": 17, "categories": [{"alias": "diners", "title": "Diners"}, {"alias": "breakfast_brunch", "title": "Breakfast & Brunch"}, {"alias": "hotdog", "title": "Hot Dogs"}], "rating": 3.5, "coordinates": {"latitude": 42.8174242, "longitude": -72.0171137}, "transactions": [], "price": "$", "location": {"address1": "80 Peterborough St", "address2": "", "address3": "", "city": "Jaffrey", "zip_code": "03452", "country": "US", "state": "NH", "display_address": ["80 Peterborough St", "Jaffrey, NH 03452"]}, "phone": "+16035326885", "display_phone": "(603) 532-6885", "distance": 21791.594307595053}, {"id": "1eB2vliYFtBP8or5oG5RuA", "alias": "the-hen-house-gardner", "name": "The Hen House", "image_url": "https://s3-media3.fl.yelpcdn.com/bphoto/w2gihixfKhsOAhUzKJPtSg/o.jpg", "is_closed": false, "url": "https://www.yelp.com/biz/the-hen-house-gardner?adjust_creative=ywY5UnLZrNrRl2b93Ruy_g&utm_campaign=yelp_api_v3&utm_medium=api_v3_business_search&utm_source=ywY5UnLZrNrRl2b93Ruy_g", "review_count": 21, "categories": [{"alias": "coffee", "title": "Coffee & Tea"}, {"alias": "breakfast_brunch", "title": "Breakfast & Brunch"}], "rating": 4.0, "coordinates": {"latitude": 42.576934, "longitude": -72.000701}, "transactions": [], "price": "$", "location": {"address1": "95 West St", "address2": null, "address3": null, "city": "Gardner", "zip_code": "01440", "country": "US", "state": "MA", "display_address": ["95 West St", "Gardner, MA 01440"]}, "phone": "+19786326322", "display_phone": "(978) 632-6322", "distance": 19268.34718230898}, {"id": "Jo0qQV0Ei2VfNZm2Qoh2nQ", "alias": "athens-pizza-house-jaffrey", "name": "Athens Pizza House", "image_url": "https://s3-media2.fl.yelpcdn.com/bphoto/Al8oIFJLfre3iPY4ihgk6A/o.jpg", "is_closed": false, "url": "https://www.yelp.com/biz/athens-pizza-house-jaffrey?adjust_creative=ywY5UnLZrNrRl2b93Ruy_g&utm_campaign=yelp_api_v3&utm_medium=api_v3_business_search&utm_source=ywY5UnLZrNrRl2b93Ruy_g", "review_count": 23, "categories": [{"alias": "pizza", "title": "Pizza"}], "rating": 3.0, "coordinates": {"latitude": 42.81573, "longitude": -72.02083}, "transactions": [], "price": "$$", "location": {"address1": "28 Peterborough St", "address2": "", "address3": "", "city": "Jaffrey", "zip_code": "03452", "country": "US", "state": "NH", "display_address": ["28 Peterborough St", "Jaffrey, NH 03452"]}, "phone": "+16035324466", "display_phone": "(603) 532-4466", "distance": 21491.170260805317}, {"id": "Hy1POwROoA4iTsszJUHyFg", "alias": "blue-moon-diner-gardner", "name": "Blue Moon Diner", "image_url": "https://s3-media1.fl.yelpcdn.com/bphoto/eEMNRD6Zzb0WmuUSlybVVQ/o.jpg", "is_closed": false, "url": "https://www.yelp.com/biz/blue-moon-diner-gardner?adjust_creative=ywY5UnLZrNrRl2b93Ruy_g&utm_campaign=yelp_api_v3&utm_medium=api_v3_business_search&utm_source=ywY5UnLZrNrRl2b93Ruy_g", "review_count": 48, "categories": [{"alias": "diners", "title": "Diners"}, {"alias": "newamerican", "title": "American (New)"}], "rating": 3.5, "coordinates": {"latitude": 42.574156, "longitude": -71.994432}, "transactions": [], "price": "$", "location": {"address1": "102 Main St", "address2": "", "address3": "", "city": "Gardner", "zip_code": "01440", "country": "US", "state": "MA", "display_address": ["102 Main St", "Gardner, MA 01440"]}, "phone": "+19786324333", "display_phone": "(978) 632-4333", "distance": 19867.20132923797}, {"id": "eIRuELHslKEMAmHm0DHbxw", "alias": "pleasant-house-of-pizza-gardner", "name": "Pleasant House of Pizza", "image_url": "", "is_closed": false, "url": "https://www.yelp.com/biz/pleasant-house-of-pizza-gardner?adjust_creative=ywY5UnLZrNrRl2b93Ruy_g&utm_campaign=yelp_api_v3&utm_medium=api_v3_business_search&utm_source=ywY5UnLZrNrRl2b93Ruy_g", "review_count": 1, "categories": [{"alias": "pizza", "title": "Pizza"}], "rating": 3.0, "coordinates": {"latitude": 42.5748923481699, "longitude": -71.9946629036695}, "transactions": [], "location": {"address1": "68 Main St", "address2": "", "address3": "", "city": "Gardner", "zip_code": "01440", "country": "US", "state": "MA", "display_address": ["68 Main St", "Gardner, MA 01440"]}, "phone": "", "display_phone": "", "distance": 19806.444253020218}, {"id": "U4ZdIbDtIlwXYbEzzDtiCQ", "alias": "mcdonalds-athol", "name": "McDonald's", "image_url": "https://s3-media1.fl.yelpcdn.com/bphoto/FSBdlAPNx4Un2ivWTJTteA/o.jpg", "is_closed": false, "url": "https://www.yelp.com/biz/mcdonalds-athol?adjust_creative=ywY5UnLZrNrRl2b93Ruy_g&utm_campaign=yelp_api_v3&utm_medium=api_v3_business_search&utm_source=ywY5UnLZrNrRl2b93Ruy_g", "review_count": 16, "categories": [{"alias": "burgers", "title": "Burgers"}, {"alias": "hotdogs", "title": "Fast Food"}, {"alias": "coffee", "title": "Coffee & Tea"}], "rating": 2.5, "coordinates": {"latitude": 42.5814984273631, "longitude": -72.2548806667328}, "transactions": [], "price": "$", "location": {"address1": "100 Brookside Rd", "address2": "", "address3": "", "city": "Athol", "zip_code": "01331", "country": "US", "state": "MA", "display_address": ["100 Brookside Rd", "Athol, MA 01331"]}, "phone": "+19782499866", "display_phone": "(978) 249-9866", "distance": 11139.470572328819}, {"id": "d9lhKS21_UHIx1CHoNOrEQ", "alias": "mcdonalds-jaffrey-2", "name": "McDonald's", "image_url": "https://s3-media1.fl.yelpcdn.com/bphoto/fpYVRt3hlVfP_PcAEkZ9ig/o.jpg", "is_closed": false, "url": "https://www.yelp.com/biz/mcdonalds-jaffrey-2?adjust_creative=ywY5UnLZrNrRl2b93Ruy_g&utm_campaign=yelp_api_v3&utm_medium=api_v3_business_search&utm_source=ywY5UnLZrNrRl2b93Ruy_g", "review_count": 3, "categories": [{"alias": "coffee", "title": "Coffee & Tea"}, {"alias": "burgers", "title": "Burgers"}, {"alias": "hotdogs", "title": "Fast Food"}], "rating": 1.5, "coordinates": {"latitude": 42.8178656, "longitude": -72.0165221}, "transactions": [], "price": "$", "location": {"address1": "85 Peterborough St", "address2": null, "address3": null, "city": "Jaffrey", "zip_code": "03452", "country": "US", "state": "NH", "display_address": ["85 Peterborough St", "Jaffrey, NH 03452"]}, "phone": "+16035324517", "display_phone": "(603) 532-4517", "distance": 21929.346522035452}, {"id": "H4s_m-4F8x__1kroZ2I66Q", "alias": "kfc-rindge-2", "name": "KFC", "image_url": "https://s3-media3.fl.yelpcdn.com/bphoto/q1DgJGOh9ZzI-reC5qCasA/o.jpg", "is_closed": false, "url": "https://www.yelp.com/biz/kfc-rindge-2?adjust_creative=ywY5UnLZrNrRl2b93Ruy_g&utm_campaign=yelp_api_v3&utm_medium=api_v3_business_search&utm_source=ywY5UnLZrNrRl2b93Ruy_g", "review_count": 3, "categories": [{"alias": "hotdogs", "title": "Fast Food"}, {"alias": "chicken_wings", "title": "Chicken Wings"}, {"alias": "chickenshop", "title": "Chicken Shop"}], "rating": 1.5, "coordinates": {"latitude": 42.74295, "longitude": -72.03664}, "transactions": ["pickup"], "price": "$", "location": {"address1": "5 Sonja Rd", "address2": "", "address3": "", "city": "Rindge", "zip_code": "03461", "country": "US", "state": "NH", "display_address": ["5 Sonja Rd", "Rindge, NH 03461"]}, "phone": "+16038995711", "display_phone": "(603) 899-5711", "distance": 15277.517179699827}, {"id": "LyHOEwOxC1AhaI3WcWvHHw", "alias": "subway-athol-4", "name": "Subway", "image_url": "https://s3-media2.fl.yelpcdn.com/bphoto/Nx4UlEcn3DY-iWlOIEh7Pw/o.jpg", "is_closed": false, "url": "https://www.yelp.com/biz/subway-athol-4?adjust_creative=ywY5UnLZrNrRl2b93Ruy_g&utm_campaign=yelp_api_v3&utm_medium=api_v3_business_search&utm_source=ywY5UnLZrNrRl2b93Ruy_g", "review_count": 1, "categories": [{"alias": "sandwiches", "title": "Sandwiches"}], "rating": 1.0, "coordinates": {"latitude": 42.5844830027347, "longitude": -72.2049929815626}, "transactions": [], "price": "$", "location": {"address1": "2250 Main St", "address2": "", "address3": "", "city": "Athol", "zip_code": "01331", "country": "US", "state": "MA", "display_address": ["2250 Main St", "Athol, MA 01331"]}, "phone": "+19782495001", "display_phone": "(978) 249-5001", "distance": 9784.067345411673}, {"id": "ZuiYzeLI0xkuaKtK344W7g", "alias": "mcdonalds-winchendon", "name": "McDonald's", "image_url": "https://s3-media3.fl.yelpcdn.com/bphoto/rvm1pTAhYvCSxMfjEkZ2Ig/o.jpg", "is_closed": false, "url": "https://www.yelp.com/biz/mcdonalds-winchendon?adjust_creative=ywY5UnLZrNrRl2b93Ruy_g&utm_campaign=yelp_api_v3&utm_medium=api_v3_business_search&utm_source=ywY5UnLZrNrRl2b93Ruy_g", "review_count": 10, "categories": [{"alias": "hotdogs", "title": "Fast Food"}, {"alias": "burgers", "title": "Burgers"}, {"alias": "coffee", "title": "Coffee & Tea"}], "rating": 3.0, "coordinates": {"latitude": 42.6788121982942, "longitude": -72.039158642292}, "transactions": [], "price": "$", "location": {"address1": "235 Spring St", "address2": "", "address3": "", "city": "Winchendon", "zip_code": "01475", "country": "US", "state": "MA", "display_address": ["235 Spring St", "Winchendon, MA 01475"]}, "phone": "+19782973528", "display_phone": "(978) 297-3528", "distance": 12951.917034695594}, {"id": "EseiX0MDxRxSqGHLanw18w", "alias": "taco-bell-rindge", "name": "Taco Bell", "image_url": "https://s3-media1.fl.yelpcdn.com/bphoto/I47Rf9KGThaEenJieZM-9g/o.jpg", "is_closed": false, "url": "https://www.yelp.com/biz/taco-bell-rindge?adjust_creative=ywY5UnLZrNrRl2b93Ruy_g&utm_campaign=yelp_api_v3&utm_medium=api_v3_business_search&utm_source=ywY5UnLZrNrRl2b93Ruy_g", "review_count": 12, "categories": [{"alias": "tex-mex", "title": "Tex-Mex"}, {"alias": "hotdogs", "title": "Fast Food"}, {"alias": "mexican", "title": "Mexican"}], "rating": 1.5, "coordinates": {"latitude": 42.737707, "longitude": -72.034688}, "transactions": [], "price": "$", "location": {"address1": "5 Sonja Road", "address2": null, "address3": null, "city": "Rindge", "zip_code": "03461", "country": "US", "state": "NH", "display_address": ["5 Sonja Road", "Rindge, NH 03461"]}, "phone": "+16038995711", "display_phone": "(603) 899-5711", "distance": 15150.96118274628}, {"id": "kqir5dO2JZ5Y0HYO33wbCQ", "alias": "dominos-pizza-gardner", "name": "Domino's Pizza", "image_url": "https://s3-media1.fl.yelpcdn.com/bphoto/xblCtNJCS2ds7BgENryLEw/o.jpg", "is_closed": false, "url": "https://www.yelp.com/biz/dominos-pizza-gardner?adjust_creative=ywY5UnLZrNrRl2b93Ruy_g&utm_campaign=yelp_api_v3&utm_medium=api_v3_business_search&utm_source=ywY5UnLZrNrRl2b93Ruy_g", "review_count": 6, "categories": [{"alias": "pizza", "title": "Pizza"}, {"alias": "chicken_wings", "title": "Chicken Wings"}, {"alias": "sandwiches", "title": "Sandwiches"}], "rating": 2.5, "coordinates": {"latitude": 42.5749306, "longitude": -72.006989}, "transactions": [], "price": "$", "location": {"address1": "401 Parker St", "address2": "", "address3": "", "city": "Gardner", "zip_code": "01440", "country": "US", "state": "MA", "display_address": ["401 Parker St", "Gardner, MA 01440"]}, "phone": "+19786328170", "display_phone": "(978) 632-8170", "distance": 18973.06504833866}, {"id": "dBz5LafbSkJq4bJCj5Zq4Q", "alias": "subway-jaffrey-3", "name": "Subway", "image_url": "https://s3-media1.fl.yelpcdn.com/bphoto/DRXyRzQ5uKpWcVmX88kzhA/o.jpg", "is_closed": false, "url": "https://www.yelp.com/biz/subway-jaffrey-3?adjust_creative=ywY5UnLZrNrRl2b93Ruy_g&utm_campaign=yelp_api_v3&utm_medium=api_v3_business_search&utm_source=ywY5UnLZrNrRl2b93Ruy_g", "review_count": 3, "categories": [{"alias": "sandwiches", "title": "Sandwiches"}], "rating": 2.5, "coordinates": {"latitude": 42.8167221138416, "longitude": -72.0172112472956}, "transactions": [], "price": "$", "location": {"address1": "80 Peterborough St", "address2": "", "address3": "", "city": "Jaffrey", "zip_code": "03452", "country": "US", "state": "NH", "display_address": ["80 Peterborough St", "Jaffrey, NH 03452"]}, "phone": "+16035328844", "display_phone": "(603) 532-8844", "distance": 21778.06982454847}, {"id": "hDvkTp4bTKcR9AsXA-5_IQ", "alias": "subway-gardner-8", "name": "Subway", "image_url": "https://s3-media1.fl.yelpcdn.com/bphoto/WM4Y6gUg-7rY_jCSUH8bZw/o.jpg", "is_closed": false, "url": "https://www.yelp.com/biz/subway-gardner-8?adjust_creative=ywY5UnLZrNrRl2b93Ruy_g&utm_campaign=yelp_api_v3&utm_medium=api_v3_business_search&utm_source=ywY5UnLZrNrRl2b93Ruy_g", "review_count": 1, "categories": [{"alias": "sandwiches", "title": "Sandwiches"}], "rating": 1.0, "coordinates": {"latitude": 42.5514561, "longitude": -71.9946827}, "transactions": [], "price": "$", "location": {"address1": "677 Timpany Blvd", "address2": null, "address3": null, "city": "Gardner", "zip_code": "01440", "country": "US", "state": "MA", "display_address": ["677 Timpany Blvd", "Gardner, MA 01440"]}, "phone": "+19786301113", "display_phone": "(978) 630-1113", "distance": 21344.4174897494}]