[{"id": "E0wk9-VkuKMY6TKHReKETw", "alias": "the-grouse-house-otis", "name": "The Grouse House", "image_url": "https://s3-media4.fl.yelpcdn.com/bphoto/87Fh7pVCqwvC2JYJXj0GPA/o.jpg", "is_closed": false, "url": "https://www.yelp.com/biz/the-grouse-house-otis?adjust_creative=ywY5UnLZrNrRl2b93Ruy_g&utm_campaign=yelp_api_v3&utm_medium=api_v3_business_search&utm_source=ywY5UnLZrNrRl2b93Ruy_g", "review_count": 20, "categories": [{"alias": "bbq", "title": "Barbeque"}, {"alias": "tradamerican", "title": "American (Traditional)"}], "rating": 4.0, "coordinates": {"latitude": 42.196707, "longitude": -73.100016}, "transactions": [], "price": "$", "location": {"address1": "195 Monterey Rd", "address2": null, "address3": null, "city": "Otis", "zip_code": "01253", "country": "US", "state": "MA", "display_address": ["195 Monterey Rd", "Otis, MA 01253"]}, "phone": "+14132694446", "display_phone": "(413) 269-4446", "distance": 937.9357270033752}, {"id": "yjoE7dKa-FC51WJ4XvcDwQ", "alias": "fratellis-restaurant-and-pizza-otis", "name": "Fratelli's Restaurant & Pizza", "image_url": "https://s3-media3.fl.yelpcdn.com/bphoto/q2Vymqd4Szn0S-cdT4CKMw/o.jpg", "is_closed": false, "url": "https://www.yelp.com/biz/fratellis-restaurant-and-pizza-otis?adjust_creative=ywY5UnLZrNrRl2b93Ruy_g&utm_campaign=yelp_api_v3&utm_medium=api_v3_business_search&utm_source=ywY5UnLZrNrRl2b93Ruy_g", "review_count": 34, "categories": [{"alias": "italian", "title": "Italian"}, {"alias": "pizza", "title": "Pizza"}], "rating": 4.0, "coordinates": {"latitude": 42.19269, "longitude": -73.09249}, "transactions": [], "price": "$$", "location": {"address1": "8 S Main Rd", "address2": "", "address3": "", "city": "Otis", "zip_code": "01253", "country": "US", "state": "MA", "display_address": ["8 S Main Rd", "Otis, MA 01253"]}, "phone": "+14132694900", "display_phone": "(413) 269-4900", "distance": 1590.827630450016}, {"id": "KvDsKP3pvTjryvkzyibs-Q", "alias": "cantina-229-new-marlborough", "name": "Cantina 229", "image_url": "https://s3-media3.fl.yelpcdn.com/bphoto/Hw1Rq3WEBuXL4bUR_0T4hQ/o.jpg", "is_closed": false, "url": "https://www.yelp.com/biz/cantina-229-new-marlborough?adjust_creative=ywY5UnLZrNrRl2b93Ruy_g&utm_campaign=yelp_api_v3&utm_medium=api_v3_business_search&utm_source=ywY5UnLZrNrRl2b93Ruy_g", "review_count": 54, "categories": [{"alias": "tapas", "title": "Tapas Bars"}, {"alias": "vegetarian", "title": "Vegetarian"}, {"alias": "asianfusion", "title": "Asian Fusion"}], "rating": 4.5, "coordinates": {"latitude": 42.123587790542, "longitude": -73.2348696057758}, "transactions": [], "price": "$$", "location": {"address1": "229 Hartsville New Marlboro Rd", "address2": "", "address3": null, "city": "New Marlborough", "zip_code": "01230", "country": "US", "state": "MA", "display_address": ["229 Hartsville New Marlboro Rd", "New Marlborough, MA 01230"]}, "phone": "+14132293276", "display_phone": "(413) 229-3276", "distance": 12945.459658818809}, {"id": "L23iQ-ONcUb0edZeJJX_nA", "alias": "chester-common-table-chester", "name": "Chester Common Table", "image_url": "https://s3-media4.fl.yelpcdn.com/bphoto/DAStUuP7cBK4DbiHf3HhTQ/o.jpg", "is_closed": false, "url": "https://www.yelp.com/biz/chester-common-table-chester?adjust_creative=ywY5UnLZrNrRl2b93Ruy_g&utm_campaign=yelp_api_v3&utm_medium=api_v3_business_search&utm_source=ywY5UnLZrNrRl2b93Ruy_g", "review_count": 32, "categories": [{"alias": "comfortfood", "title": "Comfort Food"}, {"alias": "tradamerican", "title": "American (Traditional)"}], "rating": 4.5, "coordinates": {"latitude": 42.280002, "longitude": -72.980058}, "transactions": [], "price": "$$", "location": {"address1": "30 Main St", "address2": null, "address3": "", "city": "Chester", "zip_code": "01011", "country": "US", "state": "MA", "display_address": ["30 Main St", "Chester, MA 01011"]}, "phone": "+14133541076", "display_phone": "(413) 354-1076", "distance": 14322.884217976492}, {"id": "dszOlLrMfHdrsDTfV6YzCg", "alias": "knox-trail-inn-otis-2", "name": "Knox Trail Inn", "image_url": "https://s3-media4.fl.yelpcdn.com/bphoto/Q0tfwOgbXD_uuosWWW5ZYw/o.jpg", "is_closed": false, "url": "https://www.yelp.com/biz/knox-trail-inn-otis-2?adjust_creative=ywY5UnLZrNrRl2b93Ruy_g&utm_campaign=yelp_api_v3&utm_medium=api_v3_business_search&utm_source=ywY5UnLZrNrRl2b93Ruy_g", "review_count": 25, "categories": [{"alias": "pizza", "title": "Pizza"}, {"alias": "pubs", "title": "Pubs"}, {"alias": "tradamerican", "title": "American (Traditional)"}], "rating": 3.5, "coordinates": {"latitude": 42.17358, "longitude": -73.03564}, "transactions": [], "price": "$$", "location": {"address1": "1898 E Otis Rd", "address2": null, "address3": null, "city": "Otis", "zip_code": "01253", "country": "US", "state": "MA", "display_address": ["1898 E Otis Rd", "Otis, MA 01253"]}, "phone": "+14132694400", "display_phone": "(413) 269-4400", "distance": 6708.707408910834}, {"id": "tzGeP8RTMlywrPLoufd_Fw", "alias": "farmington-river-diner-otis", "name": "Farmington River Diner", "image_url": "https://s3-media4.fl.yelpcdn.com/bphoto/ut6IiVEvNLgXTrhRu4jAHw/o.jpg", "is_closed": false, "url": "https://www.yelp.com/biz/farmington-river-diner-otis?adjust_creative=ywY5UnLZrNrRl2b93Ruy_g&utm_campaign=yelp_api_v3&utm_medium=api_v3_business_search&utm_source=ywY5UnLZrNrRl2b93Ruy_g", "review_count": 21, "categories": [{"alias": "diners", "title": "Diners"}, {"alias": "breakfast_brunch", "title": "Breakfast & Brunch"}], "rating": 3.5, "coordinates": {"latitude": 42.1899823524507, "longitude": -73.0904081204439}, "transactions": [], "price": "$$$", "location": {"address1": "119 S Main Rd", "address2": "", "address3": "", "city": "Otis", "zip_code": "01253", "country": "US", "state": "MA", "display_address": ["119 S Main Rd", "Otis, MA 01253"]}, "phone": "+14132696874", "display_phone": "(413) 269-6874", "distance": 1821.4758753459491}, {"id": "o972aKqdzYGiCzWWZx6vWQ", "alias": "chez-nous-lee", "name": "Chez Nous", "image_url": "https://s3-media3.fl.yelpcdn.com/bphoto/iBqQB-SYonf87TmSaxy4XA/o.jpg", "is_closed": false, "url": "https://www.yelp.com/biz/chez-nous-lee?adjust_creative=ywY5UnLZrNrRl2b93Ruy_g&utm_campaign=yelp_api_v3&utm_medium=api_v3_business_search&utm_source=ywY5UnLZrNrRl2b93Ruy_g", "review_count": 195, "categories": [{"alias": "french", "title": "French"}], "rating": 4.5, "coordinates": {"latitude": 42.30769, "longitude": -73.25031}, "transactions": ["pickup", "delivery", "restaurant_reservation"], "price": "$$$", "location": {"address1": "150 Main St", "address2": "", "address3": "", "city": "Lee", "zip_code": "01238", "country": "US", "state": "MA", "display_address": ["150 Main St", "Lee, MA 01238"]}, "phone": "+14132436397", "display_phone": "(413) 243-6397", "distance": 16948.007552754287}, {"id": "Rr4cVS2LhKTmPM8bozHf_A", "alias": "post-eatery-and-bar-lee", "name": "Post Eatery & Bar", "image_url": "https://s3-media3.fl.yelpcdn.com/bphoto/UaHbdUfgC0rrX2R43_mKDQ/o.jpg", "is_closed": false, "url": "https://www.yelp.com/biz/post-eatery-and-bar-lee?adjust_creative=ywY5UnLZrNrRl2b93Ruy_g&utm_campaign=yelp_api_v3&utm_medium=api_v3_business_search&utm_source=ywY5UnLZrNrRl2b93Ruy_g", "review_count": 42, "categories": [{"alias": "newamerican", "title": "American (New)"}], "rating": 4.5, "coordinates": {"latitude": 42.30537, "longitude": -73.24988}, "transactions": [], "location": {"address1": "5 Railroad St", "address2": "", "address3": null, "city": "Lee", "zip_code": "01238", "country": "US", "state": "MA", "display_address": ["5 Railroad St", "Lee, MA 01238"]}, "phone": "+14133944275", "display_phone": "(413) 394-4275", "distance": 16730.272446935993}, {"id": "2Xp8K5kCnUIEYFKFfTokZQ", "alias": "once-upon-a-table-stockbridge", "name": "Once Upon A Table", "image_url": "https://s3-media3.fl.yelpcdn.com/bphoto/vR4uWZ3rfBiwfKYSaB-e6Q/o.jpg", "is_closed": false, "url": "https://www.yelp.com/biz/once-upon-a-table-stockbridge?adjust_creative=ywY5UnLZrNrRl2b93Ruy_g&utm_campaign=yelp_api_v3&utm_medium=api_v3_business_search&utm_source=ywY5UnLZrNrRl2b93Ruy_g", "review_count": 170, "categories": [{"alias": "tradamerican", "title": "American (Traditional)"}], "rating": 4.0, "coordinates": {"latitude": 42.28175, "longitude": -73.31132}, "transactions": ["delivery"], "price": "$$", "location": {"address1": "36 Main St", "address2": "", "address3": "", "city": "Stockbridge", "zip_code": "01262", "country": "US", "state": "MA", "display_address": ["36 Main St", "Stockbridge, MA 01262"]}, "phone": "+14132983870", "display_phone": "(413) 298-3870", "distance": 19062.20369337149}, {"id": "DmetKxKYhXoqaI_R5DwyJQ", "alias": "gedney-farm-new-marlborough", "name": "Gedney Farm", "image_url": "https://s3-media2.fl.yelpcdn.com/bphoto/nLWn288VzwTefgTsWAeQfA/o.jpg", "is_closed": false, "url": "https://www.yelp.com/biz/gedney-farm-new-marlborough?adjust_creative=ywY5UnLZrNrRl2b93Ruy_g&utm_campaign=yelp_api_v3&utm_medium=api_v3_business_search&utm_source=ywY5UnLZrNrRl2b93Ruy_g", "review_count": 28, "categories": [{"alias": "venues", "title": "Venues & Event Spaces"}, {"alias": "vegetarian", "title": "Vegetarian"}, {"alias": "tradamerican", "title": "American (Traditional)"}], "rating": 4.0, "coordinates": {"latitude": 42.1218836220813, "longitude": -73.2255731630722}, "transactions": [], "price": "$$$", "location": {"address1": "34 Hartsville-New Marlboro Rd", "address2": "", "address3": "", "city": "New Marlborough", "zip_code": "01230", "country": "US", "state": "MA", "display_address": ["34 Hartsville-New Marlboro Rd", "New Marlborough, MA 01230"]}, "phone": "+14132293131", "display_phone": "(413) 229-3131", "distance": 12474.916848903373}, {"id": "9E7bSiKklQQX5ITubqhy7Q", "alias": "m-j-tuckers-sandisfield-2", "name": "M J Tucker's", "image_url": "https://s3-media1.fl.yelpcdn.com/bphoto/1qAbTc07x0gekFUUKHnd2g/o.jpg", "is_closed": false, "url": "https://www.yelp.com/biz/m-j-tuckers-sandisfield-2?adjust_creative=ywY5UnLZrNrRl2b93Ruy_g&utm_campaign=yelp_api_v3&utm_medium=api_v3_business_search&utm_source=ywY5UnLZrNrRl2b93Ruy_g", "review_count": 6, "categories": [{"alias": "pizza", "title": "Pizza"}], "rating": 4.0, "coordinates": {"latitude": 42.0787, "longitude": -73.06869}, "transactions": [], "location": {"address1": "61 S Main St", "address2": null, "address3": null, "city": "Sandisfield", "zip_code": "01255", "country": "US", "state": "MA", "display_address": ["61 S Main St", "Sandisfield, MA 01255"]}, "phone": "+14132584040", "display_phone": "(413) 258-4040", "distance": 13420.088895791647}, {"id": "EXUaFzhvXNjCRNmylmOhxw", "alias": "the-old-inn-on-the-green-at-the-pillow-becket", "name": "The Old Inn on the Green at the Pillow", "image_url": "https://s3-media2.fl.yelpcdn.com/bphoto/xeUMF_3ZHQOd0piGgU83RA/o.jpg", "is_closed": false, "url": "https://www.yelp.com/biz/the-old-inn-on-the-green-at-the-pillow-becket?adjust_creative=ywY5UnLZrNrRl2b93Ruy_g&utm_campaign=yelp_api_v3&utm_medium=api_v3_business_search&utm_source=ywY5UnLZrNrRl2b93Ruy_g", "review_count": 13, "categories": [{"alias": "newamerican", "title": "American (New)"}], "rating": 3.0, "coordinates": {"latitude": 42.26658, "longitude": -73.11659}, "transactions": [], "location": {"address1": "358 George Carter Rd", "address2": "", "address3": null, "city": "Becket", "zip_code": "01223", "country": "US", "state": "MA", "display_address": ["358 George Carter Rd", "Becket, MA 01223"]}, "phone": "+14132120303", "display_phone": "(413) 212-0303", "distance": 7684.171219184849}, {"id": "KwAaAZte_nWKeny_lAb0nA", "alias": "dream-away-lodge-becket", "name": "Dream Away Lodge", "image_url": "https://s3-media2.fl.yelpcdn.com/bphoto/Oh289v27yllCU-Zj_WK1MA/o.jpg", "is_closed": false, "url": "https://www.yelp.com/biz/dream-away-lodge-becket?adjust_creative=ywY5UnLZrNrRl2b93Ruy_g&utm_campaign=yelp_api_v3&utm_medium=api_v3_business_search&utm_source=ywY5UnLZrNrRl2b93Ruy_g", "review_count": 87, "categories": [{"alias": "bars", "title": "Bars"}, {"alias": "newamerican", "title": "American (New)"}], "rating": 3.5, "coordinates": {"latitude": 42.32495, "longitude": -73.14103}, "transactions": [], "price": "$$", "location": {"address1": "1342 County Rd", "address2": "", "address3": "", "city": "Becket", "zip_code": "01223", "country": "US", "state": "MA", "display_address": ["1342 County Rd", "Becket, MA 01223"]}, "phone": "+14136238725", "display_phone": "(413) 623-8725", "distance": 14610.833899227146}, {"id": "NQILKfW2PMwlWb1V-ppJMQ", "alias": "morgan-house-lee", "name": "Morgan House", "image_url": "https://s3-media3.fl.yelpcdn.com/bphoto/AWQ6KBz-N19MXaHmW_2BiQ/o.jpg", "is_closed": false, "url": "https://www.yelp.com/biz/morgan-house-lee?adjust_creative=ywY5UnLZrNrRl2b93Ruy_g&utm_campaign=yelp_api_v3&utm_medium=api_v3_business_search&utm_source=ywY5UnLZrNrRl2b93Ruy_g", "review_count": 110, "categories": [{"alias": "bedbreakfast", "title": "Bed & Breakfast"}, {"alias": "newamerican", "title": "American (New)"}, {"alias": "tradamerican", "title": "American (Traditional)"}], "rating": 4.0, "coordinates": {"latitude": 42.30484, "longitude": -73.24921}, "transactions": ["delivery"], "price": "$$", "location": {"address1": "33 Main St", "address2": "", "address3": "", "city": "Lee", "zip_code": "01238", "country": "US", "state": "MA", "display_address": ["33 Main St", "Lee, MA 01238"]}, "phone": "+14132433661", "display_phone": "(413) 243-3661", "distance": 16665.013050054957}, {"id": "1rI6pNcpm187YIP4Q1kIkw", "alias": "51-park-restaurant-and-tavern-lee", "name": "51 Park Restaurant & Tavern", "image_url": "https://s3-media4.fl.yelpcdn.com/bphoto/i8pfpWfkKcDreIreT5F80Q/o.jpg", "is_closed": false, "url": "https://www.yelp.com/biz/51-park-restaurant-and-tavern-lee?adjust_creative=ywY5UnLZrNrRl2b93Ruy_g&utm_campaign=yelp_api_v3&utm_medium=api_v3_business_search&utm_source=ywY5UnLZrNrRl2b93Ruy_g", "review_count": 293, "categories": [{"alias": "pizza", "title": "Pizza"}, {"alias": "bars", "title": "Bars"}, {"alias": "tradamerican", "title": "American (Traditional)"}], "rating": 4.0, "coordinates": {"latitude": 42.3041968750153, "longitude": -73.2482657867333}, "transactions": ["delivery"], "price": "$$", "location": {"address1": "51 Park St", "address2": "", "address3": "", "city": "Lee", "zip_code": "01238", "country": "US", "state": "MA", "display_address": ["51 Park St", "Lee, MA 01238"]}, "phone": "+14132432153", "display_phone": "(413) 243-2153", "distance": 16536.851366229854}, {"id": "bPB51VTWLgvlO_afOXGfVg", "alias": "lucias-latin-kitchen-lee", "name": "Lucia's Latin Kitchen", "image_url": "https://s3-media2.fl.yelpcdn.com/bphoto/m7K8y3UcSnE_wc6EZBkDJQ/o.jpg", "is_closed": false, "url": "https://www.yelp.com/biz/lucias-latin-kitchen-lee?adjust_creative=ywY5UnLZrNrRl2b93Ruy_g&utm_campaign=yelp_api_v3&utm_medium=api_v3_business_search&utm_source=ywY5UnLZrNrRl2b93Ruy_g", "review_count": 17, "categories": [{"alias": "latin", "title": "Latin American"}], "rating": 4.5, "coordinates": {"latitude": 42.30863, "longitude": -73.25241}, "transactions": ["delivery"], "location": {"address1": "109 Railroad St", "address2": "", "address3": null, "city": "Lee", "zip_code": "01238", "country": "US", "state": "MA", "display_address": ["109 Railroad St", "Lee, MA 01238"]}, "phone": "+14133945009", "display_phone": "(413) 394-5009", "distance": 17122.527985126322}, {"id": "UE7ZoJkkX3Enq8MS5X4ASw", "alias": "alpamayo-restaurant-lee-2", "name": "Alpamayo Restaurant", "image_url": "https://s3-media2.fl.yelpcdn.com/bphoto/5jIxLQ4LXaiJPpyTnJ1d9g/o.jpg", "is_closed": false, "url": "https://www.yelp.com/biz/alpamayo-restaurant-lee-2?adjust_creative=ywY5UnLZrNrRl2b93Ruy_g&utm_campaign=yelp_api_v3&utm_medium=api_v3_business_search&utm_source=ywY5UnLZrNrRl2b93Ruy_g", "review_count": 120, "categories": [{"alias": "peruvian", "title": "Peruvian"}, {"alias": "seafood", "title": "Seafood"}, {"alias": "soup", "title": "Soup"}], "rating": 4.0, "coordinates": {"latitude": 42.3056, "longitude": -73.249264}, "transactions": ["delivery"], "price": "$$", "location": {"address1": "60 Main St", "address2": "", "address3": "", "city": "Lee", "zip_code": "01238", "country": "US", "state": "MA", "display_address": ["60 Main St", "Lee, MA 01238"]}, "phone": "+14132436000", "display_phone": "(413) 243-6000", "distance": 16706.976885944434}, {"id": "sZgz8QmrpPP9Bdb05duIIw", "alias": "sherwood-shoppe-becket", "name": "Sherwood Shoppe", "image_url": "https://s3-media4.fl.yelpcdn.com/bphoto/Aq0y_PiAhV_XqC56wD-m4Q/o.jpg", "is_closed": false, "url": "https://www.yelp.com/biz/sherwood-shoppe-becket?adjust_creative=ywY5UnLZrNrRl2b93Ruy_g&utm_campaign=yelp_api_v3&utm_medium=api_v3_business_search&utm_source=ywY5UnLZrNrRl2b93Ruy_g", "review_count": 12, "categories": [{"alias": "convenience", "title": "Convenience Stores"}, {"alias": "breakfast_brunch", "title": "Breakfast & Brunch"}, {"alias": "delis", "title": "Delis"}], "rating": 4.5, "coordinates": {"latitude": 42.2538082301617, "longitude": -73.0638302117586}, "transactions": [], "price": "$", "location": {"address1": "437 Wells Rd", "address2": "", "address3": "", "city": "Becket", "zip_code": "01223", "country": "US", "state": "MA", "display_address": ["437 Wells Rd", "Becket, MA 01223"]}, "phone": "+14136232338", "display_phone": "(413) 623-2338", "distance": 7595.394546545083}, {"id": "Ij8RafJOGZno1-M4ueMrdQ", "alias": "salmon-run-fish-house-lee", "name": "Salmon Run Fish House", "image_url": "https://s3-media2.fl.yelpcdn.com/bphoto/HHwT3NihuQCFUc2ba2-8uQ/o.jpg", "is_closed": false, "url": "https://www.yelp.com/biz/salmon-run-fish-house-lee?adjust_creative=ywY5UnLZrNrRl2b93Ruy_g&utm_campaign=yelp_api_v3&utm_medium=api_v3_business_search&utm_source=ywY5UnLZrNrRl2b93Ruy_g", "review_count": 146, "categories": [{"alias": "seafood", "title": "Seafood"}], "rating": 3.5, "coordinates": {"latitude": 42.3060492, "longitude": -73.2495023}, "transactions": ["pickup", "delivery"], "price": "$$", "location": {"address1": "78 Main St", "address2": "", "address3": "", "city": "Lee", "zip_code": "01238", "country": "US", "state": "MA", "display_address": ["78 Main St", "Lee, MA 01238"]}, "phone": "+14132433900", "display_phone": "(413) 243-3900", "distance": 16747.000313105378}, {"id": "5LnwS_kqnyooA4DAeo5TtQ", "alias": "baja-charlies-lee", "name": "Baja Charlie's", "image_url": "https://s3-media3.fl.yelpcdn.com/bphoto/VHSamI5wGd2TzCuZwkIFbQ/o.jpg", "is_closed": false, "url": "https://www.yelp.com/biz/baja-charlies-lee?adjust_creative=ywY5UnLZrNrRl2b93Ruy_g&utm_campaign=yelp_api_v3&utm_medium=api_v3_business_search&utm_source=ywY5UnLZrNrRl2b93Ruy_g", "review_count": 140, "categories": [{"alias": "newamerican", "title": "American (New)"}, {"alias": "mexican", "title": "Mexican"}], "rating": 4.0, "coordinates": {"latitude": 42.3100508004427, "longitude": -73.2527308166027}, "transactions": ["delivery"], "price": "$$", "location": {"address1": "62 W Center St", "address2": "", "address3": "", "city": "Lee", "zip_code": "01238", "country": "US", "state": "MA", "display_address": ["62 W Center St", "Lee, MA 01238"]}, "phone": "+14132434322", "display_phone": "(413) 243-4322", "distance": 17267.21171371119}, {"id": "tKqf75fMPHTj85dyeSIZxQ", "alias": "blandford-country-store-and-cafe-blandford", "name": "Blandford Country Store & Cafe", "image_url": "", "is_closed": false, "url": "https://www.yelp.com/biz/blandford-country-store-and-cafe-blandford?adjust_creative=ywY5UnLZrNrRl2b93Ruy_g&utm_campaign=yelp_api_v3&utm_medium=api_v3_business_search&utm_source=ywY5UnLZrNrRl2b93Ruy_g", "review_count": 3, "categories": [{"alias": "restaurants", "title": "Restaurants"}], "rating": 4.5, "coordinates": {"latitude": 42.17962, "longitude": -72.92412}, "transactions": [], "location": {"address1": "98 Main St", "address2": "", "address3": "", "city": "Blandford", "zip_code": "01008", "country": "US", "state": "MA", "display_address": ["98 Main St", "Blandford, MA 01008"]}, "phone": "+14138482600", "display_phone": "(413) 848-2600", "distance": 15514.639560531668}, {"id": "b4-4eClP0ksWjfBUMkI1-A", "alias": "becket-general-store-becket-2", "name": "Becket General Store", "image_url": "https://s3-media2.fl.yelpcdn.com/bphoto/O1QiC8MXq3W-AcqbU7FaFQ/o.jpg", "is_closed": false, "url": "https://www.yelp.com/biz/becket-general-store-becket-2?adjust_creative=ywY5UnLZrNrRl2b93Ruy_g&utm_campaign=yelp_api_v3&utm_medium=api_v3_business_search&utm_source=ywY5UnLZrNrRl2b93Ruy_g", "review_count": 11, "categories": [{"alias": "breakfast_brunch", "title": "Breakfast & Brunch"}, {"alias": "pizza", "title": "Pizza"}, {"alias": "bars", "title": "Bars"}], "rating": 4.5, "coordinates": {"latitude": 42.3275317514641, "longitude": -73.0836283305567}, "transactions": [], "location": {"address1": "3235 Main St", "address2": "", "address3": null, "city": "Becket", "zip_code": "01223", "country": "US", "state": "MA", "display_address": ["3235 Main St", "Becket, MA 01223"]}, "phone": "+14136236026", "display_phone": "(413) 623-6026", "distance": 14865.836442048158}, {"id": "bwKFfSyhtACDwJJu1SX90Q", "alias": "mint-indian-lakeside-dining-lee", "name": "Mint - Indian Lakeside Dining", "image_url": "https://s3-media3.fl.yelpcdn.com/bphoto/9_C5f6ZUtfaNxhaLothc1Q/o.jpg", "is_closed": false, "url": "https://www.yelp.com/biz/mint-indian-lakeside-dining-lee?adjust_creative=ywY5UnLZrNrRl2b93Ruy_g&utm_campaign=yelp_api_v3&utm_medium=api_v3_business_search&utm_source=ywY5UnLZrNrRl2b93Ruy_g", "review_count": 113, "categories": [{"alias": "indpak", "title": "Indian"}], "rating": 3.5, "coordinates": {"latitude": 42.32158, "longitude": -73.25985}, "transactions": ["pickup"], "price": "$$", "location": {"address1": "435 Laurel St", "address2": null, "address3": "", "city": "Lee", "zip_code": "01238", "country": "US", "state": "MA", "display_address": ["435 Laurel St", "Lee, MA 01238"]}, "phone": "+14132436731", "display_phone": "(413) 243-6731", "distance": 18622.451590553}, {"id": "fDnZGo3bxmQlMZo3m2T96w", "alias": "katies-country-store-east-otis", "name": "Katie's Country Store", "image_url": "https://s3-media3.fl.yelpcdn.com/bphoto/0XMo7glsemhUEwtfjwZuAQ/o.jpg", "is_closed": false, "url": "https://www.yelp.com/biz/katies-country-store-east-otis?adjust_creative=ywY5UnLZrNrRl2b93Ruy_g&utm_campaign=yelp_api_v3&utm_medium=api_v3_business_search&utm_source=ywY5UnLZrNrRl2b93Ruy_g", "review_count": 6, "categories": [{"alias": "grocery", "title": "Grocery"}, {"alias": "burgers", "title": "Burgers"}, {"alias": "sandwiches", "title": "Sandwiches"}], "rating": 3.5, "coordinates": {"latitude": 42.1731642, "longitude": -73.034965}, "transactions": [], "price": "$$", "location": {"address1": "1922 E Otis Rd", "address2": "", "address3": "", "city": "East Otis", "zip_code": "01029", "country": "US", "state": "MA", "display_address": ["1922 E Otis Rd", "East Otis, MA 01029"]}, "phone": "+14132694211", "display_phone": "(413) 269-4211", "distance": 6756.135295472881}, {"id": "gYAP3sXJ_X4wG6djLj1Obw", "alias": "widow-binghams-tavern-stockbridge", "name": "Widow Bingham's Tavern", "image_url": "https://s3-media2.fl.yelpcdn.com/bphoto/LJDeLi5WNNgB6aeMVfKSgA/o.jpg", "is_closed": false, "url": "https://www.yelp.com/biz/widow-binghams-tavern-stockbridge?adjust_creative=ywY5UnLZrNrRl2b93Ruy_g&utm_campaign=yelp_api_v3&utm_medium=api_v3_business_search&utm_source=ywY5UnLZrNrRl2b93Ruy_g", "review_count": 3, "categories": [{"alias": "tradamerican", "title": "American (Traditional)"}, {"alias": "wine_bars", "title": "Wine Bars"}], "rating": 3.5, "coordinates": {"latitude": 42.2820863585488, "longitude": -73.3115655889174}, "transactions": ["delivery"], "location": {"address1": "30 Main St", "address2": "", "address3": null, "city": "Stockbridge", "zip_code": "01262", "country": "US", "state": "MA", "display_address": ["30 Main St", "Stockbridge, MA 01262"]}, "phone": "+14132985545", "display_phone": "(413) 298-5545", "distance": 19099.078704002335}, {"id": "kikbfGQqB_s-Fstuix0S3w", "alias": "timothys-grill-and-pizzeria-lee", "name": "Timothy's Grill and Pizzeria", "image_url": "https://s3-media2.fl.yelpcdn.com/bphoto/mr6czjgrgKtj_zbKLm_0gw/o.jpg", "is_closed": false, "url": "https://www.yelp.com/biz/timothys-grill-and-pizzeria-lee?adjust_creative=ywY5UnLZrNrRl2b93Ruy_g&utm_campaign=yelp_api_v3&utm_medium=api_v3_business_search&utm_source=ywY5UnLZrNrRl2b93Ruy_g", "review_count": 61, "categories": [{"alias": "pizza", "title": "Pizza"}], "rating": 3.5, "coordinates": {"latitude": 42.30556, "longitude": -73.2491299}, "transactions": ["delivery"], "price": "$$", "location": {"address1": "54 Main St", "address2": "", "address3": "", "city": "Lee", "zip_code": "01238", "country": "US", "state": "MA", "display_address": ["54 Main St", "Lee, MA 01238"]}, "phone": "+14132438220", "display_phone": "(413) 243-8220", "distance": 16695.758706905912}, {"id": "A40Rx6mb2y4rX3bz2tCMug", "alias": "buckys-tavern-lee-2", "name": "Bucky's Tavern", "image_url": "", "is_closed": false, "url": "https://www.yelp.com/biz/buckys-tavern-lee-2?adjust_creative=ywY5UnLZrNrRl2b93Ruy_g&utm_campaign=yelp_api_v3&utm_medium=api_v3_business_search&utm_source=ywY5UnLZrNrRl2b93Ruy_g", "review_count": 3, "categories": [{"alias": "tradamerican", "title": "American (Traditional)"}, {"alias": "bars", "title": "Bars"}], "rating": 4.0, "coordinates": {"latitude": 42.3052711, "longitude": -73.2502518}, "transactions": ["delivery"], "location": {"address1": "25 Consolati Way", "address2": "", "address3": "", "city": "Lee", "zip_code": "01238", "country": "US", "state": "MA", "display_address": ["25 Consolati Way", "Lee, MA 01238"]}, "phone": "+14132436484", "display_phone": "(413) 243-6484", "distance": 16722.69461512637}, {"id": "j1Caj8bDL2gm4Q4OppvMQQ", "alias": "cork-n-hearth-lee-2", "name": "Cork N' Hearth", "image_url": "https://s3-media1.fl.yelpcdn.com/bphoto/NP_IxYEUvuC983-ZmoND3w/o.jpg", "is_closed": false, "url": "https://www.yelp.com/biz/cork-n-hearth-lee-2?adjust_creative=ywY5UnLZrNrRl2b93Ruy_g&utm_campaign=yelp_api_v3&utm_medium=api_v3_business_search&utm_source=ywY5UnLZrNrRl2b93Ruy_g", "review_count": 29, "categories": [{"alias": "desserts", "title": "Desserts"}, {"alias": "wine_bars", "title": "Wine Bars"}, {"alias": "diners", "title": "Diners"}], "rating": 3.5, "coordinates": {"latitude": 42.32676, "longitude": -73.26269}, "transactions": ["delivery"], "price": "$$$", "location": {"address1": "635 Laurel St", "address2": "", "address3": "", "city": "Lee", "zip_code": "01238", "country": "US", "state": "MA", "display_address": ["635 Laurel St", "Lee, MA 01238"]}, "phone": "+14132430535", "display_phone": "(413) 243-0535", "distance": 19165.424655855855}, {"id": "BAJESGPWmLCLIpdMaiGUqA", "alias": "the-southfield-store-southfield", "name": "The Southfield Store", "image_url": "https://s3-media4.fl.yelpcdn.com/bphoto/s18dzfzxa4KvnnKwX7dqzw/o.jpg", "is_closed": false, "url": "https://www.yelp.com/biz/the-southfield-store-southfield?adjust_creative=ywY5UnLZrNrRl2b93Ruy_g&utm_campaign=yelp_api_v3&utm_medium=api_v3_business_search&utm_source=ywY5UnLZrNrRl2b93Ruy_g", "review_count": 40, "categories": [{"alias": "bakeries", "title": "Bakeries"}, {"alias": "coffee", "title": "Coffee & Tea"}, {"alias": "newamerican", "title": "American (New)"}], "rating": 3.5, "coordinates": {"latitude": 42.100691, "longitude": -73.233851}, "transactions": [], "price": "$$", "location": {"address1": "163 Norfolk Rd", "address2": null, "address3": null, "city": "Southfield", "zip_code": "01259", "country": "US", "state": "MA", "display_address": ["163 Norfolk Rd", "Southfield, MA 01259"]}, "phone": "+14132295050", "display_phone": "(413) 229-5050", "distance": 14590.838828569425}, {"id": "zYfLzClfWhxKE9wWRaDXfA", "alias": "roadside-store-and-cafe-monterey", "name": "Roadside Store & Cafe", "image_url": "https://s3-media4.fl.yelpcdn.com/bphoto/74glu4fj8UUTK6suaeBTBg/o.jpg", "is_closed": false, "url": "https://www.yelp.com/biz/roadside-store-and-cafe-monterey?adjust_creative=ywY5UnLZrNrRl2b93Ruy_g&utm_campaign=yelp_api_v3&utm_medium=api_v3_business_search&utm_source=ywY5UnLZrNrRl2b93Ruy_g", "review_count": 16, "categories": [{"alias": "breakfast_brunch", "title": "Breakfast & Brunch"}], "rating": 4.5, "coordinates": {"latitude": 42.18406, "longitude": -73.24207}, "transactions": [], "price": "$", "location": {"address1": "275 Main Rd", "address2": null, "address3": "", "city": "Monterey", "zip_code": "01245", "country": "US", "state": "MA", "display_address": ["275 Main Rd", "Monterey, MA 01245"]}, "phone": "+14135282633", "display_phone": "(413) 528-2633", "distance": 10832.297033360719}, {"id": "a3Y0KJZ0Xl3gzRysPO4prg", "alias": "wheatleigh-lenox", "name": "Wheatleigh", "image_url": "https://s3-media2.fl.yelpcdn.com/bphoto/A1J3Ld1Wz6DKPZZxOhYPaw/o.jpg", "is_closed": false, "url": "https://www.yelp.com/biz/wheatleigh-lenox?adjust_creative=ywY5UnLZrNrRl2b93Ruy_g&utm_campaign=yelp_api_v3&utm_medium=api_v3_business_search&utm_source=ywY5UnLZrNrRl2b93Ruy_g", "review_count": 32, "categories": [{"alias": "hotels", "title": "Hotels"}, {"alias": "french", "title": "French"}, {"alias": "newamerican", "title": "American (New)"}], "rating": 4.0, "coordinates": {"latitude": 42.3426224796575, "longitude": -73.3048152923584}, "transactions": [], "price": "$$$$", "location": {"address1": "11 Hawthorne Rd", "address2": "", "address3": "", "city": "Lenox", "zip_code": "01240", "country": "US", "state": "MA", "display_address": ["11 Hawthorne Rd", "Lenox, MA 01240"]}, "phone": "+14136370610", "display_phone": "(413) 637-0610", "distance": 22837.90673925268}, {"id": "D4_xUi9BdkjQeet8G1cogA", "alias": "the-bistro-lenox", "name": "The Bistro", "image_url": "https://s3-media1.fl.yelpcdn.com/bphoto/ez0NuT9or3hcVzek-8khbQ/o.jpg", "is_closed": false, "url": "https://www.yelp.com/biz/the-bistro-lenox?adjust_creative=ywY5UnLZrNrRl2b93Ruy_g&utm_campaign=yelp_api_v3&utm_medium=api_v3_business_search&utm_source=ywY5UnLZrNrRl2b93Ruy_g", "review_count": 5, "categories": [{"alias": "diners", "title": "Diners"}, {"alias": "bars", "title": "Bars"}, {"alias": "breakfast_brunch", "title": "Breakfast & Brunch"}], "rating": 4.5, "coordinates": {"latitude": 42.33615, "longitude": -73.25892}, "transactions": [], "location": {"address1": "16 Blantyre Rd", "address2": null, "address3": "", "city": "Lenox", "zip_code": "01240", "country": "US", "state": "MA", "display_address": ["16 Blantyre Rd", "Lenox, MA 01240"]}, "phone": "+14136373556", "display_phone": "(413) 637-3556", "distance": 19809.711956114596}, {"id": "p-HyVSwogxhHQs8xJ-t9vQ", "alias": "the-starving-artist-creperie-and-cafe-lee", "name": "The Starving Artist Creperie and Cafe", "image_url": "https://s3-media1.fl.yelpcdn.com/bphoto/HQIOZG95zR30GCSYkwInNw/o.jpg", "is_closed": false, "url": "https://www.yelp.com/biz/the-starving-artist-creperie-and-cafe-lee?adjust_creative=ywY5UnLZrNrRl2b93Ruy_g&utm_campaign=yelp_api_v3&utm_medium=api_v3_business_search&utm_source=ywY5UnLZrNrRl2b93Ruy_g", "review_count": 204, "categories": [{"alias": "creperies", "title": "Creperies"}, {"alias": "cafes", "title": "Cafes"}], "rating": 4.0, "coordinates": {"latitude": 42.30504, "longitude": -73.24892}, "transactions": ["delivery"], "price": "$$", "location": {"address1": "40 Main St", "address2": "Ste 2", "address3": "", "city": "Lee", "zip_code": "01238", "country": "US", "state": "MA", "display_address": ["40 Main St", "Ste 2", "Lee, MA 01238"]}, "phone": "+14133945046", "display_phone": "(413) 394-5046", "distance": 16676.183814677464}, {"id": "ix1WhyVc9cWYQExuGrlQDQ", "alias": "vivaldis-pizzeria-lee", "name": "Vivaldi's Pizzeria", "image_url": "https://s3-media1.fl.yelpcdn.com/bphoto/BSFVi2zKRZfkvT4GkrgZzw/o.jpg", "is_closed": false, "url": "https://www.yelp.com/biz/vivaldis-pizzeria-lee?adjust_creative=ywY5UnLZrNrRl2b93Ruy_g&utm_campaign=yelp_api_v3&utm_medium=api_v3_business_search&utm_source=ywY5UnLZrNrRl2b93Ruy_g", "review_count": 27, "categories": [{"alias": "pizza", "title": "Pizza"}], "rating": 3.5, "coordinates": {"latitude": 42.303386, "longitude": -73.247599}, "transactions": ["delivery"], "price": "$$", "location": {"address1": "33 Park Plz", "address2": "", "address3": "", "city": "Lee", "zip_code": "01238", "country": "US", "state": "MA", "display_address": ["33 Park Plz", "Lee, MA 01238"]}, "phone": "+14132434041", "display_phone": "(413) 243-4041", "distance": 16433.5389215873}, {"id": "wv-iymLQsllwM_YRAkTQvA", "alias": "michaels-stockbridge", "name": "Michael's", "image_url": "https://s3-media1.fl.yelpcdn.com/bphoto/UvG1sX_h5e4Th0UV3yQSqQ/o.jpg", "is_closed": false, "url": "https://www.yelp.com/biz/michaels-stockbridge?adjust_creative=ywY5UnLZrNrRl2b93Ruy_g&utm_campaign=yelp_api_v3&utm_medium=api_v3_business_search&utm_source=ywY5UnLZrNrRl2b93Ruy_g", "review_count": 52, "categories": [{"alias": "tradamerican", "title": "American (Traditional)"}, {"alias": "newamerican", "title": "American (New)"}], "rating": 3.0, "coordinates": {"latitude": 42.28076, "longitude": -73.31001}, "transactions": ["delivery"], "price": "$$", "location": {"address1": "5 Elm St", "address2": "", "address3": "", "city": "Stockbridge", "zip_code": "01262", "country": "US", "state": "MA", "display_address": ["5 Elm St", "Stockbridge, MA 01262"]}, "phone": "+14132983530", "display_phone": "(413) 298-3530", "distance": 18941.0646149409}, {"id": "CH05e_baAf7AkI94JPuWvg", "alias": "restaurants-old-inn-on-the-green-new-marlborough", "name": "Restaurants Old Inn On The Green", "image_url": "", "is_closed": false, "url": "https://www.yelp.com/biz/restaurants-old-inn-on-the-green-new-marlborough?adjust_creative=ywY5UnLZrNrRl2b93Ruy_g&utm_campaign=yelp_api_v3&utm_medium=api_v3_business_search&utm_source=ywY5UnLZrNrRl2b93Ruy_g", "review_count": 1, "categories": [{"alias": "coffee", "title": "Coffee & Tea"}, {"alias": "breakfast_brunch", "title": "Breakfast & Brunch"}, {"alias": "wine_bars", "title": "Wine Bars"}], "rating": 5.0, "coordinates": {"latitude": 42.122804, "longitude": -73.230522}, "transactions": [], "location": {"address1": "134 Hartsville-New Marlborough Rd", "address2": "", "address3": null, "city": "New Marlborough", "zip_code": "01230", "country": "US", "state": "MA", "display_address": ["134 Hartsville-New Marlborough Rd", "New Marlborough, MA 01230"]}, "phone": "+14132297924", "display_phone": "(413) 229-7924", "distance": 12718.925816986259}, {"id": "ARnHCxfth45qbu5AU2g3Og", "alias": "classic-pizza-chester", "name": "Classic Pizza", "image_url": "https://s3-media3.fl.yelpcdn.com/bphoto/eAl51P7XAPmveVMWETkH2g/o.jpg", "is_closed": false, "url": "https://www.yelp.com/biz/classic-pizza-chester?adjust_creative=ywY5UnLZrNrRl2b93Ruy_g&utm_campaign=yelp_api_v3&utm_medium=api_v3_business_search&utm_source=ywY5UnLZrNrRl2b93Ruy_g", "review_count": 8, "categories": [{"alias": "pizza", "title": "Pizza"}], "rating": 3.5, "coordinates": {"latitude": 42.2799491882324, "longitude": -72.9793853759766}, "transactions": [], "price": "$$", "location": {"address1": "29 Main St", "address2": "", "address3": "", "city": "Chester", "zip_code": "01011", "country": "US", "state": "MA", "display_address": ["29 Main St", "Chester, MA 01011"]}, "phone": "+14133546554", "display_phone": "(413) 354-6554", "distance": 14364.474851230461}, {"id": "YxyGGdlxUYVA3vkINjyNTQ", "alias": "locker-room-sports-bar-lee", "name": "Locker Room Sports Bar", "image_url": "https://s3-media2.fl.yelpcdn.com/bphoto/doxj4Q4nlRYbGy4Uf9IajA/o.jpg", "is_closed": false, "url": "https://www.yelp.com/biz/locker-room-sports-bar-lee?adjust_creative=ywY5UnLZrNrRl2b93Ruy_g&utm_campaign=yelp_api_v3&utm_medium=api_v3_business_search&utm_source=ywY5UnLZrNrRl2b93Ruy_g", "review_count": 49, "categories": [{"alias": "tradamerican", "title": "American (Traditional)"}, {"alias": "sportsbars", "title": "Sports Bars"}], "rating": 3.5, "coordinates": {"latitude": 42.309491, "longitude": -73.251066}, "transactions": ["delivery"], "price": "$$", "location": {"address1": "232 Main St", "address2": "", "address3": "", "city": "Lee", "zip_code": "01238", "country": "US", "state": "MA", "display_address": ["232 Main St", "Lee, MA 01238"]}, "phone": "+14132432662", "display_phone": "(413) 243-2662", "distance": 17130.217350435465}, {"id": "Ih_1dL1e_GcnZMCIzyWPxw", "alias": "river-dale-market-and-deli-lenox-dale", "name": "River Dale Market and Deli", "image_url": "https://s3-media4.fl.yelpcdn.com/bphoto/MTcXOfPq309gYnidVS3QMA/o.jpg", "is_closed": false, "url": "https://www.yelp.com/biz/river-dale-market-and-deli-lenox-dale?adjust_creative=ywY5UnLZrNrRl2b93Ruy_g&utm_campaign=yelp_api_v3&utm_medium=api_v3_business_search&utm_source=ywY5UnLZrNrRl2b93Ruy_g", "review_count": 1, "categories": [{"alias": "delis", "title": "Delis"}, {"alias": "convenience", "title": "Convenience Stores"}, {"alias": "meats", "title": "Meat Shops"}], "rating": 5.0, "coordinates": {"latitude": 42.33335, "longitude": -73.24598}, "transactions": [], "location": {"address1": "2 Crystal St", "address2": null, "address3": "", "city": "Lenox Dale", "zip_code": "01242", "country": "US", "state": "MA", "display_address": ["2 Crystal St", "Lenox Dale, MA 01242"]}, "phone": "+14138814136", "display_phone": "(413) 881-4136", "distance": 18930.697648606638}, {"id": "7eYkLZ4rnX_Fs-de-R5VnA", "alias": "athenas-pizza-house-lee", "name": "Athena's Pizza House", "image_url": "https://s3-media2.fl.yelpcdn.com/bphoto/ej1eFj3hU3ZUFKJBue3MvA/o.jpg", "is_closed": false, "url": "https://www.yelp.com/biz/athenas-pizza-house-lee?adjust_creative=ywY5UnLZrNrRl2b93Ruy_g&utm_campaign=yelp_api_v3&utm_medium=api_v3_business_search&utm_source=ywY5UnLZrNrRl2b93Ruy_g", "review_count": 3, "categories": [{"alias": "pizza", "title": "Pizza"}], "rating": 3.5, "coordinates": {"latitude": 42.303669, "longitude": -73.245622}, "transactions": ["delivery"], "location": {"address1": "30 Housatonic St", "address2": "", "address3": "", "city": "Lee", "zip_code": "01238", "country": "US", "state": "MA", "display_address": ["30 Housatonic St", "Lee, MA 01238"]}, "phone": "+14132431223", "display_phone": "(413) 243-1223", "distance": 16346.0005620964}, {"id": "_44KcXxrWxc025YsRUq2Gw", "alias": "prado-s-cafe-lee", "name": "Prado\u2019s Cafe", "image_url": "https://s3-media3.fl.yelpcdn.com/bphoto/p6UYYaeX6jK3U7Hfgv20JA/o.jpg", "is_closed": false, "url": "https://www.yelp.com/biz/prado-s-cafe-lee?adjust_creative=ywY5UnLZrNrRl2b93Ruy_g&utm_campaign=yelp_api_v3&utm_medium=api_v3_business_search&utm_source=ywY5UnLZrNrRl2b93Ruy_g", "review_count": 7, "categories": [{"alias": "breakfast_brunch", "title": "Breakfast & Brunch"}, {"alias": "cafes", "title": "Cafes"}], "rating": 3.5, "coordinates": {"latitude": 42.30594, "longitude": -73.24992}, "transactions": ["pickup", "delivery"], "location": {"address1": "85 Main St", "address2": null, "address3": "", "city": "Lee", "zip_code": "01238", "country": "US", "state": "MA", "display_address": ["85 Main St", "Lee, MA 01238"]}, "phone": "+14132436561", "display_phone": "(413) 243-6561", "distance": 16772.18391661954}, {"id": "nNCyiuwE-xtBc2H-vV9aDw", "alias": "debs-hot-dog-stand-granville", "name": "Deb's Hot Dog Stand", "image_url": "https://s3-media4.fl.yelpcdn.com/bphoto/wWE5qQEk5YvdWA0RDcew0Q/o.jpg", "is_closed": false, "url": "https://www.yelp.com/biz/debs-hot-dog-stand-granville?adjust_creative=ywY5UnLZrNrRl2b93Ruy_g&utm_campaign=yelp_api_v3&utm_medium=api_v3_business_search&utm_source=ywY5UnLZrNrRl2b93Ruy_g", "review_count": 3, "categories": [{"alias": "foodstands", "title": "Food Stands"}], "rating": 5.0, "coordinates": {"latitude": 42.0782279968262, "longitude": -72.9402923583984}, "transactions": [], "location": {"address1": "1542 Main Rd", "address2": "", "address3": null, "city": "Granville", "zip_code": "01034", "country": "US", "state": "MA", "display_address": ["1542 Main Rd", "Granville, MA 01034"]}, "phone": "", "display_phone": "", "distance": 19280.42336491235}, {"id": "u3vTda2vtkOdRqya20iSyg", "alias": "red-apple-lee", "name": "Red Apple", "image_url": "https://s3-media4.fl.yelpcdn.com/bphoto/SzCdSb27YWsrutpUqmmzFg/o.jpg", "is_closed": false, "url": "https://www.yelp.com/biz/red-apple-lee?adjust_creative=ywY5UnLZrNrRl2b93Ruy_g&utm_campaign=yelp_api_v3&utm_medium=api_v3_business_search&utm_source=ywY5UnLZrNrRl2b93Ruy_g", "review_count": 15, "categories": [{"alias": "chinese", "title": "Chinese"}], "rating": 3.5, "coordinates": {"latitude": 42.3042413144758, "longitude": -73.246378730496}, "transactions": ["delivery"], "price": "$", "location": {"address1": "23 Park Plz", "address2": "Ste A", "address3": "", "city": "Lee", "zip_code": "01238", "country": "US", "state": "MA", "display_address": ["23 Park Plz", "Ste A", "Lee, MA 01238"]}, "phone": "+14132434027", "display_phone": "(413) 243-4027", "distance": 16418.597498459963}, {"id": "iJzH7sbo1H7VWWLSVjzxrw", "alias": "new-england-wraps-lee", "name": "New England Wraps", "image_url": "https://s3-media3.fl.yelpcdn.com/bphoto/8kEwgGyDR5LV_fR8krxaNg/o.jpg", "is_closed": false, "url": "https://www.yelp.com/biz/new-england-wraps-lee?adjust_creative=ywY5UnLZrNrRl2b93Ruy_g&utm_campaign=yelp_api_v3&utm_medium=api_v3_business_search&utm_source=ywY5UnLZrNrRl2b93Ruy_g", "review_count": 1, "categories": [{"alias": "wraps", "title": "Wraps"}, {"alias": "burgers", "title": "Burgers"}, {"alias": "sandwiches", "title": "Sandwiches"}], "rating": 5.0, "coordinates": {"latitude": 42.305738, "longitude": -73.249225}, "transactions": ["pickup", "delivery"], "location": {"address1": "62 Main St", "address2": null, "address3": null, "city": "Lee", "zip_code": "01238", "country": "US", "state": "MA", "display_address": ["62 Main St", "Lee, MA 01238"]}, "phone": "+14133944081", "display_phone": "(413) 394-4081", "distance": 16717.52792081241}, {"id": "8nhaIMcLJMrfsiic0hSoOg", "alias": "roses-restaurant-lee", "name": "Roses Restaurant", "image_url": "https://s3-media1.fl.yelpcdn.com/bphoto/SoMhXPFohMvzs8eTUHG14w/o.jpg", "is_closed": false, "url": "https://www.yelp.com/biz/roses-restaurant-lee?adjust_creative=ywY5UnLZrNrRl2b93Ruy_g&utm_campaign=yelp_api_v3&utm_medium=api_v3_business_search&utm_source=ywY5UnLZrNrRl2b93Ruy_g", "review_count": 83, "categories": [{"alias": "breakfast_brunch", "title": "Breakfast & Brunch"}], "rating": 3.5, "coordinates": {"latitude": 42.300715, "longitude": -73.243111}, "transactions": ["delivery"], "price": "$", "location": {"address1": "160 Housatonic St", "address2": "", "address3": "", "city": "Lee", "zip_code": "01238", "country": "US", "state": "MA", "display_address": ["160 Housatonic St", "Lee, MA 01238"]}, "phone": "+14132433333", "display_phone": "(413) 243-3333", "distance": 15964.613805762669}, {"id": "Y5fUpTFQ-9MFrUa1s8jSRg", "alias": "panda-garden-lee", "name": "Panda Garden", "image_url": "https://s3-media3.fl.yelpcdn.com/bphoto/tIpsLe_VXudyUGKFuLpPhg/o.jpg", "is_closed": false, "url": "https://www.yelp.com/biz/panda-garden-lee?adjust_creative=ywY5UnLZrNrRl2b93Ruy_g&utm_campaign=yelp_api_v3&utm_medium=api_v3_business_search&utm_source=ywY5UnLZrNrRl2b93Ruy_g", "review_count": 12, "categories": [{"alias": "chinese", "title": "Chinese"}], "rating": 3.0, "coordinates": {"latitude": 42.3060799, "longitude": -73.2501526}, "transactions": ["delivery"], "price": "$", "location": {"address1": "95 Main St", "address2": null, "address3": null, "city": "Lee", "zip_code": "01238", "country": "US", "state": "MA", "display_address": ["95 Main St", "Lee, MA 01238"]}, "phone": "+14132439188", "display_phone": "(413) 243-9188", "distance": 16794.488889518278}, {"id": "G0fnN-H65DmDBcHWDwuOqA", "alias": "stockbridge-general-store-stockbridge", "name": "Stockbridge General Store", "image_url": "https://s3-media4.fl.yelpcdn.com/bphoto/5XQ8mO6_mWrK05oe8Vf1lQ/o.jpg", "is_closed": false, "url": "https://www.yelp.com/biz/stockbridge-general-store-stockbridge?adjust_creative=ywY5UnLZrNrRl2b93Ruy_g&utm_campaign=yelp_api_v3&utm_medium=api_v3_business_search&utm_source=ywY5UnLZrNrRl2b93Ruy_g", "review_count": 9, "categories": [{"alias": "grocery", "title": "Grocery"}, {"alias": "icecream", "title": "Ice Cream & Frozen Yogurt"}, {"alias": "cafes", "title": "Cafes"}], "rating": 3.0, "coordinates": {"latitude": 42.28177, "longitude": -73.31113}, "transactions": [], "location": {"address1": "40 Main St", "address2": "", "address3": "", "city": "Stockbridge", "zip_code": "01262", "country": "US", "state": "MA", "display_address": ["40 Main St", "Stockbridge, MA 01262"]}, "phone": "+14132983060", "display_phone": "(413) 298-3060", "distance": 19051.67215857385}, {"id": "Ag_IxQNO_Ta9EXkMYiwyxA", "alias": "elm-street-market-stockbridge-2", "name": "Elm Street Market", "image_url": "https://s3-media3.fl.yelpcdn.com/bphoto/zi4IDgWR2QOuvqvUiUFbfQ/o.jpg", "is_closed": false, "url": "https://www.yelp.com/biz/elm-street-market-stockbridge-2?adjust_creative=ywY5UnLZrNrRl2b93Ruy_g&utm_campaign=yelp_api_v3&utm_medium=api_v3_business_search&utm_source=ywY5UnLZrNrRl2b93Ruy_g", "review_count": 18, "categories": [{"alias": "grocery", "title": "Grocery"}, {"alias": "breakfast_brunch", "title": "Breakfast & Brunch"}, {"alias": "delis", "title": "Delis"}], "rating": 3.5, "coordinates": {"latitude": 42.2812543, "longitude": -73.3107069}, "transactions": [], "price": "$", "location": {"address1": "4 Elm St", "address2": null, "address3": null, "city": "Stockbridge", "zip_code": "01262", "country": "US", "state": "MA", "display_address": ["4 Elm St", "Stockbridge, MA 01262"]}, "phone": "+14132983634", "display_phone": "(413) 298-3634", "distance": 18991.507303074242}, {"id": "7V3RX-SPaYFt5aytErDK0g", "alias": "the-red-bucket-sugar-shack-worthington", "name": "The Red Bucket Sugar Shack", "image_url": "https://s3-media4.fl.yelpcdn.com/bphoto/dbHPKnAevuDhxLkRQIYEDw/o.jpg", "is_closed": false, "url": "https://www.yelp.com/biz/the-red-bucket-sugar-shack-worthington?adjust_creative=ywY5UnLZrNrRl2b93Ruy_g&utm_campaign=yelp_api_v3&utm_medium=api_v3_business_search&utm_source=ywY5UnLZrNrRl2b93Ruy_g", "review_count": 9, "categories": [{"alias": "breakfast_brunch", "title": "Breakfast & Brunch"}, {"alias": "tradamerican", "title": "American (Traditional)"}], "rating": 4.0, "coordinates": {"latitude": 42.344486, "longitude": -72.919398}, "transactions": [], "price": "$", "location": {"address1": "584 Kinnebrook Rd", "address2": "", "address3": "", "city": "Worthington", "zip_code": "01098", "country": "US", "state": "MA", "display_address": ["584 Kinnebrook Rd", "Worthington, MA 01098"]}, "phone": "+14132387710", "display_phone": "(413) 238-7710", "distance": 22891.250007847895}, {"id": "6VWXDm7k3-iPfm0cArdRdA", "alias": "athenas-restaurant-and-pizzeria-lee", "name": "Athena's Restaurant & Pizzeria", "image_url": "https://s3-media1.fl.yelpcdn.com/bphoto/CAFnvS_aLKojUvTSKoM3RQ/o.jpg", "is_closed": false, "url": "https://www.yelp.com/biz/athenas-restaurant-and-pizzeria-lee?adjust_creative=ywY5UnLZrNrRl2b93Ruy_g&utm_campaign=yelp_api_v3&utm_medium=api_v3_business_search&utm_source=ywY5UnLZrNrRl2b93Ruy_g", "review_count": 40, "categories": [{"alias": "italian", "title": "Italian"}, {"alias": "burgers", "title": "Burgers"}, {"alias": "mediterranean", "title": "Mediterranean"}], "rating": 2.5, "coordinates": {"latitude": 42.303675, "longitude": -73.245625}, "transactions": [], "price": "$", "location": {"address1": "30 Housatonic St", "address2": "", "address3": "", "city": "Lee", "zip_code": "01238", "country": "US", "state": "MA", "display_address": ["30 Housatonic St", "Lee, MA 01238"]}, "phone": "+14132431215", "display_phone": "(413) 243-1215", "distance": 16346.658573464849}, {"id": "EVGrHXuAo1bPFzs187TqDA", "alias": "wyndhurst-restaurant-at-cranwell-lenox-2", "name": "Wyndhurst Restaurant At Cranwell", "image_url": "https://s3-media3.fl.yelpcdn.com/bphoto/7WxPFjXNfs5lkNKvGBV2uA/o.jpg", "is_closed": false, "url": "https://www.yelp.com/biz/wyndhurst-restaurant-at-cranwell-lenox-2?adjust_creative=ywY5UnLZrNrRl2b93Ruy_g&utm_campaign=yelp_api_v3&utm_medium=api_v3_business_search&utm_source=ywY5UnLZrNrRl2b93Ruy_g", "review_count": 12, "categories": [{"alias": "coffee", "title": "Coffee & Tea"}, {"alias": "breakfast_brunch", "title": "Breakfast & Brunch"}, {"alias": "buffets", "title": "Buffets"}], "rating": 3.5, "coordinates": {"latitude": 42.33985, "longitude": -73.265758}, "transactions": ["delivery"], "price": "$$$", "location": {"address1": "55 Lee Rd", "address2": "", "address3": "", "city": "Lenox", "zip_code": "01240", "country": "US", "state": "MA", "display_address": ["55 Lee Rd", "Lenox, MA 01240"]}, "phone": "+14136371364", "display_phone": "(413) 637-1364", "distance": 20482.775347347666}, {"id": "xoajVHJmQPp4kc5qgGc1BA", "alias": "joes-diner-lee", "name": "Joe's Diner", "image_url": "https://s3-media3.fl.yelpcdn.com/bphoto/o7RM3UUFkrYh2oTkctdouQ/o.jpg", "is_closed": false, "url": "https://www.yelp.com/biz/joes-diner-lee?adjust_creative=ywY5UnLZrNrRl2b93Ruy_g&utm_campaign=yelp_api_v3&utm_medium=api_v3_business_search&utm_source=ywY5UnLZrNrRl2b93Ruy_g", "review_count": 83, "categories": [{"alias": "tradamerican", "title": "American (Traditional)"}, {"alias": "diners", "title": "Diners"}, {"alias": "breakfast_brunch", "title": "Breakfast & Brunch"}], "rating": 3.5, "coordinates": {"latitude": 42.310245, "longitude": -73.252144}, "transactions": ["delivery"], "price": "$", "location": {"address1": "85 Central St", "address2": null, "address3": "", "city": "Lee", "zip_code": "01238", "country": "US", "state": "MA", "display_address": ["85 Central St", "Lee, MA 01238"]}, "phone": "+14132439756", "display_phone": "(413) 243-9756", "distance": 17247.532871195515}, {"id": "1abRo8so6LKnAwAouIzOtQ", "alias": "simply-grillicious-lee", "name": "Simply Grillicious", "image_url": "https://s3-media3.fl.yelpcdn.com/bphoto/iW-mbQ3JwkTXSnfpbVXXYQ/o.jpg", "is_closed": false, "url": "https://www.yelp.com/biz/simply-grillicious-lee?adjust_creative=ywY5UnLZrNrRl2b93Ruy_g&utm_campaign=yelp_api_v3&utm_medium=api_v3_business_search&utm_source=ywY5UnLZrNrRl2b93Ruy_g", "review_count": 3, "categories": [{"alias": "newamerican", "title": "American (New)"}], "rating": 2.5, "coordinates": {"latitude": 42.294388, "longitude": -73.234434}, "transactions": [], "price": "$", "location": {"address1": "50 Water St", "address2": "", "address3": "", "city": "Lee", "zip_code": "01238", "country": "US", "state": "MA", "display_address": ["50 Water St", "Lee, MA 01238"]}, "phone": "+14132431345", "display_phone": "(413) 243-1345", "distance": 14963.542509829838}, {"id": "UpGxqkYYWLe3aXvHAaA6iw", "alias": "sloanes-restaurant-and-bar-lenox-2", "name": "Sloane's Restaurant & Bar", "image_url": "https://s3-media4.fl.yelpcdn.com/bphoto/pbN3999sshy1WyjCSu4A2w/o.jpg", "is_closed": false, "url": "https://www.yelp.com/biz/sloanes-restaurant-and-bar-lenox-2?adjust_creative=ywY5UnLZrNrRl2b93Ruy_g&utm_campaign=yelp_api_v3&utm_medium=api_v3_business_search&utm_source=ywY5UnLZrNrRl2b93Ruy_g", "review_count": 21, "categories": [{"alias": "salad", "title": "Salad"}, {"alias": "tradamerican", "title": "American (Traditional)"}, {"alias": "sandwiches", "title": "Sandwiches"}], "rating": 2.5, "coordinates": {"latitude": 42.34162, "longitude": -73.26428}, "transactions": [], "price": "$$", "location": {"address1": "55 Lee Rd", "address2": "", "address3": "", "city": "Lenox", "zip_code": "01240", "country": "US", "state": "MA", "display_address": ["55 Lee Rd", "Lenox, MA 01240"]}, "phone": "+14136371364", "display_phone": "(413) 637-1364", "distance": 20494.423119199535}, {"id": "REAEo2X_Do9fvZTMTPYUEA", "alias": "sweet-and-savoury-on-main-lee", "name": "Sweet and Savoury On Main", "image_url": "", "is_closed": false, "url": "https://www.yelp.com/biz/sweet-and-savoury-on-main-lee?adjust_creative=ywY5UnLZrNrRl2b93Ruy_g&utm_campaign=yelp_api_v3&utm_medium=api_v3_business_search&utm_source=ywY5UnLZrNrRl2b93Ruy_g", "review_count": 1, "categories": [{"alias": "bakeries", "title": "Bakeries"}, {"alias": "cafes", "title": "Cafes"}], "rating": 3.0, "coordinates": {"latitude": 42.305557, "longitude": -73.249139}, "transactions": [], "location": {"address1": "56 Main St", "address2": "", "address3": null, "city": "Lee", "zip_code": "01238", "country": "US", "state": "MA", "display_address": ["56 Main St", "Lee, MA 01238"]}, "phone": "+14132437777", "display_phone": "(413) 243-7777", "distance": 16695.01596980679}, {"id": "y6UTWVCEElf-FSp6p6DxDw", "alias": "chef-express-lee", "name": "Chef Express", "image_url": "https://s3-media4.fl.yelpcdn.com/bphoto/Puthelxsj7iaXoyBw5EH8Q/o.jpg", "is_closed": false, "url": "https://www.yelp.com/biz/chef-express-lee?adjust_creative=ywY5UnLZrNrRl2b93Ruy_g&utm_campaign=yelp_api_v3&utm_medium=api_v3_business_search&utm_source=ywY5UnLZrNrRl2b93Ruy_g", "review_count": 10, "categories": [{"alias": "indpak", "title": "Indian"}], "rating": 3.0, "coordinates": {"latitude": 42.30535, "longitude": -73.24909}, "transactions": ["delivery"], "price": "$$", "location": {"address1": "62 Main St", "address2": null, "address3": "", "city": "Lee", "zip_code": "01238", "country": "US", "state": "MA", "display_address": ["62 Main St", "Lee, MA 01238"]}, "phone": "+14133944081", "display_phone": "(413) 394-4081", "distance": 16717.52792081241}, {"id": "oP6MxD_tKqBF_hCgk9dOmg", "alias": "east-lee-package-store-lee", "name": "East Lee Package Store", "image_url": "https://s3-media4.fl.yelpcdn.com/bphoto/ZFn3i5E5fflh0nviMpXBgw/o.jpg", "is_closed": false, "url": "https://www.yelp.com/biz/east-lee-package-store-lee?adjust_creative=ywY5UnLZrNrRl2b93Ruy_g&utm_campaign=yelp_api_v3&utm_medium=api_v3_business_search&utm_source=ywY5UnLZrNrRl2b93Ruy_g", "review_count": 11, "categories": [{"alias": "beer_and_wine", "title": "Beer, Wine & Spirits"}, {"alias": "delis", "title": "Delis"}], "rating": 3.5, "coordinates": {"latitude": 42.2972074, "longitude": -73.2314694}, "transactions": [], "price": "$", "location": {"address1": "185 Water St", "address2": "", "address3": "", "city": "Lee", "zip_code": "01238", "country": "US", "state": "MA", "display_address": ["185 Water St", "Lee, MA 01238"]}, "phone": "+14132439768", "display_phone": "(413) 243-9768", "distance": 15050.126208213313}, {"id": "sw_fMcE7mDh9UgDAinEh4A", "alias": "papa-ginos-lee-3", "name": "Papa Gino's", "image_url": "https://s3-media2.fl.yelpcdn.com/bphoto/UtAfL7Ion7B70KTnpMkkjA/o.jpg", "is_closed": false, "url": "https://www.yelp.com/biz/papa-ginos-lee-3?adjust_creative=ywY5UnLZrNrRl2b93Ruy_g&utm_campaign=yelp_api_v3&utm_medium=api_v3_business_search&utm_source=ywY5UnLZrNrRl2b93Ruy_g", "review_count": 1, "categories": [{"alias": "pizza", "title": "Pizza"}], "rating": 2.0, "coordinates": {"latitude": 42.2956547, "longitude": -73.2708765}, "transactions": ["delivery"], "location": {"address1": "370 Stockbridge Rd", "address2": "", "address3": null, "city": "Lee", "zip_code": "01238", "country": "US", "state": "MA", "display_address": ["370 Stockbridge Rd", "Lee, MA 01238"]}, "phone": "+14132431380", "display_phone": "(413) 243-1380", "distance": 17560.756931693286}, {"id": "dEt-yktUtzEXyyspQfm_fQ", "alias": "orient-taste-lee", "name": "Orient Taste", "image_url": "https://s3-media2.fl.yelpcdn.com/bphoto/ieopyNkFT4bVtLzNmz3CZw/o.jpg", "is_closed": false, "url": "https://www.yelp.com/biz/orient-taste-lee?adjust_creative=ywY5UnLZrNrRl2b93Ruy_g&utm_campaign=yelp_api_v3&utm_medium=api_v3_business_search&utm_source=ywY5UnLZrNrRl2b93Ruy_g", "review_count": 2, "categories": [{"alias": "chinese", "title": "Chinese"}], "rating": 1.0, "coordinates": {"latitude": 42.294122, "longitude": -73.233635}, "transactions": [], "price": "$$", "location": {"address1": "50 Water St", "address2": "", "address3": "", "city": "Lee", "zip_code": "01238", "country": "US", "state": "MA", "display_address": ["50 Water St", "Lee, MA 01238"]}, "phone": "+14132436028", "display_phone": "(413) 243-6028", "distance": 14897.26793406261}, {"id": "lpeKmfeaYaNmdoPGWFBGIA", "alias": "d-angelo-lee", "name": "D'angelo", "image_url": "https://s3-media4.fl.yelpcdn.com/bphoto/cb5yh3PsNyDNz3AKGm-qPQ/o.jpg", "is_closed": false, "url": "https://www.yelp.com/biz/d-angelo-lee?adjust_creative=ywY5UnLZrNrRl2b93Ruy_g&utm_campaign=yelp_api_v3&utm_medium=api_v3_business_search&utm_source=ywY5UnLZrNrRl2b93Ruy_g", "review_count": 4, "categories": [{"alias": "delis", "title": "Delis"}], "rating": 2.0, "coordinates": {"latitude": 42.297125533502, "longitude": -73.275692678397}, "transactions": [], "price": "$$", "location": {"address1": "370 Stockbridge Rd", "address2": "", "address3": "", "city": "Lee", "zip_code": "01238", "country": "US", "state": "MA", "display_address": ["370 Stockbridge Rd", "Lee, MA 01238"]}, "phone": "+14132431380", "display_phone": "(413) 243-1380", "distance": 17637.784045308883}, {"id": "wGMb0UHJg7OtJSZ0dD7qvg", "alias": "mcdonalds-blandford-4", "name": "McDonald's", "image_url": "https://s3-media4.fl.yelpcdn.com/bphoto/pjUOJQaJPKc12XOIG90l6g/o.jpg", "is_closed": false, "url": "https://www.yelp.com/biz/mcdonalds-blandford-4?adjust_creative=ywY5UnLZrNrRl2b93Ruy_g&utm_campaign=yelp_api_v3&utm_medium=api_v3_business_search&utm_source=ywY5UnLZrNrRl2b93Ruy_g", "review_count": 3, "categories": [{"alias": "coffee", "title": "Coffee & Tea"}, {"alias": "burgers", "title": "Burgers"}, {"alias": "hotdogs", "title": "Fast Food"}], "rating": 1.5, "coordinates": {"latitude": 42.1954836, "longitude": -72.9326521}, "transactions": [], "price": "$", "location": {"address1": "50 Massachusetts Tpke", "address2": null, "address3": null, "city": "Blandford", "zip_code": "01008", "country": "US", "state": "MA", "display_address": ["50 Massachusetts Tpke", "Blandford, MA 01008"]}, "phone": "+14138482284", "display_phone": "(413) 848-2284", "distance": 14714.22257417808}, {"id": "TIYWAT8N9h-K2loTE-HH4A", "alias": "subway-lee-5", "name": "Subway", "image_url": "https://s3-media3.fl.yelpcdn.com/bphoto/XLEgFt-LDGyaXTFgPgYVBg/o.jpg", "is_closed": false, "url": "https://www.yelp.com/biz/subway-lee-5?adjust_creative=ywY5UnLZrNrRl2b93Ruy_g&utm_campaign=yelp_api_v3&utm_medium=api_v3_business_search&utm_source=ywY5UnLZrNrRl2b93Ruy_g", "review_count": 3, "categories": [{"alias": "sandwiches", "title": "Sandwiches"}], "rating": 3.0, "coordinates": {"latitude": 42.3092762, "longitude": -73.2511555276127}, "transactions": [], "price": "$", "location": {"address1": "236 Main St", "address2": null, "address3": null, "city": "Lee", "zip_code": "01238", "country": "US", "state": "MA", "display_address": ["236 Main St", "Lee, MA 01238"]}, "phone": "+14132434142", "display_phone": "(413) 243-4142", "distance": 17113.15364985299}, {"id": "2-qHSKRWlFMEBRiRbRSrzg", "alias": "villa-pizza-lee", "name": "Villa Pizza", "image_url": "https://s3-media4.fl.yelpcdn.com/bphoto/_OxZVubHLEvolZjZD3P9yg/o.jpg", "is_closed": false, "url": "https://www.yelp.com/biz/villa-pizza-lee?adjust_creative=ywY5UnLZrNrRl2b93Ruy_g&utm_campaign=yelp_api_v3&utm_medium=api_v3_business_search&utm_source=ywY5UnLZrNrRl2b93Ruy_g", "review_count": 1, "categories": [{"alias": "pizza", "title": "Pizza"}], "rating": 2.0, "coordinates": {"latitude": 42.294695, "longitude": -73.23371}, "transactions": [], "location": {"address1": "50 Water St", "address2": "", "address3": "", "city": "Lee", "zip_code": "01238", "country": "US", "state": "MA", "display_address": ["50 Water St", "Lee, MA 01238"]}, "phone": "+14133949940", "display_phone": "(413) 394-9940", "distance": 14948.403819545601}, {"id": "1KvLXb2nhGIUXwFUmfYolw", "alias": "subway-lee-6", "name": "Subway", "image_url": "https://s3-media2.fl.yelpcdn.com/bphoto/S_313jZ8G7Mzgzlegnia4Q/o.jpg", "is_closed": false, "url": "https://www.yelp.com/biz/subway-lee-6?adjust_creative=ywY5UnLZrNrRl2b93Ruy_g&utm_campaign=yelp_api_v3&utm_medium=api_v3_business_search&utm_source=ywY5UnLZrNrRl2b93Ruy_g", "review_count": 3, "categories": [{"alias": "sandwiches", "title": "Sandwiches"}], "rating": 1.5, "coordinates": {"latitude": 42.294582, "longitude": -73.233724}, "transactions": [], "price": "$", "location": {"address1": "50 Water St", "address2": "Unit H380D", "address3": "", "city": "Lee", "zip_code": "01238", "country": "US", "state": "MA", "display_address": ["50 Water St", "Unit H380D", "Lee, MA 01238"]}, "phone": "+14132438292", "display_phone": "(413) 243-8292", "distance": 14948.199134954677}, {"id": "OKFMX6hUhzA2MfnyrSRnFg", "alias": "mcdonalds-lee-6", "name": "McDonald's", "image_url": "https://s3-media1.fl.yelpcdn.com/bphoto/CAKblQXDMWh4Zy881GXPFg/o.jpg", "is_closed": false, "url": "https://www.yelp.com/biz/mcdonalds-lee-6?adjust_creative=ywY5UnLZrNrRl2b93Ruy_g&utm_campaign=yelp_api_v3&utm_medium=api_v3_business_search&utm_source=ywY5UnLZrNrRl2b93Ruy_g", "review_count": 5, "categories": [{"alias": "burgers", "title": "Burgers"}, {"alias": "hotdogs", "title": "Fast Food"}, {"alias": "coffee", "title": "Coffee & Tea"}], "rating": 2.0, "coordinates": {"latitude": 42.298505, "longitude": -73.27465333}, "transactions": [], "price": "$", "location": {"address1": "240 West Rd", "address2": "", "address3": "", "city": "Lee", "zip_code": "01238", "country": "US", "state": "MA", "display_address": ["240 West Rd", "Lee, MA 01238"]}, "phone": "+14132436695", "display_phone": "(413) 243-6695", "distance": 17657.359648102003}, {"id": "J0BGjdVn8DRjfWcNGn_WVA", "alias": "mcdonalds-blandford-3", "name": "McDonald's", "image_url": "https://s3-media1.fl.yelpcdn.com/bphoto/J1bCYvv57ylU6zkDLAEnHw/o.jpg", "is_closed": false, "url": "https://www.yelp.com/biz/mcdonalds-blandford-3?adjust_creative=ywY5UnLZrNrRl2b93Ruy_g&utm_campaign=yelp_api_v3&utm_medium=api_v3_business_search&utm_source=ywY5UnLZrNrRl2b93Ruy_g", "review_count": 11, "categories": [{"alias": "burgers", "title": "Burgers"}, {"alias": "hotdogs", "title": "Fast Food"}, {"alias": "coffee", "title": "Coffee & Tea"}], "rating": 2.0, "coordinates": {"latitude": 42.194427, "longitude": -72.93425}, "transactions": [], "price": "$", "location": {"address1": "50 North St", "address2": "", "address3": "", "city": "Blandford", "zip_code": "01008", "country": "US", "state": "MA", "display_address": ["50 North St", "Blandford, MA 01008"]}, "phone": "+14138482518", "display_phone": "(413) 848-2518", "distance": 14583.1212059215}, {"id": "4NosW9Y5YnRNcqbRxR_ySw", "alias": "fresh-city-lee", "name": "Fresh City", "image_url": "https://s3-media2.fl.yelpcdn.com/bphoto/yAdVL_Tv2vTtdKd2oe3EUQ/o.jpg", "is_closed": false, "url": "https://www.yelp.com/biz/fresh-city-lee?adjust_creative=ywY5UnLZrNrRl2b93Ruy_g&utm_campaign=yelp_api_v3&utm_medium=api_v3_business_search&utm_source=ywY5UnLZrNrRl2b93Ruy_g", "review_count": 15, "categories": [{"alias": "food_court", "title": "Food Court"}], "rating": 2.0, "coordinates": {"latitude": 42.3054990935517, "longitude": -73.2489395141602}, "transactions": [], "price": "$", "location": {"address1": "370 Stockbridge Rd", "address2": "", "address3": "", "city": "Lee", "zip_code": "01238", "country": "US", "state": "MA", "display_address": ["370 Stockbridge Rd", "Lee, MA 01238"]}, "phone": "+14132433268", "display_phone": "(413) 243-3268", "distance": 16680.601753368665}, {"id": "1T67DQkg_Guyvlkqhqu7Mw", "alias": "mcdonalds-lee", "name": "McDonald's", "image_url": "https://s3-media3.fl.yelpcdn.com/bphoto/wQLfIJNysnYKaJsoDropJg/o.jpg", "is_closed": false, "url": "https://www.yelp.com/biz/mcdonalds-lee?adjust_creative=ywY5UnLZrNrRl2b93Ruy_g&utm_campaign=yelp_api_v3&utm_medium=api_v3_business_search&utm_source=ywY5UnLZrNrRl2b93Ruy_g", "review_count": 7, "categories": [{"alias": "burgers", "title": "Burgers"}, {"alias": "hotdogs", "title": "Fast Food"}, {"alias": "coffee", "title": "Coffee & Tea"}], "rating": 2.5, "coordinates": {"latitude": 42.2969521, "longitude": -73.274561}, "transactions": [], "price": "$", "location": {"address1": "370 W Stockbridge Rd", "address2": "", "address3": "", "city": "Lee", "zip_code": "01238", "country": "US", "state": "MA", "display_address": ["370 W Stockbridge Rd", "Lee, MA 01238"]}, "phone": "+14132434666", "display_phone": "(413) 243-4666", "distance": 17554.009257903974}, {"id": "y-WH9WEyQNpsAWCoffxn1A", "alias": "mcdonalds-lee-4", "name": "McDonald's", "image_url": "https://s3-media2.fl.yelpcdn.com/bphoto/wjob_R0ECBWIvqTEItS3pw/o.jpg", "is_closed": false, "url": "https://www.yelp.com/biz/mcdonalds-lee-4?adjust_creative=ywY5UnLZrNrRl2b93Ruy_g&utm_campaign=yelp_api_v3&utm_medium=api_v3_business_search&utm_source=ywY5UnLZrNrRl2b93Ruy_g", "review_count": 9, "categories": [{"alias": "burgers", "title": "Burgers"}, {"alias": "hotdogs", "title": "Fast Food"}, {"alias": "coffee", "title": "Coffee & Tea"}], "rating": 2.0, "coordinates": {"latitude": 42.2991668943395, "longitude": -73.240801692009}, "transactions": [], "price": "$", "location": {"address1": "245 Housatonic St", "address2": "", "address3": "", "city": "Lee", "zip_code": "01238", "country": "US", "state": "MA", "display_address": ["245 Housatonic St", "Lee, MA 01238"]}, "phone": "+14132432253", "display_phone": "(413) 243-2253", "distance": 15709.254555594593}, {"id": "qqA8YX58xnmEXLyanHfdUg", "alias": "stufd-food-truck-brooklyn", "name": "Stuf'd Food Truck", "image_url": "https://s3-media2.fl.yelpcdn.com/bphoto/_Wn0i-tLIOFinw8BPAqxPA/o.jpg", "is_closed": false, "url": "https://www.yelp.com/biz/stufd-food-truck-brooklyn?adjust_creative=ywY5UnLZrNrRl2b93Ruy_g&utm_campaign=yelp_api_v3&utm_medium=api_v3_business_search&utm_source=ywY5UnLZrNrRl2b93Ruy_g", "review_count": 4, "categories": [{"alias": "sandwiches", "title": "Sandwiches"}, {"alias": "foodtrucks", "title": "Food Trucks"}], "rating": 4.0, "coordinates": {"latitude": 40.7124539, "longitude": -73.9287374}, "transactions": [], "location": {"address1": "178 Varick Ave", "address2": "", "address3": null, "city": "Brooklyn", "zip_code": "11237", "country": "US", "state": "NY", "display_address": ["178 Varick Ave", "Brooklyn, NY 11237"]}, "phone": "+18457091808", "display_phone": "(845) 709-1808", "distance": 178414.13292483732}]