[{"id": "P4qT5mxnKXKpdE4G3WIUYA", "alias": "dianes-villa-nova-holland", "name": "Dianes Villa Nova", "image_url": "https://s3-media3.fl.yelpcdn.com/bphoto/Xs8GdYVdbJAcdCsR6WLUfg/o.jpg", "is_closed": false, "url": "https://www.yelp.com/biz/dianes-villa-nova-holland?adjust_creative=ywY5UnLZrNrRl2b93Ruy_g&utm_campaign=yelp_api_v3&utm_medium=api_v3_business_search&utm_source=ywY5UnLZrNrRl2b93Ruy_g", "review_count": 24, "categories": [{"alias": "italian", "title": "Italian"}], "rating": 4.0, "coordinates": {"latitude": 42.0660911, "longitude": -72.1638886}, "transactions": [], "price": "$$", "location": {"address1": "5 Brimfield Rd", "address2": "", "address3": "", "city": "Holland", "zip_code": "01521", "country": "US", "state": "MA", "display_address": ["5 Brimfield Rd", "Holland, MA 01521"]}, "phone": "+14132459090", "display_phone": "(413) 245-9090", "distance": 681.6479376469566}, {"id": "Tj_HA19wOFNTttpgI9Oghg", "alias": "sturbridge-seafood-sturbridge", "name": "Sturbridge Seafood", "image_url": "https://s3-media1.fl.yelpcdn.com/bphoto/aD06QgTQDPoKwcFe9OWSQA/o.jpg", "is_closed": false, "url": "https://www.yelp.com/biz/sturbridge-seafood-sturbridge?adjust_creative=ywY5UnLZrNrRl2b93Ruy_g&utm_campaign=yelp_api_v3&utm_medium=api_v3_business_search&utm_source=ywY5UnLZrNrRl2b93Ruy_g", "review_count": 389, "categories": [{"alias": "seafood", "title": "Seafood"}, {"alias": "cocktailbars", "title": "Cocktail Bars"}], "rating": 4.0, "coordinates": {"latitude": 42.1110211366217, "longitude": -72.0949529}, "transactions": ["delivery", "restaurant_reservation"], "price": "$$", "location": {"address1": "376 Main St", "address2": "", "address3": "", "city": "Sturbridge", "zip_code": "01566", "country": "US", "state": "MA", "display_address": ["376 Main St", "Sturbridge, MA 01566"]}, "phone": "+15083472600", "display_phone": "(508) 347-2600", "distance": 8232.040120741287}, {"id": "Xgfi4591xeqagTByrp1JCw", "alias": "cedar-street-grille-sturbridge-2", "name": "Cedar Street Grille", "image_url": "https://s3-media1.fl.yelpcdn.com/bphoto/cPxc6_VXnItq47C8UJjxwg/o.jpg", "is_closed": false, "url": "https://www.yelp.com/biz/cedar-street-grille-sturbridge-2?adjust_creative=ywY5UnLZrNrRl2b93Ruy_g&utm_campaign=yelp_api_v3&utm_medium=api_v3_business_search&utm_source=ywY5UnLZrNrRl2b93Ruy_g", "review_count": 267, "categories": [{"alias": "newamerican", "title": "American (New)"}, {"alias": "tapasmallplates", "title": "Tapas/Small Plates"}, {"alias": "beerbar", "title": "Beer Bar"}], "rating": 4.0, "coordinates": {"latitude": 42.11328, "longitude": -72.09685}, "transactions": ["delivery"], "price": "$$", "location": {"address1": "12 Cedar St", "address2": "", "address3": "", "city": "Sturbridge", "zip_code": "01566", "country": "US", "state": "MA", "display_address": ["12 Cedar St", "Sturbridge, MA 01566"]}, "phone": "+15083475800", "display_phone": "(508) 347-5800", "distance": 8286.961194483507}, {"id": "UVo_ZqEbVZ3etybVhYOmLw", "alias": "wales-irish-pub-holland", "name": "Wales Irish Pub", "image_url": "https://s3-media2.fl.yelpcdn.com/bphoto/GpZVo9pR6Itx3P8e5697Zg/o.jpg", "is_closed": false, "url": "https://www.yelp.com/biz/wales-irish-pub-holland?adjust_creative=ywY5UnLZrNrRl2b93Ruy_g&utm_campaign=yelp_api_v3&utm_medium=api_v3_business_search&utm_source=ywY5UnLZrNrRl2b93Ruy_g", "review_count": 15, "categories": [{"alias": "irish_pubs", "title": "Irish Pub"}, {"alias": "tradamerican", "title": "American (Traditional)"}, {"alias": "diners", "title": "Diners"}], "rating": 4.5, "coordinates": {"latitude": 42.0777236263114, "longitude": -72.2023394443603}, "transactions": [], "price": "$$", "location": {"address1": "16 Holland Rd", "address2": "", "address3": "", "city": "Holland", "zip_code": "01521", "country": "US", "state": "MA", "display_address": ["16 Holland Rd", "Holland, MA 01521"]}, "phone": "+14132459730", "display_phone": "(413) 245-9730", "distance": 3354.9766140096053}, {"id": "OBhbnRg34SUC2CiWSg39zg", "alias": "b-t-s-smokehouse-sturbridge-3", "name": "B.T.'s Smokehouse", "image_url": "https://s3-media4.fl.yelpcdn.com/bphoto/1XoZm7kefHj1y6WChh0rcg/o.jpg", "is_closed": false, "url": "https://www.yelp.com/biz/b-t-s-smokehouse-sturbridge-3?adjust_creative=ywY5UnLZrNrRl2b93Ruy_g&utm_campaign=yelp_api_v3&utm_medium=api_v3_business_search&utm_source=ywY5UnLZrNrRl2b93Ruy_g", "review_count": 1039, "categories": [{"alias": "bbq", "title": "Barbeque"}, {"alias": "sandwiches", "title": "Sandwiches"}], "rating": 4.5, "coordinates": {"latitude": 42.111246811233, "longitude": -72.094700341653}, "transactions": ["pickup", "delivery"], "price": "$$", "location": {"address1": "392 Main St", "address2": "", "address3": "", "city": "Sturbridge", "zip_code": "01566", "country": "US", "state": "MA", "display_address": ["392 Main St", "Sturbridge, MA 01566"]}, "phone": "+15083473188", "display_phone": "(508) 347-3188", "distance": 8264.352379930304}, {"id": "R-J4SqIZeJD_iHXvTUnqbA", "alias": "traveler-restaurant-union", "name": "Traveler Restaurant", "image_url": "https://s3-media4.fl.yelpcdn.com/bphoto/_84x86CPulAnC3OjOMZ4FQ/o.jpg", "is_closed": false, "url": "https://www.yelp.com/biz/traveler-restaurant-union?adjust_creative=ywY5UnLZrNrRl2b93Ruy_g&utm_campaign=yelp_api_v3&utm_medium=api_v3_business_search&utm_source=ywY5UnLZrNrRl2b93Ruy_g", "review_count": 183, "categories": [{"alias": "tradamerican", "title": "American (Traditional)"}], "rating": 4.0, "coordinates": {"latitude": 42.0253299, "longitude": -72.13991}, "transactions": [], "price": "$$", "location": {"address1": "1257 Buckley Hwy", "address2": "", "address3": "", "city": "Union", "zip_code": "06076", "country": "US", "state": "CT", "display_address": ["1257 Buckley Hwy", "Union, CT 06076"]}, "phone": "+18606844920", "display_phone": "(860) 684-4920", "distance": 4616.900803089133}, {"id": "OgiLAYr-UVwtOJvN2xqP7w", "alias": "baba-sushi-sturbridge", "name": "Baba Sushi", "image_url": "https://s3-media1.fl.yelpcdn.com/bphoto/nBVAedHIhDbdMPa35AXT0w/o.jpg", "is_closed": false, "url": "https://www.yelp.com/biz/baba-sushi-sturbridge?adjust_creative=ywY5UnLZrNrRl2b93Ruy_g&utm_campaign=yelp_api_v3&utm_medium=api_v3_business_search&utm_source=ywY5UnLZrNrRl2b93Ruy_g", "review_count": 135, "categories": [{"alias": "japanese", "title": "Japanese"}, {"alias": "sushi", "title": "Sushi Bars"}, {"alias": "hotpot", "title": "Hot Pot"}], "rating": 4.0, "coordinates": {"latitude": 42.1131134033203, "longitude": -72.1032867431641}, "transactions": ["delivery", "pickup", "restaurant_reservation"], "price": "$$", "location": {"address1": "453 Main St", "address2": "", "address3": "", "city": "Sturbridge", "zip_code": "01518", "country": "US", "state": "MA", "display_address": ["453 Main St", "Sturbridge, MA 01518"]}, "phone": "+17743041068", "display_phone": "(774) 304-1068", "distance": 7931.641928604318}, {"id": "yAZHUhdwTi2ygoFS_J4F0g", "alias": "maine-attraction-holland", "name": "Maine Attraction", "image_url": "https://s3-media2.fl.yelpcdn.com/bphoto/NVkj_B7kO8QmwJxWG4azsA/o.jpg", "is_closed": false, "url": "https://www.yelp.com/biz/maine-attraction-holland?adjust_creative=ywY5UnLZrNrRl2b93Ruy_g&utm_campaign=yelp_api_v3&utm_medium=api_v3_business_search&utm_source=ywY5UnLZrNrRl2b93Ruy_g", "review_count": 35, "categories": [{"alias": "seafood", "title": "Seafood"}, {"alias": "icecream", "title": "Ice Cream & Frozen Yogurt"}, {"alias": "tradamerican", "title": "American (Traditional)"}], "rating": 3.0, "coordinates": {"latitude": 42.0582043, "longitude": -72.1612952}, "transactions": [], "price": "$$", "location": {"address1": "154 Mashapaug Rd", "address2": "", "address3": "", "city": "Holland", "zip_code": "01521", "country": "US", "state": "MA", "display_address": ["154 Mashapaug Rd", "Holland, MA 01521"]}, "phone": "+14132456043", "display_phone": "(413) 245-6043", "distance": 671.722335834154}, {"id": "SajwcXf2pvMEKwnB20qFiA", "alias": "homefield-kitchen-and-brewery-fiskdale", "name": "Homefield Kitchen & Brewery", "image_url": "https://s3-media3.fl.yelpcdn.com/bphoto/1-9CrFr4TXrMrZ6mrnYCNw/o.jpg", "is_closed": false, "url": "https://www.yelp.com/biz/homefield-kitchen-and-brewery-fiskdale?adjust_creative=ywY5UnLZrNrRl2b93Ruy_g&utm_campaign=yelp_api_v3&utm_medium=api_v3_business_search&utm_source=ywY5UnLZrNrRl2b93Ruy_g", "review_count": 56, "categories": [{"alias": "tapasmallplates", "title": "Tapas/Small Plates"}, {"alias": "sandwiches", "title": "Sandwiches"}, {"alias": "wine_bars", "title": "Wine Bars"}], "rating": 4.5, "coordinates": {"latitude": 42.1147600996541, "longitude": -72.1065116787681}, "transactions": [], "price": "$$", "location": {"address1": "3 Arnold Rd", "address2": "", "address3": null, "city": "Fiskdale", "zip_code": "01518", "country": "US", "state": "MA", "display_address": ["3 Arnold Rd", "Fiskdale, MA 01518"]}, "phone": "+17742426365", "display_phone": "(774) 242-6365", "distance": 7944.424337762289}, {"id": "O8RUnchuFOKrWg88txImOA", "alias": "sturbridge-porterhouse-sturbridge", "name": "Sturbridge Porterhouse", "image_url": "https://s3-media2.fl.yelpcdn.com/bphoto/7yVKkhNYeTkGulxxBLwv2g/o.jpg", "is_closed": false, "url": "https://www.yelp.com/biz/sturbridge-porterhouse-sturbridge?adjust_creative=ywY5UnLZrNrRl2b93Ruy_g&utm_campaign=yelp_api_v3&utm_medium=api_v3_business_search&utm_source=ywY5UnLZrNrRl2b93Ruy_g", "review_count": 102, "categories": [{"alias": "tradamerican", "title": "American (Traditional)"}, {"alias": "salad", "title": "Salad"}, {"alias": "cocktailbars", "title": "Cocktail Bars"}], "rating": 4.0, "coordinates": {"latitude": 42.11097, "longitude": -72.09596}, "transactions": ["delivery", "restaurant_reservation"], "price": "$$$", "location": {"address1": "407 Main St", "address2": "", "address3": null, "city": "Sturbridge", "zip_code": "01566", "country": "US", "state": "MA", "display_address": ["407 Main St", "Sturbridge, MA 01566"]}, "phone": "+15083472700", "display_phone": "(508) 347-2700", "distance": 8155.067346152881}, {"id": "9zY1OSIH3cq3_bk-QavVLg", "alias": "avellino-sturbridge", "name": "Avellino", "image_url": "https://s3-media1.fl.yelpcdn.com/bphoto/3eIoJ1HAzJ-4kgUXe4IPyw/o.jpg", "is_closed": false, "url": "https://www.yelp.com/biz/avellino-sturbridge?adjust_creative=ywY5UnLZrNrRl2b93Ruy_g&utm_campaign=yelp_api_v3&utm_medium=api_v3_business_search&utm_source=ywY5UnLZrNrRl2b93Ruy_g", "review_count": 60, "categories": [{"alias": "italian", "title": "Italian"}], "rating": 4.0, "coordinates": {"latitude": 42.115324, "longitude": -72.108366}, "transactions": ["pickup", "delivery"], "price": "$$", "location": {"address1": "502 Main St", "address2": "", "address3": "", "city": "Sturbridge", "zip_code": "01518", "country": "US", "state": "MA", "display_address": ["502 Main St", "Sturbridge, MA 01518"]}, "phone": "+15083472321", "display_phone": "(508) 347-2321", "distance": 7816.918506676818}, {"id": "VfxlzltYQhYpAr2DMJfRJA", "alias": "the-stonewall-grille-fiskdale", "name": "The Stonewall Grille", "image_url": "https://s3-media4.fl.yelpcdn.com/bphoto/wrmH89jZ7ff5-5IaTTRq1Q/o.jpg", "is_closed": false, "url": "https://www.yelp.com/biz/the-stonewall-grille-fiskdale?adjust_creative=ywY5UnLZrNrRl2b93Ruy_g&utm_campaign=yelp_api_v3&utm_medium=api_v3_business_search&utm_source=ywY5UnLZrNrRl2b93Ruy_g", "review_count": 21, "categories": [{"alias": "italian", "title": "Italian"}, {"alias": "steak", "title": "Steakhouses"}, {"alias": "seafood", "title": "Seafood"}], "rating": 3.5, "coordinates": {"latitude": 42.116287, "longitude": -72.111987}, "transactions": [], "price": "$$", "location": {"address1": "538 Main St", "address2": "", "address3": null, "city": "Fiskdale", "zip_code": "01518", "country": "US", "state": "MA", "display_address": ["538 Main St", "Fiskdale, MA 01518"]}, "phone": "+17743041188", "display_phone": "(774) 304-1188", "distance": 7714.9800842991335}, {"id": "vDFiWgMLhkHSOxTwxUkuDg", "alias": "the-duck-sturbridge", "name": "The Duck", "image_url": "https://s3-media3.fl.yelpcdn.com/bphoto/_W2s1pipxpKFcC9m701RHw/o.jpg", "is_closed": false, "url": "https://www.yelp.com/biz/the-duck-sturbridge?adjust_creative=ywY5UnLZrNrRl2b93Ruy_g&utm_campaign=yelp_api_v3&utm_medium=api_v3_business_search&utm_source=ywY5UnLZrNrRl2b93Ruy_g", "review_count": 130, "categories": [{"alias": "newamerican", "title": "American (New)"}], "rating": 3.5, "coordinates": {"latitude": 42.1152532, "longitude": -72.1083662}, "transactions": ["pickup", "delivery"], "price": "$$", "location": {"address1": "502 Main St", "address2": "", "address3": "", "city": "Sturbridge", "zip_code": "01566", "country": "US", "state": "MA", "display_address": ["502 Main St", "Sturbridge, MA 01566"]}, "phone": "+15083472321", "display_phone": "(508) 347-2321", "distance": 7810.828632189322}, {"id": "SQ8HF9mJ39f04WN6NSaw7A", "alias": "lake-george-tavern-wales-2", "name": "Lake George Tavern", "image_url": "https://s3-media4.fl.yelpcdn.com/bphoto/ahxT5yqU6nYh2pW2zAAJww/o.jpg", "is_closed": false, "url": "https://www.yelp.com/biz/lake-george-tavern-wales-2?adjust_creative=ywY5UnLZrNrRl2b93Ruy_g&utm_campaign=yelp_api_v3&utm_medium=api_v3_business_search&utm_source=ywY5UnLZrNrRl2b93Ruy_g", "review_count": 6, "categories": [{"alias": "pizza", "title": "Pizza"}, {"alias": "seafood", "title": "Seafood"}, {"alias": "italian", "title": "Italian"}], "rating": 3.5, "coordinates": {"latitude": 42.0641008810944, "longitude": -72.2226690128446}, "transactions": [], "location": {"address1": "2 Main St", "address2": "", "address3": null, "city": "Wales", "zip_code": "01081", "country": "US", "state": "MA", "display_address": ["2 Main St", "Wales, MA 01081"]}, "phone": "+14132450103", "display_phone": "(413) 245-0103", "distance": 4484.770509437541}, {"id": "fo_PdfhtHdZUvTR2QUgMCA", "alias": "teddy-gs-sturbridge-3", "name": "Teddy G's", "image_url": "https://s3-media4.fl.yelpcdn.com/bphoto/iI94KlYrZx8pMEBfy8olKg/o.jpg", "is_closed": false, "url": "https://www.yelp.com/biz/teddy-gs-sturbridge-3?adjust_creative=ywY5UnLZrNrRl2b93Ruy_g&utm_campaign=yelp_api_v3&utm_medium=api_v3_business_search&utm_source=ywY5UnLZrNrRl2b93Ruy_g", "review_count": 190, "categories": [{"alias": "pubs", "title": "Pubs"}, {"alias": "tradamerican", "title": "American (Traditional)"}], "rating": 4.0, "coordinates": {"latitude": 42.096327, "longitude": -72.072453}, "transactions": ["delivery"], "price": "$$", "location": {"address1": "179 Main St", "address2": "", "address3": "", "city": "Sturbridge", "zip_code": "01566", "country": "US", "state": "MA", "display_address": ["179 Main St", "Sturbridge, MA 01566"]}, "phone": "+15083471900", "display_phone": "(508) 347-1900", "distance": 8846.683522690444}, {"id": "3D10PFQnnqC94qkXe5TNqA", "alias": "enricos-brick-oven-pizzeria-sturbridge", "name": "Enricos Brick Oven Pizzeria", "image_url": "https://s3-media1.fl.yelpcdn.com/bphoto/40yl_J9bJfA4E7Z-z9g4VQ/o.jpg", "is_closed": false, "url": "https://www.yelp.com/biz/enricos-brick-oven-pizzeria-sturbridge?adjust_creative=ywY5UnLZrNrRl2b93Ruy_g&utm_campaign=yelp_api_v3&utm_medium=api_v3_business_search&utm_source=ywY5UnLZrNrRl2b93Ruy_g", "review_count": 131, "categories": [{"alias": "pizza", "title": "Pizza"}], "rating": 3.5, "coordinates": {"latitude": 42.11526, "longitude": -72.1077}, "transactions": ["delivery"], "price": "$$", "location": {"address1": "500 Main St", "address2": "", "address3": "", "city": "Sturbridge", "zip_code": "01518", "country": "US", "state": "MA", "display_address": ["500 Main St", "Sturbridge, MA 01518"]}, "phone": "+15083471740", "display_phone": "(508) 347-1740", "distance": 7839.271866066434}, {"id": "aGFyqgUCXsusLVNCxZCGBw", "alias": "apple-barn-cafe-brimfield", "name": "Apple Barn Cafe", "image_url": "https://s3-media4.fl.yelpcdn.com/bphoto/3I9H6VSB6Aj4r2Q4WefGhw/o.jpg", "is_closed": false, "url": "https://www.yelp.com/biz/apple-barn-cafe-brimfield?adjust_creative=ywY5UnLZrNrRl2b93Ruy_g&utm_campaign=yelp_api_v3&utm_medium=api_v3_business_search&utm_source=ywY5UnLZrNrRl2b93Ruy_g", "review_count": 31, "categories": [{"alias": "cafes", "title": "Cafes"}], "rating": 4.5, "coordinates": {"latitude": 42.120546, "longitude": -72.216371}, "transactions": [], "price": "$", "location": {"address1": "52 Palmer Rd", "address2": null, "address3": null, "city": "Brimfield", "zip_code": "01010", "country": "US", "state": "MA", "display_address": ["52 Palmer Rd", "Brimfield, MA 01010"]}, "phone": "+14132454575", "display_phone": "(413) 245-4575", "distance": 7709.161498601902}, {"id": "dGVCip_BkzndR8zohkJSqg", "alias": "bullard-tavern-sturbridge-2", "name": "Bullard Tavern", "image_url": "https://s3-media3.fl.yelpcdn.com/bphoto/_zV578TZSLuk7WSPE6pLtg/o.jpg", "is_closed": false, "url": "https://www.yelp.com/biz/bullard-tavern-sturbridge-2?adjust_creative=ywY5UnLZrNrRl2b93Ruy_g&utm_campaign=yelp_api_v3&utm_medium=api_v3_business_search&utm_source=ywY5UnLZrNrRl2b93Ruy_g", "review_count": 6, "categories": [{"alias": "tradamerican", "title": "American (Traditional)"}], "rating": 4.0, "coordinates": {"latitude": 42.104532, "longitude": -72.098969}, "transactions": [], "location": {"address1": "1 Old Sturbrdge Vlg Rd", "address2": "", "address3": "Old Sturbridge Village Museam", "city": "Sturbridge", "zip_code": "01566", "country": "US", "state": "MA", "display_address": ["1 Old Sturbrdge Vlg Rd", "Old Sturbridge Village Museam", "Sturbridge, MA 01566"]}, "phone": "+15083470397", "display_phone": "(508) 347-0397", "distance": 7506.809827495729}, {"id": "AbtBV17tzg0-IqHnydKqsw", "alias": "francescos-restaurant-brimfield", "name": "Francesco's Restaurant", "image_url": "https://s3-media1.fl.yelpcdn.com/bphoto/1EZ14aKOmBthUK6d94z7Zg/o.jpg", "is_closed": false, "url": "https://www.yelp.com/biz/francescos-restaurant-brimfield?adjust_creative=ywY5UnLZrNrRl2b93Ruy_g&utm_campaign=yelp_api_v3&utm_medium=api_v3_business_search&utm_source=ywY5UnLZrNrRl2b93Ruy_g", "review_count": 42, "categories": [{"alias": "italian", "title": "Italian"}, {"alias": "pizza", "title": "Pizza"}], "rating": 3.5, "coordinates": {"latitude": 42.1200899, "longitude": -72.2150277}, "transactions": [], "price": "$$", "location": {"address1": "45 Palmer Rd", "address2": "", "address3": "", "city": "Brimfield", "zip_code": "01010", "country": "US", "state": "MA", "display_address": ["45 Palmer Rd", "Brimfield, MA 01010"]}, "phone": "+14132454640", "display_phone": "(413) 245-4640", "distance": 7609.137817599739}, {"id": "3NY6GIUCr-ZnypGT3kD-0w", "alias": "soup-to-nuts-fiskdale", "name": "Soup To Nuts", "image_url": "https://s3-media2.fl.yelpcdn.com/bphoto/UcDYXhgq9YT-y_ViHqxGjQ/o.jpg", "is_closed": false, "url": "https://www.yelp.com/biz/soup-to-nuts-fiskdale?adjust_creative=ywY5UnLZrNrRl2b93Ruy_g&utm_campaign=yelp_api_v3&utm_medium=api_v3_business_search&utm_source=ywY5UnLZrNrRl2b93Ruy_g", "review_count": 72, "categories": [{"alias": "tradamerican", "title": "American (Traditional)"}, {"alias": "salad", "title": "Salad"}, {"alias": "soup", "title": "Soup"}], "rating": 4.5, "coordinates": {"latitude": 42.11572, "longitude": -72.11337}, "transactions": ["delivery"], "price": "$", "location": {"address1": "559 Main St", "address2": "", "address3": "", "city": "Fiskdale", "zip_code": "01518", "country": "US", "state": "MA", "display_address": ["559 Main St", "Fiskdale, MA 01518"]}, "phone": "+15083479771", "display_phone": "(508) 347-9771", "distance": 7635.745776712203}, {"id": "4eJhLya5NEK4wpAOWBwJHQ", "alias": "the-thai-place-sturbridge", "name": "The Thai Place", "image_url": "https://s3-media3.fl.yelpcdn.com/bphoto/N0-t-YfHH3GMAw1SwA2-qQ/o.jpg", "is_closed": false, "url": "https://www.yelp.com/biz/the-thai-place-sturbridge?adjust_creative=ywY5UnLZrNrRl2b93Ruy_g&utm_campaign=yelp_api_v3&utm_medium=api_v3_business_search&utm_source=ywY5UnLZrNrRl2b93Ruy_g", "review_count": 107, "categories": [{"alias": "thai", "title": "Thai"}], "rating": 3.5, "coordinates": {"latitude": 42.11048, "longitude": -72.09087}, "transactions": ["delivery"], "price": "$$", "location": {"address1": "371 Main St", "address2": "", "address3": "", "city": "Sturbridge", "zip_code": "01566", "country": "US", "state": "MA", "display_address": ["371 Main St", "Sturbridge, MA 01566"]}, "phone": "+15083472999", "display_phone": "(508) 347-2999", "distance": 8273.2275477723}, {"id": "fVDP7GSAhHEkMOf0J3Jw6A", "alias": "giovanellos-italian-market-sturbridge", "name": "Giovanello's Italian Market", "image_url": "https://s3-media1.fl.yelpcdn.com/bphoto/MooOeoC7O4GOJ-Rv7jZVWw/o.jpg", "is_closed": false, "url": "https://www.yelp.com/biz/giovanellos-italian-market-sturbridge?adjust_creative=ywY5UnLZrNrRl2b93Ruy_g&utm_campaign=yelp_api_v3&utm_medium=api_v3_business_search&utm_source=ywY5UnLZrNrRl2b93Ruy_g", "review_count": 12, "categories": [{"alias": "italian", "title": "Italian"}, {"alias": "catering", "title": "Caterers"}], "rating": 4.5, "coordinates": {"latitude": 42.09389, "longitude": -72.06961}, "transactions": ["delivery"], "price": "$$", "location": {"address1": "139 Main St", "address2": "", "address3": "", "city": "Sturbridge", "zip_code": "01566", "country": "US", "state": "MA", "display_address": ["139 Main St", "Sturbridge, MA 01566"]}, "phone": "+15083471440", "display_phone": "(508) 347-1440", "distance": 8936.508211784576}, {"id": "sZ0p22_iFpei323pgUw8tQ", "alias": "old-village-grille-fiskdale", "name": "Old Village Grille", "image_url": "https://s3-media3.fl.yelpcdn.com/bphoto/RssS41UL5bJws7tgFmEnAA/o.jpg", "is_closed": false, "url": "https://www.yelp.com/biz/old-village-grille-fiskdale?adjust_creative=ywY5UnLZrNrRl2b93Ruy_g&utm_campaign=yelp_api_v3&utm_medium=api_v3_business_search&utm_source=ywY5UnLZrNrRl2b93Ruy_g", "review_count": 86, "categories": [{"alias": "breakfast_brunch", "title": "Breakfast & Brunch"}], "rating": 4.5, "coordinates": {"latitude": 42.1167144775391, "longitude": -72.1180419921875}, "transactions": [], "price": "$$", "location": {"address1": "25 Brookfield Rd", "address2": "", "address3": "", "city": "Fiskdale", "zip_code": "01518", "country": "US", "state": "MA", "display_address": ["25 Brookfield Rd", "Fiskdale, MA 01518"]}, "phone": "+15083472255", "display_phone": "(508) 347-2255", "distance": 7474.966311263022}, {"id": "FNOazjjpZFEJdkPa6oXapw", "alias": "oxhead-tavern-sturbridge", "name": "Oxhead Tavern", "image_url": "https://s3-media4.fl.yelpcdn.com/bphoto/QSkzLrh2096f62De7KIedg/o.jpg", "is_closed": false, "url": "https://www.yelp.com/biz/oxhead-tavern-sturbridge?adjust_creative=ywY5UnLZrNrRl2b93Ruy_g&utm_campaign=yelp_api_v3&utm_medium=api_v3_business_search&utm_source=ywY5UnLZrNrRl2b93Ruy_g", "review_count": 124, "categories": [{"alias": "burgers", "title": "Burgers"}, {"alias": "salad", "title": "Salad"}, {"alias": "soup", "title": "Soup"}], "rating": 2.5, "coordinates": {"latitude": 42.11358, "longitude": -72.089915}, "transactions": ["delivery"], "price": "$$", "location": {"address1": "366 Main St", "address2": "", "address3": "", "city": "Sturbridge", "zip_code": "01566", "country": "US", "state": "MA", "display_address": ["366 Main St", "Sturbridge, MA 01566"]}, "phone": "+15083477393", "display_phone": "(508) 347-7393", "distance": 8649.337763333942}, {"id": "IRgfRxgOYrAUAKckb22N1A", "alias": "charlies-diner-brimfield", "name": "Charlie's Diner", "image_url": "https://s3-media1.fl.yelpcdn.com/bphoto/RU4nB5aESMd3EfQZjYzUUg/o.jpg", "is_closed": false, "url": "https://www.yelp.com/biz/charlies-diner-brimfield?adjust_creative=ywY5UnLZrNrRl2b93Ruy_g&utm_campaign=yelp_api_v3&utm_medium=api_v3_business_search&utm_source=ywY5UnLZrNrRl2b93Ruy_g", "review_count": 2, "categories": [{"alias": "tradamerican", "title": "American (Traditional)"}, {"alias": "breakfast_brunch", "title": "Breakfast & Brunch"}, {"alias": "diners", "title": "Diners"}], "rating": 4.0, "coordinates": {"latitude": 42.1219487485498, "longitude": -72.2029420360923}, "transactions": [], "location": {"address1": "17 Main St", "address2": "", "address3": null, "city": "Brimfield", "zip_code": "01010", "country": "US", "state": "MA", "display_address": ["17 Main St", "Brimfield, MA 01010"]}, "phone": "+14132457711", "display_phone": "(413) 245-7711", "distance": 7348.1110703152735}, {"id": "1t09LSm3g0nBY_VDZ5b-PA", "alias": "jimmy-ds-sturbridge", "name": "Jimmy D's", "image_url": "https://s3-media2.fl.yelpcdn.com/bphoto/wOqRzh8mTMEH7rTV5Q-bfA/o.jpg", "is_closed": false, "url": "https://www.yelp.com/biz/jimmy-ds-sturbridge?adjust_creative=ywY5UnLZrNrRl2b93Ruy_g&utm_campaign=yelp_api_v3&utm_medium=api_v3_business_search&utm_source=ywY5UnLZrNrRl2b93Ruy_g", "review_count": 40, "categories": [{"alias": "icecream", "title": "Ice Cream & Frozen Yogurt"}, {"alias": "sandwiches", "title": "Sandwiches"}], "rating": 4.0, "coordinates": {"latitude": 42.111444, "longitude": -72.097315}, "transactions": ["delivery"], "price": "$", "location": {"address1": "413 Main St", "address2": "", "address3": "", "city": "Sturbridge", "zip_code": "01518", "country": "US", "state": "MA", "display_address": ["413 Main St", "Sturbridge, MA 01518"]}, "phone": "+17743041023", "display_phone": "(774) 304-1023", "distance": 8146.797394103147}, {"id": "3Z9VY5355u-Pk8mqPSeNgQ", "alias": "kaizen-sushi-bar-and-grill-fiskdale", "name": "Kaizen Sushi Bar & Grill", "image_url": "https://s3-media2.fl.yelpcdn.com/bphoto/2louFb67l58quUoQ92F6Cg/o.jpg", "is_closed": false, "url": "https://www.yelp.com/biz/kaizen-sushi-bar-and-grill-fiskdale?adjust_creative=ywY5UnLZrNrRl2b93Ruy_g&utm_campaign=yelp_api_v3&utm_medium=api_v3_business_search&utm_source=ywY5UnLZrNrRl2b93Ruy_g", "review_count": 209, "categories": [{"alias": "sushi", "title": "Sushi Bars"}, {"alias": "japanese", "title": "Japanese"}, {"alias": "seafood", "title": "Seafood"}], "rating": 4.5, "coordinates": {"latitude": 42.1140959214547, "longitude": -72.1061149612069}, "transactions": ["delivery"], "price": "$$", "location": {"address1": "479 Main St", "address2": "", "address3": "", "city": "Fiskdale", "zip_code": "01518", "country": "US", "state": "MA", "display_address": ["479 Main St", "Fiskdale, MA 01518"]}, "phone": "+15083471088", "display_phone": "(508) 347-1088", "distance": 7832.748253855392}, {"id": "7aaixOV3b5CQ-dvYUrwCEg", "alias": "panera-bread-sturbridge", "name": "Panera Bread", "image_url": "https://s3-media4.fl.yelpcdn.com/bphoto/-RnNISRlTYzpxjZueqvFmA/o.jpg", "is_closed": false, "url": "https://www.yelp.com/biz/panera-bread-sturbridge?adjust_creative=ywY5UnLZrNrRl2b93Ruy_g&utm_campaign=yelp_api_v3&utm_medium=api_v3_business_search&utm_source=ywY5UnLZrNrRl2b93Ruy_g", "review_count": 9, "categories": [{"alias": "salad", "title": "Salad"}, {"alias": "soup", "title": "Soup"}, {"alias": "sandwiches", "title": "Sandwiches"}], "rating": 4.0, "coordinates": {"latitude": 42.11355, "longitude": -72.0853}, "transactions": ["delivery"], "price": "$$", "location": {"address1": "21 New Boston Rd", "address2": null, "address3": null, "city": "Sturbridge", "zip_code": "01566", "country": "US", "state": "MA", "display_address": ["21 New Boston Rd", "Sturbridge, MA 01566"]}, "phone": "+17749221860", "display_phone": "(774) 922-1860", "distance": 9015.454344745163}, {"id": "zO_mZR9-JBJq6e8SaOsGLw", "alias": "village-hotdog-sturbridge", "name": "Village Hotdog", "image_url": "https://s3-media4.fl.yelpcdn.com/bphoto/VHJM9QbGDLZctqiuTY2z0A/o.jpg", "is_closed": false, "url": "https://www.yelp.com/biz/village-hotdog-sturbridge?adjust_creative=ywY5UnLZrNrRl2b93Ruy_g&utm_campaign=yelp_api_v3&utm_medium=api_v3_business_search&utm_source=ywY5UnLZrNrRl2b93Ruy_g", "review_count": 17, "categories": [{"alias": "hotdog", "title": "Hot Dogs"}], "rating": 4.0, "coordinates": {"latitude": 42.1126999, "longitude": -72.09148}, "transactions": ["delivery"], "price": "$", "location": {"address1": "376 Main St", "address2": "", "address3": "", "city": "Sturbridge", "zip_code": "01566", "country": "US", "state": "MA", "display_address": ["376 Main St", "Sturbridge, MA 01566"]}, "phone": "+17742399998", "display_phone": "(774) 239-9998", "distance": 8569.355448329043}, {"id": "NkHjumQE57NYn1nqmrBoag", "alias": "kahula-restaurant-sturbridge", "name": "Kahula Restaurant", "image_url": "https://s3-media3.fl.yelpcdn.com/bphoto/pKkq9zqfTA9WbrBLpCRNYA/o.jpg", "is_closed": false, "url": "https://www.yelp.com/biz/kahula-restaurant-sturbridge?adjust_creative=ywY5UnLZrNrRl2b93Ruy_g&utm_campaign=yelp_api_v3&utm_medium=api_v3_business_search&utm_source=ywY5UnLZrNrRl2b93Ruy_g", "review_count": 60, "categories": [{"alias": "chinese", "title": "Chinese"}], "rating": 3.0, "coordinates": {"latitude": 42.09101, "longitude": -72.06768}, "transactions": ["delivery"], "price": "$$", "location": {"address1": "119 Main St", "address2": "", "address3": "", "city": "Sturbridge", "zip_code": "01566", "country": "US", "state": "MA", "display_address": ["119 Main St", "Sturbridge, MA 01566"]}, "phone": "+15083477121", "display_phone": "(508) 347-7121", "distance": 8975.031627886607}, {"id": "2LdyJd-Jumkp0W2adGDa4Q", "alias": "village-pizza-restaurant-fiskdale", "name": "Village Pizza Restaurant", "image_url": "https://s3-media3.fl.yelpcdn.com/bphoto/zMjMstOEM76E5tf2SBnioQ/o.jpg", "is_closed": false, "url": "https://www.yelp.com/biz/village-pizza-restaurant-fiskdale?adjust_creative=ywY5UnLZrNrRl2b93Ruy_g&utm_campaign=yelp_api_v3&utm_medium=api_v3_business_search&utm_source=ywY5UnLZrNrRl2b93Ruy_g", "review_count": 39, "categories": [{"alias": "pizza", "title": "Pizza"}], "rating": 3.0, "coordinates": {"latitude": 42.11436, "longitude": -72.10714}, "transactions": ["delivery"], "price": "$$", "location": {"address1": "487 Main St", "address2": "", "address3": "", "city": "Fiskdale", "zip_code": "01518", "country": "US", "state": "MA", "display_address": ["487 Main St", "Fiskdale, MA 01518"]}, "phone": "+15083477166", "display_phone": "(508) 347-7166", "distance": 7808.0152227089275}, {"id": "P3GSgNPUBIVmkGJTil5Wwg", "alias": "athens-pizza-brimfield", "name": "Athens Pizza", "image_url": "https://s3-media1.fl.yelpcdn.com/bphoto/jttJHc-xQMWnq1Zod5wIYA/o.jpg", "is_closed": false, "url": "https://www.yelp.com/biz/athens-pizza-brimfield?adjust_creative=ywY5UnLZrNrRl2b93Ruy_g&utm_campaign=yelp_api_v3&utm_medium=api_v3_business_search&utm_source=ywY5UnLZrNrRl2b93Ruy_g", "review_count": 10, "categories": [{"alias": "pizza", "title": "Pizza"}], "rating": 3.5, "coordinates": {"latitude": 42.11982, "longitude": -72.19916}, "transactions": [], "price": "$", "location": {"address1": "26 Sturbridge Rd", "address2": "", "address3": "", "city": "Brimfield", "zip_code": "01010", "country": "US", "state": "MA", "display_address": ["26 Sturbridge Rd", "Brimfield, MA 01010"]}, "phone": "+14132459437", "display_phone": "(413) 245-9437", "distance": 6995.664698438128}, {"id": "TqWRsIhBFxhdQLTm-lofFQ", "alias": "bake-shoppe-sturbridge", "name": "Bake Shoppe", "image_url": "https://s3-media2.fl.yelpcdn.com/bphoto/8M7ysUM076SeJcJXUAiY9A/o.jpg", "is_closed": false, "url": "https://www.yelp.com/biz/bake-shoppe-sturbridge?adjust_creative=ywY5UnLZrNrRl2b93Ruy_g&utm_campaign=yelp_api_v3&utm_medium=api_v3_business_search&utm_source=ywY5UnLZrNrRl2b93Ruy_g", "review_count": 4, "categories": [{"alias": "hotels", "title": "Hotels"}, {"alias": "restaurants", "title": "Restaurants"}], "rating": 4.5, "coordinates": {"latitude": 42.1041, "longitude": -72.08089}, "transactions": [], "location": {"address1": "277 Main St", "address2": "", "address3": "", "city": "Sturbridge", "zip_code": "01566", "country": "US", "state": "MA", "display_address": ["277 Main St", "Sturbridge, MA 01566"]}, "phone": "+15083473313", "display_phone": "(508) 347-3313", "distance": 8949.336181299732}, {"id": "87nWwQ6ApFXYhaKWr3wjrw", "alias": "empire-village-sturbridge", "name": "Empire Village", "image_url": "https://s3-media4.fl.yelpcdn.com/bphoto/RzgZwzlUkvJFiO3Dc94IKQ/o.jpg", "is_closed": false, "url": "https://www.yelp.com/biz/empire-village-sturbridge?adjust_creative=ywY5UnLZrNrRl2b93Ruy_g&utm_campaign=yelp_api_v3&utm_medium=api_v3_business_search&utm_source=ywY5UnLZrNrRl2b93Ruy_g", "review_count": 53, "categories": [{"alias": "chinese", "title": "Chinese"}, {"alias": "seafood", "title": "Seafood"}, {"alias": "soup", "title": "Soup"}], "rating": 2.5, "coordinates": {"latitude": 42.11386, "longitude": -72.101336}, "transactions": ["delivery"], "price": "$", "location": {"address1": "446 Main St", "address2": "", "address3": "", "city": "Sturbridge", "zip_code": "01566", "country": "US", "state": "MA", "display_address": ["446 Main St", "Sturbridge, MA 01566"]}, "phone": "+15083476588", "display_phone": "(508) 347-6588", "distance": 8078.308923587718}, {"id": "myeXXntCGzO1I77zfpa-kg", "alias": "annies-country-kitchen-sturbridge", "name": "Annie's Country Kitchen", "image_url": "https://s3-media3.fl.yelpcdn.com/bphoto/ZldhmjEmpN5B8Yf7RYx2zQ/o.jpg", "is_closed": false, "url": "https://www.yelp.com/biz/annies-country-kitchen-sturbridge?adjust_creative=ywY5UnLZrNrRl2b93Ruy_g&utm_campaign=yelp_api_v3&utm_medium=api_v3_business_search&utm_source=ywY5UnLZrNrRl2b93Ruy_g", "review_count": 135, "categories": [{"alias": "diners", "title": "Diners"}, {"alias": "breakfast_brunch", "title": "Breakfast & Brunch"}, {"alias": "tradamerican", "title": "American (Traditional)"}], "rating": 4.0, "coordinates": {"latitude": 42.09361, "longitude": -72.06773}, "transactions": ["pickup", "delivery"], "price": "$", "location": {"address1": "140 Main St", "address2": "", "address3": "", "city": "Sturbridge", "zip_code": "01566", "country": "US", "state": "MA", "display_address": ["140 Main St", "Sturbridge, MA 01566"]}, "phone": "+15083472320", "display_phone": "(508) 347-2320", "distance": 9057.953504124605}, {"id": "6-UBeV-s9neyFr_u6hMh9w", "alias": "churchills-village-eatery-sturbridge", "name": "Churchill's Village Eatery", "image_url": "https://s3-media1.fl.yelpcdn.com/bphoto/KSFReazvN1kTnYG-zubWlQ/o.jpg", "is_closed": false, "url": "https://www.yelp.com/biz/churchills-village-eatery-sturbridge?adjust_creative=ywY5UnLZrNrRl2b93Ruy_g&utm_campaign=yelp_api_v3&utm_medium=api_v3_business_search&utm_source=ywY5UnLZrNrRl2b93Ruy_g", "review_count": 50, "categories": [{"alias": "tradamerican", "title": "American (Traditional)"}, {"alias": "breakfast_brunch", "title": "Breakfast & Brunch"}, {"alias": "burgers", "title": "Burgers"}], "rating": 4.0, "coordinates": {"latitude": 42.11605, "longitude": -72.10226}, "transactions": ["delivery"], "price": "$", "location": {"address1": "450 Main St", "address2": "", "address3": "", "city": "Sturbridge", "zip_code": "01518", "country": "US", "state": "MA", "display_address": ["450 Main St", "Sturbridge, MA 01518"]}, "phone": "+15083477455", "display_phone": "(508) 347-7455", "distance": 8007.005239136452}, {"id": "6AhxPdBYNVZsPJo73k2TPg", "alias": "oliver-wight-tavern-sturbridge", "name": "Oliver Wight Tavern", "image_url": "https://s3-media2.fl.yelpcdn.com/bphoto/oN_xaxUA4L8MWiJZkNzftQ/o.jpg", "is_closed": false, "url": "https://www.yelp.com/biz/oliver-wight-tavern-sturbridge?adjust_creative=ywY5UnLZrNrRl2b93Ruy_g&utm_campaign=yelp_api_v3&utm_medium=api_v3_business_search&utm_source=ywY5UnLZrNrRl2b93Ruy_g", "review_count": 41, "categories": [{"alias": "tradamerican", "title": "American (Traditional)"}], "rating": 2.5, "coordinates": {"latitude": 42.108951, "longitude": -72.098735}, "transactions": [], "price": "$$", "location": {"address1": "1 Old Sturbridge Village Rd", "address2": "", "address3": "Old Sturbridge Village", "city": "Sturbridge", "zip_code": "01566", "country": "US", "state": "MA", "display_address": ["1 Old Sturbridge Village Rd", "Old Sturbridge Village", "Sturbridge, MA 01566"]}, "phone": "+15083470397", "display_phone": "(508) 347-0397", "distance": 7846.593292239857}, {"id": "WxhnbSCk4_X_RNECbOoCDg", "alias": "old-sturbridge-pizza-and-restaurant-sturbridge", "name": "Old Sturbridge Pizza & Restaurant", "image_url": "https://s3-media3.fl.yelpcdn.com/bphoto/TcMHp331e5FuF_vp1ohdNA/o.jpg", "is_closed": false, "url": "https://www.yelp.com/biz/old-sturbridge-pizza-and-restaurant-sturbridge?adjust_creative=ywY5UnLZrNrRl2b93Ruy_g&utm_campaign=yelp_api_v3&utm_medium=api_v3_business_search&utm_source=ywY5UnLZrNrRl2b93Ruy_g", "review_count": 32, "categories": [{"alias": "pizza", "title": "Pizza"}], "rating": 3.0, "coordinates": {"latitude": 42.1112301914023, "longitude": -72.0940843108447}, "transactions": ["pickup", "delivery"], "price": "$", "location": {"address1": "398 Main St", "address2": "", "address3": "", "city": "Sturbridge", "zip_code": "01566", "country": "US", "state": "MA", "display_address": ["398 Main St", "Sturbridge, MA 01566"]}, "phone": "+15083475111", "display_phone": "(508) 347-5111", "distance": 8300.64367727965}, {"id": "t48BTpI_RaUbsgw_UVSesQ", "alias": "roms-italian-market-sturbridge", "name": "Rom's Italian Market", "image_url": "", "is_closed": false, "url": "https://www.yelp.com/biz/roms-italian-market-sturbridge?adjust_creative=ywY5UnLZrNrRl2b93Ruy_g&utm_campaign=yelp_api_v3&utm_medium=api_v3_business_search&utm_source=ywY5UnLZrNrRl2b93Ruy_g", "review_count": 3, "categories": [{"alias": "italian", "title": "Italian"}], "rating": 2.5, "coordinates": {"latitude": 42.0956326234707, "longitude": -72.070764452219}, "transactions": [], "location": {"address1": "139 Main St", "address2": "", "address3": "", "city": "Sturbridge", "zip_code": "01566", "country": "US", "state": "MA", "display_address": ["139 Main St", "Sturbridge, MA 01566"]}, "phone": "+15083471440", "display_phone": "(508) 347-1440", "distance": 8938.28072871588}, {"id": "Mhc3mcpYnT4B8iEHSZf2Sg", "alias": "cedar-street-caf\u00e9-sturbridge", "name": "Cedar Street Caf\u00e9", "image_url": "https://s3-media4.fl.yelpcdn.com/bphoto/fjqJqN2nuG2qTMPbFXYYVg/o.jpg", "is_closed": false, "url": "https://www.yelp.com/biz/cedar-street-caf%C3%A9-sturbridge?adjust_creative=ywY5UnLZrNrRl2b93Ruy_g&utm_campaign=yelp_api_v3&utm_medium=api_v3_business_search&utm_source=ywY5UnLZrNrRl2b93Ruy_g", "review_count": 54, "categories": [{"alias": "cafes", "title": "Cafes"}, {"alias": "coffee", "title": "Coffee & Tea"}, {"alias": "sandwiches", "title": "Sandwiches"}], "rating": 4.5, "coordinates": {"latitude": 42.112913536056, "longitude": -72.0982651412487}, "transactions": ["delivery"], "price": "$", "location": {"address1": "420 Main St", "address2": "", "address3": null, "city": "Sturbridge", "zip_code": "01566", "country": "US", "state": "MA", "display_address": ["420 Main St", "Sturbridge, MA 01566"]}, "phone": "+15083476800", "display_phone": "(508) 347-6800", "distance": 8179.667028216597}, {"id": "gMOB92qCnBO46CtdtgzRgw", "alias": "sunburst-restaurant-sturbridge", "name": "Sunburst Restaurant", "image_url": "https://s3-media3.fl.yelpcdn.com/bphoto/O6DnaY3-hVViK-jmJekOkw/o.jpg", "is_closed": false, "url": "https://www.yelp.com/biz/sunburst-restaurant-sturbridge?adjust_creative=ywY5UnLZrNrRl2b93Ruy_g&utm_campaign=yelp_api_v3&utm_medium=api_v3_business_search&utm_source=ywY5UnLZrNrRl2b93Ruy_g", "review_count": 17, "categories": [{"alias": "breakfast_brunch", "title": "Breakfast & Brunch"}], "rating": 4.0, "coordinates": {"latitude": 42.11496, "longitude": -72.10682}, "transactions": ["delivery"], "price": "$", "location": {"address1": "484 Main St", "address2": "", "address3": "", "city": "Sturbridge", "zip_code": "01518", "country": "US", "state": "MA", "display_address": ["484 Main St", "Sturbridge, MA 01518"]}, "phone": "+15083473097", "display_phone": "(508) 347-3097", "distance": 7858.392152230864}, {"id": "K3bdvsIEAHX53hBMGuko8Q", "alias": "cracker-barrel-old-country-store-sturbridge", "name": "Cracker Barrel Old Country Store", "image_url": "https://s3-media4.fl.yelpcdn.com/bphoto/hK_-AwZKpJMrCCt1vxPY9g/o.jpg", "is_closed": false, "url": "https://www.yelp.com/biz/cracker-barrel-old-country-store-sturbridge?adjust_creative=ywY5UnLZrNrRl2b93Ruy_g&utm_campaign=yelp_api_v3&utm_medium=api_v3_business_search&utm_source=ywY5UnLZrNrRl2b93Ruy_g", "review_count": 141, "categories": [{"alias": "tradamerican", "title": "American (Traditional)"}, {"alias": "breakfast_brunch", "title": "Breakfast & Brunch"}, {"alias": "southern", "title": "Southern"}], "rating": 3.5, "coordinates": {"latitude": 42.1162022993265, "longitude": -72.0665799951547}, "transactions": [], "price": "$$", "location": {"address1": "215 Charlton Rd", "address2": "", "address3": "", "city": "Sturbridge", "zip_code": "01566", "country": "US", "state": "MA", "display_address": ["215 Charlton Rd", "Sturbridge, MA 01566"]}, "phone": "+15083478925", "display_phone": "(508) 347-8925", "distance": 10411.75803551327}, {"id": "mH00R5oYFyvgIi6DsRGspg", "alias": "hearthstone-market-and-catering-fiskdale", "name": "Hearthstone Market & Catering", "image_url": "", "is_closed": false, "url": "https://www.yelp.com/biz/hearthstone-market-and-catering-fiskdale?adjust_creative=ywY5UnLZrNrRl2b93Ruy_g&utm_campaign=yelp_api_v3&utm_medium=api_v3_business_search&utm_source=ywY5UnLZrNrRl2b93Ruy_g", "review_count": 2, "categories": [{"alias": "salad", "title": "Salad"}, {"alias": "sandwiches", "title": "Sandwiches"}], "rating": 3.0, "coordinates": {"latitude": 42.11431, "longitude": -72.11979}, "transactions": [], "location": {"address1": "630 Main St", "address2": "", "address3": null, "city": "Fiskdale", "zip_code": "01566", "country": "US", "state": "MA", "display_address": ["630 Main St", "Fiskdale, MA 01566"]}, "phone": "+15083477077", "display_phone": "(508) 347-7077", "distance": 7157.246803324994}, {"id": "zJ9X1B8wV4yCTlfvQ7T5SQ", "alias": "danny-gs-sturbridge", "name": "Danny G's", "image_url": "", "is_closed": false, "url": "https://www.yelp.com/biz/danny-gs-sturbridge?adjust_creative=ywY5UnLZrNrRl2b93Ruy_g&utm_campaign=yelp_api_v3&utm_medium=api_v3_business_search&utm_source=ywY5UnLZrNrRl2b93Ruy_g", "review_count": 1, "categories": [{"alias": "seafood", "title": "Seafood"}], "rating": 2.0, "coordinates": {"latitude": 42.0973344, "longitude": -72.0726332}, "transactions": [], "location": {"address1": "Rt 131", "address2": "", "address3": "", "city": "Sturbridge", "zip_code": "", "country": "US", "state": "MA", "display_address": ["Rt 131", "Sturbridge, MA"]}, "phone": "", "display_phone": "", "distance": 8883.67404275273}, {"id": "xHaYttFhZE8GwhkPXP0r8w", "alias": "sturbridge-coffee-house-sturbridge", "name": "Sturbridge Coffee House", "image_url": "https://s3-media2.fl.yelpcdn.com/bphoto/kXJR9Mq9aP3ffd_sqNuIWg/o.jpg", "is_closed": false, "url": "https://www.yelp.com/biz/sturbridge-coffee-house-sturbridge?adjust_creative=ywY5UnLZrNrRl2b93Ruy_g&utm_campaign=yelp_api_v3&utm_medium=api_v3_business_search&utm_source=ywY5UnLZrNrRl2b93Ruy_g", "review_count": 67, "categories": [{"alias": "tradamerican", "title": "American (Traditional)"}, {"alias": "coffee", "title": "Coffee & Tea"}, {"alias": "breakfast_brunch", "title": "Breakfast & Brunch"}], "rating": 4.0, "coordinates": {"latitude": 42.11097, "longitude": -72.09596}, "transactions": ["delivery"], "price": "$", "location": {"address1": "407B Main St", "address2": null, "address3": "", "city": "Sturbridge", "zip_code": "01566", "country": "US", "state": "MA", "display_address": ["407B Main St", "Sturbridge, MA 01566"]}, "phone": "+15083472288", "display_phone": "(508) 347-2288", "distance": 8154.991217211972}, {"id": "QZeRPF40_EJkoHnrxi7bAA", "alias": "friendlys-sturbridge", "name": "Friendly's", "image_url": "https://s3-media4.fl.yelpcdn.com/bphoto/3-sC2VNRMVzbYXCYAkQ2yg/o.jpg", "is_closed": false, "url": "https://www.yelp.com/biz/friendlys-sturbridge?adjust_creative=ywY5UnLZrNrRl2b93Ruy_g&utm_campaign=yelp_api_v3&utm_medium=api_v3_business_search&utm_source=ywY5UnLZrNrRl2b93Ruy_g", "review_count": 53, "categories": [{"alias": "icecream", "title": "Ice Cream & Frozen Yogurt"}, {"alias": "burgers", "title": "Burgers"}, {"alias": "tradamerican", "title": "American (Traditional)"}], "rating": 2.0, "coordinates": {"latitude": 42.11148, "longitude": -72.08972}, "transactions": ["pickup", "delivery"], "price": "$", "location": {"address1": "367 Main St", "address2": "", "address3": "", "city": "Sturbridge", "zip_code": "01566", "country": "US", "state": "MA", "display_address": ["367 Main St", "Sturbridge, MA 01566"]}, "phone": "+15083477155", "display_phone": "(508) 347-7155", "distance": 8586.18255658627}, {"id": "nicPTvQYwocy0vZR1hutpg", "alias": "mcdonalds-sturbridge-2", "name": "McDonald's", "image_url": "https://s3-media2.fl.yelpcdn.com/bphoto/lihfLWzcVb-hOSYgs4xkWQ/o.jpg", "is_closed": false, "url": "https://www.yelp.com/biz/mcdonalds-sturbridge-2?adjust_creative=ywY5UnLZrNrRl2b93Ruy_g&utm_campaign=yelp_api_v3&utm_medium=api_v3_business_search&utm_source=ywY5UnLZrNrRl2b93Ruy_g", "review_count": 19, "categories": [{"alias": "hotdogs", "title": "Fast Food"}, {"alias": "burgers", "title": "Burgers"}, {"alias": "coffee", "title": "Coffee & Tea"}], "rating": 2.5, "coordinates": {"latitude": 42.1122626426317, "longitude": -72.0895305275917}, "transactions": [], "price": "$", "location": {"address1": "366 Main St", "address2": null, "address3": null, "city": "Sturbridge", "zip_code": "01566", "country": "US", "state": "MA", "display_address": ["366 Main St", "Sturbridge, MA 01566"]}, "phone": "+15083475856", "display_phone": "(508) 347-5856", "distance": 8657.491719048463}, {"id": "Dpyal9p7-E1HJgcRixQLdg", "alias": "american-motor-lodge-best-western-sturbridge", "name": "American Motor Lodge-Best Western", "image_url": "", "is_closed": false, "url": "https://www.yelp.com/biz/american-motor-lodge-best-western-sturbridge?adjust_creative=ywY5UnLZrNrRl2b93Ruy_g&utm_campaign=yelp_api_v3&utm_medium=api_v3_business_search&utm_source=ywY5UnLZrNrRl2b93Ruy_g", "review_count": 1, "categories": [{"alias": "hotels", "title": "Hotels"}, {"alias": "restaurants", "title": "Restaurants"}], "rating": 1.0, "coordinates": {"latitude": 42.113239, "longitude": -72.084112}, "transactions": [], "location": {"address1": "Rt 20", "address2": "", "address3": "", "city": "Sturbridge", "zip_code": "01566", "country": "US", "state": "MA", "display_address": ["Rt 20", "Sturbridge, MA 01566"]}, "phone": "+15083479121", "display_phone": "(508) 347-9121", "distance": 9067.999488171854}, {"id": "7dP_BDffV8OkuLKEGINoGw", "alias": "subway-sturbridge-6", "name": "Subway", "image_url": "https://s3-media4.fl.yelpcdn.com/bphoto/DSvKHkMBxpDX-qxH3C59XA/o.jpg", "is_closed": false, "url": "https://www.yelp.com/biz/subway-sturbridge-6?adjust_creative=ywY5UnLZrNrRl2b93Ruy_g&utm_campaign=yelp_api_v3&utm_medium=api_v3_business_search&utm_source=ywY5UnLZrNrRl2b93Ruy_g", "review_count": 2, "categories": [{"alias": "sandwiches", "title": "Sandwiches"}], "rating": 2.0, "coordinates": {"latitude": 42.1160695389239, "longitude": -72.0676040002186}, "transactions": ["pickup", "delivery"], "price": "$", "location": {"address1": "215 Charlton Rd", "address2": null, "address3": null, "city": "Sturbridge", "zip_code": "01566", "country": "US", "state": "MA", "display_address": ["215 Charlton Rd", "Sturbridge, MA 01566"]}, "phone": "+15083475600", "display_phone": "(508) 347-5600", "distance": 10334.87458198306}, {"id": "eRuEI6J8ueCxm2NFuGXC_w", "alias": "burger-king-sturbridge-4", "name": "Burger King", "image_url": "https://s3-media4.fl.yelpcdn.com/bphoto/gsi_IcGSCj5FnAHN_cwgGQ/o.jpg", "is_closed": false, "url": "https://www.yelp.com/biz/burger-king-sturbridge-4?adjust_creative=ywY5UnLZrNrRl2b93Ruy_g&utm_campaign=yelp_api_v3&utm_medium=api_v3_business_search&utm_source=ywY5UnLZrNrRl2b93Ruy_g", "review_count": 4, "categories": [{"alias": "burgers", "title": "Burgers"}, {"alias": "hotdogs", "title": "Fast Food"}], "rating": 3.0, "coordinates": {"latitude": 42.112093, "longitude": -72.09091}, "transactions": [], "price": "$", "location": {"address1": "374 Main Street", "address2": "", "address3": "", "city": "Sturbridge", "zip_code": "01566", "country": "US", "state": "MA", "display_address": ["374 Main Street", "Sturbridge, MA 01566"]}, "phone": "+15083479440", "display_phone": "(508) 347-9440", "distance": 8559.440581548715}]