[{"id": "ASqs5IuqWyJLaWwaup9O9A", "alias": "ronnies-seafood-charlton", "name": "Ronnie's Seafood", "image_url": "https://s3-media3.fl.yelpcdn.com/bphoto/ygwuQVkT925ZrZe9DXdPcg/o.jpg", "is_closed": false, "url": "https://www.yelp.com/biz/ronnies-seafood-charlton?adjust_creative=ywY5UnLZrNrRl2b93Ruy_g&utm_campaign=yelp_api_v3&utm_medium=api_v3_business_search&utm_source=ywY5UnLZrNrRl2b93Ruy_g", "review_count": 40, "categories": [{"alias": "seafood", "title": "Seafood"}], "rating": 4.0, "coordinates": {"latitude": 42.171999, "longitude": -71.977685}, "transactions": ["delivery"], "price": "$$", "location": {"address1": "208 City Depot Rd", "address2": "", "address3": "", "city": "Charlton", "zip_code": "01507", "country": "US", "state": "MA", "display_address": ["208 City Depot Rd", "Charlton, MA 01507"]}, "phone": "+15082485024", "display_phone": "(508) 248-5024", "distance": 292.52234764547285}, {"id": "A14Eypr5kImN1lKqXeiMKQ", "alias": "charlton-house-of-pizza-and-seafood-charlton", "name": "Charlton House Of Pizza & Seafood", "image_url": "https://s3-media4.fl.yelpcdn.com/bphoto/JDkb410WWA3TZIPJ_DegqQ/o.jpg", "is_closed": false, "url": "https://www.yelp.com/biz/charlton-house-of-pizza-and-seafood-charlton?adjust_creative=ywY5UnLZrNrRl2b93Ruy_g&utm_campaign=yelp_api_v3&utm_medium=api_v3_business_search&utm_source=ywY5UnLZrNrRl2b93Ruy_g", "review_count": 6, "categories": [{"alias": "pizza", "title": "Pizza"}, {"alias": "seafood", "title": "Seafood"}], "rating": 3.5, "coordinates": {"latitude": 42.13713, "longitude": -71.97024}, "transactions": ["delivery"], "location": {"address1": "109 Masonic Home Rd", "address2": null, "address3": "", "city": "Charlton", "zip_code": "01507", "country": "US", "state": "MA", "display_address": ["109 Masonic Home Rd", "Charlton, MA 01507"]}, "phone": "+15084341666", "display_phone": "(508) 434-1666", "distance": 3721.3101348708256}, {"id": "8RnBXTS9l6P_J3YBFGP8tA", "alias": "milk-and-sugar-cafe-charlton", "name": "Milk & Sugar Cafe", "image_url": "https://s3-media4.fl.yelpcdn.com/bphoto/TvkLIvAFdqogjIYUSY2SiQ/o.jpg", "is_closed": false, "url": "https://www.yelp.com/biz/milk-and-sugar-cafe-charlton?adjust_creative=ywY5UnLZrNrRl2b93Ruy_g&utm_campaign=yelp_api_v3&utm_medium=api_v3_business_search&utm_source=ywY5UnLZrNrRl2b93Ruy_g", "review_count": 1, "categories": [{"alias": "cafes", "title": "Cafes"}, {"alias": "coffee", "title": "Coffee & Tea"}, {"alias": "breakfast_brunch", "title": "Breakfast & Brunch"}], "rating": 5.0, "coordinates": {"latitude": 42.146816, "longitude": -71.98802}, "transactions": [], "location": {"address1": "7 Brookfield Rd", "address2": "", "address3": null, "city": "Charlton", "zip_code": "01507", "country": "US", "state": "MA", "display_address": ["7 Brookfield Rd", "Charlton, MA 01507"]}, "phone": "+15084340727", "display_phone": "(508) 434-0727", "distance": 2662.773982938898}, {"id": "5LnJZPd5i8WaQaZSyBzxlw", "alias": "georges-pizza-and-subs-charlton-2", "name": "George's Pizza & Subs", "image_url": "https://s3-media4.fl.yelpcdn.com/bphoto/yakVXZqs_knjbkKEe3wAcA/o.jpg", "is_closed": false, "url": "https://www.yelp.com/biz/georges-pizza-and-subs-charlton-2?adjust_creative=ywY5UnLZrNrRl2b93Ruy_g&utm_campaign=yelp_api_v3&utm_medium=api_v3_business_search&utm_source=ywY5UnLZrNrRl2b93Ruy_g", "review_count": 10, "categories": [{"alias": "pizza", "title": "Pizza"}, {"alias": "seafood", "title": "Seafood"}, {"alias": "chicken_wings", "title": "Chicken Wings"}], "rating": 2.5, "coordinates": {"latitude": 42.14948, "longitude": -71.98911}, "transactions": ["delivery"], "location": {"address1": "9 City Depot Rd", "address2": "", "address3": null, "city": "Charlton", "zip_code": "01507", "country": "US", "state": "MA", "display_address": ["9 City Depot Rd", "Charlton, MA 01507"]}, "phone": "+15082482048", "display_phone": "(508) 248-2048", "distance": 2401.155805924969}, {"id": "l5EE7aSMsfHiXSu2f9l9Vw", "alias": "fresh-city-charlton", "name": "Fresh City", "image_url": "https://s3-media4.fl.yelpcdn.com/bphoto/nNL4HZRNF-wqCvZI5czxNw/o.jpg", "is_closed": false, "url": "https://www.yelp.com/biz/fresh-city-charlton?adjust_creative=ywY5UnLZrNrRl2b93Ruy_g&utm_campaign=yelp_api_v3&utm_medium=api_v3_business_search&utm_source=ywY5UnLZrNrRl2b93Ruy_g", "review_count": 31, "categories": [{"alias": "newamerican", "title": "American (New)"}], "rating": 2.0, "coordinates": {"latitude": 42.156628, "longitude": -71.964096}, "transactions": [], "price": "$", "location": {"address1": "1-90 Massachusetts Turnpike", "address2": "Charlton Mass Pike E", "address3": "", "city": "Charlton", "zip_code": "01507", "country": "US", "state": "MA", "display_address": ["1-90 Massachusetts Turnpike", "Charlton Mass Pike E", "Charlton, MA 01507"]}, "phone": "+15082480663", "display_phone": "(508) 248-0663", "distance": 1984.6163292898993}, {"id": "a337zkmoaGIJGUApn46wGA", "alias": "d-angelo-natick-2", "name": "D'Angelo", "image_url": "https://s3-media1.fl.yelpcdn.com/bphoto/uS3563JIhI5YPG4UJJNZHw/o.jpg", "is_closed": false, "url": "https://www.yelp.com/biz/d-angelo-natick-2?adjust_creative=ywY5UnLZrNrRl2b93Ruy_g&utm_campaign=yelp_api_v3&utm_medium=api_v3_business_search&utm_source=ywY5UnLZrNrRl2b93Ruy_g", "review_count": 2, "categories": [{"alias": "sandwiches", "title": "Sandwiches"}], "rating": 3.0, "coordinates": {"latitude": 42.1565304953665, "longitude": -71.9640567173507}, "transactions": [], "location": {"address1": "117 Mass Turnpike W", "address2": "", "address3": "", "city": "Natick", "zip_code": "02062", "country": "US", "state": "MA", "display_address": ["117 Mass Turnpike W", "Natick, MA 02062"]}, "phone": "+15086552958", "display_phone": "(508) 655-2958", "distance": 1994.8967647810546}, {"id": "eZe_SqA9OCE_UxBfnpIwAA", "alias": "d-angelo-sandwich-shop-charlton", "name": "D'Angelo Sandwich Shop", "image_url": "https://s3-media4.fl.yelpcdn.com/bphoto/UqpzoHw-svV_S_rdsgjLmQ/o.jpg", "is_closed": false, "url": "https://www.yelp.com/biz/d-angelo-sandwich-shop-charlton?adjust_creative=ywY5UnLZrNrRl2b93Ruy_g&utm_campaign=yelp_api_v3&utm_medium=api_v3_business_search&utm_source=ywY5UnLZrNrRl2b93Ruy_g", "review_count": 7, "categories": [{"alias": "sandwiches", "title": "Sandwiches"}], "rating": 2.0, "coordinates": {"latitude": 42.138691842556, "longitude": -72.0235615968704}, "transactions": ["delivery"], "location": {"address1": "166 Sturbridge Rd", "address2": "", "address3": "", "city": "Charlton", "zip_code": "01507", "country": "US", "state": "MA", "display_address": ["166 Sturbridge Rd", "Charlton, MA 01507"]}, "phone": "+15082481061", "display_phone": "(508) 248-1061", "distance": 4997.213443036354}, {"id": "tvRhb4dXverm3watzDLtGw", "alias": "fresh-city-charlton-2", "name": "Fresh City", "image_url": "https://s3-media1.fl.yelpcdn.com/bphoto/qwDfueXdJ_j9rEKdRCaAVQ/o.jpg", "is_closed": false, "url": "https://www.yelp.com/biz/fresh-city-charlton-2?adjust_creative=ywY5UnLZrNrRl2b93Ruy_g&utm_campaign=yelp_api_v3&utm_medium=api_v3_business_search&utm_source=ywY5UnLZrNrRl2b93Ruy_g", "review_count": 14, "categories": [{"alias": "delis", "title": "Delis"}, {"alias": "sandwiches", "title": "Sandwiches"}], "rating": 1.5, "coordinates": {"latitude": 42.156434463791, "longitude": -71.9642174128566}, "transactions": [], "price": "$", "location": {"address1": "Massachusetts Turnpike", "address2": "", "address3": "", "city": "Charlton", "zip_code": "01508", "country": "US", "state": "MA", "display_address": ["Massachusetts Turnpike", "Charlton, MA 01508"]}, "phone": "+15082480663", "display_phone": "(508) 248-0663", "distance": 1994.2621493571405}, {"id": "EFpZHYF6TjVrXTXaWzjQ7A", "alias": "family-house-of-pizza-and-seafood-charlton", "name": "Family House of Pizza & Seafood", "image_url": "https://s3-media3.fl.yelpcdn.com/bphoto/Iz30Dowh5etAodvEKZrpdQ/o.jpg", "is_closed": false, "url": "https://www.yelp.com/biz/family-house-of-pizza-and-seafood-charlton?adjust_creative=ywY5UnLZrNrRl2b93Ruy_g&utm_campaign=yelp_api_v3&utm_medium=api_v3_business_search&utm_source=ywY5UnLZrNrRl2b93Ruy_g", "review_count": 10, "categories": [{"alias": "seafood", "title": "Seafood"}], "rating": 2.5, "coordinates": {"latitude": 42.1375465393066, "longitude": -71.9712905883789}, "transactions": ["delivery"], "price": "$$", "location": {"address1": "105 Masonic Home Rd", "address2": "", "address3": "", "city": "Charlton", "zip_code": "01507", "country": "US", "state": "MA", "display_address": ["105 Masonic Home Rd", "Charlton, MA 01507"]}, "phone": "+15082480666", "display_phone": "(508) 248-0666", "distance": 3685.6972822214043}, {"id": "Z0-OVloiiicUx54Q_NlXeg", "alias": "papa-ginos-charlton-2", "name": "Papa Gino's", "image_url": "https://s3-media1.fl.yelpcdn.com/bphoto/XMfmh_v23h5Tf8FRb7jx4g/o.jpg", "is_closed": false, "url": "https://www.yelp.com/biz/papa-ginos-charlton-2?adjust_creative=ywY5UnLZrNrRl2b93Ruy_g&utm_campaign=yelp_api_v3&utm_medium=api_v3_business_search&utm_source=ywY5UnLZrNrRl2b93Ruy_g", "review_count": 5, "categories": [{"alias": "pizza", "title": "Pizza"}], "rating": 3.0, "coordinates": {"latitude": 42.1565865558527, "longitude": -71.9640472644289}, "transactions": ["delivery"], "location": {"address1": "Massachusetts Tpke", "address2": "", "address3": "", "city": "Charlton", "zip_code": "", "country": "US", "state": "MA", "display_address": ["Massachusetts Tpke", "Charlton, MA"]}, "phone": "", "display_phone": "", "distance": 1990.7298025806608}, {"id": "GevCzGJJNY7wggXDp-bdkg", "alias": "d-angelo-sandwich-shops-charlton", "name": "D'Angelo Sandwich Shops", "image_url": "https://s3-media2.fl.yelpcdn.com/bphoto/DOv0KrDMhZbPlp_qQIypuw/o.jpg", "is_closed": false, "url": "https://www.yelp.com/biz/d-angelo-sandwich-shops-charlton?adjust_creative=ywY5UnLZrNrRl2b93Ruy_g&utm_campaign=yelp_api_v3&utm_medium=api_v3_business_search&utm_source=ywY5UnLZrNrRl2b93Ruy_g", "review_count": 4, "categories": [{"alias": "sandwiches", "title": "Sandwiches"}], "rating": 2.0, "coordinates": {"latitude": 42.158604, "longitude": -71.965294}, "transactions": [], "location": {"address1": "Mass Pike Westbound", "address2": "", "address3": "", "city": "Charlton", "zip_code": "01507", "country": "US", "state": "MA", "display_address": ["Mass Pike Westbound", "Charlton, MA 01507"]}, "phone": "+15082485216", "display_phone": "(508) 248-5216", "distance": 1755.9306094694184}, {"id": "LtCwcvjmjXvEYnjnPtkNoA", "alias": "mcdonalds-charlton-8", "name": "McDonald's", "image_url": "https://s3-media1.fl.yelpcdn.com/bphoto/_kT0RkE8Ml38lP5xNfSOxA/o.jpg", "is_closed": false, "url": "https://www.yelp.com/biz/mcdonalds-charlton-8?adjust_creative=ywY5UnLZrNrRl2b93Ruy_g&utm_campaign=yelp_api_v3&utm_medium=api_v3_business_search&utm_source=ywY5UnLZrNrRl2b93Ruy_g", "review_count": 24, "categories": [{"alias": "hotdogs", "title": "Fast Food"}, {"alias": "burgers", "title": "Burgers"}, {"alias": "coffee", "title": "Coffee & Tea"}], "rating": 1.5, "coordinates": {"latitude": 42.15299, "longitude": -71.97941}, "transactions": [], "price": "$", "location": {"address1": "Mass Pike I-90 Service Area Milepost 89", "address2": null, "address3": null, "city": "Charlton", "zip_code": "01507", "country": "US", "state": "MA", "display_address": ["Mass Pike I-90 Service Area Milepost 89", "Charlton, MA 01507"]}, "phone": "+15082486788", "display_phone": "(508) 248-6788", "distance": 1993.8121416843264}, {"id": "FTTTC5zRb6Ze6E2ImSaCVA", "alias": "papa-ginos-pizzeria-charlton", "name": "Papa Gino's Pizzeria", "image_url": "https://s3-media2.fl.yelpcdn.com/bphoto/JEfWFgP1aeUg44dr3GvOEg/o.jpg", "is_closed": false, "url": "https://www.yelp.com/biz/papa-ginos-pizzeria-charlton?adjust_creative=ywY5UnLZrNrRl2b93Ruy_g&utm_campaign=yelp_api_v3&utm_medium=api_v3_business_search&utm_source=ywY5UnLZrNrRl2b93Ruy_g", "review_count": 6, "categories": [{"alias": "pizza", "title": "Pizza"}], "rating": 2.0, "coordinates": {"latitude": 42.138411, "longitude": -72.028237}, "transactions": ["delivery"], "location": {"address1": "166 Sturbridge Rd", "address2": null, "address3": null, "city": "Charlton", "zip_code": "01507", "country": "US", "state": "MA", "display_address": ["166 Sturbridge Rd", "Charlton, MA 01507"]}, "phone": "+15082481061", "display_phone": "(508) 248-1061", "distance": 4997.213443036354}, {"id": "W84Be-TGzND8-MIfmwT8ow", "alias": "mcdonalds-charlton-2", "name": "McDonald's", "image_url": "https://s3-media4.fl.yelpcdn.com/bphoto/Pffw3GCKc7MDT7_30eHitA/o.jpg", "is_closed": false, "url": "https://www.yelp.com/biz/mcdonalds-charlton-2?adjust_creative=ywY5UnLZrNrRl2b93Ruy_g&utm_campaign=yelp_api_v3&utm_medium=api_v3_business_search&utm_source=ywY5UnLZrNrRl2b93Ruy_g", "review_count": 11, "categories": [{"alias": "hotdogs", "title": "Fast Food"}, {"alias": "burgers", "title": "Burgers"}, {"alias": "coffee", "title": "Coffee & Tea"}], "rating": 2.0, "coordinates": {"latitude": 42.145532, "longitude": -71.9873243}, "transactions": [], "price": "$", "location": {"address1": "38 Worcester Rd", "address2": "", "address3": "", "city": "Charlton", "zip_code": "01507", "country": "US", "state": "MA", "display_address": ["38 Worcester Rd", "Charlton, MA 01507"]}, "phone": "+15082487040", "display_phone": "(508) 248-7040", "distance": 2818.2596485730674}, {"id": "QRYb653_lWE9Hf1KlzykNg", "alias": "mcdonalds-charlton-7", "name": "McDonald's", "image_url": "https://s3-media4.fl.yelpcdn.com/bphoto/KuCRqa0z50L4TM1QrE6L8A/o.jpg", "is_closed": false, "url": "https://www.yelp.com/biz/mcdonalds-charlton-7?adjust_creative=ywY5UnLZrNrRl2b93Ruy_g&utm_campaign=yelp_api_v3&utm_medium=api_v3_business_search&utm_source=ywY5UnLZrNrRl2b93Ruy_g", "review_count": 9, "categories": [{"alias": "hotdogs", "title": "Fast Food"}, {"alias": "burgers", "title": "Burgers"}, {"alias": "coffee", "title": "Coffee & Tea"}], "rating": 1.5, "coordinates": {"latitude": 42.15299, "longitude": -71.97941}, "transactions": [], "price": "$", "location": {"address1": "Mass Pike I-90 Service Area Eastbound", "address2": "", "address3": "", "city": "Charlton", "zip_code": "01508", "country": "US", "state": "MA", "display_address": ["Mass Pike I-90 Service Area Eastbound", "Charlton, MA 01508"]}, "phone": "+15082480517", "display_phone": "(508) 248-0517", "distance": 2829.7433409907717}]