[{"id": "NYYIGL8JP4g2XQuyxivq-A", "alias": "center-square-grill-east-longmeadow", "name": "Center Square Grill", "image_url": "https://s3-media1.fl.yelpcdn.com/bphoto/bHBxqCxNxcJV2_tK8XDkyg/o.jpg", "is_closed": false, "url": "https://www.yelp.com/biz/center-square-grill-east-longmeadow?adjust_creative=h5HwbyQ0TYvQjBo6Ys5Bgw&utm_campaign=yelp_api_v3&utm_medium=api_v3_business_search&utm_source=h5HwbyQ0TYvQjBo6Ys5Bgw", "review_count": 371, "categories": [{"alias": "newamerican", "title": "American (New)"}, {"alias": "tradamerican", "title": "American (Traditional)"}, {"alias": "italian", "title": "Italian"}], "rating": 4.5, "coordinates": {"latitude": 42.0654985, "longitude": -72.5148327}, "transactions": ["delivery", "restaurant_reservation"], "price": "$$", "location": {"address1": "84 Center Sq", "address2": "", "address3": "", "city": "East Longmeadow", "zip_code": "01028", "country": "US", "state": "MA", "display_address": ["84 Center Sq", "East Longmeadow, MA 01028"]}, "phone": "+14135250055", "display_phone": "(413) 525-0055", "distance": 4112.219905049557}, {"id": "hax0L5Z8G-3EAQDsYOXdIw", "alias": "leones-restaurant-springfield", "name": "Leone's Restaurant", "image_url": "https://s3-media4.fl.yelpcdn.com/bphoto/AMwfIntc9inaowUByD9F6Q/o.jpg", "is_closed": false, "url": "https://www.yelp.com/biz/leones-restaurant-springfield?adjust_creative=h5HwbyQ0TYvQjBo6Ys5Bgw&utm_campaign=yelp_api_v3&utm_medium=api_v3_business_search&utm_source=h5HwbyQ0TYvQjBo6Ys5Bgw", "review_count": 81, "categories": [{"alias": "pizza", "title": "Pizza"}, {"alias": "italian", "title": "Italian"}], "rating": 3.5, "coordinates": {"latitude": 42.0950132390435, "longitude": -72.4990786515415}, "transactions": ["delivery"], "price": "$$", "location": {"address1": "320 Cooley St", "address2": "", "address3": "", "city": "Springfield", "zip_code": "01128", "country": "US", "state": "MA", "display_address": ["320 Cooley St", "Springfield, MA 01128"]}, "phone": "+14137834363", "display_phone": "(413) 783-4363", "distance": 1022.7310843735863}, {"id": "XJC6C0bzkrqMxiO2b2xDZw", "alias": "ph-delicious-authentic-vietnamese-cuisine-east-longmeadow", "name": "Ph Delicious - Authentic Vietnamese Cuisine", "image_url": "https://s3-media2.fl.yelpcdn.com/bphoto/LHlghEZlg_7efpfDHSpLLg/o.jpg", "is_closed": false, "url": "https://www.yelp.com/biz/ph-delicious-authentic-vietnamese-cuisine-east-longmeadow?adjust_creative=h5HwbyQ0TYvQjBo6Ys5Bgw&utm_campaign=yelp_api_v3&utm_medium=api_v3_business_search&utm_source=h5HwbyQ0TYvQjBo6Ys5Bgw", "review_count": 27, "categories": [{"alias": "vietnamese", "title": "Vietnamese"}], "rating": 4.0, "coordinates": {"latitude": 42.06417, "longitude": -72.51393}, "transactions": [], "price": "$$", "location": {"address1": "14 Maple St", "address2": "", "address3": null, "city": "East Longmeadow", "zip_code": "01028", "country": "US", "state": "MA", "display_address": ["14 Maple St", "East Longmeadow, MA 01028"]}, "phone": "+14132242245", "display_phone": "(413) 224-2245", "distance": 4178.006277672095}, {"id": "I3hPUXO_T1KRcwW83aZSiw", "alias": "greathorse-hampden", "name": "GreatHorse", "image_url": "https://s3-media1.fl.yelpcdn.com/bphoto/4I0p8hnP-DYuAJY8hwBysw/o.jpg", "is_closed": false, "url": "https://www.yelp.com/biz/greathorse-hampden?adjust_creative=h5HwbyQ0TYvQjBo6Ys5Bgw&utm_campaign=yelp_api_v3&utm_medium=api_v3_business_search&utm_source=h5HwbyQ0TYvQjBo6Ys5Bgw", "review_count": 4, "categories": [{"alias": "newamerican", "title": "American (New)"}], "rating": 5.0, "coordinates": {"latitude": 42.0656899, "longitude": -72.43407}, "transactions": [], "price": "$$$", "location": {"address1": "128 Wilbraham Rd", "address2": "", "address3": "", "city": "Hampden", "zip_code": "01036", "country": "US", "state": "MA", "display_address": ["128 Wilbraham Rd", "Hampden, MA 01036"]}, "phone": "+14135668010", "display_phone": "(413) 566-8010", "distance": 5334.24618575029}, {"id": "E1yNA7a2TehGpiM-QXE1-Q", "alias": "sabores-springfield", "name": "Sabores", "image_url": "https://s3-media4.fl.yelpcdn.com/bphoto/VbDaN_rPfxOpgKJNrro6Aw/o.jpg", "is_closed": false, "url": "https://www.yelp.com/biz/sabores-springfield?adjust_creative=h5HwbyQ0TYvQjBo6Ys5Bgw&utm_campaign=yelp_api_v3&utm_medium=api_v3_business_search&utm_source=h5HwbyQ0TYvQjBo6Ys5Bgw", "review_count": 21, "categories": [{"alias": "mexican", "title": "Mexican"}], "rating": 4.0, "coordinates": {"latitude": 42.09321, "longitude": -72.51024}, "transactions": ["delivery", "pickup"], "location": {"address1": "1490 Allen St", "address2": "", "address3": null, "city": "Springfield", "zip_code": "01118", "country": "US", "state": "MA", "display_address": ["1490 Allen St", "Springfield, MA 01118"]}, "phone": "+14133016307", "display_phone": "(413) 301-6307", "distance": 1989.1861161595461}, {"id": "RrSr3TjepBO6zBp6DjdN1w", "alias": "joy-bowl-springfield", "name": "Joy Bowl", "image_url": "https://s3-media1.fl.yelpcdn.com/bphoto/tFph8rfZJ4Q0iLh9ZWXPdQ/o.jpg", "is_closed": false, "url": "https://www.yelp.com/biz/joy-bowl-springfield?adjust_creative=h5HwbyQ0TYvQjBo6Ys5Bgw&utm_campaign=yelp_api_v3&utm_medium=api_v3_business_search&utm_source=h5HwbyQ0TYvQjBo6Ys5Bgw", "review_count": 84, "categories": [{"alias": "poke", "title": "Poke"}, {"alias": "asianfusion", "title": "Asian Fusion"}, {"alias": "hawaiian", "title": "Hawaiian"}], "rating": 5.0, "coordinates": {"latitude": 42.1171398, "longitude": -72.5239512}, "transactions": ["delivery"], "price": "$$", "location": {"address1": "455 Breckwood Blvd", "address2": "A", "address3": null, "city": "Springfield", "zip_code": "01109", "country": "US", "state": "MA", "display_address": ["455 Breckwood Blvd", "A", "Springfield, MA 01109"]}, "phone": "+14134551280", "display_phone": "(413) 455-1280", "distance": 3861.2064768016994}, {"id": "-4hbPMcWdMFEuhCJ75ZRMA", "alias": "la-cucina-di-hampden-house-hampden", "name": "La Cucina Di Hampden House", "image_url": "https://s3-media1.fl.yelpcdn.com/bphoto/IlPcJ5ct0aam8M4GHH17uA/o.jpg", "is_closed": false, "url": "https://www.yelp.com/biz/la-cucina-di-hampden-house-hampden?adjust_creative=h5HwbyQ0TYvQjBo6Ys5Bgw&utm_campaign=yelp_api_v3&utm_medium=api_v3_business_search&utm_source=h5HwbyQ0TYvQjBo6Ys5Bgw", "review_count": 55, "categories": [{"alias": "italian", "title": "Italian"}], "rating": 3.5, "coordinates": {"latitude": 42.0587707310915, "longitude": -72.4404861778021}, "transactions": ["delivery"], "price": "$$", "location": {"address1": "1 Allen St", "address2": "", "address3": "", "city": "Hampden", "zip_code": "01036", "country": "US", "state": "MA", "display_address": ["1 Allen St", "Hampden, MA 01036"]}, "phone": "+14135668324", "display_phone": "(413) 566-8324", "distance": 5578.063576803068}, {"id": "ZgBGVR0jmg9IyP6_qx-wlw", "alias": "texas-roadhouse-springfield-6", "name": "Texas Roadhouse", "image_url": "https://s3-media2.fl.yelpcdn.com/bphoto/vCqGIeQz_S1jYQgd7UXaZA/o.jpg", "is_closed": false, "url": "https://www.yelp.com/biz/texas-roadhouse-springfield-6?adjust_creative=h5HwbyQ0TYvQjBo6Ys5Bgw&utm_campaign=yelp_api_v3&utm_medium=api_v3_business_search&utm_source=h5HwbyQ0TYvQjBo6Ys5Bgw", "review_count": 73, "categories": [{"alias": "steak", "title": "Steakhouses"}, {"alias": "bbq", "title": "Barbeque"}], "rating": 3.5, "coordinates": {"latitude": 42.094153, "longitude": -72.499439}, "transactions": [], "price": "$$", "location": {"address1": "12 Mall St", "address2": "", "address3": "", "city": "Springfield", "zip_code": "01128", "country": "US", "state": "MA", "display_address": ["12 Mall St", "Springfield, MA 01128"]}, "phone": "+14137828100", "display_phone": "(413) 782-8100", "distance": 1067.0501474950938}, {"id": "jXG4MNGxp8-xia-1i4feQQ", "alias": "saray-turkish-restaurant-ii-springfield-2", "name": "Saray Turkish Restaurant II", "image_url": "https://s3-media4.fl.yelpcdn.com/bphoto/u90YBKkXrwHKu1ykYLH7Qw/o.jpg", "is_closed": false, "url": "https://www.yelp.com/biz/saray-turkish-restaurant-ii-springfield-2?adjust_creative=h5HwbyQ0TYvQjBo6Ys5Bgw&utm_campaign=yelp_api_v3&utm_medium=api_v3_business_search&utm_source=h5HwbyQ0TYvQjBo6Ys5Bgw", "review_count": 123, "categories": [{"alias": "turkish", "title": "Turkish"}, {"alias": "mideastern", "title": "Middle Eastern"}, {"alias": "seafood", "title": "Seafood"}], "rating": 4.5, "coordinates": {"latitude": 42.0940960228413, "longitude": -72.5144910705872}, "transactions": ["delivery", "pickup"], "price": "$$", "location": {"address1": "1374 Allen St", "address2": "", "address3": "", "city": "Springfield", "zip_code": "01118", "country": "US", "state": "MA", "display_address": ["1374 Allen St", "Springfield, MA 01118"]}, "phone": "+14137965505", "display_phone": "(413) 796-5505", "distance": 2298.18805302088}, {"id": "Nu24v7fAIsm0B3cwgWDIkw", "alias": "patsys-ristorante-east-longmeadow", "name": "Patsy's Ristorante", "image_url": "https://s3-media2.fl.yelpcdn.com/bphoto/44h39xsRPr-GfA_Zp5wK4A/o.jpg", "is_closed": false, "url": "https://www.yelp.com/biz/patsys-ristorante-east-longmeadow?adjust_creative=h5HwbyQ0TYvQjBo6Ys5Bgw&utm_campaign=yelp_api_v3&utm_medium=api_v3_business_search&utm_source=h5HwbyQ0TYvQjBo6Ys5Bgw", "review_count": 23, "categories": [{"alias": "italian", "title": "Italian"}], "rating": 4.0, "coordinates": {"latitude": 42.0798263549805, "longitude": -72.5355911254883}, "transactions": ["delivery"], "price": "$$", "location": {"address1": "600 N Main St", "address2": "", "address3": "", "city": "East Longmeadow", "zip_code": "01028", "country": "US", "state": "MA", "display_address": ["600 N Main St", "East Longmeadow, MA 01028"]}, "phone": "+14137390275", "display_phone": "(413) 739-0275", "distance": 4423.787302704}, {"id": "wK0jzyEit29bpeWqFhQvTQ", "alias": "peacock-chinese-restaurant-springfield", "name": "Peacock Chinese Restaurant", "image_url": "https://s3-media1.fl.yelpcdn.com/bphoto/XgdVnNd5hpOQtQdFlKM2zQ/o.jpg", "is_closed": false, "url": "https://www.yelp.com/biz/peacock-chinese-restaurant-springfield?adjust_creative=h5HwbyQ0TYvQjBo6Ys5Bgw&utm_campaign=yelp_api_v3&utm_medium=api_v3_business_search&utm_source=h5HwbyQ0TYvQjBo6Ys5Bgw", "review_count": 47, "categories": [{"alias": "chinese", "title": "Chinese"}, {"alias": "soup", "title": "Soup"}], "rating": 3.5, "coordinates": {"latitude": 42.094299, "longitude": -72.4989373}, "transactions": ["delivery"], "price": "$$", "location": {"address1": "338 Cooley St", "address2": "", "address3": "", "city": "Springfield", "zip_code": "01128", "country": "US", "state": "MA", "display_address": ["338 Cooley St", "Springfield, MA 01128"]}, "phone": "+14137839996", "display_phone": "(413) 783-9996", "distance": 1171.3465109010092}, {"id": "6H_PdeeEiI9b4VJ2f18Ctg", "alias": "christophers-tavern-springfield-2", "name": "Christopher's Tavern", "image_url": "https://s3-media1.fl.yelpcdn.com/bphoto/XYXHnReKL-4I3qun_UvitQ/o.jpg", "is_closed": false, "url": "https://www.yelp.com/biz/christophers-tavern-springfield-2?adjust_creative=h5HwbyQ0TYvQjBo6Ys5Bgw&utm_campaign=yelp_api_v3&utm_medium=api_v3_business_search&utm_source=h5HwbyQ0TYvQjBo6Ys5Bgw", "review_count": 72, "categories": [{"alias": "sportsbars", "title": "Sports Bars"}, {"alias": "tradamerican", "title": "American (Traditional)"}, {"alias": "salad", "title": "Salad"}], "rating": 2.5, "coordinates": {"latitude": 42.0945954327243, "longitude": -72.5014025055573}, "transactions": ["delivery", "pickup"], "price": "$$", "location": {"address1": "360 Cooley St", "address2": "", "address3": "", "city": "Springfield", "zip_code": "01128", "country": "US", "state": "MA", "display_address": ["360 Cooley St", "Springfield, MA 01128"]}, "phone": "+14133630650", "display_phone": "(413) 363-0650", "distance": 1218.7468359916945}, {"id": "bpSvLt1XMLAY7tEhfCMapQ", "alias": "tokyo-asian-fusion-springfield", "name": "Tokyo Asian Fusion", "image_url": "https://s3-media4.fl.yelpcdn.com/bphoto/iE1jv1U8FY-Eu4m38xU80A/o.jpg", "is_closed": false, "url": "https://www.yelp.com/biz/tokyo-asian-fusion-springfield?adjust_creative=h5HwbyQ0TYvQjBo6Ys5Bgw&utm_campaign=yelp_api_v3&utm_medium=api_v3_business_search&utm_source=h5HwbyQ0TYvQjBo6Ys5Bgw", "review_count": 81, "categories": [{"alias": "asianfusion", "title": "Asian Fusion"}, {"alias": "sushi", "title": "Sushi Bars"}, {"alias": "japanese", "title": "Japanese"}], "rating": 3.0, "coordinates": {"latitude": 42.09184, "longitude": -72.4987}, "transactions": ["delivery", "pickup"], "price": "$$", "location": {"address1": "415 Cooley St", "address2": null, "address3": "", "city": "Springfield", "zip_code": "01128", "country": "US", "state": "MA", "display_address": ["415 Cooley St", "Springfield, MA 01128"]}, "phone": "+14137823333", "display_phone": "(413) 782-3333", "distance": 1091.8821392971668}, {"id": "RkWI9RHeF938rHWc9upfdQ", "alias": "gios-pizzeria-hampden", "name": "Gio's Pizzeria", "image_url": "https://s3-media1.fl.yelpcdn.com/bphoto/RMO8_gTByp99UAtxJBrPxA/o.jpg", "is_closed": false, "url": "https://www.yelp.com/biz/gios-pizzeria-hampden?adjust_creative=h5HwbyQ0TYvQjBo6Ys5Bgw&utm_campaign=yelp_api_v3&utm_medium=api_v3_business_search&utm_source=h5HwbyQ0TYvQjBo6Ys5Bgw", "review_count": 59, "categories": [{"alias": "pizza", "title": "Pizza"}, {"alias": "italian", "title": "Italian"}], "rating": 4.0, "coordinates": {"latitude": 42.0596536, "longitude": -72.4420908}, "transactions": ["delivery"], "price": "$$", "location": {"address1": "9 Allen St", "address2": null, "address3": "", "city": "Hampden", "zip_code": "01036", "country": "US", "state": "MA", "display_address": ["9 Allen St", "Hampden, MA 01036"]}, "phone": "+14135668015", "display_phone": "(413) 566-8015", "distance": 5475.037971770722}, {"id": "EZTbio4sz6fUPIvixiRxfA", "alias": "bentleys-bistro-east-longmeadow", "name": "Bentley's Bistro", "image_url": "https://s3-media3.fl.yelpcdn.com/bphoto/6THiRmv6YNAgT9g2nUPUyQ/o.jpg", "is_closed": false, "url": "https://www.yelp.com/biz/bentleys-bistro-east-longmeadow?adjust_creative=h5HwbyQ0TYvQjBo6Ys5Bgw&utm_campaign=yelp_api_v3&utm_medium=api_v3_business_search&utm_source=h5HwbyQ0TYvQjBo6Ys5Bgw", "review_count": 86, "categories": [{"alias": "newamerican", "title": "American (New)"}, {"alias": "bars", "title": "Bars"}], "rating": 3.0, "coordinates": {"latitude": 42.06691, "longitude": -72.5135899}, "transactions": [], "price": "$$", "location": {"address1": "53 N Main St", "address2": "", "address3": "", "city": "East Longmeadow", "zip_code": "01028", "country": "US", "state": "MA", "display_address": ["53 N Main St", "East Longmeadow, MA 01028"]}, "phone": "+14135257777", "display_phone": "(413) 525-7777", "distance": 3904.4472982032526}, {"id": "cC3MXwOa2pRknnqkyKDxtQ", "alias": "taos-asian-cuisine-east-longmeadow-2", "name": "Tao's Asian Cuisine", "image_url": "https://s3-media2.fl.yelpcdn.com/bphoto/9GgNDep4pPGxJ2Vs011ujg/o.jpg", "is_closed": false, "url": "https://www.yelp.com/biz/taos-asian-cuisine-east-longmeadow-2?adjust_creative=h5HwbyQ0TYvQjBo6Ys5Bgw&utm_campaign=yelp_api_v3&utm_medium=api_v3_business_search&utm_source=h5HwbyQ0TYvQjBo6Ys5Bgw", "review_count": 60, "categories": [{"alias": "asianfusion", "title": "Asian Fusion"}, {"alias": "sushi", "title": "Sushi Bars"}], "rating": 4.0, "coordinates": {"latitude": 42.0806085800348, "longitude": -72.5290245482753}, "transactions": ["delivery"], "price": "$$", "location": {"address1": "31 Harkness Ave", "address2": "", "address3": "", "city": "East Longmeadow", "zip_code": "01028", "country": "US", "state": "MA", "display_address": ["31 Harkness Ave", "East Longmeadow, MA 01028"]}, "phone": "+14135251820", "display_phone": "(413) 525-1820", "distance": 3887.3558203356506}, {"id": "hg9_mB-vLWnoJ7xRLqpnyg", "alias": "marios-cafe-ambiance-east-longmeadow", "name": "Mario's Cafe Ambiance", "image_url": "https://s3-media2.fl.yelpcdn.com/bphoto/LkdGgRVPttmR0lms_TK66A/o.jpg", "is_closed": false, "url": "https://www.yelp.com/biz/marios-cafe-ambiance-east-longmeadow?adjust_creative=h5HwbyQ0TYvQjBo6Ys5Bgw&utm_campaign=yelp_api_v3&utm_medium=api_v3_business_search&utm_source=h5HwbyQ0TYvQjBo6Ys5Bgw", "review_count": 28, "categories": [{"alias": "italian", "title": "Italian"}], "rating": 3.0, "coordinates": {"latitude": 42.06239, "longitude": -72.51375}, "transactions": ["delivery"], "price": "$$", "location": {"address1": "60 Shaker Rd", "address2": "", "address3": "", "city": "East Longmeadow", "zip_code": "01028", "country": "US", "state": "MA", "display_address": ["60 Shaker Rd", "East Longmeadow, MA 01028"]}, "phone": "+14132242295", "display_phone": "(413) 224-2295", "distance": 4302.267638189011}, {"id": "_oCJr_JVPBCT-Ap1rUbveg", "alias": "ichiban-east-longmeadow-east-longmeadow", "name": "Ichiban East Longmeadow", "image_url": "https://s3-media1.fl.yelpcdn.com/bphoto/Et1M_9-uy1yEqvxCn8XalA/o.jpg", "is_closed": false, "url": "https://www.yelp.com/biz/ichiban-east-longmeadow-east-longmeadow?adjust_creative=h5HwbyQ0TYvQjBo6Ys5Bgw&utm_campaign=yelp_api_v3&utm_medium=api_v3_business_search&utm_source=h5HwbyQ0TYvQjBo6Ys5Bgw", "review_count": 60, "categories": [{"alias": "japanese", "title": "Japanese"}, {"alias": "sushi", "title": "Sushi Bars"}, {"alias": "chinese", "title": "Chinese"}], "rating": 4.0, "coordinates": {"latitude": 42.0781819, "longitude": -72.5263044}, "transactions": ["delivery"], "price": "$$", "location": {"address1": "422 N Main St", "address2": "", "address3": "", "city": "East Longmeadow", "zip_code": "01028", "country": "US", "state": "MA", "display_address": ["422 N Main St", "East Longmeadow, MA 01028"]}, "phone": "+14135251688", "display_phone": "(413) 525-1688", "distance": 3894.579034187097}, {"id": "j-0iCAjaBm3ARzFj2M-mLw", "alias": "fresh-acres-market-springfield", "name": "Fresh Acres Market", "image_url": "https://s3-media1.fl.yelpcdn.com/bphoto/V9SCK9INSpqaOzWbNd0Q9g/o.jpg", "is_closed": false, "url": "https://www.yelp.com/biz/fresh-acres-market-springfield?adjust_creative=h5HwbyQ0TYvQjBo6Ys5Bgw&utm_campaign=yelp_api_v3&utm_medium=api_v3_business_search&utm_source=h5HwbyQ0TYvQjBo6Ys5Bgw", "review_count": 36, "categories": [{"alias": "grocery", "title": "Grocery"}, {"alias": "seafood", "title": "Seafood"}, {"alias": "delis", "title": "Delis"}], "rating": 4.0, "coordinates": {"latitude": 42.1138897, "longitude": -72.4971424}, "transactions": [], "price": "$$", "location": {"address1": "1941 Wilbraham Rd", "address2": null, "address3": null, "city": "Springfield", "zip_code": "01129", "country": "US", "state": "MA", "display_address": ["1941 Wilbraham Rd", "Springfield, MA 01129"]}, "phone": "+14137839141", "display_phone": "(413) 783-9141", "distance": 2160.17568157679}, {"id": "_LnsCTAhf3zrteMxR2Traw", "alias": "pizza-makers-springfield", "name": "Pizza Makers", "image_url": "https://s3-media1.fl.yelpcdn.com/bphoto/Is8O5Q22vPlO7DpO4CCqHA/o.jpg", "is_closed": false, "url": "https://www.yelp.com/biz/pizza-makers-springfield?adjust_creative=h5HwbyQ0TYvQjBo6Ys5Bgw&utm_campaign=yelp_api_v3&utm_medium=api_v3_business_search&utm_source=h5HwbyQ0TYvQjBo6Ys5Bgw", "review_count": 23, "categories": [{"alias": "pizza", "title": "Pizza"}], "rating": 2.5, "coordinates": {"latitude": 42.09039, "longitude": -72.49984}, "transactions": [], "price": "$$", "location": {"address1": "1826 Allen St", "address2": "", "address3": "", "city": "Springfield", "zip_code": "01118", "country": "US", "state": "MA", "display_address": ["1826 Allen St", "Springfield, MA 01118"]}, "phone": "+14137836126", "display_phone": "(413) 783-6126", "distance": 1257.6740019541837}, {"id": "nrLxUbJiQd6De_8yx7_jIQ", "alias": "crazy-arepas-springfield", "name": "Crazy Arepas", "image_url": "https://s3-media2.fl.yelpcdn.com/bphoto/xBRYNve2vxH1M1iG5Gm4lQ/o.jpg", "is_closed": false, "url": "https://www.yelp.com/biz/crazy-arepas-springfield?adjust_creative=h5HwbyQ0TYvQjBo6Ys5Bgw&utm_campaign=yelp_api_v3&utm_medium=api_v3_business_search&utm_source=h5HwbyQ0TYvQjBo6Ys5Bgw", "review_count": 3, "categories": [{"alias": "foodtrucks", "title": "Food Trucks"}, {"alias": "spanish", "title": "Spanish"}, {"alias": "tradamerican", "title": "American (Traditional)"}], "rating": 5.0, "coordinates": {"latitude": 42.1191, "longitude": -72.55044}, "transactions": [], "location": {"address1": null, "address2": null, "address3": null, "city": "Springfield", "zip_code": "01109", "country": "US", "state": "MA", "display_address": ["Springfield, MA 01109"]}, "phone": "+14138888083", "display_phone": "(413) 888-8083", "distance": 6059.949267224347}, {"id": "12wcHCFE4KtkXdyV8EWXvg", "alias": "brunos-pizza-16-acres-springfield", "name": "Bruno's Pizza 16 Acres", "image_url": "https://s3-media2.fl.yelpcdn.com/bphoto/W7eIrC_H-XbuBKVAUAGKxQ/o.jpg", "is_closed": false, "url": "https://www.yelp.com/biz/brunos-pizza-16-acres-springfield?adjust_creative=h5HwbyQ0TYvQjBo6Ys5Bgw&utm_campaign=yelp_api_v3&utm_medium=api_v3_business_search&utm_source=h5HwbyQ0TYvQjBo6Ys5Bgw", "review_count": 15, "categories": [{"alias": "pizza", "title": "Pizza"}], "rating": 3.5, "coordinates": {"latitude": 42.116081237793, "longitude": -72.4995956420898}, "transactions": ["delivery"], "price": "$$", "location": {"address1": "1810 Wilbraham Rd", "address2": "", "address3": "", "city": "Springfield", "zip_code": "01119", "country": "US", "state": "MA", "display_address": ["1810 Wilbraham Rd", "Springfield, MA 01119"]}, "phone": "+14137833333", "display_phone": "(413) 783-3333", "distance": 2470.2053194805712}, {"id": "Ekrf4syMooqKVyXJoAeP0Q", "alias": "parker-pizza-springfield", "name": "Parker Pizza", "image_url": "https://s3-media2.fl.yelpcdn.com/bphoto/hMRGhEG0W0piowz3Wq3plQ/o.jpg", "is_closed": false, "url": "https://www.yelp.com/biz/parker-pizza-springfield?adjust_creative=h5HwbyQ0TYvQjBo6Ys5Bgw&utm_campaign=yelp_api_v3&utm_medium=api_v3_business_search&utm_source=h5HwbyQ0TYvQjBo6Ys5Bgw", "review_count": 16, "categories": [{"alias": "pizza", "title": "Pizza"}, {"alias": "italian", "title": "Italian"}], "rating": 4.0, "coordinates": {"latitude": 42.1165321, "longitude": -72.499016}, "transactions": ["delivery", "pickup"], "price": "$$", "location": {"address1": "1192 Parker St", "address2": "", "address3": "", "city": "Springfield", "zip_code": "01129", "country": "US", "state": "MA", "display_address": ["1192 Parker St", "Springfield, MA 01129"]}, "phone": "+14137961111", "display_phone": "(413) 796-1111", "distance": 2506.465991576263}, {"id": "2l4l2aGHo3JvyAsQ30AcQg", "alias": "ginger-blossom-springfield", "name": "Ginger Blossom", "image_url": "https://s3-media2.fl.yelpcdn.com/bphoto/4aK8qB2hJJmTrhvGYutZbg/o.jpg", "is_closed": false, "url": "https://www.yelp.com/biz/ginger-blossom-springfield?adjust_creative=h5HwbyQ0TYvQjBo6Ys5Bgw&utm_campaign=yelp_api_v3&utm_medium=api_v3_business_search&utm_source=h5HwbyQ0TYvQjBo6Ys5Bgw", "review_count": 67, "categories": [{"alias": "chinese", "title": "Chinese"}, {"alias": "japanese", "title": "Japanese"}, {"alias": "sushi", "title": "Sushi Bars"}], "rating": 3.5, "coordinates": {"latitude": 42.1165726, "longitude": -72.498659}, "transactions": ["delivery"], "price": "$$", "location": {"address1": "1203 Parker St", "address2": "", "address3": "", "city": "Springfield", "zip_code": "01129", "country": "US", "state": "MA", "display_address": ["1203 Parker St", "Springfield, MA 01129"]}, "phone": "+14137838300", "display_phone": "(413) 783-8300", "distance": 2413.1330896086706}, {"id": "d1_kG_CUok5Zd26OaVP5tA", "alias": "pizza-shoppe-east-longmeadow", "name": "Pizza Shoppe", "image_url": "https://s3-media2.fl.yelpcdn.com/bphoto/XNtG_pjCTvWSzz-dszBq2w/o.jpg", "is_closed": false, "url": "https://www.yelp.com/biz/pizza-shoppe-east-longmeadow?adjust_creative=h5HwbyQ0TYvQjBo6Ys5Bgw&utm_campaign=yelp_api_v3&utm_medium=api_v3_business_search&utm_source=h5HwbyQ0TYvQjBo6Ys5Bgw", "review_count": 66, "categories": [{"alias": "pizza", "title": "Pizza"}], "rating": 3.0, "coordinates": {"latitude": 42.0587958, "longitude": -72.5163018}, "transactions": ["delivery"], "price": "$$", "location": {"address1": "134 Shaker Rd", "address2": "", "address3": "", "city": "East Longmeadow", "zip_code": "01028", "country": "US", "state": "MA", "display_address": ["134 Shaker Rd", "East Longmeadow, MA 01028"]}, "phone": "+14135252470", "display_phone": "(413) 525-2470", "distance": 4785.063115250952}, {"id": "9QxngSMOIiRLPvvdRaZXJg", "alias": "de-nardos-pizzeria-and-restaurant-east-longmeadow", "name": "De Nardo's Pizzeria & Restaurant", "image_url": "https://s3-media2.fl.yelpcdn.com/bphoto/Ie4bGC4Efs3COVLOwz88Sw/o.jpg", "is_closed": false, "url": "https://www.yelp.com/biz/de-nardos-pizzeria-and-restaurant-east-longmeadow?adjust_creative=h5HwbyQ0TYvQjBo6Ys5Bgw&utm_campaign=yelp_api_v3&utm_medium=api_v3_business_search&utm_source=h5HwbyQ0TYvQjBo6Ys5Bgw", "review_count": 21, "categories": [{"alias": "pizza", "title": "Pizza"}, {"alias": "italian", "title": "Italian"}], "rating": 3.5, "coordinates": {"latitude": 42.06411, "longitude": -72.51569}, "transactions": ["delivery"], "price": "$$", "location": {"address1": "39 Maple St", "address2": "", "address3": "", "city": "East Longmeadow", "zip_code": "01028", "country": "US", "state": "MA", "display_address": ["39 Maple St", "East Longmeadow, MA 01028"]}, "phone": "+14135253600", "display_phone": "(413) 525-3600", "distance": 4271.613176220168}, {"id": "PZBmZNO4ju6C5T5gvWgsPg", "alias": "fratellis-eatery-springfield-2", "name": "Fratellis Eatery", "image_url": "https://s3-media1.fl.yelpcdn.com/bphoto/vqvG9d6CbzcRdyYxpK7cNw/o.jpg", "is_closed": false, "url": "https://www.yelp.com/biz/fratellis-eatery-springfield-2?adjust_creative=h5HwbyQ0TYvQjBo6Ys5Bgw&utm_campaign=yelp_api_v3&utm_medium=api_v3_business_search&utm_source=h5HwbyQ0TYvQjBo6Ys5Bgw", "review_count": 6, "categories": [{"alias": "hotdogs", "title": "Fast Food"}, {"alias": "pizza", "title": "Pizza"}, {"alias": "sandwiches", "title": "Sandwiches"}], "rating": 5.0, "coordinates": {"latitude": 42.09841, "longitude": -72.531551}, "transactions": ["delivery"], "location": {"address1": "450 Plumtree Rd", "address2": null, "address3": "", "city": "Springfield", "zip_code": "01118", "country": "US", "state": "MA", "display_address": ["450 Plumtree Rd", "Springfield, MA 01118"]}, "phone": "+14133015716", "display_phone": "(413) 301-5716", "distance": 3703.3988380548185}, {"id": "f8MNpvdz1J5WH6kQCPc4ww", "alias": "chilis-springfield-7", "name": "Chili's", "image_url": "https://s3-media3.fl.yelpcdn.com/bphoto/uMD0jQoETQyBhikKqjxK9Q/o.jpg", "is_closed": false, "url": "https://www.yelp.com/biz/chilis-springfield-7?adjust_creative=h5HwbyQ0TYvQjBo6Ys5Bgw&utm_campaign=yelp_api_v3&utm_medium=api_v3_business_search&utm_source=h5HwbyQ0TYvQjBo6Ys5Bgw", "review_count": 50, "categories": [{"alias": "tex-mex", "title": "Tex-Mex"}, {"alias": "tradamerican", "title": "American (Traditional)"}, {"alias": "bars", "title": "Bars"}], "rating": 2.0, "coordinates": {"latitude": 42.0950482, "longitude": -72.4986301}, "transactions": [], "price": "$$", "location": {"address1": "302 Cooley St", "address2": null, "address3": null, "city": "Springfield", "zip_code": "01128", "country": "US", "state": "MA", "display_address": ["302 Cooley St", "Springfield, MA 01128"]}, "phone": "+14134269507", "display_phone": "(413) 426-9507", "distance": 1011.8808837609255}, {"id": "n2Yp8raloZC2PLvLqC15pA", "alias": "hot-table-springfield-2", "name": "Hot Table", "image_url": "https://s3-media4.fl.yelpcdn.com/bphoto/72Z6rRNY8jFmE3SeHWJEEQ/o.jpg", "is_closed": false, "url": "https://www.yelp.com/biz/hot-table-springfield-2?adjust_creative=h5HwbyQ0TYvQjBo6Ys5Bgw&utm_campaign=yelp_api_v3&utm_medium=api_v3_business_search&utm_source=h5HwbyQ0TYvQjBo6Ys5Bgw", "review_count": 65, "categories": [{"alias": "sandwiches", "title": "Sandwiches"}], "rating": 4.0, "coordinates": {"latitude": 42.1168251037598, "longitude": -72.523567199707}, "transactions": ["delivery", "pickup"], "price": "$", "location": {"address1": "455 Breckwood Blvd", "address2": "", "address3": "", "city": "Springfield", "zip_code": "01109", "country": "US", "state": "MA", "display_address": ["455 Breckwood Blvd", "Springfield, MA 01109"]}, "phone": "+14137828800", "display_phone": "(413) 782-8800", "distance": 3861.2064768016994}, {"id": "J83pvIAjMdW5Qkgc-oqVwA", "alias": "99-restaurants-e-longmeadow", "name": "99 Restaurants", "image_url": "https://s3-media3.fl.yelpcdn.com/bphoto/zoRcErZkHb2QQBwA8J_Nmw/o.jpg", "is_closed": false, "url": "https://www.yelp.com/biz/99-restaurants-e-longmeadow?adjust_creative=h5HwbyQ0TYvQjBo6Ys5Bgw&utm_campaign=yelp_api_v3&utm_medium=api_v3_business_search&utm_source=h5HwbyQ0TYvQjBo6Ys5Bgw", "review_count": 23, "categories": [{"alias": "pubs", "title": "Pubs"}, {"alias": "tradamerican", "title": "American (Traditional)"}], "rating": 3.0, "coordinates": {"latitude": 42.0778499, "longitude": -72.5248035}, "transactions": [], "price": "$$", "location": {"address1": "390 North Main St", "address2": "", "address3": "", "city": "E. Longmeadow", "zip_code": "01028", "country": "US", "state": "MA", "display_address": ["390 North Main St", "E. Longmeadow, MA 01028"]}, "phone": "+14135259900", "display_phone": "(413) 525-9900", "distance": 3774.25232486492}, {"id": "A2E7BDtZHvlOfaraA3CTCQ", "alias": "frigo-foods-east-longmeadow", "name": "Frigo Foods", "image_url": "https://s3-media1.fl.yelpcdn.com/bphoto/FE2JxZXwtYaHOZ7s3K6Gbw/o.jpg", "is_closed": false, "url": "https://www.yelp.com/biz/frigo-foods-east-longmeadow?adjust_creative=h5HwbyQ0TYvQjBo6Ys5Bgw&utm_campaign=yelp_api_v3&utm_medium=api_v3_business_search&utm_source=h5HwbyQ0TYvQjBo6Ys5Bgw", "review_count": 48, "categories": [{"alias": "delis", "title": "Delis"}, {"alias": "sandwiches", "title": "Sandwiches"}, {"alias": "newamerican", "title": "American (New)"}], "rating": 4.0, "coordinates": {"latitude": 42.0579993, "longitude": -72.517425}, "transactions": ["delivery"], "price": "$", "location": {"address1": "159 Shaker Rd", "address2": null, "address3": null, "city": "East Longmeadow", "zip_code": "01028", "country": "US", "state": "MA", "display_address": ["159 Shaker Rd", "East Longmeadow, MA 01028"]}, "phone": "+14135259400", "display_phone": "(413) 525-9400", "distance": 4942.306121478063}, {"id": "5rVWRP3F9H7le5RAQEK0uQ", "alias": "coughlins-place-east-longmeadow", "name": "Coughlin's Place", "image_url": "https://s3-media2.fl.yelpcdn.com/bphoto/1-WkozvSLR_-8BpHwY9_LQ/o.jpg", "is_closed": false, "url": "https://www.yelp.com/biz/coughlins-place-east-longmeadow?adjust_creative=h5HwbyQ0TYvQjBo6Ys5Bgw&utm_campaign=yelp_api_v3&utm_medium=api_v3_business_search&utm_source=h5HwbyQ0TYvQjBo6Ys5Bgw", "review_count": 79, "categories": [{"alias": "breakfast_brunch", "title": "Breakfast & Brunch"}], "rating": 4.5, "coordinates": {"latitude": 42.07145, "longitude": -72.51796}, "transactions": ["delivery"], "price": "$", "location": {"address1": "182 N Main St", "address2": "", "address3": "", "city": "East Longmeadow", "zip_code": "01028", "country": "US", "state": "MA", "display_address": ["182 N Main St", "East Longmeadow, MA 01028"]}, "phone": "+14135251899", "display_phone": "(413) 525-1899", "distance": 3748.6414115733905}, {"id": "QxF6lr-VXxvlxOPJizwBzQ", "alias": "reids-corner-hampden", "name": "Reid's Corner", "image_url": "https://s3-media1.fl.yelpcdn.com/bphoto/EJ_vb6ii52rkPdQCkS0h0g/o.jpg", "is_closed": false, "url": "https://www.yelp.com/biz/reids-corner-hampden?adjust_creative=h5HwbyQ0TYvQjBo6Ys5Bgw&utm_campaign=yelp_api_v3&utm_medium=api_v3_business_search&utm_source=h5HwbyQ0TYvQjBo6Ys5Bgw", "review_count": 33, "categories": [{"alias": "breakfast_brunch", "title": "Breakfast & Brunch"}], "rating": 4.5, "coordinates": {"latitude": 42.0586143, "longitude": -72.4423473}, "transactions": [], "price": "$", "location": {"address1": "20 E Longmeadow Rd", "address2": "", "address3": "", "city": "Hampden", "zip_code": "01036", "country": "US", "state": "MA", "display_address": ["20 E Longmeadow Rd", "Hampden, MA 01036"]}, "phone": "+14135668286", "display_phone": "(413) 566-8286", "distance": 5533.162181565009}, {"id": "P3Zd1y8I7tNAIVMqCCphEw", "alias": "tonys-pizza-springfield-2", "name": "Tony's Pizza", "image_url": "https://s3-media1.fl.yelpcdn.com/bphoto/54y0u0h4m15jhttlIO3Y8w/o.jpg", "is_closed": false, "url": "https://www.yelp.com/biz/tonys-pizza-springfield-2?adjust_creative=h5HwbyQ0TYvQjBo6Ys5Bgw&utm_campaign=yelp_api_v3&utm_medium=api_v3_business_search&utm_source=h5HwbyQ0TYvQjBo6Ys5Bgw", "review_count": 24, "categories": [{"alias": "pizza", "title": "Pizza"}, {"alias": "italian", "title": "Italian"}], "rating": 4.5, "coordinates": {"latitude": 42.12516, "longitude": -72.53664}, "transactions": ["delivery"], "price": "$$", "location": {"address1": "108 Boston Rd", "address2": "", "address3": "", "city": "Springfield", "zip_code": "01109", "country": "US", "state": "MA", "display_address": ["108 Boston Rd", "Springfield, MA 01109"]}, "phone": "+14137326600", "display_phone": "(413) 732-6600", "distance": 5238.3846434644865}, {"id": "nfNmZV3Tj1DDWv0P4p8-Pg", "alias": "hong-kong-garden-springfield-2", "name": "Hong Kong Garden", "image_url": "https://s3-media2.fl.yelpcdn.com/bphoto/nV0VOM6Qff_J_XOHIOTpfQ/o.jpg", "is_closed": false, "url": "https://www.yelp.com/biz/hong-kong-garden-springfield-2?adjust_creative=h5HwbyQ0TYvQjBo6Ys5Bgw&utm_campaign=yelp_api_v3&utm_medium=api_v3_business_search&utm_source=h5HwbyQ0TYvQjBo6Ys5Bgw", "review_count": 16, "categories": [{"alias": "chinese", "title": "Chinese"}], "rating": 3.0, "coordinates": {"latitude": 42.1167902648449, "longitude": -72.5241355597973}, "transactions": ["delivery"], "price": "$", "location": {"address1": "475 Breckwood Blvd", "address2": "", "address3": "", "city": "Springfield", "zip_code": "01109", "country": "US", "state": "MA", "display_address": ["475 Breckwood Blvd", "Springfield, MA 01109"]}, "phone": "+14137831281", "display_phone": "(413) 783-1281", "distance": 3796.7504379047464}, {"id": "UcrSN5M71NEpive27zjCow", "alias": "wings-over-springfield-springfield", "name": "Wings Over Springfield", "image_url": "https://s3-media2.fl.yelpcdn.com/bphoto/BSM6Hc3-Yybc-RrgsMxdRg/o.jpg", "is_closed": false, "url": "https://www.yelp.com/biz/wings-over-springfield-springfield?adjust_creative=h5HwbyQ0TYvQjBo6Ys5Bgw&utm_campaign=yelp_api_v3&utm_medium=api_v3_business_search&utm_source=h5HwbyQ0TYvQjBo6Ys5Bgw", "review_count": 74, "categories": [{"alias": "chicken_wings", "title": "Chicken Wings"}, {"alias": "hotdogs", "title": "Fast Food"}, {"alias": "sandwiches", "title": "Sandwiches"}], "rating": 3.0, "coordinates": {"latitude": 42.11612, "longitude": -72.49788}, "transactions": ["delivery"], "price": "$$", "location": {"address1": "1219 Parker St", "address2": null, "address3": "", "city": "Springfield", "zip_code": "01129", "country": "US", "state": "MA", "display_address": ["1219 Parker St", "Springfield, MA 01129"]}, "phone": "+14137839464", "display_phone": "(413) 783-9464", "distance": 2400.88212718133}, {"id": "XNx-MsFB8X4orIxEn1IBiA", "alias": "ihop-springfield-13", "name": "IHOP", "image_url": "https://s3-media3.fl.yelpcdn.com/bphoto/d1FqZJAirVOi44I9gDXcIA/o.jpg", "is_closed": false, "url": "https://www.yelp.com/biz/ihop-springfield-13?adjust_creative=h5HwbyQ0TYvQjBo6Ys5Bgw&utm_campaign=yelp_api_v3&utm_medium=api_v3_business_search&utm_source=h5HwbyQ0TYvQjBo6Ys5Bgw", "review_count": 21, "categories": [{"alias": "tradamerican", "title": "American (Traditional)"}, {"alias": "breakfast_brunch", "title": "Breakfast & Brunch"}, {"alias": "burgers", "title": "Burgers"}], "rating": 2.0, "coordinates": {"latitude": 42.0946, "longitude": -72.5011}, "transactions": ["delivery", "pickup"], "price": "$$", "location": {"address1": "270 Cooley St", "address2": "", "address3": null, "city": "Springfield", "zip_code": "01128", "country": "US", "state": "MA", "display_address": ["270 Cooley St", "Springfield, MA 01128"]}, "phone": "+14133424002", "display_phone": "(413) 342-4002", "distance": 1193.9448594280789}, {"id": "bv8FLMjPNIWFKJrTWYXj7Q", "alias": "peppas-by-the-slice-east-longmeadow-east-longmeadow", "name": "Peppas by the Slice - East Longmeadow", "image_url": "https://s3-media2.fl.yelpcdn.com/bphoto/Zn1jjqLbQauiYZD_I33bKA/o.jpg", "is_closed": false, "url": "https://www.yelp.com/biz/peppas-by-the-slice-east-longmeadow-east-longmeadow?adjust_creative=h5HwbyQ0TYvQjBo6Ys5Bgw&utm_campaign=yelp_api_v3&utm_medium=api_v3_business_search&utm_source=h5HwbyQ0TYvQjBo6Ys5Bgw", "review_count": 61, "categories": [{"alias": "pizza", "title": "Pizza"}], "rating": 3.5, "coordinates": {"latitude": 42.080487, "longitude": -72.5291754}, "transactions": ["delivery"], "price": "$", "location": {"address1": "33 Harkness Ave", "address2": "", "address3": "", "city": "East Longmeadow", "zip_code": "01028", "country": "US", "state": "MA", "display_address": ["33 Harkness Ave", "East Longmeadow, MA 01028"]}, "phone": "+14135257859", "display_phone": "(413) 525-7859", "distance": 3859.9504892802083}, {"id": "qp3oeJHdIEq--wmA9_Psag", "alias": "main-garden-springfield", "name": "Main Garden", "image_url": "https://s3-media4.fl.yelpcdn.com/bphoto/alXymuihtU0Lac3gUtTF6g/o.jpg", "is_closed": false, "url": "https://www.yelp.com/biz/main-garden-springfield?adjust_creative=h5HwbyQ0TYvQjBo6Ys5Bgw&utm_campaign=yelp_api_v3&utm_medium=api_v3_business_search&utm_source=h5HwbyQ0TYvQjBo6Ys5Bgw", "review_count": 18, "categories": [{"alias": "chinese", "title": "Chinese"}], "rating": 3.5, "coordinates": {"latitude": 42.1141541537004, "longitude": -72.4978381619713}, "transactions": ["delivery"], "price": "$", "location": {"address1": "1911 Wilbraham Rd", "address2": "", "address3": "", "city": "Springfield", "zip_code": "01129", "country": "US", "state": "MA", "display_address": ["1911 Wilbraham Rd", "Springfield, MA 01129"]}, "phone": "+14137821013", "display_phone": "(413) 782-1013", "distance": 2210.305188748018}, {"id": "8LMvnlxsnSt8LY3lWrntgA", "alias": "d-and-g-jamaican-restaurant-springfield", "name": "D&G Jamaican Restaurant", "image_url": "https://s3-media2.fl.yelpcdn.com/bphoto/a9LD3m0obqckcWiwl4u2hw/o.jpg", "is_closed": false, "url": "https://www.yelp.com/biz/d-and-g-jamaican-restaurant-springfield?adjust_creative=h5HwbyQ0TYvQjBo6Ys5Bgw&utm_campaign=yelp_api_v3&utm_medium=api_v3_business_search&utm_source=h5HwbyQ0TYvQjBo6Ys5Bgw", "review_count": 7, "categories": [{"alias": "caribbean", "title": "Caribbean"}], "rating": 5.0, "coordinates": {"latitude": 42.125518, "longitude": -72.535415}, "transactions": ["delivery"], "location": {"address1": "5 Preston St", "address2": "", "address3": null, "city": "Springfield", "zip_code": "01109", "country": "US", "state": "MA", "display_address": ["5 Preston St", "Springfield, MA 01109"]}, "phone": "+14137463642", "display_phone": "(413) 746-3642", "distance": 5180.751182911974}, {"id": "rQ_nmcN-yMO-IrifrgrZDQ", "alias": "golden-dragon-springfield-3", "name": "Golden Dragon", "image_url": "https://s3-media1.fl.yelpcdn.com/bphoto/JKgQPOzeCW5gVxtNriiBUw/o.jpg", "is_closed": false, "url": "https://www.yelp.com/biz/golden-dragon-springfield-3?adjust_creative=h5HwbyQ0TYvQjBo6Ys5Bgw&utm_campaign=yelp_api_v3&utm_medium=api_v3_business_search&utm_source=h5HwbyQ0TYvQjBo6Ys5Bgw", "review_count": 23, "categories": [{"alias": "chinese", "title": "Chinese"}], "rating": 3.5, "coordinates": {"latitude": 42.13091, "longitude": -72.53416}, "transactions": ["delivery", "pickup"], "price": "$", "location": {"address1": "309 Berkshire Ave", "address2": null, "address3": null, "city": "Springfield", "zip_code": "01109", "country": "US", "state": "MA", "display_address": ["309 Berkshire Ave", "Springfield, MA 01109"]}, "phone": "+14138278668", "display_phone": "(413) 827-8668", "distance": 5502.352898954706}, {"id": "uptJi3HQFB89PuLLVaDEpQ", "alias": "koffee-tyme-east-longmeadow", "name": "Koffee Tyme", "image_url": "https://s3-media3.fl.yelpcdn.com/bphoto/bYvajo-9u156spJgafXYiw/o.jpg", "is_closed": false, "url": "https://www.yelp.com/biz/koffee-tyme-east-longmeadow?adjust_creative=h5HwbyQ0TYvQjBo6Ys5Bgw&utm_campaign=yelp_api_v3&utm_medium=api_v3_business_search&utm_source=h5HwbyQ0TYvQjBo6Ys5Bgw", "review_count": 14, "categories": [{"alias": "breakfast_brunch", "title": "Breakfast & Brunch"}], "rating": 4.5, "coordinates": {"latitude": 42.063139, "longitude": -72.513617}, "transactions": [], "price": "$", "location": {"address1": "46 Shaker Rd", "address2": "", "address3": "", "city": "East Longmeadow", "zip_code": "01028", "country": "US", "state": "MA", "display_address": ["46 Shaker Rd", "East Longmeadow, MA 01028"]}, "phone": "+14135258394", "display_phone": "(413) 525-8394", "distance": 4284.375774329458}, {"id": "616-oQCamCRDa5JhXQnBuw", "alias": "cantina-curbside-grill-springfield", "name": "Cantina Curbside Grill", "image_url": "https://s3-media3.fl.yelpcdn.com/bphoto/DmWL1gUNkbEH9PdiO9Or9g/o.jpg", "is_closed": false, "url": "https://www.yelp.com/biz/cantina-curbside-grill-springfield?adjust_creative=h5HwbyQ0TYvQjBo6Ys5Bgw&utm_campaign=yelp_api_v3&utm_medium=api_v3_business_search&utm_source=h5HwbyQ0TYvQjBo6Ys5Bgw", "review_count": 1, "categories": [{"alias": "latin", "title": "Latin American"}, {"alias": "foodtrucks", "title": "Food Trucks"}], "rating": 5.0, "coordinates": {"latitude": 42.1011632858, "longitude": -72.5874854261}, "transactions": [], "location": {"address1": null, "address2": null, "address3": null, "city": "Springfield", "zip_code": "01103", "country": "US", "state": "MA", "display_address": ["Springfield, MA 01103"]}, "phone": "+14134262604", "display_phone": "(413) 426-2604", "distance": 8329.566592125959}, {"id": "d0N5xdJVYTLrdKolUTL1FQ", "alias": "jack-chen-chinese-restaurant-springfield", "name": "Jack Chen Chinese Restaurant", "image_url": "https://s3-media4.fl.yelpcdn.com/bphoto/oFa-WYhpntDnjcy5L6P_xw/o.jpg", "is_closed": false, "url": "https://www.yelp.com/biz/jack-chen-chinese-restaurant-springfield?adjust_creative=h5HwbyQ0TYvQjBo6Ys5Bgw&utm_campaign=yelp_api_v3&utm_medium=api_v3_business_search&utm_source=h5HwbyQ0TYvQjBo6Ys5Bgw", "review_count": 30, "categories": [{"alias": "chinese", "title": "Chinese"}], "rating": 3.0, "coordinates": {"latitude": 42.09064, "longitude": -72.53355}, "transactions": ["delivery", "pickup"], "price": "$$", "location": {"address1": "1193 Sumner Ave", "address2": "", "address3": "", "city": "Springfield", "zip_code": "01118", "country": "US", "state": "MA", "display_address": ["1193 Sumner Ave", "Springfield, MA 01118"]}, "phone": "+14137825858", "display_phone": "(413) 782-5858", "distance": 3911.6882314584236}, {"id": "IfXmyVW8cF0DfVpz5oIx-A", "alias": "golden-pizza-springfield", "name": "Golden Pizza", "image_url": "https://s3-media2.fl.yelpcdn.com/bphoto/Q-0TWfRTkPcF0JuckiGTSQ/o.jpg", "is_closed": false, "url": "https://www.yelp.com/biz/golden-pizza-springfield?adjust_creative=h5HwbyQ0TYvQjBo6Ys5Bgw&utm_campaign=yelp_api_v3&utm_medium=api_v3_business_search&utm_source=h5HwbyQ0TYvQjBo6Ys5Bgw", "review_count": 8, "categories": [{"alias": "pizza", "title": "Pizza"}, {"alias": "italian", "title": "Italian"}, {"alias": "sandwiches", "title": "Sandwiches"}], "rating": 3.0, "coordinates": {"latitude": 42.09405, "longitude": -72.51515}, "transactions": ["delivery"], "price": "$$", "location": {"address1": "1350 Allen St", "address2": "", "address3": "", "city": "Springfield", "zip_code": "01118", "country": "US", "state": "MA", "display_address": ["1350 Allen St", "Springfield, MA 01118"]}, "phone": "+14137831109", "display_phone": "(413) 783-1109", "distance": 2355.8679208214567}, {"id": "PWHUr3SpDjONHF-kRl-Rcg", "alias": "peppas-xpress-springfield", "name": "Peppa's Xpress", "image_url": "https://s3-media1.fl.yelpcdn.com/bphoto/20_DGMIJ44GbHhDyzT0Tkg/o.jpg", "is_closed": false, "url": "https://www.yelp.com/biz/peppas-xpress-springfield?adjust_creative=h5HwbyQ0TYvQjBo6Ys5Bgw&utm_campaign=yelp_api_v3&utm_medium=api_v3_business_search&utm_source=h5HwbyQ0TYvQjBo6Ys5Bgw", "review_count": 27, "categories": [{"alias": "pizza", "title": "Pizza"}, {"alias": "sandwiches", "title": "Sandwiches"}], "rating": 3.5, "coordinates": {"latitude": 42.1173894238696, "longitude": -72.5251043072789}, "transactions": ["delivery"], "price": "$", "location": {"address1": "1060 Wilbraham Rd", "address2": "", "address3": "", "city": "Springfield", "zip_code": "01109", "country": "US", "state": "MA", "display_address": ["1060 Wilbraham Rd", "Springfield, MA 01109"]}, "phone": "+14137967859", "display_phone": "(413) 796-7859", "distance": 3953.797890669279}, {"id": "E-GBzX-_puSiAIQBHf5XTA", "alias": "holyoke-hummus-company-holyoke", "name": "Holyoke Hummus Company", "image_url": "https://s3-media2.fl.yelpcdn.com/bphoto/K-RvwwHMrU-8EFC9r_j1bw/o.jpg", "is_closed": false, "url": "https://www.yelp.com/biz/holyoke-hummus-company-holyoke?adjust_creative=h5HwbyQ0TYvQjBo6Ys5Bgw&utm_campaign=yelp_api_v3&utm_medium=api_v3_business_search&utm_source=h5HwbyQ0TYvQjBo6Ys5Bgw", "review_count": 65, "categories": [{"alias": "mideastern", "title": "Middle Eastern"}, {"alias": "foodtrucks", "title": "Food Trucks"}, {"alias": "breakfast_brunch", "title": "Breakfast & Brunch"}], "rating": 4.5, "coordinates": {"latitude": 42.206426, "longitude": -72.6086119}, "transactions": ["delivery", "pickup"], "price": "$", "location": {"address1": "285 High St", "address2": null, "address3": "", "city": "Holyoke", "zip_code": "01040", "country": "US", "state": "MA", "display_address": ["285 High St", "Holyoke, MA 01040"]}, "phone": "+14132251755", "display_phone": "(413) 225-1755", "distance": 15859.39485537392}, {"id": "norfMJfZE-8U-8EOMI5iMg", "alias": "cookies-cafe-east-longmeadow", "name": "Cookie's Cafe", "image_url": "https://s3-media3.fl.yelpcdn.com/bphoto/OGumdf4UCpcoWfk8_Q7J9w/o.jpg", "is_closed": false, "url": "https://www.yelp.com/biz/cookies-cafe-east-longmeadow?adjust_creative=h5HwbyQ0TYvQjBo6Ys5Bgw&utm_campaign=yelp_api_v3&utm_medium=api_v3_business_search&utm_source=h5HwbyQ0TYvQjBo6Ys5Bgw", "review_count": 58, "categories": [{"alias": "breakfast_brunch", "title": "Breakfast & Brunch"}, {"alias": "cafes", "title": "Cafes"}, {"alias": "bagels", "title": "Bagels"}], "rating": 4.0, "coordinates": {"latitude": 42.07905, "longitude": -72.53166}, "transactions": ["delivery"], "price": "$", "location": {"address1": "520 N Main St", "address2": null, "address3": null, "city": "East Longmeadow", "zip_code": "01028", "country": "US", "state": "MA", "display_address": ["520 N Main St", "East Longmeadow, MA 01028"]}, "phone": "+14137341615", "display_phone": "(413) 734-1615", "distance": 4147.359957127735}, {"id": "qvh-OvLfJRfQOACRT1QHtg", "alias": "napoli-restaurant-and-pizzeria-springfield", "name": "Napoli Restaurant & Pizzeria", "image_url": "https://s3-media4.fl.yelpcdn.com/bphoto/VFsv3KOtFOXHdCe9m9849w/o.jpg", "is_closed": false, "url": "https://www.yelp.com/biz/napoli-restaurant-and-pizzeria-springfield?adjust_creative=h5HwbyQ0TYvQjBo6Ys5Bgw&utm_campaign=yelp_api_v3&utm_medium=api_v3_business_search&utm_source=h5HwbyQ0TYvQjBo6Ys5Bgw", "review_count": 6, "categories": [{"alias": "pizza", "title": "Pizza"}, {"alias": "italian", "title": "Italian"}], "rating": 3.5, "coordinates": {"latitude": 42.1295464, "longitude": -72.5291936}, "transactions": ["delivery"], "price": "$$", "location": {"address1": "1633 Bay St", "address2": "", "address3": "", "city": "Springfield", "zip_code": "01109", "country": "US", "state": "MA", "display_address": ["1633 Bay St", "Springfield, MA 01109"]}, "phone": "+14137833986", "display_phone": "(413) 783-3986", "distance": 5110.699654574124}, {"id": "p0PIC-Xo-Z_c5uf4ptRNAQ", "alias": "min-chao-gourmet-hampden", "name": "Min Chao Gourmet", "image_url": "https://s3-media1.fl.yelpcdn.com/bphoto/lpMvCrU4AHvBacB8Owm9Lg/o.jpg", "is_closed": false, "url": "https://www.yelp.com/biz/min-chao-gourmet-hampden?adjust_creative=h5HwbyQ0TYvQjBo6Ys5Bgw&utm_campaign=yelp_api_v3&utm_medium=api_v3_business_search&utm_source=h5HwbyQ0TYvQjBo6Ys5Bgw", "review_count": 8, "categories": [{"alias": "chinese", "title": "Chinese"}], "rating": 3.0, "coordinates": {"latitude": 42.0588349, "longitude": -72.4407245}, "transactions": [], "price": "$", "location": {"address1": "5 Allen St", "address2": "", "address3": "", "city": "Hampden", "zip_code": "01036", "country": "US", "state": "MA", "display_address": ["5 Allen St", "Hampden, MA 01036"]}, "phone": "+14135668000", "display_phone": "(413) 566-8000", "distance": 5510.0974433080255}, {"id": "0ZcsPvmQ3TEa3f8JubS1aA", "alias": "sophias-pizza-and-sports-bar-springfield", "name": "Sophia's Pizza & Sports Bar", "image_url": "https://s3-media4.fl.yelpcdn.com/bphoto/Be-tdSgWUxQ4dZQsadSgyA/o.jpg", "is_closed": false, "url": "https://www.yelp.com/biz/sophias-pizza-and-sports-bar-springfield?adjust_creative=h5HwbyQ0TYvQjBo6Ys5Bgw&utm_campaign=yelp_api_v3&utm_medium=api_v3_business_search&utm_source=h5HwbyQ0TYvQjBo6Ys5Bgw", "review_count": 42, "categories": [{"alias": "sportsbars", "title": "Sports Bars"}, {"alias": "chicken_wings", "title": "Chicken Wings"}, {"alias": "pizza", "title": "Pizza"}], "rating": 3.0, "coordinates": {"latitude": 42.117028, "longitude": -72.523505}, "transactions": ["delivery"], "price": "$$", "location": {"address1": "463 Breckwood Blvd", "address2": "", "address3": "", "city": "Springfield", "zip_code": "01109", "country": "US", "state": "MA", "display_address": ["463 Breckwood Blvd", "Springfield, MA 01109"]}, "phone": "+14137825274", "display_phone": "(413) 782-5274", "distance": 3824.43397745313}, {"id": "Oa5h3HCBXaYLXQKjVsZSMQ", "alias": "burger-king-springfield-9", "name": "Burger King", "image_url": "https://s3-media4.fl.yelpcdn.com/bphoto/pj-LNI57qNRRKcUId6KJQw/o.jpg", "is_closed": false, "url": "https://www.yelp.com/biz/burger-king-springfield-9?adjust_creative=h5HwbyQ0TYvQjBo6Ys5Bgw&utm_campaign=yelp_api_v3&utm_medium=api_v3_business_search&utm_source=h5HwbyQ0TYvQjBo6Ys5Bgw", "review_count": 3, "categories": [{"alias": "burgers", "title": "Burgers"}, {"alias": "hotdogs", "title": "Fast Food"}], "rating": 2.5, "coordinates": {"latitude": 42.0928993225098, "longitude": -72.4999389648438}, "transactions": ["delivery"], "price": "$", "location": {"address1": "400 Cooley St", "address2": null, "address3": null, "city": "Springfield", "zip_code": "01128", "country": "US", "state": "MA", "display_address": ["400 Cooley St", "Springfield, MA 01128"]}, "phone": "", "display_phone": "", "distance": 1140.984137648158}, {"id": "Cd9Z5X43e0ZRtq2mHaQXjA", "alias": "jack-chens-east-longmeadow", "name": "Jack Chen's", "image_url": "https://s3-media3.fl.yelpcdn.com/bphoto/wwYpaC6GJmck20KIKXPZBA/o.jpg", "is_closed": false, "url": "https://www.yelp.com/biz/jack-chens-east-longmeadow?adjust_creative=h5HwbyQ0TYvQjBo6Ys5Bgw&utm_campaign=yelp_api_v3&utm_medium=api_v3_business_search&utm_source=h5HwbyQ0TYvQjBo6Ys5Bgw", "review_count": 10, "categories": [{"alias": "chinese", "title": "Chinese"}], "rating": 3.0, "coordinates": {"latitude": 42.0635885, "longitude": -72.5165277}, "transactions": ["delivery"], "price": "$$", "location": {"address1": "59 Maple St", "address2": "", "address3": "", "city": "East Longmeadow", "zip_code": "01028", "country": "US", "state": "MA", "display_address": ["59 Maple St", "East Longmeadow, MA 01028"]}, "phone": "+14135269828", "display_phone": "(413) 526-9828", "distance": 4338.849559073306}, {"id": "FVxRY7zDSBm50bTxlapBEg", "alias": "subway-springfield-179", "name": "Subway", "image_url": "https://s3-media2.fl.yelpcdn.com/bphoto/yzcqM-95dJpC-nKidxFy-w/o.jpg", "is_closed": false, "url": "https://www.yelp.com/biz/subway-springfield-179?adjust_creative=h5HwbyQ0TYvQjBo6Ys5Bgw&utm_campaign=yelp_api_v3&utm_medium=api_v3_business_search&utm_source=h5HwbyQ0TYvQjBo6Ys5Bgw", "review_count": 5, "categories": [{"alias": "sandwiches", "title": "Sandwiches"}], "rating": 2.0, "coordinates": {"latitude": 42.0942471902106, "longitude": -72.5006176389784}, "transactions": ["delivery", "pickup"], "price": "$", "location": {"address1": "374 Cooley St", "address2": "Unit 26", "address3": "", "city": "Springfield", "zip_code": "01128", "country": "US", "state": "MA", "display_address": ["374 Cooley St", "Unit 26", "Springfield, MA 01128"]}, "phone": "+14137837782", "display_phone": "(413) 783-7782", "distance": 1160.672262005798}, {"id": "hJh9l6PQCGQS4yQ621GxIg", "alias": "friendlys-east-longmeadow", "name": "Friendly's", "image_url": "https://s3-media2.fl.yelpcdn.com/bphoto/8fUNl5CT8PuRpG9jCz7CMQ/o.jpg", "is_closed": false, "url": "https://www.yelp.com/biz/friendlys-east-longmeadow?adjust_creative=h5HwbyQ0TYvQjBo6Ys5Bgw&utm_campaign=yelp_api_v3&utm_medium=api_v3_business_search&utm_source=h5HwbyQ0TYvQjBo6Ys5Bgw", "review_count": 32, "categories": [{"alias": "icecream", "title": "Ice Cream & Frozen Yogurt"}, {"alias": "burgers", "title": "Burgers"}, {"alias": "tradamerican", "title": "American (Traditional)"}], "rating": 1.5, "coordinates": {"latitude": 42.0796846602732, "longitude": -72.5336506664738}, "transactions": ["delivery"], "price": "$", "location": {"address1": "562 North Main St", "address2": "", "address3": "", "city": "East Longmeadow", "zip_code": "01028", "country": "US", "state": "MA", "display_address": ["562 North Main St", "East Longmeadow, MA 01028"]}, "phone": "+14137810839", "display_phone": "(413) 781-0839", "distance": 4275.9198011429135}, {"id": "CvTcatzQzkzZXl4ft8p0CA", "alias": "skooters-restaurant-springfield", "name": "Skooter's Restaurant", "image_url": "", "is_closed": false, "url": "https://www.yelp.com/biz/skooters-restaurant-springfield?adjust_creative=h5HwbyQ0TYvQjBo6Ys5Bgw&utm_campaign=yelp_api_v3&utm_medium=api_v3_business_search&utm_source=h5HwbyQ0TYvQjBo6Ys5Bgw", "review_count": 8, "categories": [{"alias": "diners", "title": "Diners"}], "rating": 3.0, "coordinates": {"latitude": 42.1291315, "longitude": -72.5287897}, "transactions": ["delivery"], "location": {"address1": "365 Boston Rd", "address2": "", "address3": "", "city": "Springfield", "zip_code": "01109", "country": "US", "state": "MA", "display_address": ["365 Boston Rd", "Springfield, MA 01109"]}, "phone": "+14137961625", "display_phone": "(413) 796-1625", "distance": 5041.510391033691}, {"id": "1wlKUD5iIB4daJyPxPU_TA", "alias": "china-garden-springfield", "name": "China Garden", "image_url": "https://s3-media3.fl.yelpcdn.com/bphoto/mbYA-jY741E-bOkaxtSgMQ/o.jpg", "is_closed": false, "url": "https://www.yelp.com/biz/china-garden-springfield?adjust_creative=h5HwbyQ0TYvQjBo6Ys5Bgw&utm_campaign=yelp_api_v3&utm_medium=api_v3_business_search&utm_source=h5HwbyQ0TYvQjBo6Ys5Bgw", "review_count": 5, "categories": [{"alias": "chinese", "title": "Chinese"}], "rating": 3.0, "coordinates": {"latitude": 42.1251278, "longitude": -72.5353376}, "transactions": [], "location": {"address1": "133 Boston Rd", "address2": "", "address3": "", "city": "Springfield", "zip_code": "01109", "country": "US", "state": "MA", "display_address": ["133 Boston Rd", "Springfield, MA 01109"]}, "phone": "+14137838848", "display_phone": "(413) 783-8848", "distance": 5148.185402667666}, {"id": "wP59E3G0irF-vqpKGMH_BA", "alias": "chipotle-mexican-grill-east-longmeadow", "name": "Chipotle Mexican Grill", "image_url": "https://s3-media1.fl.yelpcdn.com/bphoto/z9KMX5FCgaLXdKbI0H1dKQ/o.jpg", "is_closed": false, "url": "https://www.yelp.com/biz/chipotle-mexican-grill-east-longmeadow?adjust_creative=h5HwbyQ0TYvQjBo6Ys5Bgw&utm_campaign=yelp_api_v3&utm_medium=api_v3_business_search&utm_source=h5HwbyQ0TYvQjBo6Ys5Bgw", "review_count": 4, "categories": [{"alias": "hotdogs", "title": "Fast Food"}, {"alias": "mexican", "title": "Mexican"}], "rating": 3.0, "coordinates": {"latitude": 42.06512, "longitude": -72.515104}, "transactions": ["delivery"], "price": "$", "location": {"address1": "42 Center Sq", "address2": null, "address3": null, "city": "East Longmeadow", "zip_code": "01028", "country": "US", "state": "MA", "display_address": ["42 Center Sq", "East Longmeadow, MA 01028"]}, "phone": "+14135251059", "display_phone": "(413) 525-1059", "distance": 4159.613875250205}, {"id": "NX5hCRtwNJVxAWWHRNEDEA", "alias": "mcdonalds-springfield-62", "name": "McDonald's", "image_url": "https://s3-media3.fl.yelpcdn.com/bphoto/294i0pFCnLYmyY-hyVSGRg/o.jpg", "is_closed": false, "url": "https://www.yelp.com/biz/mcdonalds-springfield-62?adjust_creative=h5HwbyQ0TYvQjBo6Ys5Bgw&utm_campaign=yelp_api_v3&utm_medium=api_v3_business_search&utm_source=h5HwbyQ0TYvQjBo6Ys5Bgw", "review_count": 14, "categories": [{"alias": "hotdogs", "title": "Fast Food"}, {"alias": "coffee", "title": "Coffee & Tea"}, {"alias": "burgers", "title": "Burgers"}], "rating": 1.0, "coordinates": {"latitude": 42.094622, "longitude": -72.512971}, "transactions": ["delivery"], "price": "$", "location": {"address1": "1402 Allen St", "address2": "", "address3": "", "city": "Springfield", "zip_code": "01118", "country": "US", "state": "MA", "display_address": ["1402 Allen St", "Springfield, MA 01118"]}, "phone": "+14137838044", "display_phone": "(413) 783-8044", "distance": 2168.276000738167}, {"id": "5632fwrUZPu-TufwwFU9DQ", "alias": "wendys-springfield-27", "name": "Wendy's", "image_url": "https://s3-media1.fl.yelpcdn.com/bphoto/khAlPq3Pr1SsUP4nnEiedQ/o.jpg", "is_closed": false, "url": "https://www.yelp.com/biz/wendys-springfield-27?adjust_creative=h5HwbyQ0TYvQjBo6Ys5Bgw&utm_campaign=yelp_api_v3&utm_medium=api_v3_business_search&utm_source=h5HwbyQ0TYvQjBo6Ys5Bgw", "review_count": 7, "categories": [{"alias": "hotdogs", "title": "Fast Food"}, {"alias": "burgers", "title": "Burgers"}], "rating": 1.5, "coordinates": {"latitude": 42.09487, "longitude": -72.51242}, "transactions": ["delivery"], "price": "$", "location": {"address1": "1420 Allen St.", "address2": "", "address3": "", "city": "Springfield", "zip_code": "01118", "country": "US", "state": "MA", "display_address": ["1420 Allen St.", "Springfield, MA 01118"]}, "phone": "+14137825134", "display_phone": "(413) 782-5134", "distance": 2118.2387488036743}, {"id": "6WFizRg2MkLNwMY_2VsgHA", "alias": "popeyes-louisiana-kitchen-springfield-8", "name": "Popeyes Louisiana Kitchen", "image_url": "https://s3-media4.fl.yelpcdn.com/bphoto/eU7Ym0_unBnsi7ryqeSQtQ/o.jpg", "is_closed": false, "url": "https://www.yelp.com/biz/popeyes-louisiana-kitchen-springfield-8?adjust_creative=h5HwbyQ0TYvQjBo6Ys5Bgw&utm_campaign=yelp_api_v3&utm_medium=api_v3_business_search&utm_source=h5HwbyQ0TYvQjBo6Ys5Bgw", "review_count": 18, "categories": [{"alias": "hotdogs", "title": "Fast Food"}, {"alias": "chicken_wings", "title": "Chicken Wings"}], "rating": 2.0, "coordinates": {"latitude": 42.133678, "longitude": -72.522352}, "transactions": ["delivery", "pickup"], "price": "$", "location": {"address1": "665 Boston Rd", "address2": "", "address3": "", "city": "Springfield", "zip_code": "01119", "country": "US", "state": "MA", "display_address": ["665 Boston Rd", "Springfield, MA 01119"]}, "phone": "+14137821000", "display_phone": "(413) 782-1000", "distance": 5110.743255577625}, {"id": "hJNHtqIAC6zNgGL9F1j8vg", "alias": "subway-restaurants-hampden-2", "name": "Subway Restaurants", "image_url": "https://s3-media4.fl.yelpcdn.com/bphoto/h_T3FoX26v97rIV8WWVa0Q/o.jpg", "is_closed": false, "url": "https://www.yelp.com/biz/subway-restaurants-hampden-2?adjust_creative=h5HwbyQ0TYvQjBo6Ys5Bgw&utm_campaign=yelp_api_v3&utm_medium=api_v3_business_search&utm_source=h5HwbyQ0TYvQjBo6Ys5Bgw", "review_count": 1, "categories": [{"alias": "sandwiches", "title": "Sandwiches"}], "rating": 3.0, "coordinates": {"latitude": 42.0588294405936, "longitude": -72.4403942219859}, "transactions": [], "price": "$", "location": {"address1": "4 Allen St", "address2": "", "address3": "", "city": "Hampden", "zip_code": "01036", "country": "US", "state": "MA", "display_address": ["4 Allen St", "Hampden, MA 01036"]}, "phone": "+14135663055", "display_phone": "(413) 566-3055", "distance": 5513.060520461162}, {"id": "r0Fb7VbDN2NXc23dhAE8OQ", "alias": "subway-east-longmeadow-3", "name": "Subway", "image_url": "https://s3-media1.fl.yelpcdn.com/bphoto/v92DM3Ehbdt4OWX5L3_NnQ/o.jpg", "is_closed": false, "url": "https://www.yelp.com/biz/subway-east-longmeadow-3?adjust_creative=h5HwbyQ0TYvQjBo6Ys5Bgw&utm_campaign=yelp_api_v3&utm_medium=api_v3_business_search&utm_source=h5HwbyQ0TYvQjBo6Ys5Bgw", "review_count": 2, "categories": [{"alias": "sandwiches", "title": "Sandwiches"}], "rating": 3.0, "coordinates": {"latitude": 42.0639089088259, "longitude": -72.5133884}, "transactions": ["delivery", "pickup"], "price": "$", "location": {"address1": "24 Shaker Rd", "address2": "", "address3": "", "city": "East Longmeadow", "zip_code": "01028", "country": "US", "state": "MA", "display_address": ["24 Shaker Rd", "East Longmeadow, MA 01028"]}, "phone": "+14135258189", "display_phone": "(413) 525-8189", "distance": 4195.80310793686}, {"id": "IU0QtamwIWFCbCUmrwbV2w", "alias": "pops-pizza-hampden", "name": "Pop's Pizza", "image_url": "", "is_closed": false, "url": "https://www.yelp.com/biz/pops-pizza-hampden?adjust_creative=h5HwbyQ0TYvQjBo6Ys5Bgw&utm_campaign=yelp_api_v3&utm_medium=api_v3_business_search&utm_source=h5HwbyQ0TYvQjBo6Ys5Bgw", "review_count": 1, "categories": [{"alias": "pizza", "title": "Pizza"}], "rating": 1.0, "coordinates": {"latitude": 42.0591022255081, "longitude": -72.4409108014087}, "transactions": [], "location": {"address1": "9 Allen St", "address2": "", "address3": "", "city": "Hampden", "zip_code": "01036", "country": "US", "state": "MA", "display_address": ["9 Allen St", "Hampden, MA 01036"]}, "phone": "+14135668015", "display_phone": "(413) 566-8015", "distance": 5474.400899906948}, {"id": "_SIzEfUN-aKV9TZEBDk2sg", "alias": "panera-bread-east-longmeadow", "name": "Panera Bread", "image_url": "https://s3-media2.fl.yelpcdn.com/bphoto/1k34hsEuvx1TrOPUWrXc4g/o.jpg", "is_closed": false, "url": "https://www.yelp.com/biz/panera-bread-east-longmeadow?adjust_creative=h5HwbyQ0TYvQjBo6Ys5Bgw&utm_campaign=yelp_api_v3&utm_medium=api_v3_business_search&utm_source=h5HwbyQ0TYvQjBo6Ys5Bgw", "review_count": 17, "categories": [{"alias": "sandwiches", "title": "Sandwiches"}, {"alias": "salad", "title": "Salad"}, {"alias": "soup", "title": "Soup"}], "rating": 3.0, "coordinates": {"latitude": 42.078086, "longitude": -72.527942}, "transactions": [], "price": "$$", "location": {"address1": "450 N Main St", "address2": null, "address3": null, "city": "East Longmeadow", "zip_code": "01028", "country": "US", "state": "MA", "display_address": ["450 N Main St", "East Longmeadow, MA 01028"]}, "phone": "+14135258006", "display_phone": "(413) 525-8006", "distance": 3941.9645445625}, {"id": "WKGnSP6idKjVNVvZvlbT0Q", "alias": "pizza-royal-springfield", "name": "Pizza Royal", "image_url": "", "is_closed": false, "url": "https://www.yelp.com/biz/pizza-royal-springfield?adjust_creative=h5HwbyQ0TYvQjBo6Ys5Bgw&utm_campaign=yelp_api_v3&utm_medium=api_v3_business_search&utm_source=h5HwbyQ0TYvQjBo6Ys5Bgw", "review_count": 5, "categories": [{"alias": "pizza", "title": "Pizza"}, {"alias": "italian", "title": "Italian"}], "rating": 2.5, "coordinates": {"latitude": 42.1254565408418, "longitude": -72.5343815982342}, "transactions": ["delivery", "pickup"], "price": "$$", "location": {"address1": "161 Boston Rd", "address2": "", "address3": "", "city": "Springfield", "zip_code": "01109", "country": "US", "state": "MA", "display_address": ["161 Boston Rd", "Springfield, MA 01109"]}, "phone": "+14137837710", "display_phone": "(413) 783-7710", "distance": 5110.626635368382}, {"id": "Io4C5tUwnb_YzeaMXHBqBA", "alias": "shuckin-truck-narragansett-2", "name": "Shuckin Truck", "image_url": "https://s3-media2.fl.yelpcdn.com/bphoto/r7QRORfe9UYVS7GGzUm9DQ/o.jpg", "is_closed": false, "url": "https://www.yelp.com/biz/shuckin-truck-narragansett-2?adjust_creative=h5HwbyQ0TYvQjBo6Ys5Bgw&utm_campaign=yelp_api_v3&utm_medium=api_v3_business_search&utm_source=h5HwbyQ0TYvQjBo6Ys5Bgw", "review_count": 24, "categories": [{"alias": "foodtrucks", "title": "Food Trucks"}, {"alias": "seafood", "title": "Seafood"}], "rating": 4.5, "coordinates": {"latitude": 41.4274482727051, "longitude": -71.4597778320313}, "transactions": [], "price": "$$", "location": {"address1": "", "address2": "", "address3": "", "city": "Narragansett", "zip_code": "02882", "country": "US", "state": "RI", "display_address": ["Narragansett, RI 02882"]}, "phone": "+14017415953", "display_phone": "(401) 741-5953", "distance": 113429.7720702496}, {"id": "qqA8YX58xnmEXLyanHfdUg", "alias": "stufd-food-truck-brooklyn", "name": "Stuf'd Food Truck", "image_url": "https://s3-media2.fl.yelpcdn.com/bphoto/_Wn0i-tLIOFinw8BPAqxPA/o.jpg", "is_closed": false, "url": "https://www.yelp.com/biz/stufd-food-truck-brooklyn?adjust_creative=h5HwbyQ0TYvQjBo6Ys5Bgw&utm_campaign=yelp_api_v3&utm_medium=api_v3_business_search&utm_source=h5HwbyQ0TYvQjBo6Ys5Bgw", "review_count": 4, "categories": [{"alias": "sandwiches", "title": "Sandwiches"}, {"alias": "foodtrucks", "title": "Food Trucks"}], "rating": 4.0, "coordinates": {"latitude": 40.7124539, "longitude": -73.9287374}, "transactions": [], "location": {"address1": "178 Varick Ave", "address2": "", "address3": null, "city": "Brooklyn", "zip_code": "11237", "country": "US", "state": "NY", "display_address": ["178 Varick Ave", "Brooklyn, NY 11237"]}, "phone": "+18457091808", "display_phone": "(845) 709-1808", "distance": 195270.46179490947}]