[{"id": "PtDrRhB6DJDwua5LdVWKNQ", "alias": "emmas-everyday-gourmet-westfield", "name": "Emma's Everyday Gourmet", "image_url": "https://s3-media2.fl.yelpcdn.com/bphoto/K75RtAGP4uS4ASBVjzPCRQ/o.jpg", "is_closed": false, "url": "https://www.yelp.com/biz/emmas-everyday-gourmet-westfield?adjust_creative=asslzE1UV0XuKI953B1vtw&utm_campaign=yelp_api_v3&utm_medium=api_v3_business_search&utm_source=asslzE1UV0XuKI953B1vtw", "review_count": 83, "categories": [{"alias": "italian", "title": "Italian"}], "rating": 4.5, "coordinates": {"latitude": 42.12351, "longitude": -72.75134}, "transactions": ["delivery"], "price": "$$", "location": {"address1": "45 Washington St", "address2": "", "address3": "", "city": "Westfield", "zip_code": "01085", "country": "US", "state": "MA", "display_address": ["45 Washington St", "Westfield, MA 01085"]}, "phone": "+14136423221", "display_phone": "(413) 642-3221", "distance": 3597.5751835299943}, {"id": "QVEN-pSCAMvJr9K-ikBYZQ", "alias": "westwood-restaurant-and-pub-westfield", "name": "Westwood Restaurant and Pub", "image_url": "https://s3-media4.fl.yelpcdn.com/bphoto/Fb7BFmRjkg-d9gTaa6jRKg/o.jpg", "is_closed": false, "url": "https://www.yelp.com/biz/westwood-restaurant-and-pub-westfield?adjust_creative=asslzE1UV0XuKI953B1vtw&utm_campaign=yelp_api_v3&utm_medium=api_v3_business_search&utm_source=asslzE1UV0XuKI953B1vtw", "review_count": 87, "categories": [{"alias": "newamerican", "title": "American (New)"}, {"alias": "pubs", "title": "Pubs"}], "rating": 4.0, "coordinates": {"latitude": 42.1316153, "longitude": -72.7440194}, "transactions": ["delivery"], "price": "$$", "location": {"address1": "94 N Elm St", "address2": "", "address3": "", "city": "Westfield", "zip_code": "01085", "country": "US", "state": "MA", "display_address": ["94 N Elm St", "Westfield, MA 01085"]}, "phone": "+14135646963", "display_phone": "(413) 564-6963", "distance": 4132.724632978099}, {"id": "ZiHnY5W-l_08UP9XuLkjQQ", "alias": "santiago-family-restaurant-westfield", "name": "Santiago Family Restaurant", "image_url": "https://s3-media2.fl.yelpcdn.com/bphoto/dQvWCSS7lXhGE8e2KwTsLQ/o.jpg", "is_closed": false, "url": "https://www.yelp.com/biz/santiago-family-restaurant-westfield?adjust_creative=asslzE1UV0XuKI953B1vtw&utm_campaign=yelp_api_v3&utm_medium=api_v3_business_search&utm_source=asslzE1UV0XuKI953B1vtw", "review_count": 130, "categories": [{"alias": "spanish", "title": "Spanish"}, {"alias": "latin", "title": "Latin American"}], "rating": 5.0, "coordinates": {"latitude": 42.1244010925293, "longitude": -72.7496871948242}, "transactions": ["delivery"], "price": "$$", "location": {"address1": "34 Franklin St", "address2": "", "address3": "", "city": "Westfield", "zip_code": "01085", "country": "US", "state": "MA", "display_address": ["34 Franklin St", "Westfield, MA 01085"]}, "phone": "+14135620210", "display_phone": "(413) 562-0210", "distance": 3708.938965914901}, {"id": "AuMVaEI5r5iP4I5Vs_iM6g", "alias": "skyline-beer-company-westfield", "name": "Skyline Beer Company", "image_url": "https://s3-media1.fl.yelpcdn.com/bphoto/i1CTaxwUqFsqQw4XnhOs8w/o.jpg", "is_closed": false, "url": "https://www.yelp.com/biz/skyline-beer-company-westfield?adjust_creative=asslzE1UV0XuKI953B1vtw&utm_campaign=yelp_api_v3&utm_medium=api_v3_business_search&utm_source=asslzE1UV0XuKI953B1vtw", "review_count": 5, "categories": [{"alias": "beerbar", "title": "Beer Bar"}, {"alias": "breweries", "title": "Breweries"}, {"alias": "wraps", "title": "Wraps"}], "rating": 3.5, "coordinates": {"latitude": 42.10701483, "longitude": -72.764182}, "transactions": [], "location": {"address1": "98 Southwick Rd", "address2": "", "address3": null, "city": "Westfield", "zip_code": "01085", "country": "US", "state": "MA", "display_address": ["98 Southwick Rd", "Westfield, MA 01085"]}, "phone": "+14133783333", "display_phone": "(413) 378-3333", "distance": 3520.8518627427943}, {"id": "KoovhR9aNO7ZNjIpAmR2Ag", "alias": "two-rivers-burrito-co-westfield", "name": "Two Rivers Burrito Co", "image_url": "https://s3-media3.fl.yelpcdn.com/bphoto/q_3xxv8ojNOUuaVOMJWYaA/o.jpg", "is_closed": false, "url": "https://www.yelp.com/biz/two-rivers-burrito-co-westfield?adjust_creative=asslzE1UV0XuKI953B1vtw&utm_campaign=yelp_api_v3&utm_medium=api_v3_business_search&utm_source=asslzE1UV0XuKI953B1vtw", "review_count": 161, "categories": [{"alias": "mexican", "title": "Mexican"}, {"alias": "newamerican", "title": "American (New)"}, {"alias": "tex-mex", "title": "Tex-Mex"}], "rating": 4.5, "coordinates": {"latitude": 42.1219372299061, "longitude": -72.7491059463501}, "transactions": ["delivery"], "price": "$", "location": {"address1": "36 Elm St", "address2": "", "address3": "", "city": "Westfield", "zip_code": "01085", "country": "US", "state": "MA", "display_address": ["36 Elm St", "Westfield, MA 01085"]}, "phone": "+14135795469", "display_phone": "(413) 579-5469", "distance": 3824.105526792992}, {"id": "GUft10qbwpxzThU3l_yQ5g", "alias": "the-hangar-pub-and-grill-westfield-westfield", "name": "The Hangar Pub and Grill - Westfield", "image_url": "https://s3-media2.fl.yelpcdn.com/bphoto/OqDAl40mPSOI45pYQGKRAA/o.jpg", "is_closed": false, "url": "https://www.yelp.com/biz/the-hangar-pub-and-grill-westfield-westfield?adjust_creative=asslzE1UV0XuKI953B1vtw&utm_campaign=yelp_api_v3&utm_medium=api_v3_business_search&utm_source=asslzE1UV0XuKI953B1vtw", "review_count": 92, "categories": [{"alias": "pubs", "title": "Pubs"}, {"alias": "sportsbars", "title": "Sports Bars"}, {"alias": "tradamerican", "title": "American (Traditional)"}], "rating": 3.5, "coordinates": {"latitude": 42.12166, "longitude": -72.75006}, "transactions": ["delivery", "pickup"], "price": "$$", "location": {"address1": "29 School St", "address2": "", "address3": "", "city": "Westfield", "zip_code": "01085", "country": "US", "state": "MA", "display_address": ["29 School St", "Westfield, MA 01085"]}, "phone": "+14135629464", "display_phone": "(413) 562-9464", "distance": 3747.0303737042145}, {"id": "EjmoByvU0tm0QJaFe6EA6Q", "alias": "bread-basket-russell", "name": "Bread Basket", "image_url": "https://s3-media3.fl.yelpcdn.com/bphoto/ocWZQw9hDfydLXdpIv6d6Q/o.jpg", "is_closed": false, "url": "https://www.yelp.com/biz/bread-basket-russell?adjust_creative=asslzE1UV0XuKI953B1vtw&utm_campaign=yelp_api_v3&utm_medium=api_v3_business_search&utm_source=asslzE1UV0XuKI953B1vtw", "review_count": 11, "categories": [{"alias": "bakeries", "title": "Bakeries"}, {"alias": "sandwiches", "title": "Sandwiches"}, {"alias": "desserts", "title": "Desserts"}], "rating": 5.0, "coordinates": {"latitude": 42.16665, "longitude": -72.860528}, "transactions": [], "price": "$", "location": {"address1": "815 Blandford Rd", "address2": null, "address3": null, "city": "Russell", "zip_code": "01071", "country": "US", "state": "MA", "display_address": ["815 Blandford Rd", "Russell, MA 01071"]}, "phone": "+14138620044", "display_phone": "(413) 862-0044", "distance": 6809.788958818696}, {"id": "2jPTv_JPiUoJy2sYrUw-4w", "alias": "hutghi-s-at-the-nook-westfield", "name": "Hutghi\u2019s at the Nook", "image_url": "https://s3-media4.fl.yelpcdn.com/bphoto/G74Vom8_J9q7dQ1vT5iFpw/o.jpg", "is_closed": false, "url": "https://www.yelp.com/biz/hutghi-s-at-the-nook-westfield?adjust_creative=asslzE1UV0XuKI953B1vtw&utm_campaign=yelp_api_v3&utm_medium=api_v3_business_search&utm_source=asslzE1UV0XuKI953B1vtw", "review_count": 7, "categories": [{"alias": "lounges", "title": "Lounges"}, {"alias": "tapasmallplates", "title": "Tapas/Small Plates"}, {"alias": "cocktailbars", "title": "Cocktail Bars"}], "rating": 4.5, "coordinates": {"latitude": 42.1242563457667, "longitude": -72.7484419359153}, "transactions": [], "location": {"address1": "8 Franklin St", "address2": "", "address3": null, "city": "Westfield", "zip_code": "01085", "country": "US", "state": "MA", "display_address": ["8 Franklin St", "Westfield, MA 01085"]}, "phone": "+14136263774", "display_phone": "(413) 626-3774", "distance": 3823.9428949870894}, {"id": "xs-qCnj3jge-jZO_ynZEqA", "alias": "yummi-noodle-westfield", "name": "Yummi Noodle", "image_url": "https://s3-media3.fl.yelpcdn.com/bphoto/NBU1J1KEreZlmTtF1kRlvQ/o.jpg", "is_closed": false, "url": "https://www.yelp.com/biz/yummi-noodle-westfield?adjust_creative=asslzE1UV0XuKI953B1vtw&utm_campaign=yelp_api_v3&utm_medium=api_v3_business_search&utm_source=asslzE1UV0XuKI953B1vtw", "review_count": 20, "categories": [{"alias": "chinese", "title": "Chinese"}, {"alias": "soup", "title": "Soup"}, {"alias": "noodles", "title": "Noodles"}], "rating": 4.0, "coordinates": {"latitude": 42.123887, "longitude": -72.748365}, "transactions": ["delivery", "pickup"], "location": {"address1": "160 Elm St", "address2": null, "address3": "", "city": "Westfield", "zip_code": "01085", "country": "US", "state": "MA", "display_address": ["160 Elm St", "Westfield, MA 01085"]}, "phone": "+14135795935", "display_phone": "(413) 579-5935", "distance": 3837.5589367724083}, {"id": "GRyFsI7kzp6LCXF5-aXrkA", "alias": "tavern-restaurant-westfield-westfield", "name": "Tavern Restaurant Westfield", "image_url": "https://s3-media3.fl.yelpcdn.com/bphoto/HmokDBWdfHXvAKPNFlt3tg/o.jpg", "is_closed": false, "url": "https://www.yelp.com/biz/tavern-restaurant-westfield-westfield?adjust_creative=asslzE1UV0XuKI953B1vtw&utm_campaign=yelp_api_v3&utm_medium=api_v3_business_search&utm_source=asslzE1UV0XuKI953B1vtw", "review_count": 70, "categories": [{"alias": "tradamerican", "title": "American (Traditional)"}], "rating": 3.5, "coordinates": {"latitude": 42.1207075712155, "longitude": -72.7482569217682}, "transactions": ["delivery"], "price": "$$", "location": {"address1": "2 Broad St", "address2": "", "address3": "", "city": "Westfield", "zip_code": "01085", "country": "US", "state": "MA", "display_address": ["2 Broad St", "Westfield, MA 01085"]}, "phone": "+14135620335", "display_phone": "(413) 562-0335", "distance": 3926.834382209231}, {"id": "8w4W6zR1PESowk4u_aLYIg", "alias": "russell-inn-russell", "name": "Russell Inn", "image_url": "https://s3-media3.fl.yelpcdn.com/bphoto/KL8hMD_bTwenuL1D9cYS1w/o.jpg", "is_closed": false, "url": "https://www.yelp.com/biz/russell-inn-russell?adjust_creative=asslzE1UV0XuKI953B1vtw&utm_campaign=yelp_api_v3&utm_medium=api_v3_business_search&utm_source=asslzE1UV0XuKI953B1vtw", "review_count": 39, "categories": [{"alias": "hotels", "title": "Hotels"}, {"alias": "newamerican", "title": "American (New)"}, {"alias": "lounges", "title": "Lounges"}], "rating": 3.5, "coordinates": {"latitude": 42.163813860793, "longitude": -72.8284650158691}, "transactions": [], "price": "$$", "location": {"address1": "65 Westfield Rd", "address2": "", "address3": "", "city": "Russell", "zip_code": "01071", "country": "US", "state": "MA", "display_address": ["65 Westfield Rd", "Russell, MA 01071"]}, "phone": "+14138623608", "display_phone": "(413) 862-3608", "distance": 4685.748376861921}, {"id": "Hu57Hg5qRwIsmZyNPz8WDA", "alias": "alo-saigon-westfield", "name": "Alo Saigon", "image_url": "https://s3-media4.fl.yelpcdn.com/bphoto/87CBbfIp-NCajpjymxHoFA/o.jpg", "is_closed": false, "url": "https://www.yelp.com/biz/alo-saigon-westfield?adjust_creative=asslzE1UV0XuKI953B1vtw&utm_campaign=yelp_api_v3&utm_medium=api_v3_business_search&utm_source=asslzE1UV0XuKI953B1vtw", "review_count": 96, "categories": [{"alias": "vietnamese", "title": "Vietnamese"}, {"alias": "bubbletea", "title": "Bubble Tea"}, {"alias": "soup", "title": "Soup"}], "rating": 4.5, "coordinates": {"latitude": 42.123119354248, "longitude": -72.7487716674805}, "transactions": ["delivery"], "price": "$$", "location": {"address1": "116 Elm St", "address2": "", "address3": "", "city": "Westfield", "zip_code": "01085", "country": "US", "state": "MA", "display_address": ["116 Elm St", "Westfield, MA 01085"]}, "phone": "+14136426515", "display_phone": "(413) 642-6515", "distance": 3821.476732053027}, {"id": "pdASGneAlX6whC5rD31fmw", "alias": "soks-runway-westfield", "name": "SOK'S Runway", "image_url": "https://s3-media1.fl.yelpcdn.com/bphoto/yPuq45Qvi2eIt7frfVzg5g/o.jpg", "is_closed": false, "url": "https://www.yelp.com/biz/soks-runway-westfield?adjust_creative=asslzE1UV0XuKI953B1vtw&utm_campaign=yelp_api_v3&utm_medium=api_v3_business_search&utm_source=asslzE1UV0XuKI953B1vtw", "review_count": 21, "categories": [{"alias": "newamerican", "title": "American (New)"}, {"alias": "asianfusion", "title": "Asian Fusion"}, {"alias": "cocktailbars", "title": "Cocktail Bars"}], "rating": 4.0, "coordinates": {"latitude": 42.16121, "longitude": -72.71349}, "transactions": ["delivery"], "price": "$$", "location": {"address1": "110 Airport Rd", "address2": "", "address3": null, "city": "Westfield", "zip_code": "01085", "country": "US", "state": "MA", "display_address": ["110 Airport Rd", "Westfield, MA 01085"]}, "phone": "+14136423219", "display_phone": "(413) 642-3219", "distance": 6959.294069198458}, {"id": "E0JSl9ZF_hJgQ1c-Uw1CaA", "alias": "the-good-table-westfield-2", "name": "The Good Table", "image_url": "https://s3-media2.fl.yelpcdn.com/bphoto/1nVJ4_GHMQQ1QxpCfPEkhw/o.jpg", "is_closed": false, "url": "https://www.yelp.com/biz/the-good-table-westfield-2?adjust_creative=asslzE1UV0XuKI953B1vtw&utm_campaign=yelp_api_v3&utm_medium=api_v3_business_search&utm_source=asslzE1UV0XuKI953B1vtw", "review_count": 69, "categories": [{"alias": "breakfast_brunch", "title": "Breakfast & Brunch"}], "rating": 4.5, "coordinates": {"latitude": 42.121251, "longitude": -72.749693}, "transactions": ["delivery"], "price": "$", "location": {"address1": "12 School St", "address2": "", "address3": "", "city": "Westfield", "zip_code": "01085", "country": "US", "state": "MA", "display_address": ["12 School St", "Westfield, MA 01085"]}, "phone": "+14136425527", "display_phone": "(413) 642-5527", "distance": 3796.554164614353}, {"id": "Tsn4XujhdnJodhxQ6XPEZg", "alias": "alessios-pizza-westfield", "name": "Alessio's Pizza", "image_url": "https://s3-media3.fl.yelpcdn.com/bphoto/TIi_e7HhPv2GTkFuUfvZsQ/o.jpg", "is_closed": false, "url": "https://www.yelp.com/biz/alessios-pizza-westfield?adjust_creative=asslzE1UV0XuKI953B1vtw&utm_campaign=yelp_api_v3&utm_medium=api_v3_business_search&utm_source=asslzE1UV0XuKI953B1vtw", "review_count": 39, "categories": [{"alias": "pizza", "title": "Pizza"}, {"alias": "italian", "title": "Italian"}], "rating": 4.0, "coordinates": {"latitude": 42.14824, "longitude": -72.72926}, "transactions": ["delivery", "pickup"], "price": "$$", "location": {"address1": "280 Southampton Rd", "address2": "", "address3": "", "city": "Westfield", "zip_code": "01085", "country": "US", "state": "MA", "display_address": ["280 Southampton Rd", "Westfield, MA 01085"]}, "phone": "+14135624600", "display_phone": "(413) 562-4600", "distance": 5699.869798729165}, {"id": "WA6tAaFTexpzcwiFPxjwtw", "alias": "feng-ye-westfield", "name": "Feng Ye", "image_url": "https://s3-media2.fl.yelpcdn.com/bphoto/w94V6fbisnRUzstKPNKc_A/o.jpg", "is_closed": false, "url": "https://www.yelp.com/biz/feng-ye-westfield?adjust_creative=asslzE1UV0XuKI953B1vtw&utm_campaign=yelp_api_v3&utm_medium=api_v3_business_search&utm_source=asslzE1UV0XuKI953B1vtw", "review_count": 9, "categories": [{"alias": "chinese", "title": "Chinese"}, {"alias": "japanese", "title": "Japanese"}], "rating": 4.0, "coordinates": {"latitude": 42.12494, "longitude": -72.74769}, "transactions": ["delivery", "pickup"], "location": {"address1": "205 Elm St", "address2": null, "address3": "", "city": "Westfield", "zip_code": "01085", "country": "US", "state": "MA", "display_address": ["205 Elm St", "Westfield, MA 01085"]}, "phone": "+14135795351", "display_phone": "(413) 579-5351", "distance": 3868.9780943945575}, {"id": "fkJH2B0PDmFmzrpci5RurQ", "alias": "7bs-bar-and-grill-westfield", "name": "7B's Bar & Grill", "image_url": "https://s3-media4.fl.yelpcdn.com/bphoto/fLRT9PVueJFuR-l_NDAkEA/o.jpg", "is_closed": false, "url": "https://www.yelp.com/biz/7bs-bar-and-grill-westfield?adjust_creative=asslzE1UV0XuKI953B1vtw&utm_campaign=yelp_api_v3&utm_medium=api_v3_business_search&utm_source=asslzE1UV0XuKI953B1vtw", "review_count": 75, "categories": [{"alias": "burgers", "title": "Burgers"}, {"alias": "bars", "title": "Bars"}, {"alias": "sandwiches", "title": "Sandwiches"}], "rating": 4.0, "coordinates": {"latitude": 42.1835665125337, "longitude": -72.7268451651987}, "transactions": ["delivery"], "price": "$$", "location": {"address1": "1152 Southampton Rd", "address2": "", "address3": "", "city": "Westfield", "zip_code": "01085", "country": "US", "state": "MA", "display_address": ["1152 Southampton Rd", "Westfield, MA 01085"]}, "phone": "+14135795310", "display_phone": "(413) 579-5310", "distance": 8116.916457741275}, {"id": "7TrTL0gUhz_HsNmPVodHHA", "alias": "shortstop-bar-and-grill-westfield", "name": "Shortstop Bar & Grill", "image_url": "https://s3-media2.fl.yelpcdn.com/bphoto/vmjfIYelNcyVrpBUX7Wz7Q/o.jpg", "is_closed": false, "url": "https://www.yelp.com/biz/shortstop-bar-and-grill-westfield?adjust_creative=asslzE1UV0XuKI953B1vtw&utm_campaign=yelp_api_v3&utm_medium=api_v3_business_search&utm_source=asslzE1UV0XuKI953B1vtw", "review_count": 82, "categories": [{"alias": "sportsbars", "title": "Sports Bars"}, {"alias": "newamerican", "title": "American (New)"}], "rating": 3.0, "coordinates": {"latitude": 42.1097732575367, "longitude": -72.7099312581689}, "transactions": ["delivery"], "price": "$$", "location": {"address1": "99 Springfield Rd", "address2": null, "address3": "", "city": "Westfield", "zip_code": "01085", "country": "US", "state": "MA", "display_address": ["99 Springfield Rd", "Westfield, MA 01085"]}, "phone": "+14136426370", "display_phone": "(413) 642-6370", "distance": 7305.957194611774}, {"id": "zve1Aq9cbhXNcFZFH4Afmg", "alias": "pasquales-italian-family-restaurant-and-pizza-westfield", "name": "Pasquale's Italian Family Restaurant & Pizza", "image_url": "https://s3-media2.fl.yelpcdn.com/bphoto/E-8AWmL1rLjU_wz1q32cZg/o.jpg", "is_closed": false, "url": "https://www.yelp.com/biz/pasquales-italian-family-restaurant-and-pizza-westfield?adjust_creative=asslzE1UV0XuKI953B1vtw&utm_campaign=yelp_api_v3&utm_medium=api_v3_business_search&utm_source=asslzE1UV0XuKI953B1vtw", "review_count": 40, "categories": [{"alias": "pizza", "title": "Pizza"}, {"alias": "italian", "title": "Italian"}], "rating": 3.5, "coordinates": {"latitude": 42.1268186820568, "longitude": -72.7477997280986}, "transactions": [], "price": "$$", "location": {"address1": "288 Elm St", "address2": "", "address3": "", "city": "Westfield", "zip_code": "01085", "country": "US", "state": "MA", "display_address": ["288 Elm St", "Westfield, MA 01085"]}, "phone": "+14135625009", "display_phone": "(413) 562-5009", "distance": 3837.331227142454}, {"id": "RbUXu0Dr79pTDSjOUFH-hA", "alias": "the-ranch-pub-house-southwick", "name": "The Ranch Pub House", "image_url": "https://s3-media3.fl.yelpcdn.com/bphoto/ox6c6Z0E8zleHskJxaRVBg/o.jpg", "is_closed": false, "url": "https://www.yelp.com/biz/the-ranch-pub-house-southwick?adjust_creative=asslzE1UV0XuKI953B1vtw&utm_campaign=yelp_api_v3&utm_medium=api_v3_business_search&utm_source=asslzE1UV0XuKI953B1vtw", "review_count": 2, "categories": [{"alias": "tradamerican", "title": "American (Traditional)"}, {"alias": "pubs", "title": "Pubs"}, {"alias": "sportsbars", "title": "Sports Bars"}], "rating": 3.0, "coordinates": {"latitude": 42.0847895, "longitude": -72.7736336}, "transactions": [], "price": "$$", "location": {"address1": "65 Sunny Side Rd", "address2": null, "address3": "", "city": "Southwick", "zip_code": "01077", "country": "US", "state": "MA", "display_address": ["65 Sunny Side Rd", "Southwick, MA 01077"]}, "phone": "+14135699333", "display_phone": "(413) 569-9333", "distance": 5329.3339835598035}, {"id": "9liFsX4ASC-aulosutlblQ", "alias": "mi-ranchito-tex-mex-westfield", "name": "Mi Ranchito Tex Mex", "image_url": "https://s3-media3.fl.yelpcdn.com/bphoto/oA1NsN_d4acQuw1Yrh6VSw/o.jpg", "is_closed": false, "url": "https://www.yelp.com/biz/mi-ranchito-tex-mex-westfield?adjust_creative=asslzE1UV0XuKI953B1vtw&utm_campaign=yelp_api_v3&utm_medium=api_v3_business_search&utm_source=asslzE1UV0XuKI953B1vtw", "review_count": 20, "categories": [{"alias": "mexican", "title": "Mexican"}, {"alias": "tex-mex", "title": "Tex-Mex"}], "rating": 4.0, "coordinates": {"latitude": 42.12576, "longitude": -72.75269}, "transactions": ["delivery"], "price": "$", "location": {"address1": "69 Franklin St", "address2": "", "address3": "", "city": "Westfield", "zip_code": "01085", "country": "US", "state": "MA", "display_address": ["69 Franklin St", "Westfield, MA 01085"]}, "phone": "+14135681150", "display_phone": "(413) 568-1150", "distance": 3454.967176060884}, {"id": "NekS6dj2Oaz0MSRDsaUt2Q", "alias": "janiks-pierogi-cafe-and-juice-bar-westfield", "name": "Janik's Pierogi Cafe & Juice Bar", "image_url": "https://s3-media3.fl.yelpcdn.com/bphoto/7GeDUCwrBFh3VBV8NcWK2g/o.jpg", "is_closed": false, "url": "https://www.yelp.com/biz/janiks-pierogi-cafe-and-juice-bar-westfield?adjust_creative=asslzE1UV0XuKI953B1vtw&utm_campaign=yelp_api_v3&utm_medium=api_v3_business_search&utm_source=asslzE1UV0XuKI953B1vtw", "review_count": 37, "categories": [{"alias": "juicebars", "title": "Juice Bars & Smoothies"}, {"alias": "polish", "title": "Polish"}, {"alias": "breakfast_brunch", "title": "Breakfast & Brunch"}], "rating": 4.5, "coordinates": {"latitude": 42.1209283, "longitude": -72.7473749}, "transactions": ["delivery"], "price": "$$", "location": {"address1": "38-40 Main St", "address2": "", "address3": "", "city": "Westfield", "zip_code": "01085", "country": "US", "state": "MA", "display_address": ["38-40 Main St", "Westfield, MA 01085"]}, "phone": "+14135795620", "display_phone": "(413) 579-5620", "distance": 3978.801896620425}, {"id": "SY9D4nep9NB7cvhfBYapyQ", "alias": "delaneys-market-westfield", "name": "Delaney's Market", "image_url": "https://s3-media2.fl.yelpcdn.com/bphoto/Ss5RdoPKkM39WEPvDcnjHg/o.jpg", "is_closed": false, "url": "https://www.yelp.com/biz/delaneys-market-westfield?adjust_creative=asslzE1UV0XuKI953B1vtw&utm_campaign=yelp_api_v3&utm_medium=api_v3_business_search&utm_source=asslzE1UV0XuKI953B1vtw", "review_count": 1, "categories": [{"alias": "delis", "title": "Delis"}, {"alias": "desserts", "title": "Desserts"}, {"alias": "beer_and_wine", "title": "Beer, Wine & Spirits"}], "rating": 3.0, "coordinates": {"latitude": 42.1120487442122, "longitude": -72.720509134233}, "transactions": [], "location": {"address1": "587 E Main St", "address2": "Unit 120", "address3": null, "city": "Westfield", "zip_code": "01085", "country": "US", "state": "MA", "display_address": ["587 E Main St", "Unit 120", "Westfield, MA 01085"]}, "phone": "+14132616240", "display_phone": "(413) 261-6240", "distance": 6398.086090231146}, {"id": "MTzTTIUF_uMQp2P0WaZgpg", "alias": "tung-shing-dragon-westfield", "name": "Tung Shing Dragon", "image_url": "https://s3-media4.fl.yelpcdn.com/bphoto/VFJA7H-_qkWlRcc5JcyCjA/o.jpg", "is_closed": false, "url": "https://www.yelp.com/biz/tung-shing-dragon-westfield?adjust_creative=asslzE1UV0XuKI953B1vtw&utm_campaign=yelp_api_v3&utm_medium=api_v3_business_search&utm_source=asslzE1UV0XuKI953B1vtw", "review_count": 20, "categories": [{"alias": "chinese", "title": "Chinese"}], "rating": 3.5, "coordinates": {"latitude": 42.125347, "longitude": -72.753719}, "transactions": ["delivery"], "price": "$$", "location": {"address1": "76 Franklin St", "address2": "", "address3": "", "city": "Westfield", "zip_code": "01085", "country": "US", "state": "MA", "display_address": ["76 Franklin St", "Westfield, MA 01085"]}, "phone": "+14135724522", "display_phone": "(413) 572-4522", "distance": 3374.5312829113973}, {"id": "sKOPB6eJ5ARyJB6KoTAy6A", "alias": "family-pizza-and-grinder-westfield", "name": "Family Pizza & Grinder", "image_url": "https://s3-media1.fl.yelpcdn.com/bphoto/W7zhISY_LjlHxo8f-pdddg/o.jpg", "is_closed": false, "url": "https://www.yelp.com/biz/family-pizza-and-grinder-westfield?adjust_creative=asslzE1UV0XuKI953B1vtw&utm_campaign=yelp_api_v3&utm_medium=api_v3_business_search&utm_source=asslzE1UV0XuKI953B1vtw", "review_count": 28, "categories": [{"alias": "sandwiches", "title": "Sandwiches"}, {"alias": "pizza", "title": "Pizza"}], "rating": 4.5, "coordinates": {"latitude": 42.1265477, "longitude": -72.7470919}, "transactions": [], "price": "$", "location": {"address1": "281 Elm St", "address2": "", "address3": "", "city": "Westfield", "zip_code": "01085", "country": "US", "state": "MA", "display_address": ["281 Elm St", "Westfield, MA 01085"]}, "phone": "+14135627434", "display_phone": "(413) 562-7434", "distance": 3897.8807164747923}, {"id": "vF5dqRU3uWLeCgklux66aw", "alias": "pancake-sundaes-diner-and-bakery-westfield", "name": "Pancake Sundaes Diner & Bakery", "image_url": "https://s3-media2.fl.yelpcdn.com/bphoto/ksIciYrHNind0aZDpLu7Gw/o.jpg", "is_closed": false, "url": "https://www.yelp.com/biz/pancake-sundaes-diner-and-bakery-westfield?adjust_creative=asslzE1UV0XuKI953B1vtw&utm_campaign=yelp_api_v3&utm_medium=api_v3_business_search&utm_source=asslzE1UV0XuKI953B1vtw", "review_count": 47, "categories": [{"alias": "breakfast_brunch", "title": "Breakfast & Brunch"}, {"alias": "diners", "title": "Diners"}, {"alias": "bakeries", "title": "Bakeries"}], "rating": 4.0, "coordinates": {"latitude": 42.12615, "longitude": -72.74787}, "transactions": ["delivery"], "price": "$$", "location": {"address1": "266 Elm St", "address2": null, "address3": "", "city": "Westfield", "zip_code": "01085", "country": "US", "state": "MA", "display_address": ["266 Elm St", "Westfield, MA 01085"]}, "phone": "+14135726832", "display_phone": "(413) 572-6832", "distance": 3848.983295088962}, {"id": "PEnqmmNhzHEMrLHBT-wauA", "alias": "soups-on-westfield", "name": "Soups On", "image_url": "https://s3-media1.fl.yelpcdn.com/bphoto/_iKA-Os77wbW_iRZJpfF1g/o.jpg", "is_closed": false, "url": "https://www.yelp.com/biz/soups-on-westfield?adjust_creative=asslzE1UV0XuKI953B1vtw&utm_campaign=yelp_api_v3&utm_medium=api_v3_business_search&utm_source=asslzE1UV0XuKI953B1vtw", "review_count": 58, "categories": [{"alias": "soup", "title": "Soup"}, {"alias": "cafes", "title": "Cafes"}, {"alias": "sandwiches", "title": "Sandwiches"}], "rating": 4.0, "coordinates": {"latitude": 42.12997, "longitude": -72.74391}, "transactions": ["delivery"], "price": "$", "location": {"address1": "16 Union Ave", "address2": "", "address3": "", "city": "Westfield", "zip_code": "01085", "country": "US", "state": "MA", "display_address": ["16 Union Ave", "Westfield, MA 01085"]}, "phone": "+14135620648", "display_phone": "(413) 562-0648", "distance": 4113.872879450667}, {"id": "3_3dq9Xv89QSsbyL9W3f7Q", "alias": "whip-city-brew-westfield", "name": "Whip City Brew", "image_url": "https://s3-media1.fl.yelpcdn.com/bphoto/qjHot0PunT2EAW0oqK64TQ/o.jpg", "is_closed": false, "url": "https://www.yelp.com/biz/whip-city-brew-westfield?adjust_creative=asslzE1UV0XuKI953B1vtw&utm_campaign=yelp_api_v3&utm_medium=api_v3_business_search&utm_source=asslzE1UV0XuKI953B1vtw", "review_count": 21, "categories": [{"alias": "bars", "title": "Bars"}, {"alias": "tradamerican", "title": "American (Traditional)"}], "rating": 3.0, "coordinates": {"latitude": 42.1370964050293, "longitude": -72.7386932373047}, "transactions": [], "price": "$", "location": {"address1": "287 N Elm St", "address2": "", "address3": "", "city": "Westfield", "zip_code": "01085", "country": "US", "state": "MA", "display_address": ["287 N Elm St", "Westfield, MA 01085"]}, "phone": "+14135640149", "display_phone": "(413) 564-0149", "distance": 4632.636290287667}, {"id": "6Hoe3eqdjxzW9LHZYAdJHQ", "alias": "ks-restaurant-westfield", "name": "K's Restaurant", "image_url": "https://s3-media1.fl.yelpcdn.com/bphoto/FfUKb-1jrlHhl3ouu-lLYA/o.jpg", "is_closed": false, "url": "https://www.yelp.com/biz/ks-restaurant-westfield?adjust_creative=asslzE1UV0XuKI953B1vtw&utm_campaign=yelp_api_v3&utm_medium=api_v3_business_search&utm_source=asslzE1UV0XuKI953B1vtw", "review_count": 93, "categories": [{"alias": "japanese", "title": "Japanese"}, {"alias": "sushi", "title": "Sushi Bars"}], "rating": 4.0, "coordinates": {"latitude": 42.1139984130859, "longitude": -72.7247543334961}, "transactions": ["delivery", "pickup"], "price": "$$", "location": {"address1": "318 E Main St", "address2": "", "address3": "", "city": "Westfield", "zip_code": "01085", "country": "US", "state": "MA", "display_address": ["318 E Main St", "Westfield, MA 01085"]}, "phone": "+14135683886", "display_phone": "(413) 568-3886", "distance": 5986.491584858953}, {"id": "C8sZqgLpXgUAD4FoLwND9w", "alias": "gristmill-cafe-southwick", "name": "Gristmill Cafe", "image_url": "https://s3-media2.fl.yelpcdn.com/bphoto/q-OwIksCabt6QFQE-jkMjA/o.jpg", "is_closed": false, "url": "https://www.yelp.com/biz/gristmill-cafe-southwick?adjust_creative=asslzE1UV0XuKI953B1vtw&utm_campaign=yelp_api_v3&utm_medium=api_v3_business_search&utm_source=asslzE1UV0XuKI953B1vtw", "review_count": 8, "categories": [{"alias": "breakfast_brunch", "title": "Breakfast & Brunch"}, {"alias": "tradamerican", "title": "American (Traditional)"}], "rating": 4.5, "coordinates": {"latitude": 42.063179, "longitude": -72.7645921}, "transactions": ["delivery"], "location": {"address1": "610 College Hwy", "address2": "", "address3": null, "city": "Southwick", "zip_code": "01077", "country": "US", "state": "MA", "display_address": ["610 College Hwy", "Southwick, MA 01077"]}, "phone": "+14135693000", "display_phone": "(413) 569-3000", "distance": 7871.5420364928805}, {"id": "PIAU2nZyrxObZKLXumxNzQ", "alias": "zanto-southwick", "name": "Zanto", "image_url": "https://s3-media1.fl.yelpcdn.com/bphoto/sGny9w7M97NLitrTpwif-w/o.jpg", "is_closed": false, "url": "https://www.yelp.com/biz/zanto-southwick?adjust_creative=asslzE1UV0XuKI953B1vtw&utm_campaign=yelp_api_v3&utm_medium=api_v3_business_search&utm_source=asslzE1UV0XuKI953B1vtw", "review_count": 38, "categories": [{"alias": "pizza", "title": "Pizza"}, {"alias": "italian", "title": "Italian"}, {"alias": "tradamerican", "title": "American (Traditional)"}], "rating": 4.0, "coordinates": {"latitude": 42.06218, "longitude": -72.76549}, "transactions": ["delivery"], "price": "$$", "location": {"address1": "587 College Hwy", "address2": "", "address3": "", "city": "Southwick", "zip_code": "01077", "country": "US", "state": "MA", "display_address": ["587 College Hwy", "Southwick, MA 01077"]}, "phone": "+14135690164", "display_phone": "(413) 569-0164", "distance": 7943.572604983067}, {"id": "VazvqfJnJ1Rv7K0pDBfE0w", "alias": "tuckers-restaurant-southwick-2", "name": "Tucker's Restaurant", "image_url": "https://s3-media4.fl.yelpcdn.com/bphoto/yyAUXCzOJezQrCJkQUotfA/o.jpg", "is_closed": false, "url": "https://www.yelp.com/biz/tuckers-restaurant-southwick-2?adjust_creative=asslzE1UV0XuKI953B1vtw&utm_campaign=yelp_api_v3&utm_medium=api_v3_business_search&utm_source=asslzE1UV0XuKI953B1vtw", "review_count": 19, "categories": [{"alias": "newamerican", "title": "American (New)"}, {"alias": "venues", "title": "Venues & Event Spaces"}, {"alias": "wine_bars", "title": "Wine Bars"}], "rating": 3.5, "coordinates": {"latitude": 42.0647039134398, "longitude": -72.7647228702056}, "transactions": ["delivery"], "price": "$$", "location": {"address1": "625 College Hwy", "address2": null, "address3": null, "city": "Southwick", "zip_code": "01077", "country": "US", "state": "MA", "display_address": ["625 College Hwy", "Southwick, MA 01077"]}, "phone": "+14135690120", "display_phone": "(413) 569-0120", "distance": 7680.710922398666}, {"id": "GBeWGwKZu_URwU1tl17VRQ", "alias": "new-main-moon-chinese-restaurant-southwick", "name": "New Main Moon Chinese Restaurant", "image_url": "https://s3-media1.fl.yelpcdn.com/bphoto/H7vsIe3-zFWWfOyGs_tM_w/o.jpg", "is_closed": false, "url": "https://www.yelp.com/biz/new-main-moon-chinese-restaurant-southwick?adjust_creative=asslzE1UV0XuKI953B1vtw&utm_campaign=yelp_api_v3&utm_medium=api_v3_business_search&utm_source=asslzE1UV0XuKI953B1vtw", "review_count": 34, "categories": [{"alias": "chinese", "title": "Chinese"}], "rating": 3.5, "coordinates": {"latitude": 42.063179, "longitude": -72.7645921}, "transactions": [], "price": "$", "location": {"address1": "610 College Hwy", "address2": "", "address3": "", "city": "Southwick", "zip_code": "01077", "country": "US", "state": "MA", "display_address": ["610 College Hwy", "Southwick, MA 01077"]}, "phone": "+14135691234", "display_phone": "(413) 569-1234", "distance": 7871.5420364928805}, {"id": "xI-cP_d_HDTf2PutrKFWTg", "alias": "yankee-village-restaurant-westfield", "name": "Yankee Village Restaurant", "image_url": "https://s3-media4.fl.yelpcdn.com/bphoto/2HbClrnsRqu_h46mb7TN_w/o.jpg", "is_closed": false, "url": "https://www.yelp.com/biz/yankee-village-restaurant-westfield?adjust_creative=asslzE1UV0XuKI953B1vtw&utm_campaign=yelp_api_v3&utm_medium=api_v3_business_search&utm_source=asslzE1UV0XuKI953B1vtw", "review_count": 11, "categories": [{"alias": "newamerican", "title": "American (New)"}], "rating": 3.5, "coordinates": {"latitude": 42.1085356, "longitude": -72.7648185}, "transactions": ["delivery"], "price": "$", "location": {"address1": "63 Southwick Rd", "address2": "", "address3": "", "city": "Westfield", "zip_code": "01085", "country": "US", "state": "MA", "display_address": ["63 Southwick Rd", "Westfield, MA 01085"]}, "phone": "+14135721224", "display_phone": "(413) 572-1224", "distance": 3383.7284278457396}, {"id": "HdfjH-3hXOuqMnQtRmVd_Q", "alias": "crepes-tea-house-southwick", "name": "Crepes Tea House", "image_url": "https://s3-media1.fl.yelpcdn.com/bphoto/viJU3ht4GnMzkXAXFza4oQ/o.jpg", "is_closed": false, "url": "https://www.yelp.com/biz/crepes-tea-house-southwick?adjust_creative=asslzE1UV0XuKI953B1vtw&utm_campaign=yelp_api_v3&utm_medium=api_v3_business_search&utm_source=asslzE1UV0XuKI953B1vtw", "review_count": 24, "categories": [{"alias": "modern_european", "title": "Modern European"}, {"alias": "tea", "title": "Tea Rooms"}, {"alias": "breakfast_brunch", "title": "Breakfast & Brunch"}], "rating": 4.5, "coordinates": {"latitude": 42.06621, "longitude": -72.73641}, "transactions": ["delivery", "pickup"], "location": {"address1": "157 Feeding Hills Rd", "address2": null, "address3": "", "city": "Southwick", "zip_code": "01077", "country": "US", "state": "MA", "display_address": ["157 Feeding Hills Rd", "Southwick, MA 01077"]}, "phone": "+14134377440", "display_phone": "(413) 437-7440", "distance": 8563.462153042623}, {"id": "b4ug5qe_WsEk6Apg5w_9bA", "alias": "richards-grinders-westfield", "name": "Richard's Grinders", "image_url": "https://s3-media4.fl.yelpcdn.com/bphoto/KORkeVSoyuftbGpIBaYYjQ/o.jpg", "is_closed": false, "url": "https://www.yelp.com/biz/richards-grinders-westfield?adjust_creative=asslzE1UV0XuKI953B1vtw&utm_campaign=yelp_api_v3&utm_medium=api_v3_business_search&utm_source=asslzE1UV0XuKI953B1vtw", "review_count": 16, "categories": [{"alias": "cafes", "title": "Cafes"}, {"alias": "delis", "title": "Delis"}, {"alias": "sandwiches", "title": "Sandwiches"}], "rating": 4.5, "coordinates": {"latitude": 42.11346, "longitude": -72.7133999}, "transactions": ["delivery"], "price": "$", "location": {"address1": "420 Union St", "address2": "", "address3": "", "city": "Westfield", "zip_code": "01085", "country": "US", "state": "MA", "display_address": ["420 Union St", "Westfield, MA 01085"]}, "phone": "+14135629600", "display_phone": "(413) 562-9600", "distance": 6941.024273698}, {"id": "y5KWUtvx_BzkXwK1IYvzug", "alias": "summer-house-southwick", "name": "Summer House", "image_url": "https://s3-media3.fl.yelpcdn.com/bphoto/V6ucOhTsTvIFI0Zb3xYrgw/o.jpg", "is_closed": false, "url": "https://www.yelp.com/biz/summer-house-southwick?adjust_creative=asslzE1UV0XuKI953B1vtw&utm_campaign=yelp_api_v3&utm_medium=api_v3_business_search&utm_source=asslzE1UV0XuKI953B1vtw", "review_count": 51, "categories": [{"alias": "icecream", "title": "Ice Cream & Frozen Yogurt"}, {"alias": "tradamerican", "title": "American (Traditional)"}, {"alias": "burgers", "title": "Burgers"}], "rating": 4.0, "coordinates": {"latitude": 42.05895, "longitude": -72.76672}, "transactions": [], "price": "$", "location": {"address1": "552 College Hwy", "address2": "", "address3": "", "city": "Southwick", "zip_code": "01077", "country": "US", "state": "MA", "display_address": ["552 College Hwy", "Southwick, MA 01077"]}, "phone": "+14135693581", "display_phone": "(413) 569-3581", "distance": 8227.530833824703}, {"id": "625FRIW_XeYQDooSanOH4w", "alias": "montgomery-grille-montgomery", "name": "Montgomery Grille", "image_url": "https://s3-media2.fl.yelpcdn.com/bphoto/6BeBWORyJKlyOFhaCubisg/o.jpg", "is_closed": false, "url": "https://www.yelp.com/biz/montgomery-grille-montgomery?adjust_creative=asslzE1UV0XuKI953B1vtw&utm_campaign=yelp_api_v3&utm_medium=api_v3_business_search&utm_source=asslzE1UV0XuKI953B1vtw", "review_count": 6, "categories": [{"alias": "tradamerican", "title": "American (Traditional)"}, {"alias": "mexican", "title": "Mexican"}, {"alias": "breakfast_brunch", "title": "Breakfast & Brunch"}], "rating": 5.0, "coordinates": {"latitude": 42.206230173471, "longitude": -72.8008604049683}, "transactions": [], "location": {"address1": "46 Main Rd", "address2": "", "address3": "", "city": "Montgomery", "zip_code": "01085", "country": "US", "state": "MA", "display_address": ["46 Main Rd", "Montgomery, MA 01085"]}, "phone": "+14138623663", "display_phone": "(413) 862-3663", "distance": 8467.125610834059}, {"id": "7WcO9LZyhcQcQo_qWKrm2w", "alias": "china-star-westfield", "name": "China Star", "image_url": "https://s3-media1.fl.yelpcdn.com/bphoto/50_daF0KIVehPHv7KUYa-A/o.jpg", "is_closed": false, "url": "https://www.yelp.com/biz/china-star-westfield?adjust_creative=asslzE1UV0XuKI953B1vtw&utm_campaign=yelp_api_v3&utm_medium=api_v3_business_search&utm_source=asslzE1UV0XuKI953B1vtw", "review_count": 15, "categories": [{"alias": "chinese", "title": "Chinese"}, {"alias": "buffets", "title": "Buffets"}], "rating": 3.0, "coordinates": {"latitude": 42.1093406677246, "longitude": -72.7643814086914}, "transactions": ["delivery"], "price": "$", "location": {"address1": "36 Southwick Rd", "address2": "", "address3": "", "city": "Westfield", "zip_code": "01085", "country": "US", "state": "MA", "display_address": ["36 Southwick Rd", "Westfield, MA 01085"]}, "phone": "+14135689698", "display_phone": "(413) 568-9698", "distance": 3377.3793370204257}, {"id": "YX9WlOS0UfQA8BEuegEw2A", "alias": "granville-country-store-granville", "name": "Granville Country Store", "image_url": "https://s3-media3.fl.yelpcdn.com/bphoto/RCnkxzc6kIDKQx2XA7uUzA/o.jpg", "is_closed": false, "url": "https://www.yelp.com/biz/granville-country-store-granville?adjust_creative=asslzE1UV0XuKI953B1vtw&utm_campaign=yelp_api_v3&utm_medium=api_v3_business_search&utm_source=asslzE1UV0XuKI953B1vtw", "review_count": 29, "categories": [{"alias": "convenience", "title": "Convenience Stores"}, {"alias": "delis", "title": "Delis"}], "rating": 4.0, "coordinates": {"latitude": 42.0661592438345, "longitude": -72.8618863520456}, "transactions": [], "price": "$$", "location": {"address1": "11 Granby Rd", "address2": "", "address3": "", "city": "Granville", "zip_code": "01034", "country": "US", "state": "MA", "display_address": ["11 Granby Rd", "Granville, MA 01034"]}, "phone": "+14133578555", "display_phone": "(413) 357-8555", "distance": 9058.888217315653}, {"id": "nrLxUbJiQd6De_8yx7_jIQ", "alias": "crazy-arepas-springfield", "name": "Crazy Arepas", "image_url": "https://s3-media2.fl.yelpcdn.com/bphoto/xBRYNve2vxH1M1iG5Gm4lQ/o.jpg", "is_closed": false, "url": "https://www.yelp.com/biz/crazy-arepas-springfield?adjust_creative=asslzE1UV0XuKI953B1vtw&utm_campaign=yelp_api_v3&utm_medium=api_v3_business_search&utm_source=asslzE1UV0XuKI953B1vtw", "review_count": 3, "categories": [{"alias": "foodtrucks", "title": "Food Trucks"}, {"alias": "spanish", "title": "Spanish"}, {"alias": "tradamerican", "title": "American (Traditional)"}], "rating": 5.0, "coordinates": {"latitude": 42.1191, "longitude": -72.55044}, "transactions": [], "location": {"address1": null, "address2": null, "address3": null, "city": "Springfield", "zip_code": "01109", "country": "US", "state": "MA", "display_address": ["Springfield, MA 01109"]}, "phone": "+14138888083", "display_phone": "(413) 888-8083", "distance": 20138.908878693634}, {"id": "kL-FqrnTERfQUpzlsKIrgw", "alias": "bella-roma-pizza-westfield-2", "name": "Bella Roma Pizza", "image_url": "https://s3-media3.fl.yelpcdn.com/bphoto/ZvcRpI_uNTQv0hJNEzityg/o.jpg", "is_closed": false, "url": "https://www.yelp.com/biz/bella-roma-pizza-westfield-2?adjust_creative=asslzE1UV0XuKI953B1vtw&utm_campaign=yelp_api_v3&utm_medium=api_v3_business_search&utm_source=asslzE1UV0XuKI953B1vtw", "review_count": 32, "categories": [{"alias": "newamerican", "title": "American (New)"}, {"alias": "pizza", "title": "Pizza"}], "rating": 3.0, "coordinates": {"latitude": 42.1088089, "longitude": -72.7648151}, "transactions": ["delivery", "pickup"], "price": "$", "location": {"address1": "57 Southwick Rd", "address2": null, "address3": "", "city": "Westfield", "zip_code": "01085", "country": "US", "state": "MA", "display_address": ["57 Southwick Rd", "Westfield, MA 01085"]}, "phone": "+14136425656", "display_phone": "(413) 642-5656", "distance": 3364.890069681623}, {"id": "KKtvGPtMcIizZwV-HTfewQ", "alias": "valley-pizza-westfield", "name": "Valley Pizza", "image_url": "https://s3-media3.fl.yelpcdn.com/bphoto/0crtrmBB8OcTkgt5HOjyhA/o.jpg", "is_closed": false, "url": "https://www.yelp.com/biz/valley-pizza-westfield?adjust_creative=asslzE1UV0XuKI953B1vtw&utm_campaign=yelp_api_v3&utm_medium=api_v3_business_search&utm_source=asslzE1UV0XuKI953B1vtw", "review_count": 14, "categories": [{"alias": "pizza", "title": "Pizza"}], "rating": 3.0, "coordinates": {"latitude": 42.12474, "longitude": -72.7491}, "transactions": ["delivery"], "location": {"address1": "31B Franklin St", "address2": null, "address3": null, "city": "Westfield", "zip_code": "01085", "country": "US", "state": "MA", "display_address": ["31B Franklin St", "Westfield, MA 01085"]}, "phone": "+14134850066", "display_phone": "(413) 485-0066", "distance": 3765.7154733474363}, {"id": "Q5GWdipUWMJomzgGx8SYoA", "alias": "leos-gallery-deli-westfield", "name": "Leo's Gallery Deli", "image_url": "https://s3-media4.fl.yelpcdn.com/bphoto/Sh1dpI6E6ZHqAgr9oLZOdw/o.jpg", "is_closed": false, "url": "https://www.yelp.com/biz/leos-gallery-deli-westfield?adjust_creative=asslzE1UV0XuKI953B1vtw&utm_campaign=yelp_api_v3&utm_medium=api_v3_business_search&utm_source=asslzE1UV0XuKI953B1vtw", "review_count": 8, "categories": [{"alias": "delis", "title": "Delis"}, {"alias": "tradamerican", "title": "American (Traditional)"}, {"alias": "sandwiches", "title": "Sandwiches"}], "rating": 3.5, "coordinates": {"latitude": 42.121242, "longitude": -72.7489103}, "transactions": ["delivery"], "price": "$", "location": {"address1": "3 Main St", "address2": "", "address3": "", "city": "Westfield", "zip_code": "01085", "country": "US", "state": "MA", "display_address": ["3 Main St", "Westfield, MA 01085"]}, "phone": "+14135682586", "display_phone": "(413) 568-2586", "distance": 3859.1194867927434}, {"id": "BpAyDg26jMIPVX5qWlZUxQ", "alias": "d-and-js-hash-house-southwick", "name": "D&J's Hash House", "image_url": "https://s3-media1.fl.yelpcdn.com/bphoto/nWC-ltLnwVVDSXRFyK8fVw/o.jpg", "is_closed": false, "url": "https://www.yelp.com/biz/d-and-js-hash-house-southwick?adjust_creative=asslzE1UV0XuKI953B1vtw&utm_campaign=yelp_api_v3&utm_medium=api_v3_business_search&utm_source=asslzE1UV0XuKI953B1vtw", "review_count": 39, "categories": [{"alias": "breakfast_brunch", "title": "Breakfast & Brunch"}, {"alias": "burgers", "title": "Burgers"}], "rating": 3.5, "coordinates": {"latitude": 42.0852923936762, "longitude": -72.7651793422864}, "transactions": [], "price": "$$", "location": {"address1": "784 College Hwy", "address2": "", "address3": "", "city": "Southwick", "zip_code": "01077", "country": "US", "state": "MA", "display_address": ["784 College Hwy", "Southwick, MA 01077"]}, "phone": "+14138316082", "display_phone": "(413) 831-6082", "distance": 5539.053770520355}, {"id": "XqIn43rbVwYglfSI9aO5JA", "alias": "roma-restaurant-southwick", "name": "Roma Restaurant", "image_url": "https://s3-media4.fl.yelpcdn.com/bphoto/gSFBPiW0WScKZ2H57qbAYw/o.jpg", "is_closed": false, "url": "https://www.yelp.com/biz/roma-restaurant-southwick?adjust_creative=asslzE1UV0XuKI953B1vtw&utm_campaign=yelp_api_v3&utm_medium=api_v3_business_search&utm_source=asslzE1UV0XuKI953B1vtw", "review_count": 34, "categories": [{"alias": "pizza", "title": "Pizza"}], "rating": 2.5, "coordinates": {"latitude": 42.0605, "longitude": -72.76873}, "transactions": ["delivery"], "price": "$$", "location": {"address1": "561 College Hwy", "address2": "", "address3": "", "city": "Southwick", "zip_code": "01077", "country": "US", "state": "MA", "display_address": ["561 College Hwy", "Southwick, MA 01077"]}, "phone": "+14135696315", "display_phone": "(413) 569-6315", "distance": 8099.3031167225}, {"id": "hxdHPpQiXXibDst2GYzhTg", "alias": "panda-house-westfield", "name": "Panda House", "image_url": "https://s3-media4.fl.yelpcdn.com/bphoto/2aU7FzB10XHorUW_Pp4mBQ/o.jpg", "is_closed": false, "url": "https://www.yelp.com/biz/panda-house-westfield?adjust_creative=asslzE1UV0XuKI953B1vtw&utm_campaign=yelp_api_v3&utm_medium=api_v3_business_search&utm_source=asslzE1UV0XuKI953B1vtw", "review_count": 31, "categories": [{"alias": "chinese", "title": "Chinese"}], "rating": 3.0, "coordinates": {"latitude": 42.1119163757847, "longitude": -72.7200491792913}, "transactions": ["delivery"], "price": "$$", "location": {"address1": "589 E Main St", "address2": "", "address3": "", "city": "Westfield", "zip_code": "01085", "country": "US", "state": "MA", "display_address": ["589 E Main St", "Westfield, MA 01085"]}, "phone": "+14135729816", "display_phone": "(413) 572-9816", "distance": 6438.735716587525}, {"id": "e3xM2GfiPOBhELUlOifoCw", "alias": "moolicious-ice-cream-southwick", "name": "Moolicious Ice Cream", "image_url": "https://s3-media3.fl.yelpcdn.com/bphoto/NnaOdyv93DP11hsyvNvHlA/o.jpg", "is_closed": false, "url": "https://www.yelp.com/biz/moolicious-ice-cream-southwick?adjust_creative=asslzE1UV0XuKI953B1vtw&utm_campaign=yelp_api_v3&utm_medium=api_v3_business_search&utm_source=asslzE1UV0XuKI953B1vtw", "review_count": 25, "categories": [{"alias": "icecream", "title": "Ice Cream & Frozen Yogurt"}, {"alias": "desserts", "title": "Desserts"}, {"alias": "burgers", "title": "Burgers"}], "rating": 4.0, "coordinates": {"latitude": 42.0637190557264, "longitude": -72.7198791503906}, "transactions": ["delivery"], "price": "$", "location": {"address1": "258 Feedinghills Rd", "address2": null, "address3": null, "city": "Southwick", "zip_code": "01077", "country": "US", "state": "MA", "display_address": ["258 Feedinghills Rd", "Southwick, MA 01077"]}, "phone": "+14135691700", "display_phone": "(413) 569-1700", "distance": 9603.557271707981}, {"id": "4vwW9_fI6hktjy8KkhYr1Q", "alias": "boston-bay-pizza-westfield", "name": "Boston Bay Pizza", "image_url": "https://s3-media4.fl.yelpcdn.com/bphoto/nFUZ6UJP80RHJoGDl7BPyw/o.jpg", "is_closed": false, "url": "https://www.yelp.com/biz/boston-bay-pizza-westfield?adjust_creative=asslzE1UV0XuKI953B1vtw&utm_campaign=yelp_api_v3&utm_medium=api_v3_business_search&utm_source=asslzE1UV0XuKI953B1vtw", "review_count": 8, "categories": [{"alias": "pizza", "title": "Pizza"}], "rating": 4.0, "coordinates": {"latitude": 42.122183, "longitude": -72.748415}, "transactions": ["delivery"], "price": "$", "location": {"address1": "73 Elm St", "address2": null, "address3": null, "city": "Westfield", "zip_code": "01085", "country": "US", "state": "MA", "display_address": ["73 Elm St", "Westfield, MA 01085"]}, "phone": "+14135720099", "display_phone": "(413) 572-0099", "distance": 3872.9969350630904}, {"id": "TDxS5w9gIksx2VCjPopx6w", "alias": "99-restaurant-and-pub-westfield", "name": "99 Restaurant & Pub", "image_url": "https://s3-media1.fl.yelpcdn.com/bphoto/cuC-I2ou7uv-jg9MH0axtQ/o.jpg", "is_closed": false, "url": "https://www.yelp.com/biz/99-restaurant-and-pub-westfield?adjust_creative=asslzE1UV0XuKI953B1vtw&utm_campaign=yelp_api_v3&utm_medium=api_v3_business_search&utm_source=asslzE1UV0XuKI953B1vtw", "review_count": 22, "categories": [{"alias": "tradamerican", "title": "American (Traditional)"}, {"alias": "pubs", "title": "Pubs"}], "rating": 3.5, "coordinates": {"latitude": 42.11362, "longitude": -72.72241}, "transactions": [], "price": "$$", "location": {"address1": "342 E Main St", "address2": "", "address3": "", "city": "Westfield", "zip_code": "01085", "country": "US", "state": "MA", "display_address": ["342 E Main St", "Westfield, MA 01085"]}, "phone": "+14135621399", "display_phone": "(413) 562-1399", "distance": 6211.0577638462155}, {"id": "RZhvmr8VR7OK4rcm4FTJFQ", "alias": "pizza-towne-westfield", "name": "Pizza Towne", "image_url": "https://s3-media2.fl.yelpcdn.com/bphoto/86GPZTO97Ga7gAy8zoGtZg/o.jpg", "is_closed": false, "url": "https://www.yelp.com/biz/pizza-towne-westfield?adjust_creative=asslzE1UV0XuKI953B1vtw&utm_campaign=yelp_api_v3&utm_medium=api_v3_business_search&utm_source=asslzE1UV0XuKI953B1vtw", "review_count": 13, "categories": [{"alias": "pizza", "title": "Pizza"}, {"alias": "salad", "title": "Salad"}, {"alias": "soup", "title": "Soup"}], "rating": 3.5, "coordinates": {"latitude": 42.1202062, "longitude": -72.7442932}, "transactions": ["pickup", "delivery"], "price": "$$", "location": {"address1": "80 Main St", "address2": "", "address3": "", "city": "Westfield", "zip_code": "01085", "country": "US", "state": "MA", "display_address": ["80 Main St", "Westfield, MA 01085"]}, "phone": "+14135683940", "display_phone": "(413) 568-3940", "distance": 4257.517606573685}, {"id": "GPgKneOO10H82T-2r4Yxng", "alias": "new-corner-variety-store-westfield", "name": "New Corner Variety Store", "image_url": "https://s3-media2.fl.yelpcdn.com/bphoto/U-_wJRXlwBjwV9mGENzExA/o.jpg", "is_closed": false, "url": "https://www.yelp.com/biz/new-corner-variety-store-westfield?adjust_creative=asslzE1UV0XuKI953B1vtw&utm_campaign=yelp_api_v3&utm_medium=api_v3_business_search&utm_source=asslzE1UV0XuKI953B1vtw", "review_count": 3, "categories": [{"alias": "delis", "title": "Delis"}, {"alias": "meats", "title": "Meat Shops"}], "rating": 4.5, "coordinates": {"latitude": 42.13439, "longitude": -72.74617}, "transactions": [], "location": {"address1": "2 Crown St", "address2": "", "address3": "", "city": "Westfield", "zip_code": "01085", "country": "US", "state": "MA", "display_address": ["2 Crown St", "Westfield, MA 01085"]}, "phone": "+14135682294", "display_phone": "(413) 568-2294", "distance": 3979.306987288572}, {"id": "Ih17NKWk7pb2yJX3HGw4aw", "alias": "new-king-yen-too-southwick", "name": "New King Yen Too", "image_url": "https://s3-media3.fl.yelpcdn.com/bphoto/eeBmesfC6oraz27zXm_9RQ/o.jpg", "is_closed": false, "url": "https://www.yelp.com/biz/new-king-yen-too-southwick?adjust_creative=asslzE1UV0XuKI953B1vtw&utm_campaign=yelp_api_v3&utm_medium=api_v3_business_search&utm_source=asslzE1UV0XuKI953B1vtw", "review_count": 16, "categories": [{"alias": "chinese", "title": "Chinese"}], "rating": 2.5, "coordinates": {"latitude": 42.067104, "longitude": -72.764068}, "transactions": ["delivery"], "price": "$$", "location": {"address1": "648 College Hwy", "address2": "", "address3": "", "city": "Southwick", "zip_code": "01077", "country": "US", "state": "MA", "display_address": ["648 College Hwy", "Southwick, MA 01077"]}, "phone": "+14135699888", "display_phone": "(413) 569-9888", "distance": 7445.740880951641}, {"id": "1mCxwfmgVggWataJ7UtyuQ", "alias": "elm-pizza-westfield", "name": "Elm Pizza", "image_url": "https://s3-media3.fl.yelpcdn.com/bphoto/67wmtlGmlAVNPctejI1_3Q/o.jpg", "is_closed": false, "url": "https://www.yelp.com/biz/elm-pizza-westfield?adjust_creative=asslzE1UV0XuKI953B1vtw&utm_campaign=yelp_api_v3&utm_medium=api_v3_business_search&utm_source=asslzE1UV0XuKI953B1vtw", "review_count": 13, "categories": [{"alias": "pizza", "title": "Pizza"}, {"alias": "sandwiches", "title": "Sandwiches"}], "rating": 3.5, "coordinates": {"latitude": 42.13082, "longitude": -72.74529}, "transactions": ["delivery"], "price": "$$", "location": {"address1": "38 N Elm St", "address2": "", "address3": "", "city": "Westfield", "zip_code": "01085", "country": "US", "state": "MA", "display_address": ["38 N Elm St", "Westfield, MA 01085"]}, "phone": "+14135682020", "display_phone": "(413) 568-2020", "distance": 4015.3195280415553}, {"id": "T3bFCUMtiac0dmH4N2JVAg", "alias": "moes-southwest-grill-westfield", "name": "Moe's Southwest Grill", "image_url": "https://s3-media4.fl.yelpcdn.com/bphoto/iWLOJt9kTN0nUHxygiG6Qw/o.jpg", "is_closed": false, "url": "https://www.yelp.com/biz/moes-southwest-grill-westfield?adjust_creative=asslzE1UV0XuKI953B1vtw&utm_campaign=yelp_api_v3&utm_medium=api_v3_business_search&utm_source=asslzE1UV0XuKI953B1vtw", "review_count": 14, "categories": [{"alias": "tex-mex", "title": "Tex-Mex"}, {"alias": "mexican", "title": "Mexican"}], "rating": 3.5, "coordinates": {"latitude": 42.1138997, "longitude": -72.7265659}, "transactions": [], "price": "$", "location": {"address1": "301 E Main St", "address2": null, "address3": null, "city": "Westfield", "zip_code": "01085", "country": "US", "state": "MA", "display_address": ["301 E Main St", "Westfield, MA 01085"]}, "phone": "+14135795712", "display_phone": "(413) 579-5712", "distance": 5828.457998005018}, {"id": "N8d2NjFotjN7PK_BVc70pA", "alias": "applebees-grill-bar-westfield", "name": "Applebee's Grill + Bar", "image_url": "https://s3-media2.fl.yelpcdn.com/bphoto/3lhPLpgSpLNFQaadKWKClw/o.jpg", "is_closed": false, "url": "https://www.yelp.com/biz/applebees-grill-bar-westfield?adjust_creative=asslzE1UV0XuKI953B1vtw&utm_campaign=yelp_api_v3&utm_medium=api_v3_business_search&utm_source=asslzE1UV0XuKI953B1vtw", "review_count": 42, "categories": [{"alias": "tradamerican", "title": "American (Traditional)"}, {"alias": "sportsbars", "title": "Sports Bars"}, {"alias": "burgers", "title": "Burgers"}], "rating": 3.0, "coordinates": {"latitude": 42.113163, "longitude": -72.72366}, "transactions": ["delivery"], "price": "$$", "location": {"address1": "441 E Main St", "address2": "", "address3": "", "city": "Westfield", "zip_code": "01085", "country": "US", "state": "MA", "display_address": ["441 E Main St", "Westfield, MA 01085"]}, "phone": "+14135640343", "display_phone": "(413) 564-0343", "distance": 6112.4205684128665}, {"id": "zCRfZ1u5nHIHwqzE2X5Pdg", "alias": "dominos-pizza-westfield-3", "name": "Domino's Pizza", "image_url": "https://s3-media3.fl.yelpcdn.com/bphoto/NRgiA9Ke_aj2zpv6zltJNg/o.jpg", "is_closed": false, "url": "https://www.yelp.com/biz/dominos-pizza-westfield-3?adjust_creative=asslzE1UV0XuKI953B1vtw&utm_campaign=yelp_api_v3&utm_medium=api_v3_business_search&utm_source=asslzE1UV0XuKI953B1vtw", "review_count": 5, "categories": [{"alias": "pizza", "title": "Pizza"}], "rating": 2.5, "coordinates": {"latitude": 42.1210152, "longitude": -72.7477829}, "transactions": [], "price": "$", "location": {"address1": "26 Main St", "address2": "", "address3": "", "city": "Westfield", "zip_code": "01085", "country": "US", "state": "MA", "display_address": ["26 Main St", "Westfield, MA 01085"]}, "phone": "+14135624411", "display_phone": "(413) 562-4411", "distance": 3948.8077324792143}, {"id": "K4FaQnNE-QFAPJdKRmFK7g", "alias": "five-guys-westfield-4", "name": "Five Guys", "image_url": "https://s3-media2.fl.yelpcdn.com/bphoto/VTZ-04xdr9ukBkqBr0GMWw/o.jpg", "is_closed": false, "url": "https://www.yelp.com/biz/five-guys-westfield-4?adjust_creative=asslzE1UV0XuKI953B1vtw&utm_campaign=yelp_api_v3&utm_medium=api_v3_business_search&utm_source=asslzE1UV0XuKI953B1vtw", "review_count": 15, "categories": [{"alias": "hotdogs", "title": "Fast Food"}, {"alias": "burgers", "title": "Burgers"}], "rating": 4.5, "coordinates": {"latitude": 42.11315, "longitude": -72.7234299}, "transactions": ["delivery"], "price": "$", "location": {"address1": "437 E Main St", "address2": "", "address3": "", "city": "Westfield", "zip_code": "01085", "country": "US", "state": "MA", "display_address": ["437 E Main St", "Westfield, MA 01085"]}, "phone": "+14136425669", "display_phone": "(413) 642-5669", "distance": 6384.906539990328}, {"id": "BZ3NZeta65lK-8rsB5KuUg", "alias": "pasticceria-italia-southwick-2", "name": "Pasticceria Italia", "image_url": "https://s3-media1.fl.yelpcdn.com/bphoto/xyKXAt6NpPP8ewpXpMrcJA/o.jpg", "is_closed": false, "url": "https://www.yelp.com/biz/pasticceria-italia-southwick-2?adjust_creative=asslzE1UV0XuKI953B1vtw&utm_campaign=yelp_api_v3&utm_medium=api_v3_business_search&utm_source=asslzE1UV0XuKI953B1vtw", "review_count": 14, "categories": [{"alias": "delis", "title": "Delis"}, {"alias": "sandwiches", "title": "Sandwiches"}, {"alias": "bakeries", "title": "Bakeries"}], "rating": 3.0, "coordinates": {"latitude": 42.0629339737052, "longitude": -72.7636916321636}, "transactions": [], "price": "$$", "location": {"address1": "610 College Hwy", "address2": null, "address3": null, "city": "Southwick", "zip_code": "01077", "country": "US", "state": "MA", "display_address": ["610 College Hwy", "Southwick, MA 01077"]}, "phone": "+14135692250", "display_phone": "(413) 569-2250", "distance": 7894.346101000809}, {"id": "R2JCabKs7-Fvhw184b_LPA", "alias": "wings-over-westfield-westfield", "name": "Wings Over Westfield", "image_url": "https://s3-media2.fl.yelpcdn.com/bphoto/DwMIsLSFSipaJ__B9cUhsw/o.jpg", "is_closed": false, "url": "https://www.yelp.com/biz/wings-over-westfield-westfield?adjust_creative=asslzE1UV0XuKI953B1vtw&utm_campaign=yelp_api_v3&utm_medium=api_v3_business_search&utm_source=asslzE1UV0XuKI953B1vtw", "review_count": 2, "categories": [{"alias": "chicken_wings", "title": "Chicken Wings"}, {"alias": "hotdogs", "title": "Fast Food"}, {"alias": "sandwiches", "title": "Sandwiches"}], "rating": 1.5, "coordinates": {"latitude": 42.121638, "longitude": -72.750222}, "transactions": [], "location": {"address1": "29 School St", "address2": null, "address3": null, "city": "Westfield", "zip_code": "01085", "country": "US", "state": "MA", "display_address": ["29 School St", "Westfield, MA 01085"]}, "phone": "+14135629464", "display_phone": "(413) 562-9464", "distance": 3747.0303737042145}, {"id": "INclXbI2-TU_D0CRWClJfQ", "alias": "santorini-pizzeria-n-restaurant-westfield", "name": "Santorini Pizzeria N Restaurant", "image_url": "https://s3-media3.fl.yelpcdn.com/bphoto/zyZwC3KbthC1VdosijCuBw/o.jpg", "is_closed": false, "url": "https://www.yelp.com/biz/santorini-pizzeria-n-restaurant-westfield?adjust_creative=asslzE1UV0XuKI953B1vtw&utm_campaign=yelp_api_v3&utm_medium=api_v3_business_search&utm_source=asslzE1UV0XuKI953B1vtw", "review_count": 22, "categories": [{"alias": "italian", "title": "Italian"}, {"alias": "pizza", "title": "Pizza"}], "rating": 3.0, "coordinates": {"latitude": 42.1709869820965, "longitude": -72.726903752404}, "transactions": ["delivery"], "price": "$", "location": {"address1": "930 Southampton Rd", "address2": "", "address3": "", "city": "Westfield", "zip_code": "01085", "country": "US", "state": "MA", "display_address": ["930 Southampton Rd", "Westfield, MA 01085"]}, "phone": "+14135721022", "display_phone": "(413) 572-1022", "distance": 7155.949802159452}, {"id": "U7r7Jppujp-R9E5M_ufUWw", "alias": "friendlys-westfield", "name": "Friendly's", "image_url": "https://s3-media4.fl.yelpcdn.com/bphoto/3XO3gGLXpYj0qXXqMmtdqQ/o.jpg", "is_closed": false, "url": "https://www.yelp.com/biz/friendlys-westfield?adjust_creative=asslzE1UV0XuKI953B1vtw&utm_campaign=yelp_api_v3&utm_medium=api_v3_business_search&utm_source=asslzE1UV0XuKI953B1vtw", "review_count": 33, "categories": [{"alias": "icecream", "title": "Ice Cream & Frozen Yogurt"}, {"alias": "burgers", "title": "Burgers"}, {"alias": "tradamerican", "title": "American (Traditional)"}], "rating": 2.0, "coordinates": {"latitude": 42.14184, "longitude": -72.7323399}, "transactions": ["delivery"], "price": "$", "location": {"address1": "21 Southampton Rd", "address2": null, "address3": null, "city": "Westfield", "zip_code": "01085", "country": "US", "state": "MA", "display_address": ["21 Southampton Rd", "Westfield, MA 01085"]}, "phone": "+14135620625", "display_phone": "(413) 562-0625", "distance": 5237.139243667134}, {"id": "g_Z91F4sXjvoPPum7nSa7A", "alias": "village-pizza-restaurant-southwick", "name": "Village Pizza Restaurant", "image_url": "https://s3-media3.fl.yelpcdn.com/bphoto/fbqXe4QFXIrkMblsKZ6LFA/o.jpg", "is_closed": false, "url": "https://www.yelp.com/biz/village-pizza-restaurant-southwick?adjust_creative=asslzE1UV0XuKI953B1vtw&utm_campaign=yelp_api_v3&utm_medium=api_v3_business_search&utm_source=asslzE1UV0XuKI953B1vtw", "review_count": 18, "categories": [{"alias": "pizza", "title": "Pizza"}], "rating": 3.0, "coordinates": {"latitude": 42.057816, "longitude": -72.768672}, "transactions": ["delivery"], "price": "$$", "location": {"address1": "515 College Hwy", "address2": "", "address3": "", "city": "Southwick", "zip_code": "01077", "country": "US", "state": "MA", "display_address": ["515 College Hwy", "Southwick, MA 01077"]}, "phone": "+14135693160", "display_phone": "(413) 569-3160", "distance": 8322.9236772211}, {"id": "WDxcXM1Q15ARre45VzrcJA", "alias": "taco-bell-westfield-2", "name": "Taco Bell", "image_url": "https://s3-media3.fl.yelpcdn.com/bphoto/gmCu_RCVKVqzEuxyovDM_g/o.jpg", "is_closed": false, "url": "https://www.yelp.com/biz/taco-bell-westfield-2?adjust_creative=asslzE1UV0XuKI953B1vtw&utm_campaign=yelp_api_v3&utm_medium=api_v3_business_search&utm_source=asslzE1UV0XuKI953B1vtw", "review_count": 7, "categories": [{"alias": "hotdogs", "title": "Fast Food"}, {"alias": "tacos", "title": "Tacos"}], "rating": 2.5, "coordinates": {"latitude": 42.114715, "longitude": -72.730921}, "transactions": ["delivery"], "price": "$", "location": {"address1": "231 E. Main St.", "address2": null, "address3": null, "city": "Westfield", "zip_code": "01085", "country": "US", "state": "MA", "display_address": ["231 E. Main St.", "Westfield, MA 01085"]}, "phone": "+14135680153", "display_phone": "(413) 568-0153", "distance": 5489.571402337598}, {"id": "98NOrHpP8oM6MDcIbgM02g", "alias": "maple-leaf-bar-and-grill-westfield", "name": "Maple Leaf Bar & Grill", "image_url": "https://s3-media2.fl.yelpcdn.com/bphoto/xmBIe0wvLF2wBespwchHWw/o.jpg", "is_closed": false, "url": "https://www.yelp.com/biz/maple-leaf-bar-and-grill-westfield?adjust_creative=asslzE1UV0XuKI953B1vtw&utm_campaign=yelp_api_v3&utm_medium=api_v3_business_search&utm_source=asslzE1UV0XuKI953B1vtw", "review_count": 14, "categories": [{"alias": "bars", "title": "Bars"}, {"alias": "burgers", "title": "Burgers"}], "rating": 3.0, "coordinates": {"latitude": 42.1230392456055, "longitude": -72.7492218017578}, "transactions": [], "price": "$$", "location": {"address1": "11 Arnold St", "address2": "", "address3": "", "city": "Westfield", "zip_code": "01085", "country": "US", "state": "MA", "display_address": ["11 Arnold St", "Westfield, MA 01085"]}, "phone": "+14135625068", "display_phone": "(413) 562-5068", "distance": 3788.216848671821}, {"id": "GtL1D9N0eA0UuR4Hcu164Q", "alias": "gigis-pizzeria-westfield", "name": "Gigi's Pizzeria", "image_url": "https://s3-media1.fl.yelpcdn.com/bphoto/M0vDf-TJ87xCq7W3HXt0Yg/o.jpg", "is_closed": false, "url": "https://www.yelp.com/biz/gigis-pizzeria-westfield?adjust_creative=asslzE1UV0XuKI953B1vtw&utm_campaign=yelp_api_v3&utm_medium=api_v3_business_search&utm_source=asslzE1UV0XuKI953B1vtw", "review_count": 22, "categories": [{"alias": "pizza", "title": "Pizza"}, {"alias": "salad", "title": "Salad"}], "rating": 1.5, "coordinates": {"latitude": 42.0985981822014, "longitude": -72.7632819861174}, "transactions": ["delivery"], "price": "$$", "location": {"address1": "358 Southwick Rd", "address2": "", "address3": "", "city": "Westfield", "zip_code": "01085", "country": "US", "state": "MA", "display_address": ["358 Southwick Rd", "Westfield, MA 01085"]}, "phone": "+14135620887", "display_phone": "(413) 562-0887", "distance": 4384.776311354921}, {"id": "0xzdlKRS9-Y6luBNLhEuQA", "alias": "d-angelo-sandwich-shops-westfield", "name": "D'angelo Sandwich Shops", "image_url": "https://s3-media3.fl.yelpcdn.com/bphoto/MOjVY8ffF49hkOmeSq2YaQ/o.jpg", "is_closed": false, "url": "https://www.yelp.com/biz/d-angelo-sandwich-shops-westfield?adjust_creative=asslzE1UV0XuKI953B1vtw&utm_campaign=yelp_api_v3&utm_medium=api_v3_business_search&utm_source=asslzE1UV0XuKI953B1vtw", "review_count": 7, "categories": [{"alias": "sandwiches", "title": "Sandwiches"}], "rating": 2.5, "coordinates": {"latitude": 42.1139183044434, "longitude": -72.7275314331055}, "transactions": ["delivery"], "price": "$$", "location": {"address1": "291 E Main St", "address2": "", "address3": "", "city": "Westfield", "zip_code": "01085", "country": "US", "state": "MA", "display_address": ["291 E Main St", "Westfield, MA 01085"]}, "phone": "+14135621514", "display_phone": "(413) 562-1514", "distance": 5791.8222028361815}, {"id": "VwNxlo2shUPyewUj9oKw4A", "alias": "subway-westfield-23", "name": "Subway", "image_url": "https://s3-media1.fl.yelpcdn.com/bphoto/_SoRVl7urOE_0MQB2Sou9g/o.jpg", "is_closed": false, "url": "https://www.yelp.com/biz/subway-westfield-23?adjust_creative=asslzE1UV0XuKI953B1vtw&utm_campaign=yelp_api_v3&utm_medium=api_v3_business_search&utm_source=asslzE1UV0XuKI953B1vtw", "review_count": 2, "categories": [{"alias": "sandwiches", "title": "Sandwiches"}], "rating": 3.0, "coordinates": {"latitude": 42.1401703394751, "longitude": -72.7334066}, "transactions": [], "price": "$", "location": {"address1": "439 N Elm St", "address2": "", "address3": "", "city": "Westfield", "zip_code": "01085", "country": "US", "state": "MA", "display_address": ["439 N Elm St", "Westfield, MA 01085"]}, "phone": "+14135628438", "display_phone": "(413) 562-8438", "distance": 5124.922616170251}, {"id": "3Z90M9iHtYd6ZsnMx_YoCA", "alias": "village-pizza-restaurant-southwick-2", "name": "Village Pizza Restaurant", "image_url": "", "is_closed": false, "url": "https://www.yelp.com/biz/village-pizza-restaurant-southwick-2?adjust_creative=asslzE1UV0XuKI953B1vtw&utm_campaign=yelp_api_v3&utm_medium=api_v3_business_search&utm_source=asslzE1UV0XuKI953B1vtw", "review_count": 1, "categories": [{"alias": "italian", "title": "Italian"}, {"alias": "pizza", "title": "Pizza"}], "rating": 4.0, "coordinates": {"latitude": 42.0574951, "longitude": -72.768158}, "transactions": [], "location": {"address1": "521 College Hwy", "address2": null, "address3": null, "city": "Southwick", "zip_code": "01077", "country": "US", "state": "MA", "display_address": ["521 College Hwy", "Southwick, MA 01077"]}, "phone": "+14135693403", "display_phone": "(413) 569-3403", "distance": 8306.720225920553}, {"id": "ht6EYMSC6JRsGGMZW2S3xg", "alias": "subway-westfield-17", "name": "Subway", "image_url": "https://s3-media3.fl.yelpcdn.com/bphoto/fTUhM0AGXZubGYHOBkwCHw/o.jpg", "is_closed": false, "url": "https://www.yelp.com/biz/subway-westfield-17?adjust_creative=asslzE1UV0XuKI953B1vtw&utm_campaign=yelp_api_v3&utm_medium=api_v3_business_search&utm_source=asslzE1UV0XuKI953B1vtw", "review_count": 1, "categories": [{"alias": "sandwiches", "title": "Sandwiches"}], "rating": 2.0, "coordinates": {"latitude": 42.1089876710362, "longitude": -72.708329828836}, "transactions": [], "price": "$", "location": {"address1": "141 Springfield Rd", "address2": null, "address3": null, "city": "Westfield", "zip_code": "01085", "country": "US", "state": "MA", "display_address": ["141 Springfield Rd", "Westfield, MA 01085"]}, "phone": "+14135621891", "display_phone": "(413) 562-1891", "distance": 7458.842967498436}, {"id": "Q7uRpKfGZKHeAwqKfrAEWQ", "alias": "burger-king-westfield-3", "name": "Burger King", "image_url": "https://s3-media3.fl.yelpcdn.com/bphoto/QATQHHXtiQVJFVCoA6oSYQ/o.jpg", "is_closed": false, "url": "https://www.yelp.com/biz/burger-king-westfield-3?adjust_creative=asslzE1UV0XuKI953B1vtw&utm_campaign=yelp_api_v3&utm_medium=api_v3_business_search&utm_source=asslzE1UV0XuKI953B1vtw", "review_count": 7, "categories": [{"alias": "hotdogs", "title": "Fast Food"}, {"alias": "burgers", "title": "Burgers"}], "rating": 1.5, "coordinates": {"latitude": 42.120805, "longitude": -72.74555}, "transactions": [], "price": "$", "location": {"address1": "72 Main Street", "address2": "", "address3": "", "city": "Westfield", "zip_code": "01085", "country": "US", "state": "MA", "display_address": ["72 Main Street", "Westfield, MA 01085"]}, "phone": "", "display_phone": "", "distance": 4139.449452489026}, {"id": "R-MH3-C5PPjimeODmZZlgg", "alias": "wendys-westfield-4", "name": "Wendy's", "image_url": "https://s3-media1.fl.yelpcdn.com/bphoto/zf9K2FlcMn2ml-EmwHWY6w/o.jpg", "is_closed": false, "url": "https://www.yelp.com/biz/wendys-westfield-4?adjust_creative=asslzE1UV0XuKI953B1vtw&utm_campaign=yelp_api_v3&utm_medium=api_v3_business_search&utm_source=asslzE1UV0XuKI953B1vtw", "review_count": 8, "categories": [{"alias": "burgers", "title": "Burgers"}, {"alias": "hotdogs", "title": "Fast Food"}], "rating": 1.5, "coordinates": {"latitude": 42.14164, "longitude": -72.73406}, "transactions": [], "price": "$", "location": {"address1": "6 Southampton Rd", "address2": "", "address3": "", "city": "Westfield", "zip_code": "01085", "country": "US", "state": "MA", "display_address": ["6 Southampton Rd", "Westfield, MA 01085"]}, "phone": "+14135624903", "display_phone": "(413) 562-4903", "distance": 5108.886470798155}, {"id": "8jBw_nCso9mbHzPRBtleOQ", "alias": "subway-westfield-24", "name": "Subway", "image_url": "https://s3-media2.fl.yelpcdn.com/bphoto/JfqHmox_64puDeJUi97Txg/o.jpg", "is_closed": false, "url": "https://www.yelp.com/biz/subway-westfield-24?adjust_creative=asslzE1UV0XuKI953B1vtw&utm_campaign=yelp_api_v3&utm_medium=api_v3_business_search&utm_source=asslzE1UV0XuKI953B1vtw", "review_count": 3, "categories": [{"alias": "sandwiches", "title": "Sandwiches"}], "rating": 2.5, "coordinates": {"latitude": 42.121195, "longitude": -72.74789}, "transactions": ["pickup", "delivery"], "price": "$", "location": {"address1": "24 Main St", "address2": "", "address3": "", "city": "Westfield", "zip_code": "01085", "country": "US", "state": "MA", "display_address": ["24 Main St", "Westfield, MA 01085"]}, "phone": "+14135686130", "display_phone": "(413) 568-6130", "distance": 3941.627068159174}, {"id": "ON0INzwLTAeckQNNGr6WQg", "alias": "real-china-westfield", "name": "Real China", "image_url": "", "is_closed": false, "url": "https://www.yelp.com/biz/real-china-westfield?adjust_creative=asslzE1UV0XuKI953B1vtw&utm_campaign=yelp_api_v3&utm_medium=api_v3_business_search&utm_source=asslzE1UV0XuKI953B1vtw", "review_count": 3, "categories": [{"alias": "chinese", "title": "Chinese"}], "rating": 1.5, "coordinates": {"latitude": 42.123119354248, "longitude": -72.7487716674805}, "transactions": [], "location": {"address1": "116 Elm St", "address2": "", "address3": "", "city": "Westfield", "zip_code": "01085", "country": "US", "state": "MA", "display_address": ["116 Elm St", "Westfield, MA 01085"]}, "phone": "+14135689991", "display_phone": "(413) 568-9991", "distance": 3821.476732053027}, {"id": "fruKmXZY1tao07hOhJWtCA", "alias": "subway-southwick-2", "name": "Subway", "image_url": "https://s3-media2.fl.yelpcdn.com/bphoto/DryypQt7QGRq3xI5TJG_kw/o.jpg", "is_closed": false, "url": "https://www.yelp.com/biz/subway-southwick-2?adjust_creative=asslzE1UV0XuKI953B1vtw&utm_campaign=yelp_api_v3&utm_medium=api_v3_business_search&utm_source=asslzE1UV0XuKI953B1vtw", "review_count": 3, "categories": [{"alias": "sandwiches", "title": "Sandwiches"}], "rating": 2.5, "coordinates": {"latitude": 42.0585870849823, "longitude": -72.7677816536254}, "transactions": [], "price": "$", "location": {"address1": "535 College Hwy", "address2": "", "address3": "", "city": "Southwick", "zip_code": "01077", "country": "US", "state": "MA", "display_address": ["535 College Hwy", "Southwick, MA 01077"]}, "phone": "+14135690869", "display_phone": "(413) 569-0869", "distance": 8258.989441614061}, {"id": "JqmMQsuIH913f-CzdxEA0g", "alias": "wendys-westfield", "name": "Wendy's", "image_url": "https://s3-media1.fl.yelpcdn.com/bphoto/uuKab8GqENEmm4ldPRVKwg/o.jpg", "is_closed": false, "url": "https://www.yelp.com/biz/wendys-westfield?adjust_creative=asslzE1UV0XuKI953B1vtw&utm_campaign=yelp_api_v3&utm_medium=api_v3_business_search&utm_source=asslzE1UV0XuKI953B1vtw", "review_count": 5, "categories": [{"alias": "burgers", "title": "Burgers"}, {"alias": "hotdogs", "title": "Fast Food"}], "rating": 1.5, "coordinates": {"latitude": 42.141613, "longitude": -72.734779}, "transactions": ["delivery"], "price": "$", "location": {"address1": "2 Southampton Rd", "address2": "", "address3": "", "city": "Westfield", "zip_code": "01085", "country": "US", "state": "MA", "display_address": ["2 Southampton Rd", "Westfield, MA 01085"]}, "phone": "+14135620860", "display_phone": "(413) 562-0860", "distance": 5051.998877660088}, {"id": "DlPnnZEEgJGPpeOJ4ykORw", "alias": "mcdonalds-westfield-9", "name": "McDonald's", "image_url": "https://s3-media3.fl.yelpcdn.com/bphoto/YIP3yQvUG_APFCzW8UJDgQ/o.jpg", "is_closed": false, "url": "https://www.yelp.com/biz/mcdonalds-westfield-9?adjust_creative=asslzE1UV0XuKI953B1vtw&utm_campaign=yelp_api_v3&utm_medium=api_v3_business_search&utm_source=asslzE1UV0XuKI953B1vtw", "review_count": 5, "categories": [{"alias": "coffee", "title": "Coffee & Tea"}, {"alias": "burgers", "title": "Burgers"}, {"alias": "hotdogs", "title": "Fast Food"}], "rating": 2.0, "coordinates": {"latitude": 42.13425, "longitude": -72.74169}, "transactions": ["delivery"], "price": "$", "location": {"address1": "182 N Elm St", "address2": null, "address3": null, "city": "Westfield", "zip_code": "01085", "country": "US", "state": "MA", "display_address": ["182 N Elm St", "Westfield, MA 01085"]}, "phone": "+14135683595", "display_phone": "(413) 568-3595", "distance": 4349.340563237544}, {"id": "_xZJINoydCk_h6waCMP2iQ", "alias": "wendys-westfield-5", "name": "Wendy's", "image_url": "https://s3-media3.fl.yelpcdn.com/bphoto/RsDvUqOOYIFYF4c9QS5dMA/o.jpg", "is_closed": false, "url": "https://www.yelp.com/biz/wendys-westfield-5?adjust_creative=asslzE1UV0XuKI953B1vtw&utm_campaign=yelp_api_v3&utm_medium=api_v3_business_search&utm_source=asslzE1UV0XuKI953B1vtw", "review_count": 4, "categories": [{"alias": "burgers", "title": "Burgers"}, {"alias": "hotdogs", "title": "Fast Food"}], "rating": 2.0, "coordinates": {"latitude": 42.14155, "longitude": -72.734026}, "transactions": [], "price": "$", "location": {"address1": "2-6 South Hampton Road", "address2": "", "address3": "", "city": "Westfield", "zip_code": "01085", "country": "US", "state": "MA", "display_address": ["2-6 South Hampton Road", "Westfield, MA 01085"]}, "phone": "+14135624953", "display_phone": "(413) 562-4953", "distance": 5110.549625180394}, {"id": "XLF_GSIai_kDCqFhnP_SbA", "alias": "mcdonalds-westfield-5", "name": "McDonald's", "image_url": "https://s3-media3.fl.yelpcdn.com/bphoto/Arpex7IkHgiY8L88kZ4HBA/o.jpg", "is_closed": false, "url": "https://www.yelp.com/biz/mcdonalds-westfield-5?adjust_creative=asslzE1UV0XuKI953B1vtw&utm_campaign=yelp_api_v3&utm_medium=api_v3_business_search&utm_source=asslzE1UV0XuKI953B1vtw", "review_count": 6, "categories": [{"alias": "burgers", "title": "Burgers"}, {"alias": "hotdogs", "title": "Fast Food"}, {"alias": "coffee", "title": "Coffee & Tea"}], "rating": 2.0, "coordinates": {"latitude": 42.113688, "longitude": -72.726888}, "transactions": ["delivery"], "price": "$", "location": {"address1": "299 E Main", "address2": null, "address3": null, "city": "Westfield", "zip_code": "01085", "country": "US", "state": "MA", "display_address": ["299 E Main", "Westfield, MA 01085"]}, "phone": "+14135623428", "display_phone": "(413) 562-3428", "distance": 5841.272808404028}, {"id": "qqA8YX58xnmEXLyanHfdUg", "alias": "stufd-food-truck-brooklyn", "name": "Stuf'd Food Truck", "image_url": "https://s3-media2.fl.yelpcdn.com/bphoto/_Wn0i-tLIOFinw8BPAqxPA/o.jpg", "is_closed": false, "url": "https://www.yelp.com/biz/stufd-food-truck-brooklyn?adjust_creative=asslzE1UV0XuKI953B1vtw&utm_campaign=yelp_api_v3&utm_medium=api_v3_business_search&utm_source=asslzE1UV0XuKI953B1vtw", "review_count": 4, "categories": [{"alias": "sandwiches", "title": "Sandwiches"}, {"alias": "foodtrucks", "title": "Food Trucks"}], "rating": 4.0, "coordinates": {"latitude": 40.7124539, "longitude": -73.9287374}, "transactions": [], "location": {"address1": "178 Varick Ave", "address2": "", "address3": null, "city": "Brooklyn", "zip_code": "11237", "country": "US", "state": "NY", "display_address": ["178 Varick Ave", "Brooklyn, NY 11237"]}, "phone": "+18457091808", "display_phone": "(845) 709-1808", "distance": 183855.4270829152}]