[{"id": "wyzAzYqz7qVL6AD0cQs7gQ", "alias": "townsend-house-townsend", "name": "Townsend House", "image_url": "https://s3-media2.fl.yelpcdn.com/bphoto/jiPRWKWPF62EE4JDvHt7mg/o.jpg", "is_closed": false, "url": "https://www.yelp.com/biz/townsend-house-townsend?adjust_creative=ywY5UnLZrNrRl2b93Ruy_g&utm_campaign=yelp_api_v3&utm_medium=api_v3_business_search&utm_source=ywY5UnLZrNrRl2b93Ruy_g", "review_count": 45, "categories": [{"alias": "tradamerican", "title": "American (Traditional)"}, {"alias": "sandwiches", "title": "Sandwiches"}, {"alias": "bars", "title": "Bars"}], "rating": 3.5, "coordinates": {"latitude": 42.66484, "longitude": -71.70647}, "transactions": [], "price": "$$", "location": {"address1": "2 Depot St", "address2": "", "address3": "", "city": "Townsend", "zip_code": "01469", "country": "US", "state": "MA", "display_address": ["2 Depot St", "Townsend, MA 01469"]}, "phone": "+19785972759", "display_phone": "(978) 597-2759", "distance": 3203.8090928307683}, {"id": "70br6aDhzTZX4EthJ-vAqw", "alias": "bistro-on-the-green-townsend", "name": "Bistro on the Green", "image_url": "", "is_closed": false, "url": "https://www.yelp.com/biz/bistro-on-the-green-townsend?adjust_creative=ywY5UnLZrNrRl2b93Ruy_g&utm_campaign=yelp_api_v3&utm_medium=api_v3_business_search&utm_source=ywY5UnLZrNrRl2b93Ruy_g", "review_count": 2, "categories": [{"alias": "tradamerican", "title": "American (Traditional)"}], "rating": 4.0, "coordinates": {"latitude": 42.6691804, "longitude": -71.7227535}, "transactions": [], "location": {"address1": "40 Scales Ln", "address2": "", "address3": "Townsend Ridge Country Club", "city": "Townsend", "zip_code": "01469", "country": "US", "state": "MA", "display_address": ["40 Scales Ln", "Townsend Ridge Country Club", "Townsend, MA 01469"]}, "phone": "+19785978400", "display_phone": "(978) 597-8400", "distance": 1850.862850207194}, {"id": "EBcm9puktOp6nR5WZcr0Mg", "alias": "alamo-texas-bar-b-que-brookline", "name": "Alamo Texas Bar-B-Que", "image_url": "https://s3-media3.fl.yelpcdn.com/bphoto/-VhFt60k3ZL3-YX17i2Qfg/o.jpg", "is_closed": false, "url": "https://www.yelp.com/biz/alamo-texas-bar-b-que-brookline?adjust_creative=ywY5UnLZrNrRl2b93Ruy_g&utm_campaign=yelp_api_v3&utm_medium=api_v3_business_search&utm_source=ywY5UnLZrNrRl2b93Ruy_g", "review_count": 63, "categories": [{"alias": "bbq", "title": "Barbeque"}], "rating": 3.5, "coordinates": {"latitude": 42.73087, "longitude": -71.66377}, "transactions": [], "location": {"address1": "99 Rte 13", "address2": "", "address3": null, "city": "Brookline", "zip_code": "03033", "country": "US", "state": "NH", "display_address": ["99 Rte 13", "Brookline, NH 03033"]}, "phone": "+16037215500", "display_phone": "(603) 721-5500", "distance": 9420.130487574124}, {"id": "Y39ijM1BdBjWSGpNaW64Iw", "alias": "yees-village-townsend", "name": "Yee's Village", "image_url": "https://s3-media2.fl.yelpcdn.com/bphoto/YlKJGt7av4loC9TjTQxndw/o.jpg", "is_closed": false, "url": "https://www.yelp.com/biz/yees-village-townsend?adjust_creative=ywY5UnLZrNrRl2b93Ruy_g&utm_campaign=yelp_api_v3&utm_medium=api_v3_business_search&utm_source=ywY5UnLZrNrRl2b93Ruy_g", "review_count": 19, "categories": [{"alias": "chinese", "title": "Chinese"}], "rating": 3.5, "coordinates": {"latitude": 42.672022, "longitude": -71.723412}, "transactions": [], "price": "$$", "location": {"address1": "350 Main St", "address2": "", "address3": "", "city": "Townsend", "zip_code": "01469", "country": "US", "state": "MA", "display_address": ["350 Main St", "Townsend, MA 01469"]}, "phone": "+19785973155", "display_phone": "(978) 597-3155", "distance": 1797.1767557551152}, {"id": "XNLTE3fcDHKzil1bk2G9WA", "alias": "baileys-bar-and-grille-townsend", "name": "Baileys Bar & Grille", "image_url": "https://s3-media3.fl.yelpcdn.com/bphoto/EQONNySQGybIAmr_aifsGg/o.jpg", "is_closed": false, "url": "https://www.yelp.com/biz/baileys-bar-and-grille-townsend?adjust_creative=ywY5UnLZrNrRl2b93Ruy_g&utm_campaign=yelp_api_v3&utm_medium=api_v3_business_search&utm_source=ywY5UnLZrNrRl2b93Ruy_g", "review_count": 116, "categories": [{"alias": "tradamerican", "title": "American (Traditional)"}, {"alias": "bars", "title": "Bars"}], "rating": 3.0, "coordinates": {"latitude": 42.649154, "longitude": -71.660661}, "transactions": [], "price": "$$", "location": {"address1": "18 Main St", "address2": "", "address3": "", "city": "Townsend", "zip_code": "01469", "country": "US", "state": "MA", "display_address": ["18 Main St", "Townsend, MA 01469"]}, "phone": "+19788120200", "display_phone": "(978) 812-0200", "distance": 7269.752772681041}, {"id": "rSylADQk33LEIVbVavOLJw", "alias": "sophias-pizzeria-townsend", "name": "Sophia's Pizzeria", "image_url": "https://s3-media4.fl.yelpcdn.com/bphoto/edVrj2t5w5OD3jovDXRmrQ/o.jpg", "is_closed": false, "url": "https://www.yelp.com/biz/sophias-pizzeria-townsend?adjust_creative=ywY5UnLZrNrRl2b93Ruy_g&utm_campaign=yelp_api_v3&utm_medium=api_v3_business_search&utm_source=ywY5UnLZrNrRl2b93Ruy_g", "review_count": 38, "categories": [{"alias": "pizza", "title": "Pizza"}], "rating": 4.0, "coordinates": {"latitude": 42.6643680725384, "longitude": -71.7011768370867}, "transactions": [], "price": "$", "location": {"address1": "220 Main St", "address2": "", "address3": "", "city": "Townsend", "zip_code": "01469", "country": "US", "state": "MA", "display_address": ["220 Main St", "Townsend, MA 01469"]}, "phone": "+19785972331", "display_phone": "(978) 597-2331", "distance": 3648.668145244123}, {"id": "hbvRU-06Iu-8EZC1IqeUpw", "alias": "hollis-hills-farm-fitchburg", "name": "Hollis Hills farm", "image_url": "https://s3-media1.fl.yelpcdn.com/bphoto/ZINysmxrqWI8TrwJEKF06g/o.jpg", "is_closed": false, "url": "https://www.yelp.com/biz/hollis-hills-farm-fitchburg?adjust_creative=ywY5UnLZrNrRl2b93Ruy_g&utm_campaign=yelp_api_v3&utm_medium=api_v3_business_search&utm_source=ywY5UnLZrNrRl2b93Ruy_g", "review_count": 6, "categories": [{"alias": "farms", "title": "Farms"}, {"alias": "bbq", "title": "Barbeque"}, {"alias": "icecream", "title": "Ice Cream & Frozen Yogurt"}], "rating": 5.0, "coordinates": {"latitude": 42.6003842555938, "longitude": -71.7790538542322}, "transactions": [], "location": {"address1": "340 Marshall Rd", "address2": "", "address3": null, "city": "Fitchburg", "zip_code": "01420", "country": "US", "state": "MA", "display_address": ["340 Marshall Rd", "Fitchburg, MA 01420"]}, "phone": "+19786963130", "display_phone": "(978) 696-3130", "distance": 8201.191378716503}, {"id": "vQEPXofHH0kpngbE4fdDng", "alias": "country-mile-greenville", "name": "Country Mile", "image_url": "https://s3-media3.fl.yelpcdn.com/bphoto/DkF3-P7CkRFfl9aFp4xejg/o.jpg", "is_closed": false, "url": "https://www.yelp.com/biz/country-mile-greenville?adjust_creative=ywY5UnLZrNrRl2b93Ruy_g&utm_campaign=yelp_api_v3&utm_medium=api_v3_business_search&utm_source=ywY5UnLZrNrRl2b93Ruy_g", "review_count": 10, "categories": [{"alias": "beer_and_wine", "title": "Beer, Wine & Spirits"}, {"alias": "convenience", "title": "Convenience Stores"}, {"alias": "delis", "title": "Delis"}], "rating": 4.0, "coordinates": {"latitude": 42.740694, "longitude": -71.795902}, "transactions": [], "price": "$$", "location": {"address1": "758 Fitchburg Rd Rt 31", "address2": "", "address3": "", "city": "Greenville", "zip_code": "03048", "country": "US", "state": "NH", "display_address": ["758 Fitchburg Rd Rt 31", "Greenville, NH 03048"]}, "phone": "+16038781040", "display_phone": "(603) 878-1040", "distance": 8905.621348913228}, {"id": "APqgOuJmBqrwxc4ZJdk5hQ", "alias": "panda-wok-restaurant-townsend", "name": "Panda Wok Restaurant", "image_url": "https://s3-media2.fl.yelpcdn.com/bphoto/GWXKn9LaOSWJtKLmJwbTCg/o.jpg", "is_closed": false, "url": "https://www.yelp.com/biz/panda-wok-restaurant-townsend?adjust_creative=ywY5UnLZrNrRl2b93Ruy_g&utm_campaign=yelp_api_v3&utm_medium=api_v3_business_search&utm_source=ywY5UnLZrNrRl2b93Ruy_g", "review_count": 32, "categories": [{"alias": "chinese", "title": "Chinese"}, {"alias": "japanese", "title": "Japanese"}], "rating": 3.5, "coordinates": {"latitude": 42.648753, "longitude": -71.661337}, "transactions": [], "price": "$$", "location": {"address1": "18 Main St", "address2": "", "address3": "", "city": "Townsend", "zip_code": "01469", "country": "US", "state": "MA", "display_address": ["18 Main St", "Townsend, MA 01469"]}, "phone": "+19785971388", "display_phone": "(978) 597-1388", "distance": 7245.036972212273}, {"id": "fmpKoAurnX-Qb0x2gbyrJw", "alias": "cliffs-cafe-townsend", "name": "Cliff's Cafe", "image_url": "https://s3-media2.fl.yelpcdn.com/bphoto/E2cLSLWhOdsNmkvi9YwufA/o.jpg", "is_closed": false, "url": "https://www.yelp.com/biz/cliffs-cafe-townsend?adjust_creative=ywY5UnLZrNrRl2b93Ruy_g&utm_campaign=yelp_api_v3&utm_medium=api_v3_business_search&utm_source=ywY5UnLZrNrRl2b93Ruy_g", "review_count": 41, "categories": [{"alias": "cafes", "title": "Cafes"}], "rating": 3.5, "coordinates": {"latitude": 42.667053, "longitude": -71.706355}, "transactions": [], "price": "$", "location": {"address1": "266 Main St", "address2": "", "address3": "", "city": "Townsend", "zip_code": "01469", "country": "US", "state": "MA", "display_address": ["266 Main St", "Townsend, MA 01469"]}, "phone": "+19785972782", "display_phone": "(978) 597-2782", "distance": 3189.515085245339}, {"id": "OZUK5E1fWyeB2x0D68YFvQ", "alias": "dragonfly-garden-cafe-lunenburg-3", "name": "Dragonfly Garden Cafe", "image_url": "https://s3-media4.fl.yelpcdn.com/bphoto/4XKPufM_T4SDj8JF2utNBw/o.jpg", "is_closed": false, "url": "https://www.yelp.com/biz/dragonfly-garden-cafe-lunenburg-3?adjust_creative=ywY5UnLZrNrRl2b93Ruy_g&utm_campaign=yelp_api_v3&utm_medium=api_v3_business_search&utm_source=ywY5UnLZrNrRl2b93Ruy_g", "review_count": 9, "categories": [{"alias": "cafes", "title": "Cafes"}], "rating": 5.0, "coordinates": {"latitude": 42.595156, "longitude": -71.72403}, "transactions": ["delivery"], "price": "$", "location": {"address1": "3 Lancaster Ave", "address2": null, "address3": "", "city": "Lunenburg", "zip_code": "01462", "country": "US", "state": "MA", "display_address": ["3 Lancaster Ave", "Lunenburg, MA 01462"]}, "phone": "+19784035182", "display_phone": "(978) 403-5182", "distance": 8479.99119601261}, {"id": "KHk9oHHfrTcxWEZgjs5qBQ", "alias": "new-kun-garden-brookline", "name": "New Kun Garden", "image_url": "https://s3-media2.fl.yelpcdn.com/bphoto/wGAstvHohAbJUYMqGTFaYw/o.jpg", "is_closed": false, "url": "https://www.yelp.com/biz/new-kun-garden-brookline?adjust_creative=ywY5UnLZrNrRl2b93Ruy_g&utm_campaign=yelp_api_v3&utm_medium=api_v3_business_search&utm_source=ywY5UnLZrNrRl2b93Ruy_g", "review_count": 19, "categories": [{"alias": "chinese", "title": "Chinese"}], "rating": 3.5, "coordinates": {"latitude": 42.7309256, "longitude": -71.6654958}, "transactions": [], "price": "$", "location": {"address1": "106 Rte 13", "address2": "", "address3": "", "city": "Brookline", "zip_code": "03033", "country": "US", "state": "NH", "display_address": ["106 Rte 13", "Brookline, NH 03033"]}, "phone": "+16036727228", "display_phone": "(603) 672-7228", "distance": 9381.584476273178}, {"id": "2rqma_xmX5GLTepcLJW-6A", "alias": "parkers-maple-barn-mason", "name": "Parker's Maple Barn", "image_url": "https://s3-media4.fl.yelpcdn.com/bphoto/mS8uOeoIdt1NjCqksQSfZA/o.jpg", "is_closed": false, "url": "https://www.yelp.com/biz/parkers-maple-barn-mason?adjust_creative=ywY5UnLZrNrRl2b93Ruy_g&utm_campaign=yelp_api_v3&utm_medium=api_v3_business_search&utm_source=ywY5UnLZrNrRl2b93Ruy_g", "review_count": 257, "categories": [{"alias": "breakfast_brunch", "title": "Breakfast & Brunch"}, {"alias": "burgers", "title": "Burgers"}], "rating": 4.0, "coordinates": {"latitude": 42.741056, "longitude": -71.720217}, "transactions": [], "price": "$$", "location": {"address1": "1316 Brookline Rd", "address2": "", "address3": "", "city": "Mason", "zip_code": "03048", "country": "US", "state": "NH", "display_address": ["1316 Brookline Rd", "Mason, NH 03048"]}, "phone": "+16038782308", "display_phone": "(603) 878-2308", "distance": 8181.398830860174}, {"id": "E2tmDEyX_ftliqcVBLyRdA", "alias": "vals-pizza-and-subs-brookline", "name": "Val's Pizza and Subs", "image_url": "https://s3-media4.fl.yelpcdn.com/bphoto/74mQu3J2RE8zgSrOPcRC3Q/o.jpg", "is_closed": false, "url": "https://www.yelp.com/biz/vals-pizza-and-subs-brookline?adjust_creative=ywY5UnLZrNrRl2b93Ruy_g&utm_campaign=yelp_api_v3&utm_medium=api_v3_business_search&utm_source=ywY5UnLZrNrRl2b93Ruy_g", "review_count": 17, "categories": [{"alias": "pizza", "title": "Pizza"}], "rating": 4.0, "coordinates": {"latitude": 42.7234217812978, "longitude": -71.6620998252577}, "transactions": [], "price": "$", "location": {"address1": "75 Rt 13", "address2": null, "address3": null, "city": "Brookline", "zip_code": "03033", "country": "US", "state": "NH", "display_address": ["75 Rt 13", "Brookline, NH 03033"]}, "phone": "+16036729600", "display_phone": "(603) 672-9600", "distance": 9036.10983481467}, {"id": "dPl-f19bIGd1AT9kP85zqQ", "alias": "873-cafe-ashby", "name": "873 Cafe", "image_url": "https://s3-media1.fl.yelpcdn.com/bphoto/WQcdKLlhcDKv3ras9bv2QQ/o.jpg", "is_closed": false, "url": "https://www.yelp.com/biz/873-cafe-ashby?adjust_creative=ywY5UnLZrNrRl2b93Ruy_g&utm_campaign=yelp_api_v3&utm_medium=api_v3_business_search&utm_source=ywY5UnLZrNrRl2b93Ruy_g", "review_count": 31, "categories": [{"alias": "coffee", "title": "Coffee & Tea"}, {"alias": "diners", "title": "Diners"}, {"alias": "cafes", "title": "Cafes"}], "rating": 3.0, "coordinates": {"latitude": 42.6786079, "longitude": -71.821397}, "transactions": [], "price": "$$", "location": {"address1": "873 Main St", "address2": "", "address3": "", "city": "Ashby", "zip_code": "01431", "country": "US", "state": "MA", "display_address": ["873 Main St", "Ashby, MA 01431"]}, "phone": "+19783861078", "display_phone": "(978) 386-1078", "distance": 6306.910619881948}, {"id": "XmVDppTjSaFVuMOx70XiQQ", "alias": "ice-cream-factory-townsend", "name": "Ice Cream Factory", "image_url": "https://s3-media1.fl.yelpcdn.com/bphoto/y-KWNZwemqgNIeyyupP1lw/o.jpg", "is_closed": false, "url": "https://www.yelp.com/biz/ice-cream-factory-townsend?adjust_creative=ywY5UnLZrNrRl2b93Ruy_g&utm_campaign=yelp_api_v3&utm_medium=api_v3_business_search&utm_source=ywY5UnLZrNrRl2b93Ruy_g", "review_count": 11, "categories": [{"alias": "pizza", "title": "Pizza"}, {"alias": "icecream", "title": "Ice Cream & Frozen Yogurt"}, {"alias": "seafood", "title": "Seafood"}], "rating": 4.0, "coordinates": {"latitude": 42.6663627624512, "longitude": -71.7065505981445}, "transactions": [], "price": "$", "location": {"address1": "7 Elm St", "address2": "", "address3": "", "city": "Townsend", "zip_code": "01469", "country": "US", "state": "MA", "display_address": ["7 Elm St", "Townsend, MA 01469"]}, "phone": "+19785975131", "display_phone": "(978) 597-5131", "distance": 3187.4607876830846}, {"id": "LXITAZq1Yt9oxO80KN8P3A", "alias": "873-tavern-ashby", "name": "873 Tavern", "image_url": "https://s3-media3.fl.yelpcdn.com/bphoto/ODYGizPPqRjeApvPPPku1Q/o.jpg", "is_closed": false, "url": "https://www.yelp.com/biz/873-tavern-ashby?adjust_creative=ywY5UnLZrNrRl2b93Ruy_g&utm_campaign=yelp_api_v3&utm_medium=api_v3_business_search&utm_source=ywY5UnLZrNrRl2b93Ruy_g", "review_count": 7, "categories": [{"alias": "tradamerican", "title": "American (Traditional)"}, {"alias": "beer_and_wine", "title": "Beer, Wine & Spirits"}], "rating": 2.5, "coordinates": {"latitude": 42.6786, "longitude": -71.8213899}, "transactions": [], "price": "$$", "location": {"address1": "873 Main St", "address2": "", "address3": "", "city": "Ashby", "zip_code": "01431", "country": "US", "state": "MA", "display_address": ["873 Main St", "Ashby, MA 01431"]}, "phone": "+19783861078", "display_phone": "(978) 386-1078", "distance": 6306.910619881948}, {"id": "bAL665kXddTfRzkqQxDQ9w", "alias": "gold-bowl-fitchburg-fitchburg", "name": "Gold Bowl Fitchburg", "image_url": "https://s3-media3.fl.yelpcdn.com/bphoto/_XOKA3RRjTDFF4vXnWNzlg/o.jpg", "is_closed": false, "url": "https://www.yelp.com/biz/gold-bowl-fitchburg-fitchburg?adjust_creative=ywY5UnLZrNrRl2b93Ruy_g&utm_campaign=yelp_api_v3&utm_medium=api_v3_business_search&utm_source=ywY5UnLZrNrRl2b93Ruy_g", "review_count": 39, "categories": [{"alias": "chinese", "title": "Chinese"}], "rating": 4.0, "coordinates": {"latitude": 42.60306, "longitude": -71.80145}, "transactions": ["delivery", "pickup"], "price": "$$", "location": {"address1": "22 Ashby State Rd", "address2": null, "address3": "", "city": "Fitchburg", "zip_code": "01420", "country": "US", "state": "MA", "display_address": ["22 Ashby State Rd", "Fitchburg, MA 01420"]}, "phone": "+19783482088", "display_phone": "(978) 348-2088", "distance": 8743.190316026816}, {"id": "xwSzGef4tPpesauXKLmMfQ", "alias": "country-pizza-fitchburg", "name": "Country Pizza", "image_url": "https://s3-media1.fl.yelpcdn.com/bphoto/hPPZK3N_Lg4OezKmU4ShIg/o.jpg", "is_closed": false, "url": "https://www.yelp.com/biz/country-pizza-fitchburg?adjust_creative=ywY5UnLZrNrRl2b93Ruy_g&utm_campaign=yelp_api_v3&utm_medium=api_v3_business_search&utm_source=ywY5UnLZrNrRl2b93Ruy_g", "review_count": 15, "categories": [{"alias": "pizza", "title": "Pizza"}], "rating": 4.5, "coordinates": {"latitude": 42.6026846431036, "longitude": -71.8011677104406}, "transactions": ["delivery", "pickup"], "price": "$", "location": {"address1": "6 Ashby State Rd", "address2": "", "address3": "", "city": "Fitchburg", "zip_code": "01420", "country": "US", "state": "MA", "display_address": ["6 Ashby State Rd", "Fitchburg, MA 01420"]}, "phone": "+19783422028", "display_phone": "(978) 342-2028", "distance": 8783.721957323367}, {"id": "JvLkqQbjauEAl-DAgNkIdg", "alias": "bad-larrys-bar-and-grill-lunenburg", "name": "Bad Larry's Bar and Grill", "image_url": "https://s3-media3.fl.yelpcdn.com/bphoto/kVoGxqodsfFYTsE16qGJLA/o.jpg", "is_closed": false, "url": "https://www.yelp.com/biz/bad-larrys-bar-and-grill-lunenburg?adjust_creative=ywY5UnLZrNrRl2b93Ruy_g&utm_campaign=yelp_api_v3&utm_medium=api_v3_business_search&utm_source=ywY5UnLZrNrRl2b93Ruy_g", "review_count": 32, "categories": [{"alias": "pizza", "title": "Pizza"}, {"alias": "bars", "title": "Bars"}, {"alias": "seafood", "title": "Seafood"}], "rating": 2.5, "coordinates": {"latitude": 42.5949370235643, "longitude": -71.7253542691469}, "transactions": ["delivery"], "price": "$$", "location": {"address1": "1 Main St", "address2": "", "address3": "", "city": "Lunenburg", "zip_code": "01462", "country": "US", "state": "MA", "display_address": ["1 Main St", "Lunenburg, MA 01462"]}, "phone": "+19785829876", "display_phone": "(978) 582-9876", "distance": 8481.36422475151}, {"id": "ukQC5pNFOlhNBkrXWEQmwA", "alias": "townsend-pizza-townsend", "name": "Townsend Pizza", "image_url": "https://s3-media3.fl.yelpcdn.com/bphoto/y000La0VEo6sVIrC4jX2Hg/o.jpg", "is_closed": false, "url": "https://www.yelp.com/biz/townsend-pizza-townsend?adjust_creative=ywY5UnLZrNrRl2b93Ruy_g&utm_campaign=yelp_api_v3&utm_medium=api_v3_business_search&utm_source=ywY5UnLZrNrRl2b93Ruy_g", "review_count": 14, "categories": [{"alias": "pizza", "title": "Pizza"}, {"alias": "breakfast_brunch", "title": "Breakfast & Brunch"}, {"alias": "bagels", "title": "Bagels"}], "rating": 3.5, "coordinates": {"latitude": 42.666239, "longitude": -71.704032}, "transactions": ["delivery", "pickup"], "price": "$", "location": {"address1": "237 Main St", "address2": "", "address3": "", "city": "Townsend", "zip_code": "01469", "country": "US", "state": "MA", "display_address": ["237 Main St", "Townsend, MA 01469"]}, "phone": "+19785978002", "display_phone": "(978) 597-8002", "distance": 3388.032324071073}, {"id": "NDKibhYcCNlVrR2GDcZ96A", "alias": "conrads-drive-in-seafoods-lunenburg", "name": "Conrads Drive-In Seafoods", "image_url": "https://s3-media2.fl.yelpcdn.com/bphoto/2jy6nzt-gVzm5Vr0EUfzjw/o.jpg", "is_closed": false, "url": "https://www.yelp.com/biz/conrads-drive-in-seafoods-lunenburg?adjust_creative=ywY5UnLZrNrRl2b93Ruy_g&utm_campaign=yelp_api_v3&utm_medium=api_v3_business_search&utm_source=ywY5UnLZrNrRl2b93Ruy_g", "review_count": 46, "categories": [{"alias": "seafood", "title": "Seafood"}], "rating": 2.0, "coordinates": {"latitude": 42.59637, "longitude": -71.73129}, "transactions": ["delivery"], "price": "$$", "location": {"address1": "835 Massachusetts Ave", "address2": "", "address3": "", "city": "Lunenburg", "zip_code": "01462", "country": "US", "state": "MA", "display_address": ["835 Massachusetts Ave", "Lunenburg, MA 01462"]}, "phone": "+19785826115", "display_phone": "(978) 582-6115", "distance": 8241.167014322384}, {"id": "IqvYeabCl1IO_hA_hii9HA", "alias": "patriot-pizza-and-subs-townsend", "name": "Patriot Pizza & Subs", "image_url": "https://s3-media4.fl.yelpcdn.com/bphoto/_qBTtrk1p282nYf41DuW7Q/o.jpg", "is_closed": false, "url": "https://www.yelp.com/biz/patriot-pizza-and-subs-townsend?adjust_creative=ywY5UnLZrNrRl2b93Ruy_g&utm_campaign=yelp_api_v3&utm_medium=api_v3_business_search&utm_source=ywY5UnLZrNrRl2b93Ruy_g", "review_count": 45, "categories": [{"alias": "pizza", "title": "Pizza"}, {"alias": "sandwiches", "title": "Sandwiches"}], "rating": 3.0, "coordinates": {"latitude": 42.65019608459, "longitude": -71.663459839094}, "transactions": [], "price": "$", "location": {"address1": "24 Main St", "address2": "", "address3": "", "city": "Townsend", "zip_code": "01469", "country": "US", "state": "MA", "display_address": ["24 Main St", "Townsend, MA 01469"]}, "phone": "+19785975500", "display_phone": "(978) 597-5500", "distance": 7029.493676671418}, {"id": "Y6MSHXVJxCXxnk0lD8juVQ", "alias": "pizza-pizzazz-townsend", "name": "Pizza Pizzazz", "image_url": "https://s3-media2.fl.yelpcdn.com/bphoto/nolKtZCDe7BDoUQcrtNoCw/o.jpg", "is_closed": false, "url": "https://www.yelp.com/biz/pizza-pizzazz-townsend?adjust_creative=ywY5UnLZrNrRl2b93Ruy_g&utm_campaign=yelp_api_v3&utm_medium=api_v3_business_search&utm_source=ywY5UnLZrNrRl2b93Ruy_g", "review_count": 14, "categories": [{"alias": "pizza", "title": "Pizza"}], "rating": 3.0, "coordinates": {"latitude": 42.650167, "longitude": -71.663568}, "transactions": ["delivery", "pickup"], "price": "$", "location": {"address1": "18 Main St", "address2": "", "address3": "", "city": "Townsend", "zip_code": "01469", "country": "US", "state": "MA", "display_address": ["18 Main St", "Townsend, MA 01469"]}, "phone": "+19785970909", "display_phone": "(978) 597-0909", "distance": 7022.092322340055}, {"id": "ZwYyrEJO-ypoRtSTfRuDLQ", "alias": "tko-round-2-fitchburg", "name": "TKO Round 2", "image_url": "https://s3-media1.fl.yelpcdn.com/bphoto/D6WYmGp4Pi3oUvHxhLlRWw/o.jpg", "is_closed": false, "url": "https://www.yelp.com/biz/tko-round-2-fitchburg?adjust_creative=ywY5UnLZrNrRl2b93Ruy_g&utm_campaign=yelp_api_v3&utm_medium=api_v3_business_search&utm_source=ywY5UnLZrNrRl2b93Ruy_g", "review_count": 11, "categories": [{"alias": "spanish", "title": "Spanish"}], "rating": 3.0, "coordinates": {"latitude": 42.5983954, "longitude": -71.8024426}, "transactions": ["delivery"], "price": "$", "location": {"address1": "436 Mechanic St", "address2": "", "address3": "", "city": "Fitchburg", "zip_code": "01420", "country": "US", "state": "MA", "display_address": ["436 Mechanic St", "Fitchburg, MA 01420"]}, "phone": "+19786963212", "display_phone": "(978) 696-3212", "distance": 9220.34754973976}, {"id": "2wy3D9lbNheZhzon9DM1fw", "alias": "mcdonalds-townsend", "name": "McDonald's", "image_url": "https://s3-media3.fl.yelpcdn.com/bphoto/Mjh-lrqgUPVWxMHMpeZKZg/o.jpg", "is_closed": false, "url": "https://www.yelp.com/biz/mcdonalds-townsend?adjust_creative=ywY5UnLZrNrRl2b93Ruy_g&utm_campaign=yelp_api_v3&utm_medium=api_v3_business_search&utm_source=ywY5UnLZrNrRl2b93Ruy_g", "review_count": 17, "categories": [{"alias": "hotdogs", "title": "Fast Food"}, {"alias": "burgers", "title": "Burgers"}, {"alias": "coffee", "title": "Coffee & Tea"}], "rating": 2.5, "coordinates": {"latitude": 42.649653, "longitude": -71.662256}, "transactions": [], "price": "$", "location": {"address1": "20 Main St", "address2": "", "address3": "", "city": "Townsend", "zip_code": "01469", "country": "US", "state": "MA", "display_address": ["20 Main St", "Townsend, MA 01469"]}, "phone": "+19785976521", "display_phone": "(978) 597-6521", "distance": 7138.534179483811}]