[{"id": "ob-AXULtxim8eiteUKMGEg", "alias": "110-grill-hopkinton", "name": "110 Grill", "image_url": "https://s3-media1.fl.yelpcdn.com/bphoto/iN70NcgyeNFrayXwo8sOxA/o.jpg", "is_closed": false, "url": "https://www.yelp.com/biz/110-grill-hopkinton?adjust_creative=asslzE1UV0XuKI953B1vtw&utm_campaign=yelp_api_v3&utm_medium=api_v3_business_search&utm_source=asslzE1UV0XuKI953B1vtw", "review_count": 293, "categories": [{"alias": "burgers", "title": "Burgers"}, {"alias": "tradamerican", "title": "American (Traditional)"}], "rating": 4.0, "coordinates": {"latitude": 42.217205, "longitude": -71.540789}, "transactions": [], "price": "$$", "location": {"address1": "1 Lumber St", "address2": null, "address3": "", "city": "Hopkinton", "zip_code": "01748", "country": "US", "state": "MA", "display_address": ["1 Lumber St", "Hopkinton, MA 01748"]}, "phone": "+15086252141", "display_phone": "(508) 625-2141", "distance": 1227.6143443487795}, {"id": "6cHjgxUHI3_emO5iZ-F-1A", "alias": "pan-thai-hopkinton", "name": "Pan Thai", "image_url": "https://s3-media2.fl.yelpcdn.com/bphoto/quQpn3tRUDgwp9dfgqxbJw/o.jpg", "is_closed": false, "url": "https://www.yelp.com/biz/pan-thai-hopkinton?adjust_creative=asslzE1UV0XuKI953B1vtw&utm_campaign=yelp_api_v3&utm_medium=api_v3_business_search&utm_source=asslzE1UV0XuKI953B1vtw", "review_count": 84, "categories": [{"alias": "thai", "title": "Thai"}], "rating": 4.0, "coordinates": {"latitude": 42.2285804748535, "longitude": -71.5200042724609}, "transactions": ["pickup", "delivery"], "price": "$$", "location": {"address1": "15 Main St", "address2": "", "address3": "", "city": "Hopkinton", "zip_code": "01748", "country": "US", "state": "MA", "display_address": ["15 Main St", "Hopkinton, MA 01748"]}, "phone": "+15084979919", "display_phone": "(508) 497-9919", "distance": 995.8877580850503}, {"id": "-G_N8I-SY0QUJJHwBfqKpA", "alias": "stones-public-house-ashland", "name": "Stone's Public House", "image_url": "https://s3-media2.fl.yelpcdn.com/bphoto/OLsLSLvI3yPCysgr5jzd2w/o.jpg", "is_closed": false, "url": "https://www.yelp.com/biz/stones-public-house-ashland?adjust_creative=asslzE1UV0XuKI953B1vtw&utm_campaign=yelp_api_v3&utm_medium=api_v3_business_search&utm_source=asslzE1UV0XuKI953B1vtw", "review_count": 367, "categories": [{"alias": "newamerican", "title": "American (New)"}, {"alias": "beer_and_wine", "title": "Beer, Wine & Spirits"}, {"alias": "irish_pubs", "title": "Irish Pub"}], "rating": 4.0, "coordinates": {"latitude": 42.25967, "longitude": -71.46477}, "transactions": ["delivery"], "price": "$$", "location": {"address1": "179 Main St", "address2": "", "address3": "", "city": "Ashland", "zip_code": "01721", "country": "US", "state": "MA", "display_address": ["179 Main St", "Ashland, MA 01721"]}, "phone": "+15088811778", "display_phone": "(508) 881-1778", "distance": 6684.083408537216}, {"id": "GKMpQejm7E9jEl9l0ZApqA", "alias": "alicante-restaurant-and-lounge-mendon", "name": "Alicante Restaurant & Lounge", "image_url": "https://s3-media3.fl.yelpcdn.com/bphoto/seh2hwPtBSHUtovlVXh-bQ/o.jpg", "is_closed": false, "url": "https://www.yelp.com/biz/alicante-restaurant-and-lounge-mendon?adjust_creative=asslzE1UV0XuKI953B1vtw&utm_campaign=yelp_api_v3&utm_medium=api_v3_business_search&utm_source=asslzE1UV0XuKI953B1vtw", "review_count": 279, "categories": [{"alias": "mediterranean", "title": "Mediterranean"}, {"alias": "spanish", "title": "Spanish"}, {"alias": "italian", "title": "Italian"}], "rating": 4.5, "coordinates": {"latitude": 42.0976073, "longitude": -71.5727322}, "transactions": ["restaurant_reservation"], "price": "$$$", "location": {"address1": "84 Uxbridge Rd", "address2": null, "address3": "", "city": "Mendon", "zip_code": "01756", "country": "US", "state": "MA", "display_address": ["84 Uxbridge Rd", "Mendon, MA 01756"]}, "phone": "+15086348188", "display_phone": "(508) 634-8188", "distance": 14616.78440853606}, {"id": "wAJvDgFgZFraLD_C4wxSfg", "alias": "depot-street-tavern-milford", "name": "Depot Street Tavern", "image_url": "https://s3-media2.fl.yelpcdn.com/bphoto/-lAWIfalsmMin-Bca2urFQ/o.jpg", "is_closed": false, "url": "https://www.yelp.com/biz/depot-street-tavern-milford?adjust_creative=asslzE1UV0XuKI953B1vtw&utm_campaign=yelp_api_v3&utm_medium=api_v3_business_search&utm_source=asslzE1UV0XuKI953B1vtw", "review_count": 448, "categories": [{"alias": "bars", "title": "Bars"}, {"alias": "tradamerican", "title": "American (Traditional)"}, {"alias": "fishnchips", "title": "Fish & Chips"}], "rating": 4.5, "coordinates": {"latitude": 42.1367348183525, "longitude": -71.514700949192}, "transactions": ["delivery"], "price": "$$", "location": {"address1": "45 Depot St", "address2": "", "address3": "", "city": "Milford", "zip_code": "01757", "country": "US", "state": "MA", "display_address": ["45 Depot St", "Milford, MA 01757"]}, "phone": "+15084886844", "display_phone": "(508) 488-6844", "distance": 9955.744271275982}, {"id": "5pv644muEQXlGgPV5PwhSQ", "alias": "bittersweet-hopkinton", "name": "Bittersweet", "image_url": "https://s3-media2.fl.yelpcdn.com/bphoto/w6K8Z_QFBTAXu5DgEhbnGQ/o.jpg", "is_closed": false, "url": "https://www.yelp.com/biz/bittersweet-hopkinton?adjust_creative=asslzE1UV0XuKI953B1vtw&utm_campaign=yelp_api_v3&utm_medium=api_v3_business_search&utm_source=asslzE1UV0XuKI953B1vtw", "review_count": 73, "categories": [{"alias": "wine_bars", "title": "Wine Bars"}, {"alias": "cafes", "title": "Cafes"}], "rating": 4.0, "coordinates": {"latitude": 42.22881167, "longitude": -71.52054167}, "transactions": [], "price": "$$", "location": {"address1": "22-24 Main St", "address2": "", "address3": "", "city": "Hopkinton", "zip_code": "01748", "country": "US", "state": "MA", "display_address": ["22-24 Main St", "Hopkinton, MA 01748"]}, "phone": "+15086251829", "display_phone": "(508) 625-1829", "distance": 962.1478138563978}, {"id": "XWFGvjlEoNMzrbH43-A4cA", "alias": "civic-kitchen-and-drink-westborough", "name": "Civic Kitchen & Drink", "image_url": "https://s3-media4.fl.yelpcdn.com/bphoto/UXF4UZFCnf0hQ-2FaUbkwA/o.jpg", "is_closed": false, "url": "https://www.yelp.com/biz/civic-kitchen-and-drink-westborough?adjust_creative=asslzE1UV0XuKI953B1vtw&utm_campaign=yelp_api_v3&utm_medium=api_v3_business_search&utm_source=asslzE1UV0XuKI953B1vtw", "review_count": 171, "categories": [{"alias": "gastropubs", "title": "Gastropubs"}, {"alias": "comfortfood", "title": "Comfort Food"}, {"alias": "newamerican", "title": "American (New)"}], "rating": 4.0, "coordinates": {"latitude": 42.264092, "longitude": -71.623966}, "transactions": ["delivery"], "price": "$$", "location": {"address1": "121 W Main St", "address2": "", "address3": "", "city": "Westborough", "zip_code": "01581", "country": "US", "state": "MA", "display_address": ["121 W Main St", "Westborough, MA 01581"]}, "phone": "+15083295179", "display_phone": "(508) 329-5179", "distance": 8756.685487427778}, {"id": "CAth_r0Jpf-z7MoCZ0B9OQ", "alias": "oregon-club-ashland", "name": "Oregon Club", "image_url": "https://s3-media2.fl.yelpcdn.com/bphoto/9j67BBS4qObPPYtwur2VYg/o.jpg", "is_closed": false, "url": "https://www.yelp.com/biz/oregon-club-ashland?adjust_creative=asslzE1UV0XuKI953B1vtw&utm_campaign=yelp_api_v3&utm_medium=api_v3_business_search&utm_source=asslzE1UV0XuKI953B1vtw", "review_count": 161, "categories": [{"alias": "newamerican", "title": "American (New)"}], "rating": 4.0, "coordinates": {"latitude": 42.28465, "longitude": -71.49096}, "transactions": ["delivery"], "price": "$$", "location": {"address1": "117 Oregon Rd", "address2": "", "address3": "", "city": "Ashland", "zip_code": "01721", "country": "US", "state": "MA", "display_address": ["117 Oregon Rd", "Ashland, MA 01721"]}, "phone": "+15088759030", "display_phone": "(508) 875-9030", "distance": 7334.965200203611}, {"id": "Zw0T-qI7r3DY5cMMidC5iw", "alias": "chill-kitchen-and-bar-marlborough", "name": "Chill Kitchen & Bar", "image_url": "https://s3-media4.fl.yelpcdn.com/bphoto/xN4MporptTCOpczJoYZe4A/o.jpg", "is_closed": false, "url": "https://www.yelp.com/biz/chill-kitchen-and-bar-marlborough?adjust_creative=asslzE1UV0XuKI953B1vtw&utm_campaign=yelp_api_v3&utm_medium=api_v3_business_search&utm_source=asslzE1UV0XuKI953B1vtw", "review_count": 296, "categories": [{"alias": "newamerican", "title": "American (New)"}, {"alias": "bars", "title": "Bars"}], "rating": 4.5, "coordinates": {"latitude": 42.3485917, "longitude": -71.5136872}, "transactions": ["delivery", "restaurant_reservation"], "price": "$$", "location": {"address1": "416 Boston Post Rd E", "address2": "", "address3": "", "city": "Marlborough", "zip_code": "01752", "country": "US", "state": "MA", "display_address": ["416 Boston Post Rd E", "Marlborough, MA 01752"]}, "phone": "+15082996050", "display_phone": "(508) 299-6050", "distance": 13772.372183013329}, {"id": "p-Egb9MzL23g82IertqWzQ", "alias": "doragon-ramen-ashland", "name": "Doragon Ramen", "image_url": "https://s3-media1.fl.yelpcdn.com/bphoto/rCXT2K1BnQpXNQ5P_EcXrw/o.jpg", "is_closed": false, "url": "https://www.yelp.com/biz/doragon-ramen-ashland?adjust_creative=asslzE1UV0XuKI953B1vtw&utm_campaign=yelp_api_v3&utm_medium=api_v3_business_search&utm_source=asslzE1UV0XuKI953B1vtw", "review_count": 192, "categories": [{"alias": "noodles", "title": "Noodles"}, {"alias": "ramen", "title": "Ramen"}, {"alias": "chicken_wings", "title": "Chicken Wings"}], "rating": 4.5, "coordinates": {"latitude": 42.25556, "longitude": -71.46764}, "transactions": ["delivery"], "price": "$$", "location": {"address1": "1 West Union St", "address2": null, "address3": "", "city": "Ashland", "zip_code": "01721", "country": "US", "state": "MA", "display_address": ["1 West Union St", "Ashland, MA 01721"]}, "phone": "+15083093416", "display_phone": "(508) 309-3416", "distance": 6211.203904285789}, {"id": "ta8K77WM-mjp4JmdhE8efg", "alias": "central-public-house-hopkinton", "name": "Central Public House", "image_url": "https://s3-media3.fl.yelpcdn.com/bphoto/47in1BMP_uZN1WFOaPvF9g/o.jpg", "is_closed": false, "url": "https://www.yelp.com/biz/central-public-house-hopkinton?adjust_creative=asslzE1UV0XuKI953B1vtw&utm_campaign=yelp_api_v3&utm_medium=api_v3_business_search&utm_source=asslzE1UV0XuKI953B1vtw", "review_count": 46, "categories": [{"alias": "newamerican", "title": "American (New)"}, {"alias": "burgers", "title": "Burgers"}, {"alias": "beer_and_wine", "title": "Beer, Wine & Spirits"}], "rating": 3.5, "coordinates": {"latitude": 42.228758, "longitude": -71.521234}, "transactions": [], "location": {"address1": "42 Main St", "address2": "", "address3": null, "city": "Hopkinton", "zip_code": "01748", "country": "US", "state": "MA", "display_address": ["42 Main St", "Hopkinton, MA 01748"]}, "phone": "+15086252570", "display_phone": "(508) 625-2570", "distance": 907.788915606295}, {"id": "nbb8SJ74UoE1F_j9DLOmfw", "alias": "ko-sushi-and-grill-hopkinton", "name": "Ko Sushi & Grill", "image_url": "https://s3-media4.fl.yelpcdn.com/bphoto/O4pJBxGccwRm4QdLAaWCig/o.jpg", "is_closed": false, "url": "https://www.yelp.com/biz/ko-sushi-and-grill-hopkinton?adjust_creative=asslzE1UV0XuKI953B1vtw&utm_campaign=yelp_api_v3&utm_medium=api_v3_business_search&utm_source=asslzE1UV0XuKI953B1vtw", "review_count": 116, "categories": [{"alias": "japanese", "title": "Japanese"}, {"alias": "sushi", "title": "Sushi Bars"}], "rating": 4.0, "coordinates": {"latitude": 42.2055886840544, "longitude": -71.5452003181009}, "transactions": [], "price": "$$", "location": {"address1": "25 Hayward St", "address2": "", "address3": "", "city": "Hopkinton", "zip_code": "01748", "country": "US", "state": "MA", "display_address": ["25 Hayward St", "Hopkinton, MA 01748"]}, "phone": "+15086252082", "display_phone": "(508) 625-2082", "distance": 2484.781855310097}, {"id": "J3ZFLSq0XYy1Rt04T69KzA", "alias": "arturos-ristorante-westborough", "name": "Arturo's Ristorante", "image_url": "https://s3-media3.fl.yelpcdn.com/bphoto/QAYtC6qxCOoMvAHqhIT80A/o.jpg", "is_closed": false, "url": "https://www.yelp.com/biz/arturos-ristorante-westborough?adjust_creative=asslzE1UV0XuKI953B1vtw&utm_campaign=yelp_api_v3&utm_medium=api_v3_business_search&utm_source=asslzE1UV0XuKI953B1vtw", "review_count": 294, "categories": [{"alias": "italian", "title": "Italian"}, {"alias": "pizza", "title": "Pizza"}], "rating": 4.0, "coordinates": {"latitude": 42.2737533, "longitude": -71.610715}, "transactions": ["pickup", "delivery"], "price": "$$", "location": {"address1": "54 E Main St", "address2": "", "address3": "", "city": "Westborough", "zip_code": "01581", "country": "US", "state": "MA", "display_address": ["54 E Main St", "Westborough, MA 01581"]}, "phone": "+15083661881", "display_phone": "(508) 366-1881", "distance": 8530.341707519194}, {"id": "lOviMKn6PpmB3tacgBE0dw", "alias": "trattoria-89-centrale-milford", "name": "Trattoria 89 Centrale", "image_url": "https://s3-media3.fl.yelpcdn.com/bphoto/j3xR9q-emUdD_6gMcXpppw/o.jpg", "is_closed": false, "url": "https://www.yelp.com/biz/trattoria-89-centrale-milford?adjust_creative=asslzE1UV0XuKI953B1vtw&utm_campaign=yelp_api_v3&utm_medium=api_v3_business_search&utm_source=asslzE1UV0XuKI953B1vtw", "review_count": 113, "categories": [{"alias": "italian", "title": "Italian"}], "rating": 4.0, "coordinates": {"latitude": 42.1424126, "longitude": -71.5179658}, "transactions": ["delivery"], "price": "$$", "location": {"address1": "89 Main St", "address2": null, "address3": "", "city": "Milford", "zip_code": "01757", "country": "US", "state": "MA", "display_address": ["89 Main St", "Milford, MA 01757"]}, "phone": "+15086348911", "display_phone": "(508) 634-8911", "distance": 9300.601287286161}, {"id": "_aKnBuaRkIXDvek85SUZZw", "alias": "the-spoon-hopkinton", "name": "The Spoon", "image_url": "https://s3-media1.fl.yelpcdn.com/bphoto/EZ2dwPiV0ozJBcB6gFbSSg/o.jpg", "is_closed": false, "url": "https://www.yelp.com/biz/the-spoon-hopkinton?adjust_creative=asslzE1UV0XuKI953B1vtw&utm_campaign=yelp_api_v3&utm_medium=api_v3_business_search&utm_source=asslzE1UV0XuKI953B1vtw", "review_count": 110, "categories": [{"alias": "tradamerican", "title": "American (Traditional)"}, {"alias": "breakfast_brunch", "title": "Breakfast & Brunch"}, {"alias": "diners", "title": "Diners"}], "rating": 4.0, "coordinates": {"latitude": 42.2170827, "longitude": -71.5409555}, "transactions": [], "price": "$", "location": {"address1": "1 Lumber St", "address2": "", "address3": "", "city": "Hopkinton", "zip_code": "01748", "country": "US", "state": "MA", "display_address": ["1 Lumber St", "Hopkinton, MA 01748"]}, "phone": "+17748037125", "display_phone": "(774) 803-7125", "distance": 1221.5926130800929}, {"id": "-2RuJhj3BfHICxo-u8g4PA", "alias": "red-rock-grill-and-bar-upton-2", "name": "Red Rock Grill & Bar", "image_url": "https://s3-media3.fl.yelpcdn.com/bphoto/v5K-qqQlctWMu_QarUyj-g/o.jpg", "is_closed": false, "url": "https://www.yelp.com/biz/red-rock-grill-and-bar-upton-2?adjust_creative=asslzE1UV0XuKI953B1vtw&utm_campaign=yelp_api_v3&utm_medium=api_v3_business_search&utm_source=asslzE1UV0XuKI953B1vtw", "review_count": 295, "categories": [{"alias": "tradamerican", "title": "American (Traditional)"}, {"alias": "cocktailbars", "title": "Cocktail Bars"}], "rating": 4.0, "coordinates": {"latitude": 42.1790776, "longitude": -71.6399448}, "transactions": ["delivery"], "price": "$$", "location": {"address1": "66 W Main St", "address2": "", "address3": "", "city": "Upton", "zip_code": "01568", "country": "US", "state": "MA", "display_address": ["66 W Main St", "Upton, MA 01568"]}, "phone": "+15085290500", "display_phone": "(508) 529-0500", "distance": 10327.044398754324}, {"id": "N6P3JYfc4qu1V6y-IYhquw", "alias": "hillside-grill-northborough", "name": "Hillside Grill", "image_url": "https://s3-media4.fl.yelpcdn.com/bphoto/CuIhobPLeie0q9ZUFp9-Mg/o.jpg", "is_closed": false, "url": "https://www.yelp.com/biz/hillside-grill-northborough?adjust_creative=asslzE1UV0XuKI953B1vtw&utm_campaign=yelp_api_v3&utm_medium=api_v3_business_search&utm_source=asslzE1UV0XuKI953B1vtw", "review_count": 257, "categories": [{"alias": "greek", "title": "Greek"}, {"alias": "tradamerican", "title": "American (Traditional)"}], "rating": 5.0, "coordinates": {"latitude": 42.319304, "longitude": -71.647383}, "transactions": ["delivery"], "price": "$", "location": {"address1": "73 W Main St", "address2": "", "address3": "", "city": "Northborough", "zip_code": "01532", "country": "US", "state": "MA", "display_address": ["73 W Main St", "Northborough, MA 01532"]}, "phone": "+15083516060", "display_phone": "(508) 351-6060", "distance": 14149.64169664819}, {"id": "rF_vrI7PMvQdJjefVbVWhQ", "alias": "anthonys-on-the-green-holliston", "name": "Anthony's On The Green", "image_url": "https://s3-media3.fl.yelpcdn.com/bphoto/qDdKSIC8LgGdzzXRSPyhOg/o.jpg", "is_closed": false, "url": "https://www.yelp.com/biz/anthonys-on-the-green-holliston?adjust_creative=asslzE1UV0XuKI953B1vtw&utm_campaign=yelp_api_v3&utm_medium=api_v3_business_search&utm_source=asslzE1UV0XuKI953B1vtw", "review_count": 6, "categories": [{"alias": "newamerican", "title": "American (New)"}], "rating": 4.5, "coordinates": {"latitude": 42.1995756674295, "longitude": -71.4557016375274}, "transactions": [], "price": "$", "location": {"address1": "212 Prentice St", "address2": "", "address3": "", "city": "Holliston", "zip_code": "01746", "country": "US", "state": "MA", "display_address": ["212 Prentice St", "Holliston, MA 01746"]}, "phone": "+15084294848", "display_phone": "(508) 429-4848", "distance": 6857.00794472621}, {"id": "4a8ntngwHh_PlH3o73867Q", "alias": "red-heat-tavern-of-westborough-westborough", "name": "Red Heat Tavern of Westborough", "image_url": "https://s3-media3.fl.yelpcdn.com/bphoto/RV_d9qJ4u2PiVBbWf21ZfQ/o.jpg", "is_closed": false, "url": "https://www.yelp.com/biz/red-heat-tavern-of-westborough-westborough?adjust_creative=asslzE1UV0XuKI953B1vtw&utm_campaign=yelp_api_v3&utm_medium=api_v3_business_search&utm_source=asslzE1UV0XuKI953B1vtw", "review_count": 139, "categories": [{"alias": "bars", "title": "Bars"}, {"alias": "tradamerican", "title": "American (Traditional)"}], "rating": 4.0, "coordinates": {"latitude": 42.28558, "longitude": -71.63612}, "transactions": ["delivery", "restaurant_reservation", "pickup"], "price": "$$", "location": {"address1": "227 Turnpike Rd", "address2": "", "address3": null, "city": "Westborough", "zip_code": "01581", "country": "US", "state": "MA", "display_address": ["227 Turnpike Rd", "Westborough, MA 01581"]}, "phone": "+15083291795", "display_phone": "(508) 329-1795", "distance": 10914.420927328545}, {"id": "YV8JhYGuyPkaLDHIY1C1rg", "alias": "romaines-northborough", "name": "Romaine's", "image_url": "https://s3-media1.fl.yelpcdn.com/bphoto/GCKIETTxQgt1wKtKYMR_vg/o.jpg", "is_closed": false, "url": "https://www.yelp.com/biz/romaines-northborough?adjust_creative=asslzE1UV0XuKI953B1vtw&utm_campaign=yelp_api_v3&utm_medium=api_v3_business_search&utm_source=asslzE1UV0XuKI953B1vtw", "review_count": 252, "categories": [{"alias": "newamerican", "title": "American (New)"}], "rating": 4.0, "coordinates": {"latitude": 42.306506, "longitude": -71.658654}, "transactions": ["delivery"], "price": "$$", "location": {"address1": "299 W Main St", "address2": "", "address3": "", "city": "Northborough", "zip_code": "01532", "country": "US", "state": "MA", "display_address": ["299 W Main St", "Northborough, MA 01532"]}, "phone": "+15083938889", "display_phone": "(508) 393-8889", "distance": 13808.391278693118}, {"id": "O2UC2mzauF0uQSnEqjjU6g", "alias": "mexico-city-taqueria-and-bar-ashland", "name": "Mexico City Taqueria and Bar", "image_url": "https://s3-media2.fl.yelpcdn.com/bphoto/SG87aCtsPg6ujMpVRXucJA/o.jpg", "is_closed": false, "url": "https://www.yelp.com/biz/mexico-city-taqueria-and-bar-ashland?adjust_creative=asslzE1UV0XuKI953B1vtw&utm_campaign=yelp_api_v3&utm_medium=api_v3_business_search&utm_source=asslzE1UV0XuKI953B1vtw", "review_count": 251, "categories": [{"alias": "mexican", "title": "Mexican"}], "rating": 4.0, "coordinates": {"latitude": 42.255652, "longitude": -71.467566}, "transactions": ["pickup", "delivery"], "price": "$", "location": {"address1": "1 W Union St", "address2": "", "address3": "", "city": "Ashland", "zip_code": "01721", "country": "US", "state": "MA", "display_address": ["1 W Union St", "Ashland, MA 01721"]}, "phone": "+15088813500", "display_phone": "(508) 881-3500", "distance": 6230.866180961308}, {"id": "V1KLuipUOE9SwZpo-BgsOw", "alias": "buttercup-natick", "name": "Buttercup", "image_url": "https://s3-media4.fl.yelpcdn.com/bphoto/wZdPLvhMemRfqoXh0ombzw/o.jpg", "is_closed": false, "url": "https://www.yelp.com/biz/buttercup-natick?adjust_creative=asslzE1UV0XuKI953B1vtw&utm_campaign=yelp_api_v3&utm_medium=api_v3_business_search&utm_source=asslzE1UV0XuKI953B1vtw", "review_count": 112, "categories": [{"alias": "bars", "title": "Bars"}, {"alias": "tradamerican", "title": "American (Traditional)"}], "rating": 4.0, "coordinates": {"latitude": 42.284, "longitude": -71.34805}, "transactions": ["delivery"], "price": "$$", "location": {"address1": "13 W Central St", "address2": null, "address3": null, "city": "Natick", "zip_code": "01760", "country": "US", "state": "MA", "display_address": ["13 W Central St", "Natick, MA 01760"]}, "phone": "+15085451506", "display_phone": "(508) 545-1506", "distance": 16425.86561125366}, {"id": "XBVkgEjoiNbZEk6MylOg-w", "alias": "quattro-hopkinton", "name": "Quattro", "image_url": "https://s3-media3.fl.yelpcdn.com/bphoto/YhJtPI1OPi4UeX5kPWOD1g/o.jpg", "is_closed": false, "url": "https://www.yelp.com/biz/quattro-hopkinton?adjust_creative=asslzE1UV0XuKI953B1vtw&utm_campaign=yelp_api_v3&utm_medium=api_v3_business_search&utm_source=asslzE1UV0XuKI953B1vtw", "review_count": 110, "categories": [{"alias": "italian", "title": "Italian"}], "rating": 2.5, "coordinates": {"latitude": 42.2102808546855, "longitude": -71.5503001438303}, "transactions": [], "price": "$$", "location": {"address1": "22 South St", "address2": "", "address3": "", "city": "Hopkinton", "zip_code": "01748", "country": "US", "state": "MA", "display_address": ["22 South St", "Hopkinton, MA 01748"]}, "phone": "+15084354300", "display_phone": "(508) 435-4300", "distance": 2298.5441116547604}, {"id": "wGbrZg9dzVAxBLHMa9pIyQ", "alias": "bills-pizzeria-kitchen-grille-hopkinton", "name": "Bill's Pizzeria Kitchen + Grille", "image_url": "https://s3-media2.fl.yelpcdn.com/bphoto/r1LUvaIzSBAI-NLWjqdDSQ/o.jpg", "is_closed": false, "url": "https://www.yelp.com/biz/bills-pizzeria-kitchen-grille-hopkinton?adjust_creative=asslzE1UV0XuKI953B1vtw&utm_campaign=yelp_api_v3&utm_medium=api_v3_business_search&utm_source=asslzE1UV0XuKI953B1vtw", "review_count": 57, "categories": [{"alias": "pizza", "title": "Pizza"}], "rating": 3.0, "coordinates": {"latitude": 42.2294692993164, "longitude": -71.5202026367188}, "transactions": [], "price": "$$", "location": {"address1": "14 Main St", "address2": "", "address3": "", "city": "Hopkinton", "zip_code": "01748", "country": "US", "state": "MA", "display_address": ["14 Main St", "Hopkinton, MA 01748"]}, "phone": "+15084350447", "display_phone": "(508) 435-0447", "distance": 1014.3844108166974}, {"id": "ekXO4Tll54siqocJdL3G7w", "alias": "prezo-milford-3", "name": "Prezo", "image_url": "https://s3-media1.fl.yelpcdn.com/bphoto/qgCmznVX6yhEZtLDKNXqKg/o.jpg", "is_closed": false, "url": "https://www.yelp.com/biz/prezo-milford-3?adjust_creative=asslzE1UV0XuKI953B1vtw&utm_campaign=yelp_api_v3&utm_medium=api_v3_business_search&utm_source=asslzE1UV0XuKI953B1vtw", "review_count": 329, "categories": [{"alias": "italian", "title": "Italian"}, {"alias": "steak", "title": "Steakhouses"}], "rating": 4.0, "coordinates": {"latitude": 42.15159, "longitude": -71.49362}, "transactions": ["delivery"], "price": "$$", "location": {"address1": "229 1/2 E Main St", "address2": null, "address3": "", "city": "Milford", "zip_code": "01757", "country": "US", "state": "MA", "display_address": ["229 1/2 E Main St", "Milford, MA 01757"]}, "phone": "+15086340101", "display_phone": "(508) 634-0101", "distance": 8776.019793815445}, {"id": "UvlxXIaBSdZMbn4IMSc92g", "alias": "118-main-street-kitchen-and-spirits-upton", "name": "118 Main Street Kitchen & Spirits", "image_url": "https://s3-media3.fl.yelpcdn.com/bphoto/HbssHaMexb34Dk7WbOH_KA/o.jpg", "is_closed": false, "url": "https://www.yelp.com/biz/118-main-street-kitchen-and-spirits-upton?adjust_creative=asslzE1UV0XuKI953B1vtw&utm_campaign=yelp_api_v3&utm_medium=api_v3_business_search&utm_source=asslzE1UV0XuKI953B1vtw", "review_count": 29, "categories": [{"alias": "newamerican", "title": "American (New)"}], "rating": 3.5, "coordinates": {"latitude": 42.1696108481808, "longitude": -71.6204329580069}, "transactions": [], "location": {"address1": "118 Main St", "address2": "", "address3": null, "city": "Upton", "zip_code": "01568", "country": "US", "state": "MA", "display_address": ["118 Main St", "Upton, MA 01568"]}, "phone": "+15086031304", "display_phone": "(508) 603-1304", "distance": 9613.98149643145}, {"id": "ZmPTUYgoiEzlZP772EJApg", "alias": "bourbons-kitchen-and-cocktails-framingham", "name": "Bourbon's Kitchen & Cocktails", "image_url": "https://s3-media3.fl.yelpcdn.com/bphoto/lWNQywtVZR7d6KG6-jRrMw/o.jpg", "is_closed": false, "url": "https://www.yelp.com/biz/bourbons-kitchen-and-cocktails-framingham?adjust_creative=asslzE1UV0XuKI953B1vtw&utm_campaign=yelp_api_v3&utm_medium=api_v3_business_search&utm_source=asslzE1UV0XuKI953B1vtw", "review_count": 264, "categories": [{"alias": "cocktailbars", "title": "Cocktail Bars"}, {"alias": "comfortfood", "title": "Comfort Food"}], "rating": 4.0, "coordinates": {"latitude": 42.299978, "longitude": -71.408681}, "transactions": ["delivery"], "price": "$$", "location": {"address1": "47 Beacon St", "address2": "", "address3": null, "city": "Framingham", "zip_code": "01701", "country": "US", "state": "MA", "display_address": ["47 Beacon St", "Framingham, MA 01701"]}, "phone": "+15088617997", "display_phone": "(508) 861-7997", "distance": 13059.199186888694}, {"id": "_vIl9IP5NIy1UTTf7ifmCA", "alias": "carbones-restaurant-hopkinton", "name": "Carbone's Restaurant", "image_url": "https://s3-media2.fl.yelpcdn.com/bphoto/CZCj_Www9bwVXq_tORMv7A/o.jpg", "is_closed": false, "url": "https://www.yelp.com/biz/carbones-restaurant-hopkinton?adjust_creative=asslzE1UV0XuKI953B1vtw&utm_campaign=yelp_api_v3&utm_medium=api_v3_business_search&utm_source=asslzE1UV0XuKI953B1vtw", "review_count": 54, "categories": [{"alias": "tradamerican", "title": "American (Traditional)"}, {"alias": "italian", "title": "Italian"}, {"alias": "pizza", "title": "Pizza"}], "rating": 3.5, "coordinates": {"latitude": 42.2637100219727, "longitude": -71.523681640625}, "transactions": ["delivery"], "price": "$$", "location": {"address1": "280 Cedar St", "address2": "", "address3": "", "city": "Hopkinton", "zip_code": "01748", "country": "US", "state": "MA", "display_address": ["280 Cedar St", "Hopkinton, MA 01748"]}, "phone": "+15084353465", "display_phone": "(508) 435-3465", "distance": 4297.056758021066}, {"id": "JOqN7yeYBjwpq94OEgnxcg", "alias": "hola-restaurante-and-tequila-bar-southborough-2", "name": "Hola Restaurante & Tequila Bar", "image_url": "https://s3-media1.fl.yelpcdn.com/bphoto/5FBxuTuZKq3qCwW9js9ebQ/o.jpg", "is_closed": false, "url": "https://www.yelp.com/biz/hola-restaurante-and-tequila-bar-southborough-2?adjust_creative=asslzE1UV0XuKI953B1vtw&utm_campaign=yelp_api_v3&utm_medium=api_v3_business_search&utm_source=asslzE1UV0XuKI953B1vtw", "review_count": 108, "categories": [{"alias": "mexican", "title": "Mexican"}, {"alias": "bars", "title": "Bars"}, {"alias": "salad", "title": "Salad"}], "rating": 4.0, "coordinates": {"latitude": 42.29195, "longitude": -71.5201}, "transactions": ["pickup", "delivery"], "price": "$$", "location": {"address1": "154 Turnpike Rd", "address2": null, "address3": "", "city": "Southborough", "zip_code": "01772", "country": "US", "state": "MA", "display_address": ["154 Turnpike Rd", "Southborough, MA 01772"]}, "phone": "+15084602058", "display_phone": "(508) 460-2058", "distance": 7459.457759376483}, {"id": "8oRIfS2Z0u3Y3AicFKGxkA", "alias": "muffin-house-cafe-hopkinton", "name": "Muffin House Cafe", "image_url": "https://s3-media4.fl.yelpcdn.com/bphoto/_0HF6uSVhaci0ffXsj22jA/o.jpg", "is_closed": false, "url": "https://www.yelp.com/biz/muffin-house-cafe-hopkinton?adjust_creative=asslzE1UV0XuKI953B1vtw&utm_campaign=yelp_api_v3&utm_medium=api_v3_business_search&utm_source=asslzE1UV0XuKI953B1vtw", "review_count": 9, "categories": [{"alias": "coffee", "title": "Coffee & Tea"}, {"alias": "bakeries", "title": "Bakeries"}, {"alias": "sandwiches", "title": "Sandwiches"}], "rating": 4.5, "coordinates": {"latitude": 42.22822, "longitude": -71.52139}, "transactions": [], "location": {"address1": "43 Main St", "address2": "", "address3": null, "city": "Hopkinton", "zip_code": "01748", "country": "US", "state": "MA", "display_address": ["43 Main St", "Hopkinton, MA 01748"]}, "phone": "+15086258100", "display_phone": "(508) 625-8100", "distance": 873.0097630873789}, {"id": "4pJVWgu0AtGC_0Fu4jclQg", "alias": "grafton-grill-north-grafton", "name": "Grafton Grill", "image_url": "https://s3-media1.fl.yelpcdn.com/bphoto/_KBeFq-_-abFny2KY3SnxQ/o.jpg", "is_closed": false, "url": "https://www.yelp.com/biz/grafton-grill-north-grafton?adjust_creative=asslzE1UV0XuKI953B1vtw&utm_campaign=yelp_api_v3&utm_medium=api_v3_business_search&utm_source=asslzE1UV0XuKI953B1vtw", "review_count": 122, "categories": [{"alias": "bars", "title": "Bars"}, {"alias": "salad", "title": "Salad"}, {"alias": "newamerican", "title": "American (New)"}], "rating": 4.0, "coordinates": {"latitude": 42.2303, "longitude": -71.70862}, "transactions": ["pickup", "delivery"], "price": "$$", "location": {"address1": "10 Bridge St", "address2": null, "address3": null, "city": "North Grafton", "zip_code": "01536", "country": "US", "state": "MA", "display_address": ["10 Bridge St", "North Grafton, MA 01536"]}, "phone": "+15088390333", "display_phone": "(508) 839-0333", "distance": 14626.404525575996}, {"id": "DMkOl5bizeCCeogssZv4pQ", "alias": "cornells-irish-pub-hopkinton", "name": "Cornell's Irish Pub", "image_url": "https://s3-media1.fl.yelpcdn.com/bphoto/tk5S7l7pXLd2OjTG6pNTKQ/o.jpg", "is_closed": false, "url": "https://www.yelp.com/biz/cornells-irish-pub-hopkinton?adjust_creative=asslzE1UV0XuKI953B1vtw&utm_campaign=yelp_api_v3&utm_medium=api_v3_business_search&utm_source=asslzE1UV0XuKI953B1vtw", "review_count": 45, "categories": [{"alias": "pubs", "title": "Pubs"}, {"alias": "irish", "title": "Irish"}, {"alias": "pizza", "title": "Pizza"}], "rating": 3.5, "coordinates": {"latitude": 42.20059, "longitude": -71.50742}, "transactions": [], "price": "$$", "location": {"address1": "229 Hayden Rowe St", "address2": "", "address3": "", "city": "Hopkinton", "zip_code": "01748", "country": "US", "state": "MA", "display_address": ["229 Hayden Rowe St", "Hopkinton, MA 01748"]}, "phone": "+15084356192", "display_phone": "(508) 435-6192", "distance": 3392.844682159494}, {"id": "E60xH-XeKhIAN6Oz_rr3sQ", "alias": "snappy-dogs-hopkinton", "name": "Snappy Dogs", "image_url": "https://s3-media1.fl.yelpcdn.com/bphoto/P2ACMoOkmcyYODoMWglm6g/o.jpg", "is_closed": false, "url": "https://www.yelp.com/biz/snappy-dogs-hopkinton?adjust_creative=asslzE1UV0XuKI953B1vtw&utm_campaign=yelp_api_v3&utm_medium=api_v3_business_search&utm_source=asslzE1UV0XuKI953B1vtw", "review_count": 84, "categories": [{"alias": "hotdog", "title": "Hot Dogs"}, {"alias": "foodstands", "title": "Food Stands"}], "rating": 4.5, "coordinates": {"latitude": 42.236616, "longitude": -71.501479}, "transactions": ["delivery"], "price": "$", "location": {"address1": "93 E Main St", "address2": "", "address3": "", "city": "Hopkinton", "zip_code": "01748", "country": "US", "state": "MA", "display_address": ["93 E Main St", "Hopkinton, MA 01748"]}, "phone": "+16173837627", "display_phone": "(617) 383-7627", "distance": 2752.5066418232973}, {"id": "QRi0EItQFktz4WdURGH0zQ", "alias": "thai-tamarind-westborough", "name": "Thai Tamarind", "image_url": "https://s3-media1.fl.yelpcdn.com/bphoto/ilx6n-IWbSoFJNi47APU5g/o.jpg", "is_closed": false, "url": "https://www.yelp.com/biz/thai-tamarind-westborough?adjust_creative=asslzE1UV0XuKI953B1vtw&utm_campaign=yelp_api_v3&utm_medium=api_v3_business_search&utm_source=asslzE1UV0XuKI953B1vtw", "review_count": 56, "categories": [{"alias": "thai", "title": "Thai"}], "rating": 4.5, "coordinates": {"latitude": 42.289859, "longitude": -71.584815}, "transactions": ["delivery"], "price": "$$", "location": {"address1": "2 Connector Rd", "address2": "", "address3": "", "city": "Westborough", "zip_code": "01581", "country": "US", "state": "MA", "display_address": ["2 Connector Rd", "Westborough, MA 01581"]}, "phone": "+15083296688", "display_phone": "(508) 329-6688", "distance": 8394.84082526614}, {"id": "1Bohce2vYbNJhiOmo0jpPA", "alias": "taquer\u00eda-la-estrella-milford", "name": "Taquer\u00eda La Estrella", "image_url": "https://s3-media2.fl.yelpcdn.com/bphoto/82h0X0aiN1qH0a-M2Yshpw/o.jpg", "is_closed": false, "url": "https://www.yelp.com/biz/taquer%C3%ADa-la-estrella-milford?adjust_creative=asslzE1UV0XuKI953B1vtw&utm_campaign=yelp_api_v3&utm_medium=api_v3_business_search&utm_source=asslzE1UV0XuKI953B1vtw", "review_count": 52, "categories": [{"alias": "mexican", "title": "Mexican"}], "rating": 5.0, "coordinates": {"latitude": 42.12743, "longitude": -71.51772}, "transactions": [], "location": {"address1": "134 S Main St", "address2": null, "address3": "", "city": "Milford", "zip_code": "01757", "country": "US", "state": "MA", "display_address": ["134 S Main St", "Milford, MA 01757"]}, "phone": "+15082825900", "display_phone": "(508) 282-5900", "distance": 10951.283848864377}, {"id": "XdtVjkDIqS67f504WDjGOg", "alias": "110-grill-marlborough-3", "name": "110 Grill", "image_url": "https://s3-media2.fl.yelpcdn.com/bphoto/VQaXDUaLHN2Wpy6s0bvoCg/o.jpg", "is_closed": false, "url": "https://www.yelp.com/biz/110-grill-marlborough-3?adjust_creative=asslzE1UV0XuKI953B1vtw&utm_campaign=yelp_api_v3&utm_medium=api_v3_business_search&utm_source=asslzE1UV0XuKI953B1vtw", "review_count": 207, "categories": [{"alias": "newamerican", "title": "American (New)"}, {"alias": "tradamerican", "title": "American (Traditional)"}], "rating": 4.0, "coordinates": {"latitude": 42.3380408150094, "longitude": -71.589800754303}, "transactions": [], "price": "$$", "location": {"address1": "115 Apex Dr", "address2": "Ste A", "address3": "", "city": "Marlborough", "zip_code": "01752", "country": "US", "state": "MA", "display_address": ["115 Apex Dr", "Ste A", "Marlborough, MA 01752"]}, "phone": "+15082512027", "display_phone": "(508) 251-2027", "distance": 13415.863358702829}, {"id": "e9-DTlkFVV7BUkoE4n-FaA", "alias": "the-uxlocale-uxbridge-2", "name": "The UxLocale", "image_url": "https://s3-media1.fl.yelpcdn.com/bphoto/n66RBpoAYX8Y7mGPyxebzg/o.jpg", "is_closed": false, "url": "https://www.yelp.com/biz/the-uxlocale-uxbridge-2?adjust_creative=asslzE1UV0XuKI953B1vtw&utm_campaign=yelp_api_v3&utm_medium=api_v3_business_search&utm_source=asslzE1UV0XuKI953B1vtw", "review_count": 105, "categories": [{"alias": "italian", "title": "Italian"}, {"alias": "pizza", "title": "Pizza"}, {"alias": "gastropubs", "title": "Gastropubs"}], "rating": 4.0, "coordinates": {"latitude": 42.0795967301298, "longitude": -71.6761799891327}, "transactions": [], "price": "$$", "location": {"address1": "510 Hartford Ave", "address2": "", "address3": null, "city": "Uxbridge", "zip_code": "01569", "country": "US", "state": "MA", "display_address": ["510 Hartford Ave", "Uxbridge, MA 01569"]}, "phone": "+15087797515", "display_phone": "(508) 779-7515", "distance": 20138.78876018557}, {"id": "vaAND0QFSpWf6WB0U17sTg", "alias": "tjs-food-and-spirits-ashland", "name": "TJ's Food & Spirits", "image_url": "https://s3-media2.fl.yelpcdn.com/bphoto/UWMkqfs1NFEt5QEJdmopzw/o.jpg", "is_closed": false, "url": "https://www.yelp.com/biz/tjs-food-and-spirits-ashland?adjust_creative=asslzE1UV0XuKI953B1vtw&utm_campaign=yelp_api_v3&utm_medium=api_v3_business_search&utm_source=asslzE1UV0XuKI953B1vtw", "review_count": 76, "categories": [{"alias": "pubs", "title": "Pubs"}, {"alias": "tradamerican", "title": "American (Traditional)"}], "rating": 3.5, "coordinates": {"latitude": 42.2418342, "longitude": -71.4853245}, "transactions": [], "price": "$", "location": {"address1": "355 W Union St", "address2": "", "address3": "", "city": "Ashland", "zip_code": "01721", "country": "US", "state": "MA", "display_address": ["355 W Union St", "Ashland, MA 01721"]}, "phone": "+15088811565", "display_phone": "(508) 881-1565", "distance": 4144.977879564809}, {"id": "GYMN-h-iLUDi60-Vh2y3mg", "alias": "dynasty-chinese-restaurant-hopkinton", "name": "Dynasty Chinese Restaurant", "image_url": "https://s3-media1.fl.yelpcdn.com/bphoto/3RoFyZAPOGEPIbxppvuO1w/o.jpg", "is_closed": false, "url": "https://www.yelp.com/biz/dynasty-chinese-restaurant-hopkinton?adjust_creative=asslzE1UV0XuKI953B1vtw&utm_campaign=yelp_api_v3&utm_medium=api_v3_business_search&utm_source=asslzE1UV0XuKI953B1vtw", "review_count": 57, "categories": [{"alias": "chinese", "title": "Chinese"}, {"alias": "sushi", "title": "Sushi Bars"}], "rating": 3.0, "coordinates": {"latitude": 42.21746, "longitude": -71.54098}, "transactions": [], "price": "$$", "location": {"address1": "77 W Main St", "address2": "", "address3": "", "city": "Hopkinton", "zip_code": "01748", "country": "US", "state": "MA", "display_address": ["77 W Main St", "Hopkinton, MA 01748"]}, "phone": "+15084358088", "display_phone": "(508) 435-8088", "distance": 1161.1611889318096}, {"id": "N2-wA2bjBv0j5t_9z4ngoQ", "alias": "bar-athena-holliston", "name": "Bar Athena", "image_url": "https://s3-media2.fl.yelpcdn.com/bphoto/s_KyGpd_sA21Zyu0Wu-iaA/o.jpg", "is_closed": false, "url": "https://www.yelp.com/biz/bar-athena-holliston?adjust_creative=asslzE1UV0XuKI953B1vtw&utm_campaign=yelp_api_v3&utm_medium=api_v3_business_search&utm_source=asslzE1UV0XuKI953B1vtw", "review_count": 21, "categories": [{"alias": "wine_bars", "title": "Wine Bars"}, {"alias": "breakfast_brunch", "title": "Breakfast & Brunch"}, {"alias": "cocktailbars", "title": "Cocktail Bars"}], "rating": 4.5, "coordinates": {"latitude": 42.199833, "longitude": -71.429452}, "transactions": [], "location": {"address1": "770 Washington St", "address2": "", "address3": null, "city": "Holliston", "zip_code": "01746", "country": "US", "state": "MA", "display_address": ["770 Washington St", "Holliston, MA 01746"]}, "phone": "+17742332975", "display_phone": "(774) 233-2975", "distance": 8856.997697484263}, {"id": "3qgoXgbkhjxck2YEwuxKmw", "alias": "sapporo-korean-barbecue-and-sushi-westborough-2", "name": "Sapporo Korean Barbecue & Sushi", "image_url": "https://s3-media2.fl.yelpcdn.com/bphoto/xTpm-4TbE0baxSYJwyqasA/o.jpg", "is_closed": false, "url": "https://www.yelp.com/biz/sapporo-korean-barbecue-and-sushi-westborough-2?adjust_creative=asslzE1UV0XuKI953B1vtw&utm_campaign=yelp_api_v3&utm_medium=api_v3_business_search&utm_source=asslzE1UV0XuKI953B1vtw", "review_count": 279, "categories": [{"alias": "sushi", "title": "Sushi Bars"}, {"alias": "korean", "title": "Korean"}, {"alias": "buffets", "title": "Buffets"}], "rating": 4.0, "coordinates": {"latitude": 42.273349, "longitude": -71.611755}, "transactions": ["pickup", "delivery"], "price": "$$", "location": {"address1": "50 E Main St", "address2": "", "address3": "", "city": "Westborough", "zip_code": "01581", "country": "US", "state": "MA", "display_address": ["50 E Main St", "Westborough, MA 01581"]}, "phone": "+15088981880", "display_phone": "(508) 898-1880", "distance": 8500.610907958904}, {"id": "yx310VifA7fIH-K8tsRoHA", "alias": "pjs-smoke-and-grill-medway", "name": "PJ's Smoke & Grill", "image_url": "https://s3-media4.fl.yelpcdn.com/bphoto/pHvO36OVx_e5oM3Yod68kA/o.jpg", "is_closed": false, "url": "https://www.yelp.com/biz/pjs-smoke-and-grill-medway?adjust_creative=asslzE1UV0XuKI953B1vtw&utm_campaign=yelp_api_v3&utm_medium=api_v3_business_search&utm_source=asslzE1UV0XuKI953B1vtw", "review_count": 102, "categories": [{"alias": "bbq", "title": "Barbeque"}], "rating": 4.0, "coordinates": {"latitude": 42.151101, "longitude": -71.415861}, "transactions": ["delivery"], "price": "$$", "location": {"address1": "112 Main St", "address2": "", "address3": null, "city": "Medway", "zip_code": "02053", "country": "US", "state": "MA", "display_address": ["112 Main St", "Medway, MA 02053"]}, "phone": "+15083211193", "display_phone": "(508) 321-1193", "distance": 12599.337742165662}, {"id": "BZWB2UcYhgt8m-0SjAm3Hw", "alias": "bullfinchs-sudbury", "name": "Bullfinchs", "image_url": "https://s3-media1.fl.yelpcdn.com/bphoto/1QTCu6fvaC_n9NRx29nuFg/o.jpg", "is_closed": false, "url": "https://www.yelp.com/biz/bullfinchs-sudbury?adjust_creative=asslzE1UV0XuKI953B1vtw&utm_campaign=yelp_api_v3&utm_medium=api_v3_business_search&utm_source=asslzE1UV0XuKI953B1vtw", "review_count": 205, "categories": [{"alias": "newamerican", "title": "American (New)"}], "rating": 4.0, "coordinates": {"latitude": 42.360782623291, "longitude": -71.4482192993164}, "transactions": [], "price": "$$", "location": {"address1": "730 Boston Post Rd", "address2": "", "address3": "", "city": "Sudbury", "zip_code": "01776", "country": "US", "state": "MA", "display_address": ["730 Boston Post Rd", "Sudbury, MA 01776"]}, "phone": "+19784434094", "display_phone": "(978) 443-4094", "distance": 16510.693215696563}, {"id": "2E2vW5PmEGRPwiIAcnAUPw", "alias": "uptowne-mediterranean-restaurant-shrewsbury", "name": "Uptowne Mediterranean Restaurant", "image_url": "https://s3-media1.fl.yelpcdn.com/bphoto/Zai37Ej75S9tX916RndZ1g/o.jpg", "is_closed": false, "url": "https://www.yelp.com/biz/uptowne-mediterranean-restaurant-shrewsbury?adjust_creative=asslzE1UV0XuKI953B1vtw&utm_campaign=yelp_api_v3&utm_medium=api_v3_business_search&utm_source=asslzE1UV0XuKI953B1vtw", "review_count": 161, "categories": [{"alias": "mediterranean", "title": "Mediterranean"}, {"alias": "lebanese", "title": "Lebanese"}], "rating": 4.5, "coordinates": {"latitude": 42.2802634886407, "longitude": -71.6750097497722}, "transactions": ["pickup", "delivery"], "price": "$$", "location": {"address1": "1000 Boston Tpke", "address2": "", "address3": "", "city": "Shrewsbury", "zip_code": "01545", "country": "US", "state": "MA", "display_address": ["1000 Boston Tpke", "Shrewsbury, MA 01545"]}, "phone": "+15088424544", "display_phone": "(508) 842-4544", "distance": 13307.820120258752}, {"id": "h_Pxi9qT8cYnUlGhW4dwmg", "alias": "2-mauro-s-cafe-ashland", "name": "2 Mauro\u2019s Cafe", "image_url": "https://s3-media3.fl.yelpcdn.com/bphoto/MThkRv-R9nzgLqrc9I52ZQ/o.jpg", "is_closed": false, "url": "https://www.yelp.com/biz/2-mauro-s-cafe-ashland?adjust_creative=asslzE1UV0XuKI953B1vtw&utm_campaign=yelp_api_v3&utm_medium=api_v3_business_search&utm_source=asslzE1UV0XuKI953B1vtw", "review_count": 23, "categories": [{"alias": "breakfast_brunch", "title": "Breakfast & Brunch"}], "rating": 4.5, "coordinates": {"latitude": 42.25531, "longitude": -71.46558}, "transactions": [], "location": {"address1": "372 Union St", "address2": "", "address3": null, "city": "Ashland", "zip_code": "01721", "country": "US", "state": "MA", "display_address": ["372 Union St", "Ashland, MA 01721"]}, "phone": "+15083093127", "display_phone": "(508) 309-3127", "distance": 6352.430289280712}, {"id": "7sI_gztxypc5xRrXMC0TNQ", "alias": "sake-hana-asian-cuisine-and-sushi-bar-westborough", "name": "Sake Hana Asian Cuisine and Sushi Bar", "image_url": "https://s3-media1.fl.yelpcdn.com/bphoto/L_vqo6uFJRj8p3WjHiZUbQ/o.jpg", "is_closed": false, "url": "https://www.yelp.com/biz/sake-hana-asian-cuisine-and-sushi-bar-westborough?adjust_creative=asslzE1UV0XuKI953B1vtw&utm_campaign=yelp_api_v3&utm_medium=api_v3_business_search&utm_source=asslzE1UV0XuKI953B1vtw", "review_count": 146, "categories": [{"alias": "sushi", "title": "Sushi Bars"}, {"alias": "asianfusion", "title": "Asian Fusion"}, {"alias": "japanese", "title": "Japanese"}], "rating": 4.5, "coordinates": {"latitude": 42.2684215754271, "longitude": -71.6125217825174}, "transactions": ["delivery"], "price": "$$", "location": {"address1": "21 South St", "address2": null, "address3": "", "city": "Westborough", "zip_code": "01581", "country": "US", "state": "MA", "display_address": ["21 South St", "Westborough, MA 01581"]}, "phone": "+15088989262", "display_phone": "(508) 898-9262", "distance": 8220.756205840102}, {"id": "O1F_aiyOhgqLOqvi-43EQQ", "alias": "kindles-wood-fired-pizzeria-marlborough-9", "name": "Kindles Wood Fired Pizzeria", "image_url": "https://s3-media3.fl.yelpcdn.com/bphoto/jy7x9EVORP8a5Gh1BzYK1w/o.jpg", "is_closed": false, "url": "https://www.yelp.com/biz/kindles-wood-fired-pizzeria-marlborough-9?adjust_creative=asslzE1UV0XuKI953B1vtw&utm_campaign=yelp_api_v3&utm_medium=api_v3_business_search&utm_source=asslzE1UV0XuKI953B1vtw", "review_count": 228, "categories": [{"alias": "pizza", "title": "Pizza"}, {"alias": "italian", "title": "Italian"}, {"alias": "gluten_free", "title": "Gluten-Free"}], "rating": 4.5, "coordinates": {"latitude": 42.351787, "longitude": -71.5296323}, "transactions": ["delivery"], "price": "$$", "location": {"address1": "10 Boston Post Rd E", "address2": "", "address3": "", "city": "Marlborough", "zip_code": "01752", "country": "US", "state": "MA", "display_address": ["10 Boston Post Rd E", "Marlborough, MA 01752"]}, "phone": "+15082510077", "display_phone": "(508) 251-0077", "distance": 14092.833818723726}, {"id": "56wq36VWvw-qIBEmlISVlQ", "alias": "the-fix-burger-bar-marlborough-2", "name": "The Fix Burger Bar", "image_url": "https://s3-media2.fl.yelpcdn.com/bphoto/uy0ux9iJeRaaPm6LeOvRmA/o.jpg", "is_closed": false, "url": "https://www.yelp.com/biz/the-fix-burger-bar-marlborough-2?adjust_creative=asslzE1UV0XuKI953B1vtw&utm_campaign=yelp_api_v3&utm_medium=api_v3_business_search&utm_source=asslzE1UV0XuKI953B1vtw", "review_count": 44, "categories": [{"alias": "burgers", "title": "Burgers"}, {"alias": "beerbar", "title": "Beer Bar"}, {"alias": "cocktailbars", "title": "Cocktail Bars"}], "rating": 3.5, "coordinates": {"latitude": 42.342694, "longitude": -71.566599}, "transactions": ["pickup", "delivery"], "price": "$$", "location": {"address1": "139 Lakeside Ave", "address2": "", "address3": null, "city": "Marlborough", "zip_code": "01752", "country": "US", "state": "MA", "display_address": ["139 Lakeside Ave", "Marlborough, MA 01752"]}, "phone": "+15085731819", "display_phone": "(508) 573-1819", "distance": 13359.677477234703}, {"id": "rSlFDw1AY6uFm21a3sL8rA", "alias": "westborough-korean-restaurant-westborough", "name": "Westborough Korean Restaurant", "image_url": "https://s3-media2.fl.yelpcdn.com/bphoto/HMKArzTZzvuQRElWYCzxTQ/o.jpg", "is_closed": false, "url": "https://www.yelp.com/biz/westborough-korean-restaurant-westborough?adjust_creative=asslzE1UV0XuKI953B1vtw&utm_campaign=yelp_api_v3&utm_medium=api_v3_business_search&utm_source=asslzE1UV0XuKI953B1vtw", "review_count": 252, "categories": [{"alias": "korean", "title": "Korean"}], "rating": 4.0, "coordinates": {"latitude": 42.27012, "longitude": -71.61252}, "transactions": ["delivery"], "price": "$$", "location": {"address1": "7 E Main St", "address2": "", "address3": "", "city": "Westborough", "zip_code": "01581", "country": "US", "state": "MA", "display_address": ["7 E Main St", "Westborough, MA 01581"]}, "phone": "+15083668898", "display_phone": "(508) 366-8898", "distance": 8332.606366786933}, {"id": "C0M3gSFAUIS_Zr2oo39IsA", "alias": "rancho-corona-northborough", "name": "Rancho Corona", "image_url": "https://s3-media2.fl.yelpcdn.com/bphoto/8mp0GUaT73UCQKiE8uUxIQ/o.jpg", "is_closed": false, "url": "https://www.yelp.com/biz/rancho-corona-northborough?adjust_creative=asslzE1UV0XuKI953B1vtw&utm_campaign=yelp_api_v3&utm_medium=api_v3_business_search&utm_source=asslzE1UV0XuKI953B1vtw", "review_count": 43, "categories": [{"alias": "mexican", "title": "Mexican"}], "rating": 4.5, "coordinates": {"latitude": 42.307859, "longitude": -71.658608}, "transactions": ["delivery"], "price": "$$", "location": {"address1": "290 W Main St", "address2": "", "address3": null, "city": "Northborough", "zip_code": "01532", "country": "US", "state": "MA", "display_address": ["290 W Main St", "Northborough, MA 01532"]}, "phone": "+15086915019", "display_phone": "(508) 691-5019", "distance": 13920.397751492304}, {"id": "P0LK2VEVBgDPjR3WXut30Q", "alias": "bison-burger-hopkinton", "name": "Bison Burger", "image_url": "https://s3-media3.fl.yelpcdn.com/bphoto/yk4ggjF_lNjlwrTk6PLcDg/o.jpg", "is_closed": false, "url": "https://www.yelp.com/biz/bison-burger-hopkinton?adjust_creative=asslzE1UV0XuKI953B1vtw&utm_campaign=yelp_api_v3&utm_medium=api_v3_business_search&utm_source=asslzE1UV0XuKI953B1vtw", "review_count": 59, "categories": [{"alias": "burgers", "title": "Burgers"}], "rating": 2.5, "coordinates": {"latitude": 42.2079659220326, "longitude": -71.5478895137857}, "transactions": [], "price": "$$", "location": {"address1": "22 South St", "address2": "", "address3": "", "city": "Hopkinton", "zip_code": "01748", "country": "US", "state": "MA", "display_address": ["22 South St", "Hopkinton, MA 01748"]}, "phone": "+15084355100", "display_phone": "(508) 435-5100", "distance": 2373.6789103132637}, {"id": "ZpgucN6BcOmFIp8SQQv0Kg", "alias": "anzios-brick-oven-pizza-northborough-2", "name": "Anzio's Brick Oven Pizza", "image_url": "https://s3-media1.fl.yelpcdn.com/bphoto/kEgoUYB4V4iqX-ZpaNKW8g/o.jpg", "is_closed": false, "url": "https://www.yelp.com/biz/anzios-brick-oven-pizza-northborough-2?adjust_creative=asslzE1UV0XuKI953B1vtw&utm_campaign=yelp_api_v3&utm_medium=api_v3_business_search&utm_source=asslzE1UV0XuKI953B1vtw", "review_count": 187, "categories": [{"alias": "pizza", "title": "Pizza"}, {"alias": "italian", "title": "Italian"}, {"alias": "gluten_free", "title": "Gluten-Free"}], "rating": 4.0, "coordinates": {"latitude": 42.284498, "longitude": -71.670576}, "transactions": ["delivery"], "price": "$$", "location": {"address1": "10010 Shops Way", "address2": "Ste Q", "address3": "", "city": "Northborough", "zip_code": "01532", "country": "US", "state": "MA", "display_address": ["10010 Shops Way", "Ste Q", "Northborough, MA 01532"]}, "phone": "+15084668227", "display_phone": "(508) 466-8227", "distance": 13208.755450531513}, {"id": "imUHsZkJ_aFi3N4nfZQIeg", "alias": "pruller-restaurant-marlborough", "name": "Pruller Restaurant", "image_url": "https://s3-media2.fl.yelpcdn.com/bphoto/uKtmFo6CiRAPvc7MS9Ue2w/o.jpg", "is_closed": false, "url": "https://www.yelp.com/biz/pruller-restaurant-marlborough?adjust_creative=asslzE1UV0XuKI953B1vtw&utm_campaign=yelp_api_v3&utm_medium=api_v3_business_search&utm_source=asslzE1UV0XuKI953B1vtw", "review_count": 239, "categories": [{"alias": "brazilian", "title": "Brazilian"}, {"alias": "buffets", "title": "Buffets"}, {"alias": "steak", "title": "Steakhouses"}], "rating": 4.5, "coordinates": {"latitude": 42.3444159543254, "longitude": -71.5622836536462}, "transactions": [], "price": "$$", "location": {"address1": "514 Lincoln St", "address2": "", "address3": "", "city": "Marlborough", "zip_code": "01752", "country": "US", "state": "MA", "display_address": ["514 Lincoln St", "Marlborough, MA 01752"]}, "phone": "+15084808825", "display_phone": "(508) 480-8825", "distance": 13474.984649964224}, {"id": "ph4FGJNCT_bL0M8zuWlsUA", "alias": "red-heat-tavern-of-milford-milford", "name": "Red Heat Tavern of Milford", "image_url": "https://s3-media3.fl.yelpcdn.com/bphoto/pqtsRxCPh97SLi6iou8Vrg/o.jpg", "is_closed": false, "url": "https://www.yelp.com/biz/red-heat-tavern-of-milford-milford?adjust_creative=asslzE1UV0XuKI953B1vtw&utm_campaign=yelp_api_v3&utm_medium=api_v3_business_search&utm_source=asslzE1UV0XuKI953B1vtw", "review_count": 103, "categories": [{"alias": "bars", "title": "Bars"}, {"alias": "tradamerican", "title": "American (Traditional)"}], "rating": 3.5, "coordinates": {"latitude": 42.14866, "longitude": -71.48874}, "transactions": ["pickup", "delivery"], "price": "$$", "location": {"address1": "124 Medway Rd", "address2": "Ste 1", "address3": null, "city": "Milford", "zip_code": "01757", "country": "US", "state": "MA", "display_address": ["124 Medway Rd", "Ste 1", "Milford, MA 01757"]}, "phone": "+17744625990", "display_phone": "(774) 462-5990", "distance": 9166.17776605999}, {"id": "E1BLgwhAoOuSBmXM8a2sNg", "alias": "murphys-eats-and-treats-ashland", "name": "Murphy's Eats and Treats", "image_url": "https://s3-media4.fl.yelpcdn.com/bphoto/9pNWB9w4DkcRZi1JTf5vqw/o.jpg", "is_closed": false, "url": "https://www.yelp.com/biz/murphys-eats-and-treats-ashland?adjust_creative=asslzE1UV0XuKI953B1vtw&utm_campaign=yelp_api_v3&utm_medium=api_v3_business_search&utm_source=asslzE1UV0XuKI953B1vtw", "review_count": 50, "categories": [{"alias": "burgers", "title": "Burgers"}, {"alias": "seafood", "title": "Seafood"}, {"alias": "icecream", "title": "Ice Cream & Frozen Yogurt"}], "rating": 4.5, "coordinates": {"latitude": 42.2546688, "longitude": -71.4678833}, "transactions": ["delivery"], "location": {"address1": "16 W Union St", "address2": null, "address3": "", "city": "Ashland", "zip_code": "01721", "country": "US", "state": "MA", "display_address": ["16 W Union St", "Ashland, MA 01721"]}, "phone": "+15085994770", "display_phone": "(508) 599-4770", "distance": 6134.930567693312}, {"id": "WpUXK9puTVNdEzr3vpMsgA", "alias": "krua-khun-yah-ashland", "name": "Krua Khun Yah", "image_url": "https://s3-media4.fl.yelpcdn.com/bphoto/DDc8CenvVV8R6LtLy9XF9A/o.jpg", "is_closed": false, "url": "https://www.yelp.com/biz/krua-khun-yah-ashland?adjust_creative=asslzE1UV0XuKI953B1vtw&utm_campaign=yelp_api_v3&utm_medium=api_v3_business_search&utm_source=asslzE1UV0XuKI953B1vtw", "review_count": 102, "categories": [{"alias": "thai", "title": "Thai"}], "rating": 4.0, "coordinates": {"latitude": 42.240626, "longitude": -71.432952}, "transactions": ["pickup", "delivery"], "price": "$$", "location": {"address1": "325 Pond St", "address2": "", "address3": "", "city": "Ashland", "zip_code": "01721", "country": "US", "state": "MA", "display_address": ["325 Pond St", "Ashland, MA 01721"]}, "phone": "+15088814200", "display_phone": "(508) 881-4200", "distance": 8271.347873046}, {"id": "89B3UQg1PqqzLMGyCZKz4g", "alias": "chop-kabob-westborough", "name": "Chop Kabob", "image_url": "https://s3-media2.fl.yelpcdn.com/bphoto/aazTcsIHh1cSfh-PxUpmpg/o.jpg", "is_closed": false, "url": "https://www.yelp.com/biz/chop-kabob-westborough?adjust_creative=asslzE1UV0XuKI953B1vtw&utm_campaign=yelp_api_v3&utm_medium=api_v3_business_search&utm_source=asslzE1UV0XuKI953B1vtw", "review_count": 117, "categories": [{"alias": "mediterranean", "title": "Mediterranean"}, {"alias": "persian", "title": "Persian/Iranian"}], "rating": 4.0, "coordinates": {"latitude": 42.2811127, "longitude": -71.6462319}, "transactions": ["delivery"], "price": "$$", "location": {"address1": "290 Turnpike Rd", "address2": "", "address3": "", "city": "Westborough", "zip_code": "01581", "country": "US", "state": "MA", "display_address": ["290 Turnpike Rd", "Westborough, MA 01581"]}, "phone": "+15088983300", "display_phone": "(508) 898-3300", "distance": 11306.435637554783}, {"id": "gxyRCJ0mh5zvOmkVU1oBEQ", "alias": "central-house-westborough", "name": "Central House", "image_url": "https://s3-media3.fl.yelpcdn.com/bphoto/N_PRPC5AJDZJodCz-rgjpg/o.jpg", "is_closed": false, "url": "https://www.yelp.com/biz/central-house-westborough?adjust_creative=asslzE1UV0XuKI953B1vtw&utm_campaign=yelp_api_v3&utm_medium=api_v3_business_search&utm_source=asslzE1UV0XuKI953B1vtw", "review_count": 40, "categories": [{"alias": "pubs", "title": "Pubs"}, {"alias": "tradamerican", "title": "American (Traditional)"}, {"alias": "sandwiches", "title": "Sandwiches"}], "rating": 4.0, "coordinates": {"latitude": 42.2679, "longitude": -71.61199}, "transactions": ["delivery"], "price": "$$", "location": {"address1": "44 South St", "address2": "", "address3": "", "city": "Westborough", "zip_code": "01581", "country": "US", "state": "MA", "display_address": ["44 South St", "Westborough, MA 01581"]}, "phone": "+15083662088", "display_phone": "(508) 366-2088", "distance": 8149.704133675536}, {"id": "lvBv25K1o-Q0Xqw-51XZ2g", "alias": "tomasso-trattoria-and-enoteca-southborough", "name": "Tomasso Trattoria & Enoteca", "image_url": "https://s3-media1.fl.yelpcdn.com/bphoto/ZzH1dVt7FxOOO-OL79oxow/o.jpg", "is_closed": false, "url": "https://www.yelp.com/biz/tomasso-trattoria-and-enoteca-southborough?adjust_creative=asslzE1UV0XuKI953B1vtw&utm_campaign=yelp_api_v3&utm_medium=api_v3_business_search&utm_source=asslzE1UV0XuKI953B1vtw", "review_count": 224, "categories": [{"alias": "italian", "title": "Italian"}, {"alias": "wine_bars", "title": "Wine Bars"}, {"alias": "pizza", "title": "Pizza"}], "rating": 3.5, "coordinates": {"latitude": 42.29221, "longitude": -71.520331}, "transactions": ["delivery"], "price": "$$$", "location": {"address1": "154 Turnpike Rd", "address2": "", "address3": "", "city": "Southborough", "zip_code": "01772", "country": "US", "state": "MA", "display_address": ["154 Turnpike Rd", "Southborough, MA 01772"]}, "phone": "+15084818484", "display_phone": "(508) 481-8484", "distance": 7481.257473938226}, {"id": "m_9q3NzHyzHfeKWAE-iMJA", "alias": "crazy-stone-marlborough-2", "name": "Crazy Stone", "image_url": "https://s3-media1.fl.yelpcdn.com/bphoto/RHnnWNFsVu5w-Q7fwV4GAw/o.jpg", "is_closed": false, "url": "https://www.yelp.com/biz/crazy-stone-marlborough-2?adjust_creative=asslzE1UV0XuKI953B1vtw&utm_campaign=yelp_api_v3&utm_medium=api_v3_business_search&utm_source=asslzE1UV0XuKI953B1vtw", "review_count": 94, "categories": [{"alias": "sushi", "title": "Sushi Bars"}, {"alias": "steak", "title": "Steakhouses"}, {"alias": "japanese", "title": "Japanese"}], "rating": 4.5, "coordinates": {"latitude": 42.3513502, "longitude": -71.4880432}, "transactions": ["pickup", "delivery"], "price": "$$$", "location": {"address1": "1009 Boston Post Rd E", "address2": null, "address3": "", "city": "Marlborough", "zip_code": "01752", "country": "US", "state": "MA", "display_address": ["1009 Boston Post Rd E", "Marlborough, MA 01752"]}, "phone": "+15085731732", "display_phone": "(508) 573-1732", "distance": 14403.638706953501}, {"id": "EWbj_GA8cnmSgijP8RP4XQ", "alias": "evviva-trattoria-marlborough", "name": "Evviva Trattoria", "image_url": "https://s3-media4.fl.yelpcdn.com/bphoto/wCuhNLgauSpWSHCLQb3uiw/o.jpg", "is_closed": false, "url": "https://www.yelp.com/biz/evviva-trattoria-marlborough?adjust_creative=asslzE1UV0XuKI953B1vtw&utm_campaign=yelp_api_v3&utm_medium=api_v3_business_search&utm_source=asslzE1UV0XuKI953B1vtw", "review_count": 127, "categories": [{"alias": "italian", "title": "Italian"}, {"alias": "pizza", "title": "Pizza"}, {"alias": "sandwiches", "title": "Sandwiches"}], "rating": 4.0, "coordinates": {"latitude": 42.33824, "longitude": -71.590562}, "transactions": ["delivery"], "price": "$$", "location": {"address1": "142 Apex Dr", "address2": null, "address3": "", "city": "Marlborough", "zip_code": "01752", "country": "US", "state": "MA", "display_address": ["142 Apex Dr", "Marlborough, MA 01752"]}, "phone": "+17748432599", "display_phone": "(774) 843-2599", "distance": 13459.096534941862}, {"id": "3UqkId1nM7MM_Cs74gqDqg", "alias": "stonefire-pizza-napoletana-westborough", "name": "Stonefire Pizza Napoletana", "image_url": "https://s3-media2.fl.yelpcdn.com/bphoto/YW8cENcnJ0KqUQCOXIhvBQ/o.jpg", "is_closed": false, "url": "https://www.yelp.com/biz/stonefire-pizza-napoletana-westborough?adjust_creative=asslzE1UV0XuKI953B1vtw&utm_campaign=yelp_api_v3&utm_medium=api_v3_business_search&utm_source=asslzE1UV0XuKI953B1vtw", "review_count": 5, "categories": [{"alias": "foodtrucks", "title": "Food Trucks"}, {"alias": "pizza", "title": "Pizza"}, {"alias": "catering", "title": "Caterers"}], "rating": 4.5, "coordinates": {"latitude": 42.273392, "longitude": -71.610059}, "transactions": ["delivery"], "location": {"address1": "45 E Main St", "address2": null, "address3": "", "city": "Westborough", "zip_code": "01581", "country": "US", "state": "MA", "display_address": ["45 E Main St", "Westborough, MA 01581"]}, "phone": "+15084391609", "display_phone": "(508) 439-1609", "distance": 8379.725591809818}, {"id": "mlJs-ZS8Icj6BgKYwDItVQ", "alias": "tavolino-italian-gourmet-westborough", "name": "Tavolino Italian Gourmet", "image_url": "https://s3-media2.fl.yelpcdn.com/bphoto/GDrORtsTA7C8NXKnwdmFvQ/o.jpg", "is_closed": false, "url": "https://www.yelp.com/biz/tavolino-italian-gourmet-westborough?adjust_creative=asslzE1UV0XuKI953B1vtw&utm_campaign=yelp_api_v3&utm_medium=api_v3_business_search&utm_source=asslzE1UV0XuKI953B1vtw", "review_count": 177, "categories": [{"alias": "italian", "title": "Italian"}, {"alias": "pizza", "title": "Pizza"}], "rating": 3.5, "coordinates": {"latitude": 42.271649425911, "longitude": -71.609869706986}, "transactions": [], "price": "$$", "location": {"address1": "33 E Main St", "address2": "", "address3": "", "city": "Westborough", "zip_code": "01581", "country": "US", "state": "MA", "display_address": ["33 E Main St", "Westborough, MA 01581"]}, "phone": "+15083668600", "display_phone": "(508) 366-8600", "distance": 8261.455138140462}, {"id": "PwFR5tONXgNN6T5MBvVjqQ", "alias": "fireflys-bbq-marlborough", "name": "Firefly's  BBQ", "image_url": "https://s3-media3.fl.yelpcdn.com/bphoto/EYgxpmZfhmJqvVubmJMWhA/o.jpg", "is_closed": false, "url": "https://www.yelp.com/biz/fireflys-bbq-marlborough?adjust_creative=asslzE1UV0XuKI953B1vtw&utm_campaign=yelp_api_v3&utm_medium=api_v3_business_search&utm_source=asslzE1UV0XuKI953B1vtw", "review_count": 556, "categories": [{"alias": "bbq", "title": "Barbeque"}, {"alias": "sportsbars", "title": "Sports Bars"}, {"alias": "musicvenues", "title": "Music Venues"}], "rating": 4.0, "coordinates": {"latitude": 42.3528739, "longitude": -71.5307619}, "transactions": ["delivery"], "price": "$$", "location": {"address1": "350 E Main St", "address2": "", "address3": "", "city": "Marlborough", "zip_code": "01752", "country": "US", "state": "MA", "display_address": ["350 E Main St", "Marlborough, MA 01752"]}, "phone": "+15083578883", "display_phone": "(508) 357-8883", "distance": 14172.216147968395}, {"id": "AfCnRFQB3QmySnthdSNXhg", "alias": "mayuri-indian-cuisine-westborough-westborough", "name": "Mayuri Indian Cuisine - Westborough", "image_url": "https://s3-media1.fl.yelpcdn.com/bphoto/vsav6Y5DxQljrMFdRj4nlg/o.jpg", "is_closed": false, "url": "https://www.yelp.com/biz/mayuri-indian-cuisine-westborough-westborough?adjust_creative=asslzE1UV0XuKI953B1vtw&utm_campaign=yelp_api_v3&utm_medium=api_v3_business_search&utm_source=asslzE1UV0XuKI953B1vtw", "review_count": 181, "categories": [{"alias": "indpak", "title": "Indian"}, {"alias": "desserts", "title": "Desserts"}, {"alias": "seafood", "title": "Seafood"}], "rating": 3.5, "coordinates": {"latitude": 42.283285, "longitude": -71.607752}, "transactions": [], "price": "$$", "location": {"address1": "30 Lyman St", "address2": "", "address3": "", "city": "Westborough", "zip_code": "01581", "country": "US", "state": "MA", "display_address": ["30 Lyman St", "Westborough, MA 01581"]}, "phone": "+15088981888", "display_phone": "(508) 898-1888", "distance": 8999.749113152322}, {"id": "fBG41ynuHMMdw7rChf6qgw", "alias": "thai-pepper-restaurant-milford", "name": "Thai Pepper Restaurant", "image_url": "https://s3-media2.fl.yelpcdn.com/bphoto/mp2iP57eXCHQdEEr_XkRNA/o.jpg", "is_closed": false, "url": "https://www.yelp.com/biz/thai-pepper-restaurant-milford?adjust_creative=asslzE1UV0XuKI953B1vtw&utm_campaign=yelp_api_v3&utm_medium=api_v3_business_search&utm_source=asslzE1UV0XuKI953B1vtw", "review_count": 159, "categories": [{"alias": "thai", "title": "Thai"}], "rating": 4.0, "coordinates": {"latitude": 42.1511475072744, "longitude": -71.5038151923432}, "transactions": ["delivery"], "price": "$$", "location": {"address1": "178 E Main St", "address2": "", "address3": "", "city": "Milford", "zip_code": "01757", "country": "US", "state": "MA", "display_address": ["178 E Main St", "Milford, MA 01757"]}, "phone": "+15084789022", "display_phone": "(508) 478-9022", "distance": 8563.50072781655}, {"id": "Bo2ejnXcwf0XxzYCledJxg", "alias": "nzuko-restaurant-framingham-2", "name": "Nzuko Restaurant", "image_url": "https://s3-media2.fl.yelpcdn.com/bphoto/MXNlG0yoW83FsL0YJcNSNg/o.jpg", "is_closed": false, "url": "https://www.yelp.com/biz/nzuko-restaurant-framingham-2?adjust_creative=asslzE1UV0XuKI953B1vtw&utm_campaign=yelp_api_v3&utm_medium=api_v3_business_search&utm_source=asslzE1UV0XuKI953B1vtw", "review_count": 244, "categories": [{"alias": "caribbean", "title": "Caribbean"}, {"alias": "mediterranean", "title": "Mediterranean"}], "rating": 4.5, "coordinates": {"latitude": 42.30188, "longitude": -71.40162}, "transactions": ["pickup", "delivery"], "price": "$$", "location": {"address1": "341 Cochituate Rd", "address2": "", "address3": null, "city": "Framingham", "zip_code": "01701", "country": "US", "state": "MA", "display_address": ["341 Cochituate Rd", "Framingham, MA 01701"]}, "phone": "+15086201024", "display_phone": "(508) 620-1024", "distance": 13638.976983302122}, {"id": "3nAzf9-dOcWmr8aBeyJcgw", "alias": "paani-indian-cuisine-sudbury-2", "name": "Paani  Indian Cuisine", "image_url": "https://s3-media3.fl.yelpcdn.com/bphoto/haX6eaRHQ6WkdfBMA8ecFQ/o.jpg", "is_closed": false, "url": "https://www.yelp.com/biz/paani-indian-cuisine-sudbury-2?adjust_creative=asslzE1UV0XuKI953B1vtw&utm_campaign=yelp_api_v3&utm_medium=api_v3_business_search&utm_source=asslzE1UV0XuKI953B1vtw", "review_count": 234, "categories": [{"alias": "indpak", "title": "Indian"}], "rating": 4.0, "coordinates": {"latitude": 42.360868, "longitude": -71.431208}, "transactions": ["pickup", "delivery"], "price": "$$", "location": {"address1": "530 A Boston Post Rd", "address2": "Meadow Walk", "address3": "", "city": "Sudbury", "zip_code": "01776", "country": "US", "state": "MA", "display_address": ["530 A Boston Post Rd", "Meadow Walk", "Sudbury, MA 01776"]}, "phone": "+19784438100", "display_phone": "(978) 443-8100", "distance": 17164.148811714873}, {"id": "q2gxkZ7FbSTN5aWslQn_Gg", "alias": "thairiffic-marlborough-2", "name": "Thairiffic", "image_url": "https://s3-media4.fl.yelpcdn.com/bphoto/7AbIMYeJ86B83z_iSC_37Q/o.jpg", "is_closed": false, "url": "https://www.yelp.com/biz/thairiffic-marlborough-2?adjust_creative=asslzE1UV0XuKI953B1vtw&utm_campaign=yelp_api_v3&utm_medium=api_v3_business_search&utm_source=asslzE1UV0XuKI953B1vtw", "review_count": 104, "categories": [{"alias": "thai", "title": "Thai"}, {"alias": "asianfusion", "title": "Asian Fusion"}, {"alias": "bars", "title": "Bars"}], "rating": 4.0, "coordinates": {"latitude": 42.3467838, "longitude": -71.5472243}, "transactions": ["pickup", "delivery"], "price": "$$", "location": {"address1": "128 Main St", "address2": null, "address3": "", "city": "Marlborough", "zip_code": "01752", "country": "US", "state": "MA", "display_address": ["128 Main St", "Marlborough, MA 01752"]}, "phone": "+15084856900", "display_phone": "(508) 485-6900", "distance": 13558.423527222005}, {"id": "fd7qzTDtPUO2vEJ1hS0yHw", "alias": "ericas-ristorante-ashland", "name": "Erica's Ristorante", "image_url": "https://s3-media2.fl.yelpcdn.com/bphoto/Hdw77e72XEQAZev2qHhPfw/o.jpg", "is_closed": false, "url": "https://www.yelp.com/biz/ericas-ristorante-ashland?adjust_creative=asslzE1UV0XuKI953B1vtw&utm_campaign=yelp_api_v3&utm_medium=api_v3_business_search&utm_source=asslzE1UV0XuKI953B1vtw", "review_count": 76, "categories": [{"alias": "italian", "title": "Italian"}, {"alias": "cocktailbars", "title": "Cocktail Bars"}, {"alias": "pizza", "title": "Pizza"}], "rating": 3.5, "coordinates": {"latitude": 42.260497, "longitude": -71.462923}, "transactions": ["delivery"], "price": "$$", "location": {"address1": "78 Front St", "address2": "", "address3": null, "city": "Ashland", "zip_code": "01721", "country": "US", "state": "MA", "display_address": ["78 Front St", "Ashland, MA 01721"]}, "phone": "+15088811982", "display_phone": "(508) 881-1982", "distance": 6847.629644603012}, {"id": "egKO3dAPgJgtwsxATGOutA", "alias": "el-basha-restaurant-westborough", "name": "El Basha Restaurant", "image_url": "https://s3-media2.fl.yelpcdn.com/bphoto/VZl_MuQCsVDA-t0SiiHbZw/o.jpg", "is_closed": false, "url": "https://www.yelp.com/biz/el-basha-restaurant-westborough?adjust_creative=asslzE1UV0XuKI953B1vtw&utm_campaign=yelp_api_v3&utm_medium=api_v3_business_search&utm_source=asslzE1UV0XuKI953B1vtw", "review_count": 130, "categories": [{"alias": "mideastern", "title": "Middle Eastern"}, {"alias": "mediterranean", "title": "Mediterranean"}], "rating": 3.5, "coordinates": {"latitude": 42.289859, "longitude": -71.584815}, "transactions": ["pickup", "delivery"], "price": "$$", "location": {"address1": "2 Connector Rd", "address2": "", "address3": "", "city": "Westborough", "zip_code": "01581", "country": "US", "state": "MA", "display_address": ["2 Connector Rd", "Westborough, MA 01581"]}, "phone": "+15083662455", "display_phone": "(508) 366-2455", "distance": 8394.84082526614}, {"id": "5ZyMXLYwM6vONKbsaam9cw", "alias": "mirchi-nation-marlborough-3", "name": "Mirchi Nation", "image_url": "https://s3-media4.fl.yelpcdn.com/bphoto/2YJLvim3u4lEciCAC2Syeg/o.jpg", "is_closed": false, "url": "https://www.yelp.com/biz/mirchi-nation-marlborough-3?adjust_creative=asslzE1UV0XuKI953B1vtw&utm_campaign=yelp_api_v3&utm_medium=api_v3_business_search&utm_source=asslzE1UV0XuKI953B1vtw", "review_count": 120, "categories": [{"alias": "indpak", "title": "Indian"}, {"alias": "buffets", "title": "Buffets"}], "rating": 4.0, "coordinates": {"latitude": 42.3389753, "longitude": -71.5902808}, "transactions": ["pickup", "delivery"], "price": "$$", "location": {"address1": "197H Boston Post Rd W", "address2": "", "address3": "", "city": "Marlborough", "zip_code": "01752", "country": "US", "state": "MA", "display_address": ["197H Boston Post Rd W", "Marlborough, MA 01752"]}, "phone": "+15083576551", "display_phone": "(508) 357-6551", "distance": 13696.794750367879}, {"id": "BFgB9zWbPqY73WrqvgBW2w", "alias": "ashland-ale-house-ashland", "name": "Ashland Ale House", "image_url": "https://s3-media3.fl.yelpcdn.com/bphoto/rv_s6gdLmkjqZYs8501gVA/o.jpg", "is_closed": false, "url": "https://www.yelp.com/biz/ashland-ale-house-ashland?adjust_creative=asslzE1UV0XuKI953B1vtw&utm_campaign=yelp_api_v3&utm_medium=api_v3_business_search&utm_source=asslzE1UV0XuKI953B1vtw", "review_count": 211, "categories": [{"alias": "tradamerican", "title": "American (Traditional)"}, {"alias": "pubs", "title": "Pubs"}, {"alias": "desserts", "title": "Desserts"}], "rating": 3.5, "coordinates": {"latitude": 42.2583308, "longitude": -71.4248727}, "transactions": ["pickup", "delivery"], "price": "$$", "location": {"address1": "23 Pond St", "address2": "", "address3": "", "city": "Ashland", "zip_code": "01721", "country": "US", "state": "MA", "display_address": ["23 Pond St", "Ashland, MA 01721"]}, "phone": "+15088617780", "display_phone": "(508) 861-7780", "distance": 9494.229043934338}, {"id": "MzTor5IX7NyL6KMNexZRow", "alias": "j-ps-restaurant-pub-westborough", "name": "J P's Restaurant Pub", "image_url": "https://s3-media1.fl.yelpcdn.com/bphoto/ri48DAKlNO2a94wc2EQ5wQ/o.jpg", "is_closed": false, "url": "https://www.yelp.com/biz/j-ps-restaurant-pub-westborough?adjust_creative=asslzE1UV0XuKI953B1vtw&utm_campaign=yelp_api_v3&utm_medium=api_v3_business_search&utm_source=asslzE1UV0XuKI953B1vtw", "review_count": 170, "categories": [{"alias": "pubs", "title": "Pubs"}, {"alias": "tradamerican", "title": "American (Traditional)"}], "rating": 4.0, "coordinates": {"latitude": 42.28110256152, "longitude": -71.6321226182117}, "transactions": ["delivery"], "price": "$$", "location": {"address1": "166 Milk St", "address2": "", "address3": "", "city": "Westborough", "zip_code": "01581", "country": "US", "state": "MA", "display_address": ["166 Milk St", "Westborough, MA 01581"]}, "phone": "+15083660627", "display_phone": "(508) 366-0627", "distance": 10353.734154589756}, {"id": "20Jb8irg7E8v4sqbQH7bPA", "alias": "pizzaville-southborough", "name": "Pizzaville", "image_url": "https://s3-media3.fl.yelpcdn.com/bphoto/bzNkPqf7zt1tMxOT9BqEUA/o.jpg", "is_closed": false, "url": "https://www.yelp.com/biz/pizzaville-southborough?adjust_creative=asslzE1UV0XuKI953B1vtw&utm_campaign=yelp_api_v3&utm_medium=api_v3_business_search&utm_source=asslzE1UV0XuKI953B1vtw", "review_count": 22, "categories": [{"alias": "pizza", "title": "Pizza"}, {"alias": "sandwiches", "title": "Sandwiches"}, {"alias": "salad", "title": "Salad"}], "rating": 4.0, "coordinates": {"latitude": 42.2685, "longitude": -71.51799}, "transactions": ["delivery"], "location": {"address1": "90 Southville Rd", "address2": "", "address3": null, "city": "Southborough", "zip_code": "01772", "country": "US", "state": "MA", "display_address": ["90 Southville Rd", "Southborough, MA 01772"]}, "phone": "+15082810555", "display_phone": "(508) 281-0555", "distance": 4900.9635343664295}, {"id": "rz8nWIucaqxorjEtS_xHwQ", "alias": "jacks-abby-brewing-framingham-3", "name": "Jack's Abby Brewing", "image_url": "https://s3-media4.fl.yelpcdn.com/bphoto/RS-AIrdoTyEMzQ4Jc6PTyg/o.jpg", "is_closed": false, "url": "https://www.yelp.com/biz/jacks-abby-brewing-framingham-3?adjust_creative=asslzE1UV0XuKI953B1vtw&utm_campaign=yelp_api_v3&utm_medium=api_v3_business_search&utm_source=asslzE1UV0XuKI953B1vtw", "review_count": 500, "categories": [{"alias": "pizza", "title": "Pizza"}, {"alias": "brewpubs", "title": "Brewpubs"}], "rating": 4.0, "coordinates": {"latitude": 42.280188, "longitude": -71.411168}, "transactions": ["pickup", "delivery"], "price": "$$", "location": {"address1": "100 Clinton St", "address2": "", "address3": "", "city": "Framingham", "zip_code": "01702", "country": "US", "state": "MA", "display_address": ["100 Clinton St", "Framingham, MA 01702"]}, "phone": "+15088720900", "display_phone": "(508) 872-0900", "distance": 11612.095314766013}, {"id": "RsyoosPMnIEH8b8Cw6nGhQ", "alias": "double-ts-tavern-marlborough", "name": "Double Ts Tavern", "image_url": "https://s3-media3.fl.yelpcdn.com/bphoto/hBt8Jcf8p9hzaAfW1d9y7w/o.jpg", "is_closed": false, "url": "https://www.yelp.com/biz/double-ts-tavern-marlborough?adjust_creative=asslzE1UV0XuKI953B1vtw&utm_campaign=yelp_api_v3&utm_medium=api_v3_business_search&utm_source=asslzE1UV0XuKI953B1vtw", "review_count": 14, "categories": [{"alias": "pubs", "title": "Pubs"}, {"alias": "tradamerican", "title": "American (Traditional)"}], "rating": 4.5, "coordinates": {"latitude": 42.34378, "longitude": -71.54676}, "transactions": [], "location": {"address1": "", "address2": null, "address3": "", "city": "Marlborough", "zip_code": "01752", "country": "US", "state": "MA", "display_address": ["Marlborough, MA 01752"]}, "phone": "+15084850007", "display_phone": "(508) 485-0007", "distance": 13567.884152396013}, {"id": "2UTp6xwftnyudWMKedDuqA", "alias": "la-tapatia-taqueria-marlborough-2", "name": "La Tapatia Taqueria", "image_url": "https://s3-media2.fl.yelpcdn.com/bphoto/YgrGItY4EVw3oM9stAxwpQ/o.jpg", "is_closed": false, "url": "https://www.yelp.com/biz/la-tapatia-taqueria-marlborough-2?adjust_creative=asslzE1UV0XuKI953B1vtw&utm_campaign=yelp_api_v3&utm_medium=api_v3_business_search&utm_source=asslzE1UV0XuKI953B1vtw", "review_count": 323, "categories": [{"alias": "mexican", "title": "Mexican"}], "rating": 3.5, "coordinates": {"latitude": 42.348677, "longitude": -71.51597}, "transactions": ["pickup"], "price": "$$", "location": {"address1": "388 Boston Post Rd E", "address2": "", "address3": "", "city": "Marlborough", "zip_code": "01752", "country": "US", "state": "MA", "display_address": ["388 Boston Post Rd E", "Marlborough, MA 01752"]}, "phone": "+15086247005", "display_phone": "(508) 624-7005", "distance": 13763.335174864751}, {"id": "mZgplWy0UBkpNP8zPykLvw", "alias": "cheesy-street-grill-westborough-2", "name": "Cheesy Street Grill", "image_url": "https://s3-media2.fl.yelpcdn.com/bphoto/nMSYE1fWfJM0DmH6XS8kIA/o.jpg", "is_closed": false, "url": "https://www.yelp.com/biz/cheesy-street-grill-westborough-2?adjust_creative=asslzE1UV0XuKI953B1vtw&utm_campaign=yelp_api_v3&utm_medium=api_v3_business_search&utm_source=asslzE1UV0XuKI953B1vtw", "review_count": 26, "categories": [{"alias": "tradamerican", "title": "American (Traditional)"}, {"alias": "comfortfood", "title": "Comfort Food"}, {"alias": "foodtrucks", "title": "Food Trucks"}], "rating": 4.5, "coordinates": {"latitude": 42.245423076891, "longitude": -71.5919565052796}, "transactions": ["pickup", "delivery"], "price": "$", "location": {"address1": "I-90 Westbound", "address2": null, "address3": "", "city": "Westborough", "zip_code": "01580", "country": "US", "state": "MA", "display_address": ["I-90 Westbound", "Westborough, MA 01580"]}, "phone": "+18609302472", "display_phone": "(860) 930-2472", "distance": 5466.93757358027}, {"id": "13nekB50MIFNQ23Ige639A", "alias": "mediterranean-turkish-food-framingham", "name": "Mediterranean Turkish Food", "image_url": "https://s3-media2.fl.yelpcdn.com/bphoto/R_sZu7aycim6xDGtsa7PBQ/o.jpg", "is_closed": false, "url": "https://www.yelp.com/biz/mediterranean-turkish-food-framingham?adjust_creative=asslzE1UV0XuKI953B1vtw&utm_campaign=yelp_api_v3&utm_medium=api_v3_business_search&utm_source=asslzE1UV0XuKI953B1vtw", "review_count": 253, "categories": [{"alias": "mideastern", "title": "Middle Eastern"}, {"alias": "halal", "title": "Halal"}], "rating": 4.5, "coordinates": {"latitude": 42.323908, "longitude": -71.3989598}, "transactions": ["pickup", "delivery"], "price": "$", "location": {"address1": "1609 Concord St", "address2": null, "address3": null, "city": "Framingham", "zip_code": "01701", "country": "US", "state": "MA", "display_address": ["1609 Concord St", "Framingham, MA 01701"]}, "phone": "+15082024688", "display_phone": "(508) 202-4688", "distance": 15442.844281236366}, {"id": "--CprxtcUfzKoz29hAzm5w", "alias": "wellys-restaurant-marlborough", "name": "Welly's Restaurant", "image_url": "https://s3-media1.fl.yelpcdn.com/bphoto/MWQufs9-_R5Vzgc4cO62vg/o.jpg", "is_closed": false, "url": "https://www.yelp.com/biz/wellys-restaurant-marlborough?adjust_creative=asslzE1UV0XuKI953B1vtw&utm_campaign=yelp_api_v3&utm_medium=api_v3_business_search&utm_source=asslzE1UV0XuKI953B1vtw", "review_count": 170, "categories": [{"alias": "tradamerican", "title": "American (Traditional)"}, {"alias": "pizza", "title": "Pizza"}, {"alias": "gluten_free", "title": "Gluten-Free"}], "rating": 4.0, "coordinates": {"latitude": 42.3469, "longitude": -71.54837}, "transactions": ["delivery"], "price": "$$", "location": {"address1": "153 Main St", "address2": "", "address3": "", "city": "Marlborough", "zip_code": "01752", "country": "US", "state": "MA", "display_address": ["153 Main St", "Marlborough, MA 01752"]}, "phone": "+15082812091", "display_phone": "(508) 281-2091", "distance": 13584.701943464861}, {"id": "Seuh_j5q0Swg2giXjQ2o0Q", "alias": "fish-restaurant-and-wine-bar-marlborough", "name": "Fish Restaurant & Wine Bar", "image_url": "https://s3-media1.fl.yelpcdn.com/bphoto/nmKDvAMORW1CqJyg6cYpQg/o.jpg", "is_closed": false, "url": "https://www.yelp.com/biz/fish-restaurant-and-wine-bar-marlborough?adjust_creative=asslzE1UV0XuKI953B1vtw&utm_campaign=yelp_api_v3&utm_medium=api_v3_business_search&utm_source=asslzE1UV0XuKI953B1vtw", "review_count": 315, "categories": [{"alias": "wine_bars", "title": "Wine Bars"}, {"alias": "seafood", "title": "Seafood"}], "rating": 3.5, "coordinates": {"latitude": 42.345969, "longitude": -71.546231}, "transactions": ["delivery"], "price": "$$$", "location": {"address1": "29 S Bolton St", "address2": "", "address3": "", "city": "Marlborough", "zip_code": "01752", "country": "US", "state": "MA", "display_address": ["29 S Bolton St", "Marlborough, MA 01752"]}, "phone": "+15084603474", "display_phone": "(508) 460-3474", "distance": 13460.545895007892}, {"id": "Rg9n9d7XTfK0L3qC_1N3sg", "alias": "tavern-in-the-square-northborough", "name": "Tavern In The Square", "image_url": "https://s3-media2.fl.yelpcdn.com/bphoto/3m1xOPqifPNpUlU6omMqnQ/o.jpg", "is_closed": false, "url": "https://www.yelp.com/biz/tavern-in-the-square-northborough?adjust_creative=asslzE1UV0XuKI953B1vtw&utm_campaign=yelp_api_v3&utm_medium=api_v3_business_search&utm_source=asslzE1UV0XuKI953B1vtw", "review_count": 216, "categories": [{"alias": "newamerican", "title": "American (New)"}, {"alias": "sportsbars", "title": "Sports Bars"}], "rating": 3.5, "coordinates": {"latitude": 42.32819, "longitude": -71.61737}, "transactions": ["delivery"], "price": "$$", "location": {"address1": "318 Main St", "address2": null, "address3": "", "city": "Northborough", "zip_code": "01532", "country": "US", "state": "MA", "display_address": ["318 Main St", "Northborough, MA 01532"]}, "phone": "+15083933111", "display_phone": "(508) 393-3111", "distance": 13454.254735972267}, {"id": "oGq2TT8iKFLiBlSVxmJ2mQ", "alias": "hillers-pizza-hopkinton", "name": "Hiller's Pizza", "image_url": "https://s3-media1.fl.yelpcdn.com/bphoto/1NPLrQZsKF6byGNdWFk41g/o.jpg", "is_closed": false, "url": "https://www.yelp.com/biz/hillers-pizza-hopkinton?adjust_creative=asslzE1UV0XuKI953B1vtw&utm_campaign=yelp_api_v3&utm_medium=api_v3_business_search&utm_source=asslzE1UV0XuKI953B1vtw", "review_count": 22, "categories": [{"alias": "pizza", "title": "Pizza"}, {"alias": "salad", "title": "Salad"}, {"alias": "sandwiches", "title": "Sandwiches"}], "rating": 3.0, "coordinates": {"latitude": 42.21746, "longitude": -71.54098}, "transactions": [], "price": "$$", "location": {"address1": "77 W Main St", "address2": "", "address3": null, "city": "Hopkinton", "zip_code": "01748", "country": "US", "state": "MA", "display_address": ["77 W Main St", "Hopkinton, MA 01748"]}, "phone": "+15084350021", "display_phone": "(508) 435-0021", "distance": 1161.1611889318096}, {"id": "P8ZFRa30Jb01SUNuk5zVZQ", "alias": "zarape-marlborough", "name": "Zarape", "image_url": "https://s3-media1.fl.yelpcdn.com/bphoto/BuI6pFxeSsMrv1ioBncePg/o.jpg", "is_closed": false, "url": "https://www.yelp.com/biz/zarape-marlborough?adjust_creative=asslzE1UV0XuKI953B1vtw&utm_campaign=yelp_api_v3&utm_medium=api_v3_business_search&utm_source=asslzE1UV0XuKI953B1vtw", "review_count": 195, "categories": [{"alias": "mexican", "title": "Mexican"}], "rating": 4.0, "coordinates": {"latitude": 42.346318, "longitude": -71.543595}, "transactions": ["delivery"], "price": "$$", "location": {"address1": "33 Maple St", "address2": "", "address3": "", "city": "Marlborough", "zip_code": "01752", "country": "US", "state": "MA", "display_address": ["33 Maple St", "Marlborough, MA 01752"]}, "phone": "+15084855502", "display_phone": "(508) 485-5502", "distance": 13481.185366139103}, {"id": "GNy7MSsyyDAo5f3RowmRyw", "alias": "burtons-grill-and-bar-of-framingham-framingham", "name": "Burtons Grill and Bar of Framingham", "image_url": "https://s3-media3.fl.yelpcdn.com/bphoto/QTHPqBCCnatYsIY02XxPJw/o.jpg", "is_closed": false, "url": "https://www.yelp.com/biz/burtons-grill-and-bar-of-framingham-framingham?adjust_creative=asslzE1UV0XuKI953B1vtw&utm_campaign=yelp_api_v3&utm_medium=api_v3_business_search&utm_source=asslzE1UV0XuKI953B1vtw", "review_count": 77, "categories": [{"alias": "newamerican", "title": "American (New)"}], "rating": 4.0, "coordinates": {"latitude": 42.298263, "longitude": -71.394092}, "transactions": [], "price": "$$", "location": {"address1": "30 Worcester Rd", "address2": "", "address3": null, "city": "Framingham", "zip_code": "01702", "country": "US", "state": "MA", "display_address": ["30 Worcester Rd", "Framingham, MA 01702"]}, "phone": "+17745406005", "display_phone": "(774) 540-6005", "distance": 13895.667256041215}, {"id": "oHKh6unDm1_Egh0adJVXuA", "alias": "mi-cocina-mexicana-framingham", "name": "Mi Cocina Mexicana", "image_url": "https://s3-media1.fl.yelpcdn.com/bphoto/Xfde-W-FG1R4N_gH2l4RzQ/o.jpg", "is_closed": false, "url": "https://www.yelp.com/biz/mi-cocina-mexicana-framingham?adjust_creative=asslzE1UV0XuKI953B1vtw&utm_campaign=yelp_api_v3&utm_medium=api_v3_business_search&utm_source=asslzE1UV0XuKI953B1vtw", "review_count": 13, "categories": [{"alias": "mexican", "title": "Mexican"}], "rating": 4.5, "coordinates": {"latitude": 42.27185, "longitude": -71.42904}, "transactions": ["pickup", "delivery"], "location": {"address1": "740 Waverly St", "address2": "", "address3": null, "city": "Framingham", "zip_code": "01702", "country": "US", "state": "MA", "display_address": ["740 Waverly St", "Framingham, MA 01702"]}, "phone": "+15084942146", "display_phone": "(508) 494-2146", "distance": 9876.624929572208}, {"id": "1tmvUK4yA3z0VprJ9Rn5ng", "alias": "maison-de-manger-whitinsville", "name": "Maison de Manger", "image_url": "https://s3-media4.fl.yelpcdn.com/bphoto/eRF2lN5iopIe_3xK5yQ8cA/o.jpg", "is_closed": false, "url": "https://www.yelp.com/biz/maison-de-manger-whitinsville?adjust_creative=asslzE1UV0XuKI953B1vtw&utm_campaign=yelp_api_v3&utm_medium=api_v3_business_search&utm_source=asslzE1UV0XuKI953B1vtw", "review_count": 50, "categories": [{"alias": "creperies", "title": "Creperies"}], "rating": 4.5, "coordinates": {"latitude": 42.0981689248088, "longitude": -71.6459773108363}, "transactions": [], "price": "$$", "location": {"address1": "670 Linwood Ave", "address2": "", "address3": "", "city": "Whitinsville", "zip_code": "01588", "country": "US", "state": "MA", "display_address": ["670 Linwood Ave", "Whitinsville, MA 01588"]}, "phone": "+15083729797", "display_phone": "(508) 372-9797", "distance": 17016.555337417267}, {"id": "bpFnJ6jqbDEzvCfW-vyRTg", "alias": "brickstone-kitchen-sutton", "name": "Brickstone Kitchen", "image_url": "https://s3-media2.fl.yelpcdn.com/bphoto/YqIX8MJIbzt7V-kFshZUYw/o.jpg", "is_closed": false, "url": "https://www.yelp.com/biz/brickstone-kitchen-sutton?adjust_creative=asslzE1UV0XuKI953B1vtw&utm_campaign=yelp_api_v3&utm_medium=api_v3_business_search&utm_source=asslzE1UV0XuKI953B1vtw", "review_count": 48, "categories": [{"alias": "pizza", "title": "Pizza"}, {"alias": "italian", "title": "Italian"}, {"alias": "seafood", "title": "Seafood"}], "rating": 4.0, "coordinates": {"latitude": 42.1568126349271, "longitude": -71.729104667902}, "transactions": ["delivery"], "location": {"address1": "4 Worcester-Providence Tpke", "address2": "", "address3": null, "city": "Sutton", "zip_code": "01590", "country": "US", "state": "MA", "display_address": ["4 Worcester-Providence Tpke", "Sutton, MA 01590"]}, "phone": "+15088658650", "display_phone": "(508) 865-8650", "distance": 17993.770976646854}, {"id": "4eirYOGfMez0OAlBFHerzg", "alias": "sabor-de-minas-restaurant-milford", "name": "Sabor De Minas Restaurant", "image_url": "https://s3-media4.fl.yelpcdn.com/bphoto/CaVQXt5edcNdzzmaI0Y1yw/o.jpg", "is_closed": false, "url": "https://www.yelp.com/biz/sabor-de-minas-restaurant-milford?adjust_creative=asslzE1UV0XuKI953B1vtw&utm_campaign=yelp_api_v3&utm_medium=api_v3_business_search&utm_source=asslzE1UV0XuKI953B1vtw", "review_count": 7, "categories": [{"alias": "brazilian", "title": "Brazilian"}], "rating": 5.0, "coordinates": {"latitude": 42.148976, "longitude": -71.5083377}, "transactions": ["delivery"], "price": "$", "location": {"address1": "122 E Main St", "address2": "", "address3": "", "city": "Milford", "zip_code": "01757", "country": "US", "state": "MA", "display_address": ["122 E Main St", "Milford, MA 01757"]}, "phone": "+15086340252", "display_phone": "(508) 634-0252", "distance": 8708.152308609464}, {"id": "v-X2QIfBkOmAkNIp1rx7dw", "alias": "yamafuji-southborough-4", "name": "YamaFuji", "image_url": "https://s3-media4.fl.yelpcdn.com/bphoto/uBFZCFCNPjH2DuF4UuM-MA/o.jpg", "is_closed": false, "url": "https://www.yelp.com/biz/yamafuji-southborough-4?adjust_creative=asslzE1UV0XuKI953B1vtw&utm_campaign=yelp_api_v3&utm_medium=api_v3_business_search&utm_source=asslzE1UV0XuKI953B1vtw", "review_count": 60, "categories": [{"alias": "asianfusion", "title": "Asian Fusion"}, {"alias": "sushi", "title": "Sushi Bars"}, {"alias": "japanese", "title": "Japanese"}], "rating": 4.0, "coordinates": {"latitude": 42.287444, "longitude": -71.525164}, "transactions": [], "price": "$$", "location": {"address1": "162 Cordaville Rd", "address2": "", "address3": "", "city": "Southborough", "zip_code": "01772", "country": "US", "state": "MA", "display_address": ["162 Cordaville Rd", "Southborough, MA 01772"]}, "phone": "+15084609400", "display_phone": "(508) 460-9400", "distance": 6915.121588508637}, {"id": "G8InAKB7_GFCGGnMncvyyA", "alias": "rice-noodle-thai-eatery-natick", "name": "Rice Noodle Thai Eatery", "image_url": "https://s3-media1.fl.yelpcdn.com/bphoto/zq0FdYSJ00s9oiORp3iUdw/o.jpg", "is_closed": false, "url": "https://www.yelp.com/biz/rice-noodle-thai-eatery-natick?adjust_creative=asslzE1UV0XuKI953B1vtw&utm_campaign=yelp_api_v3&utm_medium=api_v3_business_search&utm_source=asslzE1UV0XuKI953B1vtw", "review_count": 46, "categories": [{"alias": "thai", "title": "Thai"}], "rating": 4.5, "coordinates": {"latitude": 42.282997, "longitude": -71.380166}, "transactions": ["pickup", "delivery"], "price": "$$", "location": {"address1": "179 West Central St", "address2": "Unit 7", "address3": "", "city": "Natick", "zip_code": "01760", "country": "US", "state": "MA", "display_address": ["179 West Central St", "Unit 7", "Natick, MA 01760"]}, "phone": "+15086552888", "display_phone": "(508) 655-2888", "distance": 13990.43701402225}, {"id": "t89WXv8je9Ci3N7M7HMmug", "alias": "petes-bluebird-bellingham", "name": "Pete's Bluebird", "image_url": "https://s3-media1.fl.yelpcdn.com/bphoto/I_WrKg2NQPar93Tyg8iX6g/o.jpg", "is_closed": false, "url": "https://www.yelp.com/biz/petes-bluebird-bellingham?adjust_creative=asslzE1UV0XuKI953B1vtw&utm_campaign=yelp_api_v3&utm_medium=api_v3_business_search&utm_source=asslzE1UV0XuKI953B1vtw", "review_count": 83, "categories": [{"alias": "steak", "title": "Steakhouses"}, {"alias": "seafood", "title": "Seafood"}, {"alias": "tradamerican", "title": "American (Traditional)"}], "rating": 3.5, "coordinates": {"latitude": 42.08715, "longitude": -71.48538}, "transactions": [], "price": "$$", "location": {"address1": "93 Mendon St", "address2": "", "address3": "", "city": "Bellingham", "zip_code": "02019", "country": "US", "state": "MA", "display_address": ["93 Mendon St", "Bellingham, MA 02019"]}, "phone": "+15089669717", "display_phone": "(508) 966-9717", "distance": 15897.530015541877}, {"id": "DB4GzBKB0aGM_JZJa_3o1g", "alias": "andaman-thai-cuisine-framingham", "name": "Andaman Thai Cuisine", "image_url": "https://s3-media2.fl.yelpcdn.com/bphoto/UaYHzNdQy8b4cIA9f-cjXw/o.jpg", "is_closed": false, "url": "https://www.yelp.com/biz/andaman-thai-cuisine-framingham?adjust_creative=asslzE1UV0XuKI953B1vtw&utm_campaign=yelp_api_v3&utm_medium=api_v3_business_search&utm_source=asslzE1UV0XuKI953B1vtw", "review_count": 112, "categories": [{"alias": "thai", "title": "Thai"}], "rating": 4.0, "coordinates": {"latitude": 42.3010290482927, "longitude": -71.4368093477313}, "transactions": ["pickup", "delivery"], "price": "$$", "location": {"address1": "963 Worcester Rd", "address2": "", "address3": null, "city": "Framingham", "zip_code": "01701", "country": "US", "state": "MA", "display_address": ["963 Worcester Rd", "Framingham, MA 01701"]}, "phone": "+15088799696", "display_phone": "(508) 879-9696", "distance": 11451.591562129006}, {"id": "rODzJK3cCSRJEtDTL6PFyw", "alias": "karma-cafe-milford-3", "name": "Karma Cafe", "image_url": "https://s3-media2.fl.yelpcdn.com/bphoto/-m9jNPjYdngwTFPWAxvVvg/o.jpg", "is_closed": false, "url": "https://www.yelp.com/biz/karma-cafe-milford-3?adjust_creative=asslzE1UV0XuKI953B1vtw&utm_campaign=yelp_api_v3&utm_medium=api_v3_business_search&utm_source=asslzE1UV0XuKI953B1vtw", "review_count": 2, "categories": [{"alias": "cafes", "title": "Cafes"}], "rating": 5.0, "coordinates": {"latitude": 42.135156, "longitude": -71.524962}, "transactions": [], "location": {"address1": "319 1/2 Main St", "address2": null, "address3": null, "city": "Milford", "zip_code": "01757", "country": "US", "state": "MA", "display_address": ["319 1/2 Main St", "Milford, MA 01757"]}, "phone": "", "display_phone": "", "distance": 10060.1440283153}, {"id": "ZBvn0OKmnXNKDXpS6rKt0Q", "alias": "marathon-deli-ashland", "name": "Marathon Deli", "image_url": "https://s3-media3.fl.yelpcdn.com/bphoto/Tda9HKpou1dESll1Y2219Q/o.jpg", "is_closed": false, "url": "https://www.yelp.com/biz/marathon-deli-ashland?adjust_creative=asslzE1UV0XuKI953B1vtw&utm_campaign=yelp_api_v3&utm_medium=api_v3_business_search&utm_source=asslzE1UV0XuKI953B1vtw", "review_count": 39, "categories": [{"alias": "delis", "title": "Delis"}, {"alias": "sandwiches", "title": "Sandwiches"}], "rating": 4.0, "coordinates": {"latitude": 42.2549104, "longitude": -71.4672398}, "transactions": ["delivery"], "price": "$", "location": {"address1": "12C W Union St", "address2": "", "address3": "", "city": "Ashland", "zip_code": "01721", "country": "US", "state": "MA", "display_address": ["12C W Union St", "Ashland, MA 01721"]}, "phone": "+15082311859", "display_phone": "(508) 231-1859", "distance": 6209.580757470329}, {"id": "oJ39jcqEPQX_Ika99L8hlQ", "alias": "new-england-steak-and-seafood-mendon", "name": "New England Steak & Seafood", "image_url": "https://s3-media4.fl.yelpcdn.com/bphoto/3FjSdEKjcZJKfEmmJEilMA/o.jpg", "is_closed": false, "url": "https://www.yelp.com/biz/new-england-steak-and-seafood-mendon?adjust_creative=asslzE1UV0XuKI953B1vtw&utm_campaign=yelp_api_v3&utm_medium=api_v3_business_search&utm_source=asslzE1UV0XuKI953B1vtw", "review_count": 200, "categories": [{"alias": "tradamerican", "title": "American (Traditional)"}, {"alias": "seafood", "title": "Seafood"}, {"alias": "steak", "title": "Steakhouses"}], "rating": 3.5, "coordinates": {"latitude": 42.10336, "longitude": -71.56254}, "transactions": ["delivery"], "price": "$$", "location": {"address1": "11 Uxbridge Rd", "address2": "", "address3": "", "city": "Mendon", "zip_code": "01756", "country": "US", "state": "MA", "display_address": ["11 Uxbridge Rd", "Mendon, MA 01756"]}, "phone": "+15084735079", "display_phone": "(508) 473-5079", "distance": 13805.90115808374}, {"id": "9-kFmIc7OSmnNhYQb9vLiA", "alias": "scoops-n-bites-westborough", "name": "Scoops N Bites", "image_url": "https://s3-media4.fl.yelpcdn.com/bphoto/5OGutB2dzcyERsFqitbHTw/o.jpg", "is_closed": false, "url": "https://www.yelp.com/biz/scoops-n-bites-westborough?adjust_creative=asslzE1UV0XuKI953B1vtw&utm_campaign=yelp_api_v3&utm_medium=api_v3_business_search&utm_source=asslzE1UV0XuKI953B1vtw", "review_count": 19, "categories": [{"alias": "icecream", "title": "Ice Cream & Frozen Yogurt"}, {"alias": "vegan", "title": "Vegan"}, {"alias": "vegetarian", "title": "Vegetarian"}], "rating": 4.5, "coordinates": {"latitude": 42.274599, "longitude": -71.608747}, "transactions": [], "price": "$$", "location": {"address1": "57 E Main St", "address2": "Ste 129", "address3": "", "city": "Westborough", "zip_code": "01581", "country": "US", "state": "MA", "display_address": ["57 E Main St", "Ste 129", "Westborough, MA 01581"]}, "phone": "+15087401908", "display_phone": "(508) 740-1908", "distance": 8398.952649497445}, {"id": "rXOlwdjAdYtsx2V-r32-Mw", "alias": "da-vinci-bistro-sudbury", "name": "Da Vinci Bistro", "image_url": "https://s3-media1.fl.yelpcdn.com/bphoto/XXAUvDsaL305g_HcBiy54A/o.jpg", "is_closed": false, "url": "https://www.yelp.com/biz/da-vinci-bistro-sudbury?adjust_creative=asslzE1UV0XuKI953B1vtw&utm_campaign=yelp_api_v3&utm_medium=api_v3_business_search&utm_source=asslzE1UV0XuKI953B1vtw", "review_count": 137, "categories": [{"alias": "italian", "title": "Italian"}], "rating": 4.0, "coordinates": {"latitude": 42.360236, "longitude": -71.4241393}, "transactions": ["pickup", "delivery"], "price": "$$", "location": {"address1": "457 Boston Post Rd", "address2": "", "address3": null, "city": "Sudbury", "zip_code": "01776", "country": "US", "state": "MA", "display_address": ["457 Boston Post Rd", "Sudbury, MA 01776"]}, "phone": "+19782615330", "display_phone": "(978) 261-5330", "distance": 17376.289354596673}, {"id": "y4GiZiRxrt4Dhwp_oG_V_g", "alias": "the-bagel-table-ashland", "name": "The Bagel Table", "image_url": "https://s3-media4.fl.yelpcdn.com/bphoto/pAXaFbcLvxzZ85eXIiNmzw/o.jpg", "is_closed": false, "url": "https://www.yelp.com/biz/the-bagel-table-ashland?adjust_creative=asslzE1UV0XuKI953B1vtw&utm_campaign=yelp_api_v3&utm_medium=api_v3_business_search&utm_source=asslzE1UV0XuKI953B1vtw", "review_count": 27, "categories": [{"alias": "delis", "title": "Delis"}, {"alias": "bagels", "title": "Bagels"}, {"alias": "coffee", "title": "Coffee & Tea"}], "rating": 3.5, "coordinates": {"latitude": 42.26247, "longitude": -71.46745}, "transactions": [], "location": {"address1": "21 Main St", "address2": "", "address3": null, "city": "Ashland", "zip_code": "01721", "country": "US", "state": "MA", "display_address": ["21 Main St", "Ashland, MA 01721"]}, "phone": "", "display_phone": "", "distance": 6688.936907124804}