[{"id": "NYYIGL8JP4g2XQuyxivq-A", "alias": "center-square-grill-east-longmeadow", "name": "Center Square Grill", "image_url": "https://s3-media1.fl.yelpcdn.com/bphoto/bHBxqCxNxcJV2_tK8XDkyg/o.jpg", "is_closed": false, "url": "https://www.yelp.com/biz/center-square-grill-east-longmeadow?adjust_creative=h5HwbyQ0TYvQjBo6Ys5Bgw&utm_campaign=yelp_api_v3&utm_medium=api_v3_business_search&utm_source=h5HwbyQ0TYvQjBo6Ys5Bgw", "review_count": 371, "categories": [{"alias": "newamerican", "title": "American (New)"}, {"alias": "tradamerican", "title": "American (Traditional)"}, {"alias": "italian", "title": "Italian"}], "rating": 4.5, "coordinates": {"latitude": 42.0654985, "longitude": -72.5148327}, "transactions": ["delivery", "restaurant_reservation"], "price": "$$", "location": {"address1": "84 Center Sq", "address2": "", "address3": "", "city": "East Longmeadow", "zip_code": "01028", "country": "US", "state": "MA", "display_address": ["84 Center Sq", "East Longmeadow, MA 01028"]}, "phone": "+14135250055", "display_phone": "(413) 525-0055", "distance": 2534.925950745465}, {"id": "_3LS-7QKMqTqHtF4r_HsLA", "alias": "posto-italian-longmeadow", "name": "Posto Italian", "image_url": "https://s3-media1.fl.yelpcdn.com/bphoto/6iINebDjcTsvNHBfAdfzLA/o.jpg", "is_closed": false, "url": "https://www.yelp.com/biz/posto-italian-longmeadow?adjust_creative=h5HwbyQ0TYvQjBo6Ys5Bgw&utm_campaign=yelp_api_v3&utm_medium=api_v3_business_search&utm_source=h5HwbyQ0TYvQjBo6Ys5Bgw", "review_count": 52, "categories": [{"alias": "italian", "title": "Italian"}, {"alias": "bars", "title": "Bars"}], "rating": 3.5, "coordinates": {"latitude": 42.057313, "longitude": -72.555929}, "transactions": ["delivery"], "price": "$$", "location": {"address1": "674 Bliss Rd", "address2": "", "address3": null, "city": "Longmeadow", "zip_code": "01106", "country": "US", "state": "MA", "display_address": ["674 Bliss Rd", "Longmeadow, MA 01106"]}, "phone": "+14139358500", "display_phone": "(413) 935-8500", "distance": 2230.04784752485}, {"id": "NCyXLx0n5wy4Vl98cwhArA", "alias": "the-meeting-house-longmeadow", "name": "The Meeting House", "image_url": "https://s3-media3.fl.yelpcdn.com/bphoto/2kV-ec99QX2NtOflCX962w/o.jpg", "is_closed": false, "url": "https://www.yelp.com/biz/the-meeting-house-longmeadow?adjust_creative=h5HwbyQ0TYvQjBo6Ys5Bgw&utm_campaign=yelp_api_v3&utm_medium=api_v3_business_search&utm_source=h5HwbyQ0TYvQjBo6Ys5Bgw", "review_count": 32, "categories": [{"alias": "bars", "title": "Bars"}, {"alias": "newamerican", "title": "American (New)"}], "rating": 3.5, "coordinates": {"latitude": 42.0558356448172, "longitude": -72.5542025510821}, "transactions": ["delivery"], "location": {"address1": "813 Williams St", "address2": null, "address3": null, "city": "Longmeadow", "zip_code": "01106", "country": "US", "state": "MA", "display_address": ["813 Williams St", "Longmeadow, MA 01106"]}, "phone": "+14137543607", "display_phone": "(413) 754-3607", "distance": 2018.8916505456073}, {"id": "55uwClRFlnavSUOCMB6bqw", "alias": "buona-vita-bar-and-grille-enfield", "name": "Buona Vita Bar & Grille", "image_url": "https://s3-media3.fl.yelpcdn.com/bphoto/LK6ZRAOfBM1rrcFXCUv_zA/o.jpg", "is_closed": false, "url": "https://www.yelp.com/biz/buona-vita-bar-and-grille-enfield?adjust_creative=h5HwbyQ0TYvQjBo6Ys5Bgw&utm_campaign=yelp_api_v3&utm_medium=api_v3_business_search&utm_source=h5HwbyQ0TYvQjBo6Ys5Bgw", "review_count": 72, "categories": [{"alias": "pizza", "title": "Pizza"}, {"alias": "italian", "title": "Italian"}, {"alias": "bars", "title": "Bars"}], "rating": 4.0, "coordinates": {"latitude": 42.021699, "longitude": -72.540339}, "transactions": ["delivery"], "price": "$$", "location": {"address1": "284 N Maple St", "address2": "", "address3": "", "city": "Enfield", "zip_code": "06082", "country": "US", "state": "CT", "display_address": ["284 N Maple St", "Enfield, CT 06082"]}, "phone": "+18607495903", "display_phone": "(860) 749-5903", "distance": 2881.468964565986}, {"id": "B7wMQrO-Ls0p2Z-j4u706w", "alias": "max-burger-longmeadow", "name": "Max Burger", "image_url": "https://s3-media2.fl.yelpcdn.com/bphoto/TSAF0biauIG4WpCgI3c_mQ/o.jpg", "is_closed": false, "url": "https://www.yelp.com/biz/max-burger-longmeadow?adjust_creative=h5HwbyQ0TYvQjBo6Ys5Bgw&utm_campaign=yelp_api_v3&utm_medium=api_v3_business_search&utm_source=h5HwbyQ0TYvQjBo6Ys5Bgw", "review_count": 261, "categories": [{"alias": "burgers", "title": "Burgers"}], "rating": 4.0, "coordinates": {"latitude": 42.0569045553503, "longitude": -72.5554972887039}, "transactions": ["delivery", "pickup"], "price": "$$", "location": {"address1": "684 Bliss Rd", "address2": "", "address3": "", "city": "Longmeadow", "zip_code": "01106", "country": "US", "state": "MA", "display_address": ["684 Bliss Rd", "Longmeadow, MA 01106"]}, "phone": "+14137980101", "display_phone": "(413) 798-0101", "distance": 2176.219482092772}, {"id": "XJC6C0bzkrqMxiO2b2xDZw", "alias": "ph-delicious-authentic-vietnamese-cuisine-east-longmeadow", "name": "Ph Delicious - Authentic Vietnamese Cuisine", "image_url": "https://s3-media2.fl.yelpcdn.com/bphoto/LHlghEZlg_7efpfDHSpLLg/o.jpg", "is_closed": false, "url": "https://www.yelp.com/biz/ph-delicious-authentic-vietnamese-cuisine-east-longmeadow?adjust_creative=h5HwbyQ0TYvQjBo6Ys5Bgw&utm_campaign=yelp_api_v3&utm_medium=api_v3_business_search&utm_source=h5HwbyQ0TYvQjBo6Ys5Bgw", "review_count": 27, "categories": [{"alias": "vietnamese", "title": "Vietnamese"}], "rating": 4.0, "coordinates": {"latitude": 42.06417, "longitude": -72.51393}, "transactions": [], "price": "$$", "location": {"address1": "14 Maple St", "address2": "", "address3": null, "city": "East Longmeadow", "zip_code": "01028", "country": "US", "state": "MA", "display_address": ["14 Maple St", "East Longmeadow, MA 01028"]}, "phone": "+14132242245", "display_phone": "(413) 224-2245", "distance": 2480.135043695414}, {"id": "mNNTXbRPA6xKsWAFEJekdA", "alias": "fazios-ristorante-and-pizzeria-east-longmeadow", "name": "Fazio's Ristorante & Pizzeria", "image_url": "https://s3-media4.fl.yelpcdn.com/bphoto/Xcm8qoaZFpxKGYAXiPNO2g/o.jpg", "is_closed": false, "url": "https://www.yelp.com/biz/fazios-ristorante-and-pizzeria-east-longmeadow?adjust_creative=h5HwbyQ0TYvQjBo6Ys5Bgw&utm_campaign=yelp_api_v3&utm_medium=api_v3_business_search&utm_source=h5HwbyQ0TYvQjBo6Ys5Bgw", "review_count": 57, "categories": [{"alias": "italian", "title": "Italian"}, {"alias": "pizza", "title": "Pizza"}], "rating": 3.5, "coordinates": {"latitude": 42.0574039, "longitude": -72.5172633}, "transactions": ["delivery"], "price": "$$", "location": {"address1": "162 Shaker Rd", "address2": "", "address3": "", "city": "East Longmeadow", "zip_code": "01028", "country": "US", "state": "MA", "display_address": ["162 Shaker Rd", "East Longmeadow, MA 01028"]}, "phone": "+14135252735", "display_phone": "(413) 525-2735", "distance": 1725.8075836958742}, {"id": "zTaqO3RyZPjm0Jo8tUpe5g", "alias": "grapevine-pizzeria-and-restaurant-longmeadow", "name": "Grapevine Pizzeria & Restaurant", "image_url": "https://s3-media2.fl.yelpcdn.com/bphoto/hyaXiFIet_9-2uv8Jm0TLw/o.jpg", "is_closed": false, "url": "https://www.yelp.com/biz/grapevine-pizzeria-and-restaurant-longmeadow?adjust_creative=h5HwbyQ0TYvQjBo6Ys5Bgw&utm_campaign=yelp_api_v3&utm_medium=api_v3_business_search&utm_source=h5HwbyQ0TYvQjBo6Ys5Bgw", "review_count": 39, "categories": [{"alias": "greek", "title": "Greek"}, {"alias": "pizza", "title": "Pizza"}], "rating": 4.0, "coordinates": {"latitude": 42.0325069, "longitude": -72.5547146}, "transactions": ["delivery"], "price": "$$", "location": {"address1": "753 Maple Rd", "address2": "", "address3": "", "city": "Longmeadow", "zip_code": "01106", "country": "US", "state": "MA", "display_address": ["753 Maple Rd", "Longmeadow, MA 01106"]}, "phone": "+14135676266", "display_phone": "(413) 567-6266", "distance": 2427.958329969282}, {"id": "UiYFYz-dSuXFdDrLEqd2Sg", "alias": "ume-asian-bistro-longmeadow", "name": "Ume Asian Bistro", "image_url": "https://s3-media3.fl.yelpcdn.com/bphoto/-ejzr90Bcp5bP14cG79Vew/o.jpg", "is_closed": false, "url": "https://www.yelp.com/biz/ume-asian-bistro-longmeadow?adjust_creative=h5HwbyQ0TYvQjBo6Ys5Bgw&utm_campaign=yelp_api_v3&utm_medium=api_v3_business_search&utm_source=h5HwbyQ0TYvQjBo6Ys5Bgw", "review_count": 115, "categories": [{"alias": "sushi", "title": "Sushi Bars"}, {"alias": "asianfusion", "title": "Asian Fusion"}, {"alias": "japanese", "title": "Japanese"}], "rating": 4.0, "coordinates": {"latitude": 42.0566606, "longitude": -72.5564449}, "transactions": ["delivery"], "price": "$$", "location": {"address1": "732 Bliss Rd", "address2": "", "address3": "", "city": "Longmeadow", "zip_code": "01106", "country": "US", "state": "MA", "display_address": ["732 Bliss Rd", "Longmeadow, MA 01106"]}, "phone": "+14135655088", "display_phone": "(413) 565-5088", "distance": 2230.8486394090774}, {"id": "EZTbio4sz6fUPIvixiRxfA", "alias": "bentleys-bistro-east-longmeadow", "name": "Bentley's Bistro", "image_url": "https://s3-media3.fl.yelpcdn.com/bphoto/6THiRmv6YNAgT9g2nUPUyQ/o.jpg", "is_closed": false, "url": "https://www.yelp.com/biz/bentleys-bistro-east-longmeadow?adjust_creative=h5HwbyQ0TYvQjBo6Ys5Bgw&utm_campaign=yelp_api_v3&utm_medium=api_v3_business_search&utm_source=h5HwbyQ0TYvQjBo6Ys5Bgw", "review_count": 86, "categories": [{"alias": "newamerican", "title": "American (New)"}, {"alias": "bars", "title": "Bars"}], "rating": 3.0, "coordinates": {"latitude": 42.06691, "longitude": -72.5135899}, "transactions": [], "price": "$$", "location": {"address1": "53 N Main St", "address2": "", "address3": "", "city": "East Longmeadow", "zip_code": "01028", "country": "US", "state": "MA", "display_address": ["53 N Main St", "East Longmeadow, MA 01028"]}, "phone": "+14135257777", "display_phone": "(413) 525-7777", "distance": 2742.306801477196}, {"id": "hg9_mB-vLWnoJ7xRLqpnyg", "alias": "marios-cafe-ambiance-east-longmeadow", "name": "Mario's Cafe Ambiance", "image_url": "https://s3-media2.fl.yelpcdn.com/bphoto/LkdGgRVPttmR0lms_TK66A/o.jpg", "is_closed": false, "url": "https://www.yelp.com/biz/marios-cafe-ambiance-east-longmeadow?adjust_creative=h5HwbyQ0TYvQjBo6Ys5Bgw&utm_campaign=yelp_api_v3&utm_medium=api_v3_business_search&utm_source=h5HwbyQ0TYvQjBo6Ys5Bgw", "review_count": 28, "categories": [{"alias": "italian", "title": "Italian"}], "rating": 3.0, "coordinates": {"latitude": 42.06239, "longitude": -72.51375}, "transactions": ["delivery"], "price": "$$", "location": {"address1": "60 Shaker Rd", "address2": "", "address3": "", "city": "East Longmeadow", "zip_code": "01028", "country": "US", "state": "MA", "display_address": ["60 Shaker Rd", "East Longmeadow, MA 01028"]}, "phone": "+14132242295", "display_phone": "(413) 224-2295", "distance": 2373.4476783712907}, {"id": "cP5UQDzXPGabXISX9wxEHw", "alias": "iron-chef-asian-cuisine-longmeadow", "name": "Iron Chef Asian Cuisine", "image_url": "https://s3-media1.fl.yelpcdn.com/bphoto/0Mzd5xFPw_7blkiIVUQ5qQ/o.jpg", "is_closed": false, "url": "https://www.yelp.com/biz/iron-chef-asian-cuisine-longmeadow?adjust_creative=h5HwbyQ0TYvQjBo6Ys5Bgw&utm_campaign=yelp_api_v3&utm_medium=api_v3_business_search&utm_source=h5HwbyQ0TYvQjBo6Ys5Bgw", "review_count": 78, "categories": [{"alias": "sushi", "title": "Sushi Bars"}, {"alias": "chinese", "title": "Chinese"}], "rating": 3.5, "coordinates": {"latitude": 42.0331335, "longitude": -72.553239}, "transactions": ["delivery"], "price": "$$", "location": {"address1": "923 Shaker Rd", "address2": "", "address3": "", "city": "Longmeadow", "zip_code": "01106", "country": "US", "state": "MA", "display_address": ["923 Shaker Rd", "Longmeadow, MA 01106"]}, "phone": "+14135678001", "display_phone": "(413) 567-8001", "distance": 2287.7069790094674}, {"id": "cC3MXwOa2pRknnqkyKDxtQ", "alias": "taos-asian-cuisine-east-longmeadow-2", "name": "Tao's Asian Cuisine", "image_url": "https://s3-media2.fl.yelpcdn.com/bphoto/9GgNDep4pPGxJ2Vs011ujg/o.jpg", "is_closed": false, "url": "https://www.yelp.com/biz/taos-asian-cuisine-east-longmeadow-2?adjust_creative=h5HwbyQ0TYvQjBo6Ys5Bgw&utm_campaign=yelp_api_v3&utm_medium=api_v3_business_search&utm_source=h5HwbyQ0TYvQjBo6Ys5Bgw", "review_count": 60, "categories": [{"alias": "asianfusion", "title": "Asian Fusion"}, {"alias": "sushi", "title": "Sushi Bars"}], "rating": 4.0, "coordinates": {"latitude": 42.0806085800348, "longitude": -72.5290245482753}, "transactions": ["delivery"], "price": "$$", "location": {"address1": "31 Harkness Ave", "address2": "", "address3": "", "city": "East Longmeadow", "zip_code": "01028", "country": "US", "state": "MA", "display_address": ["31 Harkness Ave", "East Longmeadow, MA 01028"]}, "phone": "+14135251820", "display_phone": "(413) 525-1820", "distance": 3750.3823319205726}, {"id": "raQZ-9gBFJ7HOuhIfpKBaA", "alias": "delaneys-market-longmeadow", "name": "Delaney's Market", "image_url": "https://s3-media3.fl.yelpcdn.com/bphoto/Ibb7WymgaoGs8sPxWgtg2w/o.jpg", "is_closed": false, "url": "https://www.yelp.com/biz/delaneys-market-longmeadow?adjust_creative=h5HwbyQ0TYvQjBo6Ys5Bgw&utm_campaign=yelp_api_v3&utm_medium=api_v3_business_search&utm_source=h5HwbyQ0TYvQjBo6Ys5Bgw", "review_count": 7, "categories": [{"alias": "desserts", "title": "Desserts"}, {"alias": "beer_and_wine", "title": "Beer, Wine & Spirits"}, {"alias": "delis", "title": "Delis"}], "rating": 4.5, "coordinates": {"latitude": 42.0568969552648, "longitude": -72.5540541780182}, "transactions": [], "price": "$$$", "location": {"address1": "696 Bliss Rd", "address2": null, "address3": "", "city": "Longmeadow", "zip_code": "01106", "country": "US", "state": "MA", "display_address": ["696 Bliss Rd", "Longmeadow, MA 01106"]}, "phone": "+14133728486", "display_phone": "(413) 372-8486", "distance": 2073.897721484723}, {"id": "WENKITfiMcn8DVRcdCCjEg", "alias": "villa-napoletana-east-longmeadow", "name": "Villa Napoletana", "image_url": "https://s3-media2.fl.yelpcdn.com/bphoto/QO7cwZQsS2gBv-Rm-Oa2bw/o.jpg", "is_closed": false, "url": "https://www.yelp.com/biz/villa-napoletana-east-longmeadow?adjust_creative=h5HwbyQ0TYvQjBo6Ys5Bgw&utm_campaign=yelp_api_v3&utm_medium=api_v3_business_search&utm_source=h5HwbyQ0TYvQjBo6Ys5Bgw", "review_count": 74, "categories": [{"alias": "italian", "title": "Italian"}], "rating": 3.5, "coordinates": {"latitude": 42.080729, "longitude": -72.539177}, "transactions": ["delivery"], "price": "$$", "location": {"address1": "664 N Main St", "address2": "", "address3": "", "city": "East Longmeadow", "zip_code": "01028", "country": "US", "state": "MA", "display_address": ["664 N Main St", "East Longmeadow, MA 01028"]}, "phone": "+14137329300", "display_phone": "(413) 732-9300", "distance": 3775.9863457034467}, {"id": "d1_kG_CUok5Zd26OaVP5tA", "alias": "pizza-shoppe-east-longmeadow", "name": "Pizza Shoppe", "image_url": "https://s3-media2.fl.yelpcdn.com/bphoto/XNtG_pjCTvWSzz-dszBq2w/o.jpg", "is_closed": false, "url": "https://www.yelp.com/biz/pizza-shoppe-east-longmeadow?adjust_creative=h5HwbyQ0TYvQjBo6Ys5Bgw&utm_campaign=yelp_api_v3&utm_medium=api_v3_business_search&utm_source=h5HwbyQ0TYvQjBo6Ys5Bgw", "review_count": 66, "categories": [{"alias": "pizza", "title": "Pizza"}], "rating": 3.0, "coordinates": {"latitude": 42.0587958, "longitude": -72.5163018}, "transactions": ["delivery"], "price": "$$", "location": {"address1": "134 Shaker Rd", "address2": "", "address3": "", "city": "East Longmeadow", "zip_code": "01028", "country": "US", "state": "MA", "display_address": ["134 Shaker Rd", "East Longmeadow, MA 01028"]}, "phone": "+14135252470", "display_phone": "(413) 525-2470", "distance": 1915.4996379324743}, {"id": "KeRNly6qnqWCCY2VLz3L8Q", "alias": "lis-brothers-longmeadow", "name": "Li's Brothers", "image_url": "https://s3-media1.fl.yelpcdn.com/bphoto/IYGbTsk4fXkKFKuuuYcDbA/o.jpg", "is_closed": false, "url": "https://www.yelp.com/biz/lis-brothers-longmeadow?adjust_creative=h5HwbyQ0TYvQjBo6Ys5Bgw&utm_campaign=yelp_api_v3&utm_medium=api_v3_business_search&utm_source=h5HwbyQ0TYvQjBo6Ys5Bgw", "review_count": 48, "categories": [{"alias": "chinese", "title": "Chinese"}, {"alias": "japanese", "title": "Japanese"}, {"alias": "sushi", "title": "Sushi Bars"}], "rating": 3.5, "coordinates": {"latitude": 42.0327901898061, "longitude": -72.5529426647795}, "transactions": ["delivery"], "price": "$$", "location": {"address1": "795 Maple Rd", "address2": "", "address3": "", "city": "Longmeadow", "zip_code": "01106", "country": "US", "state": "MA", "display_address": ["795 Maple Rd", "Longmeadow, MA 01106"]}, "phone": "+14135672037", "display_phone": "(413) 567-2037", "distance": 2299.4510366910986}, {"id": "Nu24v7fAIsm0B3cwgWDIkw", "alias": "patsys-ristorante-east-longmeadow", "name": "Patsy's Ristorante", "image_url": "https://s3-media2.fl.yelpcdn.com/bphoto/44h39xsRPr-GfA_Zp5wK4A/o.jpg", "is_closed": false, "url": "https://www.yelp.com/biz/patsys-ristorante-east-longmeadow?adjust_creative=h5HwbyQ0TYvQjBo6Ys5Bgw&utm_campaign=yelp_api_v3&utm_medium=api_v3_business_search&utm_source=h5HwbyQ0TYvQjBo6Ys5Bgw", "review_count": 23, "categories": [{"alias": "italian", "title": "Italian"}], "rating": 4.0, "coordinates": {"latitude": 42.0798263549805, "longitude": -72.5355911254883}, "transactions": ["delivery"], "price": "$$", "location": {"address1": "600 N Main St", "address2": "", "address3": "", "city": "East Longmeadow", "zip_code": "01028", "country": "US", "state": "MA", "display_address": ["600 N Main St", "East Longmeadow, MA 01028"]}, "phone": "+14137390275", "display_phone": "(413) 739-0275", "distance": 3656.4793668515954}, {"id": "EHtaP-aIvTxAXmTdcFVtGA", "alias": "the-souper-sweet-sandwich-shop-springfield", "name": "The Souper Sweet Sandwich Shop", "image_url": "https://s3-media1.fl.yelpcdn.com/bphoto/lCyjiqtz4ZjC-jxXutlM9A/o.jpg", "is_closed": false, "url": "https://www.yelp.com/biz/the-souper-sweet-sandwich-shop-springfield?adjust_creative=h5HwbyQ0TYvQjBo6Ys5Bgw&utm_campaign=yelp_api_v3&utm_medium=api_v3_business_search&utm_source=h5HwbyQ0TYvQjBo6Ys5Bgw", "review_count": 30, "categories": [{"alias": "sandwiches", "title": "Sandwiches"}, {"alias": "salad", "title": "Salad"}, {"alias": "soup", "title": "Soup"}], "rating": 4.5, "coordinates": {"latitude": 42.0838206, "longitude": -72.5442487}, "transactions": ["delivery", "pickup"], "location": {"address1": "929 Belmont Ave", "address2": null, "address3": "", "city": "Springfield", "zip_code": "01108", "country": "US", "state": "MA", "display_address": ["929 Belmont Ave", "Springfield, MA 01108"]}, "phone": "+14132098260", "display_phone": "(413) 209-8260", "distance": 4209.01117609676}, {"id": "5XE67G-9L0KhqaFoZ6AYpA", "alias": "luigis-longmeadow", "name": "Luigi's", "image_url": "https://s3-media1.fl.yelpcdn.com/bphoto/juN9Z-pUSNK6N9vdGnx2Eg/o.jpg", "is_closed": false, "url": "https://www.yelp.com/biz/luigis-longmeadow?adjust_creative=h5HwbyQ0TYvQjBo6Ys5Bgw&utm_campaign=yelp_api_v3&utm_medium=api_v3_business_search&utm_source=h5HwbyQ0TYvQjBo6Ys5Bgw", "review_count": 22, "categories": [{"alias": "pizza", "title": "Pizza"}, {"alias": "salad", "title": "Salad"}, {"alias": "italian", "title": "Italian"}], "rating": 3.0, "coordinates": {"latitude": 42.0327365, "longitude": -72.5525494}, "transactions": ["delivery"], "location": {"address1": "809-807 Maple Rd", "address2": "", "address3": "", "city": "Longmeadow", "zip_code": "01106", "country": "US", "state": "MA", "display_address": ["809-807 Maple Rd", "Longmeadow, MA 01106"]}, "phone": "+14135672200", "display_phone": "(413) 567-2200", "distance": 2289.6285448613285}, {"id": "A2E7BDtZHvlOfaraA3CTCQ", "alias": "frigo-foods-east-longmeadow", "name": "Frigo Foods", "image_url": "https://s3-media1.fl.yelpcdn.com/bphoto/FE2JxZXwtYaHOZ7s3K6Gbw/o.jpg", "is_closed": false, "url": "https://www.yelp.com/biz/frigo-foods-east-longmeadow?adjust_creative=h5HwbyQ0TYvQjBo6Ys5Bgw&utm_campaign=yelp_api_v3&utm_medium=api_v3_business_search&utm_source=h5HwbyQ0TYvQjBo6Ys5Bgw", "review_count": 48, "categories": [{"alias": "delis", "title": "Delis"}, {"alias": "sandwiches", "title": "Sandwiches"}, {"alias": "newamerican", "title": "American (New)"}], "rating": 4.0, "coordinates": {"latitude": 42.0579993, "longitude": -72.517425}, "transactions": ["delivery"], "price": "$", "location": {"address1": "159 Shaker Rd", "address2": null, "address3": null, "city": "East Longmeadow", "zip_code": "01028", "country": "US", "state": "MA", "display_address": ["159 Shaker Rd", "East Longmeadow, MA 01028"]}, "phone": "+14135259400", "display_phone": "(413) 525-9400", "distance": 1745.2485518314527}, {"id": "9QxngSMOIiRLPvvdRaZXJg", "alias": "de-nardos-pizzeria-and-restaurant-east-longmeadow", "name": "De Nardo's Pizzeria & Restaurant", "image_url": "https://s3-media2.fl.yelpcdn.com/bphoto/Ie4bGC4Efs3COVLOwz88Sw/o.jpg", "is_closed": false, "url": "https://www.yelp.com/biz/de-nardos-pizzeria-and-restaurant-east-longmeadow?adjust_creative=h5HwbyQ0TYvQjBo6Ys5Bgw&utm_campaign=yelp_api_v3&utm_medium=api_v3_business_search&utm_source=h5HwbyQ0TYvQjBo6Ys5Bgw", "review_count": 21, "categories": [{"alias": "pizza", "title": "Pizza"}, {"alias": "italian", "title": "Italian"}], "rating": 3.5, "coordinates": {"latitude": 42.06411, "longitude": -72.51569}, "transactions": ["delivery"], "price": "$$", "location": {"address1": "39 Maple St", "address2": "", "address3": "", "city": "East Longmeadow", "zip_code": "01028", "country": "US", "state": "MA", "display_address": ["39 Maple St", "East Longmeadow, MA 01028"]}, "phone": "+14135253600", "display_phone": "(413) 525-3600", "distance": 2376.6710584562334}, {"id": "Vg3L8IfxrM0asOgBN97D3g", "alias": "angelos-pizza-enfield", "name": "Angelos Pizza", "image_url": "https://s3-media2.fl.yelpcdn.com/bphoto/qrtqbt8Lv44LtrT8SpP0VQ/o.jpg", "is_closed": false, "url": "https://www.yelp.com/biz/angelos-pizza-enfield?adjust_creative=h5HwbyQ0TYvQjBo6Ys5Bgw&utm_campaign=yelp_api_v3&utm_medium=api_v3_business_search&utm_source=h5HwbyQ0TYvQjBo6Ys5Bgw", "review_count": 14, "categories": [{"alias": "italian", "title": "Italian"}, {"alias": "pizza", "title": "Pizza"}], "rating": 4.5, "coordinates": {"latitude": 42.022796, "longitude": -72.560322}, "transactions": ["delivery"], "price": "$", "location": {"address1": "240 Brainard Rd", "address2": "", "address3": "", "city": "Enfield", "zip_code": "06082", "country": "US", "state": "CT", "display_address": ["240 Brainard Rd", "Enfield, CT 06082"]}, "phone": "+18607416033", "display_phone": "(860) 741-6033", "distance": 3524.064843109554}, {"id": "_oCJr_JVPBCT-Ap1rUbveg", "alias": "ichiban-east-longmeadow-east-longmeadow", "name": "Ichiban East Longmeadow", "image_url": "https://s3-media1.fl.yelpcdn.com/bphoto/Et1M_9-uy1yEqvxCn8XalA/o.jpg", "is_closed": false, "url": "https://www.yelp.com/biz/ichiban-east-longmeadow-east-longmeadow?adjust_creative=h5HwbyQ0TYvQjBo6Ys5Bgw&utm_campaign=yelp_api_v3&utm_medium=api_v3_business_search&utm_source=h5HwbyQ0TYvQjBo6Ys5Bgw", "review_count": 60, "categories": [{"alias": "japanese", "title": "Japanese"}, {"alias": "sushi", "title": "Sushi Bars"}, {"alias": "chinese", "title": "Chinese"}], "rating": 4.0, "coordinates": {"latitude": 42.0781819, "longitude": -72.5263044}, "transactions": ["delivery"], "price": "$$", "location": {"address1": "422 N Main St", "address2": "", "address3": "", "city": "East Longmeadow", "zip_code": "01028", "country": "US", "state": "MA", "display_address": ["422 N Main St", "East Longmeadow, MA 01028"]}, "phone": "+14135251688", "display_phone": "(413) 525-1688", "distance": 3358.609266335146}, {"id": "5rVWRP3F9H7le5RAQEK0uQ", "alias": "coughlins-place-east-longmeadow", "name": "Coughlin's Place", "image_url": "https://s3-media2.fl.yelpcdn.com/bphoto/1-WkozvSLR_-8BpHwY9_LQ/o.jpg", "is_closed": false, "url": "https://www.yelp.com/biz/coughlins-place-east-longmeadow?adjust_creative=h5HwbyQ0TYvQjBo6Ys5Bgw&utm_campaign=yelp_api_v3&utm_medium=api_v3_business_search&utm_source=h5HwbyQ0TYvQjBo6Ys5Bgw", "review_count": 79, "categories": [{"alias": "breakfast_brunch", "title": "Breakfast & Brunch"}], "rating": 4.5, "coordinates": {"latitude": 42.07145, "longitude": -72.51796}, "transactions": ["delivery"], "price": "$", "location": {"address1": "182 N Main St", "address2": "", "address3": "", "city": "East Longmeadow", "zip_code": "01028", "country": "US", "state": "MA", "display_address": ["182 N Main St", "East Longmeadow, MA 01028"]}, "phone": "+14135251899", "display_phone": "(413) 525-1899", "distance": 2990.2089664665455}, {"id": "LYuNmpY4ZT3JltFhTcXnZQ", "alias": "great-harvest-longmeadow", "name": "Great Harvest", "image_url": "https://s3-media4.fl.yelpcdn.com/bphoto/96T3v1iayL-JX4Xphr1wgQ/o.jpg", "is_closed": false, "url": "https://www.yelp.com/biz/great-harvest-longmeadow?adjust_creative=h5HwbyQ0TYvQjBo6Ys5Bgw&utm_campaign=yelp_api_v3&utm_medium=api_v3_business_search&utm_source=h5HwbyQ0TYvQjBo6Ys5Bgw", "review_count": 19, "categories": [{"alias": "bakeries", "title": "Bakeries"}, {"alias": "sandwiches", "title": "Sandwiches"}, {"alias": "salad", "title": "Salad"}], "rating": 3.5, "coordinates": {"latitude": 42.056929, "longitude": -72.554001}, "transactions": ["delivery"], "price": "$$", "location": {"address1": "714 Bliss Rd", "address2": "", "address3": null, "city": "Longmeadow", "zip_code": "01106", "country": "US", "state": "MA", "display_address": ["714 Bliss Rd", "Longmeadow, MA 01106"]}, "phone": "+14137543460", "display_phone": "(413) 754-3460", "distance": 2072.075075671039}, {"id": "nrLxUbJiQd6De_8yx7_jIQ", "alias": "crazy-arepas-springfield", "name": "Crazy Arepas", "image_url": "https://s3-media2.fl.yelpcdn.com/bphoto/xBRYNve2vxH1M1iG5Gm4lQ/o.jpg", "is_closed": false, "url": "https://www.yelp.com/biz/crazy-arepas-springfield?adjust_creative=h5HwbyQ0TYvQjBo6Ys5Bgw&utm_campaign=yelp_api_v3&utm_medium=api_v3_business_search&utm_source=h5HwbyQ0TYvQjBo6Ys5Bgw", "review_count": 3, "categories": [{"alias": "foodtrucks", "title": "Food Trucks"}, {"alias": "spanish", "title": "Spanish"}, {"alias": "tradamerican", "title": "American (Traditional)"}], "rating": 5.0, "coordinates": {"latitude": 42.1191, "longitude": -72.55044}, "transactions": [], "location": {"address1": null, "address2": null, "address3": null, "city": "Springfield", "zip_code": "01109", "country": "US", "state": "MA", "display_address": ["Springfield, MA 01109"]}, "phone": "+14138888083", "display_phone": "(413) 888-8083", "distance": 8649.32079815872}, {"id": "J83pvIAjMdW5Qkgc-oqVwA", "alias": "99-restaurants-e-longmeadow", "name": "99 Restaurants", "image_url": "https://s3-media3.fl.yelpcdn.com/bphoto/zoRcErZkHb2QQBwA8J_Nmw/o.jpg", "is_closed": false, "url": "https://www.yelp.com/biz/99-restaurants-e-longmeadow?adjust_creative=h5HwbyQ0TYvQjBo6Ys5Bgw&utm_campaign=yelp_api_v3&utm_medium=api_v3_business_search&utm_source=h5HwbyQ0TYvQjBo6Ys5Bgw", "review_count": 23, "categories": [{"alias": "pubs", "title": "Pubs"}, {"alias": "tradamerican", "title": "American (Traditional)"}], "rating": 3.0, "coordinates": {"latitude": 42.0778499, "longitude": -72.5248035}, "transactions": [], "price": "$$", "location": {"address1": "390 North Main St", "address2": "", "address3": "", "city": "E. Longmeadow", "zip_code": "01028", "country": "US", "state": "MA", "display_address": ["390 North Main St", "E. Longmeadow, MA 01028"]}, "phone": "+14135259900", "display_phone": "(413) 525-9900", "distance": 3474.1129004640575}, {"id": "Ob4iXA6r0QOm9t3YQvqZmw", "alias": "new-china-restaurant-enfield", "name": "New China Restaurant", "image_url": "https://s3-media1.fl.yelpcdn.com/bphoto/MwvsGXhkySB1OAiahrwzvA/o.jpg", "is_closed": false, "url": "https://www.yelp.com/biz/new-china-restaurant-enfield?adjust_creative=h5HwbyQ0TYvQjBo6Ys5Bgw&utm_campaign=yelp_api_v3&utm_medium=api_v3_business_search&utm_source=h5HwbyQ0TYvQjBo6Ys5Bgw", "review_count": 5, "categories": [{"alias": "chinese", "title": "Chinese"}], "rating": 4.0, "coordinates": {"latitude": 42.02169, "longitude": -72.54066}, "transactions": ["delivery"], "price": "$", "location": {"address1": "284 N Maple St", "address2": "", "address3": "", "city": "Enfield", "zip_code": "06082", "country": "US", "state": "CT", "display_address": ["284 N Maple St", "Enfield, CT 06082"]}, "phone": "+18607491668", "display_phone": "(860) 749-1668", "distance": 2882.725712980281}, {"id": "gdvbEY3k20pCoaq7B_GFZw", "alias": "bamboo-house-springfield-2", "name": "Bamboo House", "image_url": "https://s3-media1.fl.yelpcdn.com/bphoto/eZCUM1zYBGD4jSWU5ecX9w/o.jpg", "is_closed": false, "url": "https://www.yelp.com/biz/bamboo-house-springfield-2?adjust_creative=h5HwbyQ0TYvQjBo6Ys5Bgw&utm_campaign=yelp_api_v3&utm_medium=api_v3_business_search&utm_source=h5HwbyQ0TYvQjBo6Ys5Bgw", "review_count": 81, "categories": [{"alias": "vietnamese", "title": "Vietnamese"}], "rating": 4.5, "coordinates": {"latitude": 42.0851968, "longitude": -72.5532552}, "transactions": ["delivery"], "price": "$$", "location": {"address1": "676 Belmont Ave", "address2": "", "address3": "", "city": "Springfield", "zip_code": "01108", "country": "US", "state": "MA", "display_address": ["676 Belmont Ave", "Springfield, MA 01108"]}, "phone": "+14137320741", "display_phone": "(413) 732-0741", "distance": 4578.097023819085}, {"id": "uptJi3HQFB89PuLLVaDEpQ", "alias": "koffee-tyme-east-longmeadow", "name": "Koffee Tyme", "image_url": "https://s3-media3.fl.yelpcdn.com/bphoto/bYvajo-9u156spJgafXYiw/o.jpg", "is_closed": false, "url": "https://www.yelp.com/biz/koffee-tyme-east-longmeadow?adjust_creative=h5HwbyQ0TYvQjBo6Ys5Bgw&utm_campaign=yelp_api_v3&utm_medium=api_v3_business_search&utm_source=h5HwbyQ0TYvQjBo6Ys5Bgw", "review_count": 14, "categories": [{"alias": "breakfast_brunch", "title": "Breakfast & Brunch"}], "rating": 4.5, "coordinates": {"latitude": 42.063139, "longitude": -72.513617}, "transactions": [], "price": "$", "location": {"address1": "46 Shaker Rd", "address2": "", "address3": "", "city": "East Longmeadow", "zip_code": "01028", "country": "US", "state": "MA", "display_address": ["46 Shaker Rd", "East Longmeadow, MA 01028"]}, "phone": "+14135258394", "display_phone": "(413) 525-8394", "distance": 2387.5731544421924}, {"id": "bv8FLMjPNIWFKJrTWYXj7Q", "alias": "peppas-by-the-slice-east-longmeadow-east-longmeadow", "name": "Peppas by the Slice - East Longmeadow", "image_url": "https://s3-media2.fl.yelpcdn.com/bphoto/Zn1jjqLbQauiYZD_I33bKA/o.jpg", "is_closed": false, "url": "https://www.yelp.com/biz/peppas-by-the-slice-east-longmeadow-east-longmeadow?adjust_creative=h5HwbyQ0TYvQjBo6Ys5Bgw&utm_campaign=yelp_api_v3&utm_medium=api_v3_business_search&utm_source=h5HwbyQ0TYvQjBo6Ys5Bgw", "review_count": 61, "categories": [{"alias": "pizza", "title": "Pizza"}], "rating": 3.5, "coordinates": {"latitude": 42.080487, "longitude": -72.5291754}, "transactions": ["delivery"], "price": "$", "location": {"address1": "33 Harkness Ave", "address2": "", "address3": "", "city": "East Longmeadow", "zip_code": "01028", "country": "US", "state": "MA", "display_address": ["33 Harkness Ave", "East Longmeadow, MA 01028"]}, "phone": "+14135257859", "display_phone": "(413) 525-7859", "distance": 3763.0274034406725}, {"id": "8xUUyHmYw0RtNHsRTRJZiQ", "alias": "the-kitchen-longmeadow-2", "name": "The Kitchen", "image_url": "https://s3-media2.fl.yelpcdn.com/bphoto/PuDp0UltBJ9kyf5UF3O1OQ/o.jpg", "is_closed": false, "url": "https://www.yelp.com/biz/the-kitchen-longmeadow-2?adjust_creative=h5HwbyQ0TYvQjBo6Ys5Bgw&utm_campaign=yelp_api_v3&utm_medium=api_v3_business_search&utm_source=h5HwbyQ0TYvQjBo6Ys5Bgw", "review_count": 39, "categories": [{"alias": "breakfast_brunch", "title": "Breakfast & Brunch"}, {"alias": "icecream", "title": "Ice Cream & Frozen Yogurt"}, {"alias": "tradamerican", "title": "American (Traditional)"}], "rating": 3.0, "coordinates": {"latitude": 42.055124, "longitude": -72.554772}, "transactions": ["delivery"], "price": "$", "location": {"address1": "791 Williams St", "address2": null, "address3": null, "city": "Longmeadow", "zip_code": "01106", "country": "US", "state": "MA", "display_address": ["791 Williams St", "Longmeadow, MA 01106"]}, "phone": "+14137543770", "display_phone": "(413) 754-3770", "distance": 2029.2196163181045}, {"id": "-J0cI7NfdG5AmwaaOsKUcA", "alias": "an-caf\u00e9-springfield", "name": "An Caf\u00e9", "image_url": "https://s3-media3.fl.yelpcdn.com/bphoto/UpcF8vtIczIqsSO9E5Pv9w/o.jpg", "is_closed": false, "url": "https://www.yelp.com/biz/an-caf%C3%A9-springfield?adjust_creative=h5HwbyQ0TYvQjBo6Ys5Bgw&utm_campaign=yelp_api_v3&utm_medium=api_v3_business_search&utm_source=h5HwbyQ0TYvQjBo6Ys5Bgw", "review_count": 9, "categories": [{"alias": "vietnamese", "title": "Vietnamese"}, {"alias": "juicebars", "title": "Juice Bars & Smoothies"}], "rating": 4.0, "coordinates": {"latitude": 42.0799004, "longitude": -72.554144}, "transactions": ["delivery"], "price": "$$", "location": {"address1": "667 Dickinson St", "address2": "", "address3": null, "city": "Springfield", "zip_code": "01108", "country": "US", "state": "MA", "display_address": ["667 Dickinson St", "Springfield, MA 01108"]}, "phone": "+14133639151", "display_phone": "(413) 363-9151", "distance": 4095.703465155301}, {"id": "616-oQCamCRDa5JhXQnBuw", "alias": "cantina-curbside-grill-springfield", "name": "Cantina Curbside Grill", "image_url": "https://s3-media3.fl.yelpcdn.com/bphoto/DmWL1gUNkbEH9PdiO9Or9g/o.jpg", "is_closed": false, "url": "https://www.yelp.com/biz/cantina-curbside-grill-springfield?adjust_creative=h5HwbyQ0TYvQjBo6Ys5Bgw&utm_campaign=yelp_api_v3&utm_medium=api_v3_business_search&utm_source=h5HwbyQ0TYvQjBo6Ys5Bgw", "review_count": 1, "categories": [{"alias": "latin", "title": "Latin American"}, {"alias": "foodtrucks", "title": "Food Trucks"}], "rating": 5.0, "coordinates": {"latitude": 42.1011632858, "longitude": -72.5874854261}, "transactions": [], "location": {"address1": null, "address2": null, "address3": null, "city": "Springfield", "zip_code": "01103", "country": "US", "state": "MA", "display_address": ["Springfield, MA 01103"]}, "phone": "+14134262604", "display_phone": "(413) 426-2604", "distance": 7528.296551559409}, {"id": "BWz1KrU5iEYrBXlV0yEPOQ", "alias": "nino-s-pizza-springfield", "name": "Nino\u2019s Pizza", "image_url": "", "is_closed": false, "url": "https://www.yelp.com/biz/nino-s-pizza-springfield?adjust_creative=h5HwbyQ0TYvQjBo6Ys5Bgw&utm_campaign=yelp_api_v3&utm_medium=api_v3_business_search&utm_source=h5HwbyQ0TYvQjBo6Ys5Bgw", "review_count": 3, "categories": [{"alias": "pizza", "title": "Pizza"}], "rating": 3.5, "coordinates": {"latitude": 42.0799, "longitude": -72.55467}, "transactions": [], "location": {"address1": "672 Dickinson St", "address2": "", "address3": null, "city": "Springfield", "zip_code": "01108", "country": "US", "state": "MA", "display_address": ["672 Dickinson St", "Springfield, MA 01108"]}, "phone": "", "display_phone": "", "distance": 4085.5428326472506}, {"id": "Cd9Z5X43e0ZRtq2mHaQXjA", "alias": "jack-chens-east-longmeadow", "name": "Jack Chen's", "image_url": "https://s3-media3.fl.yelpcdn.com/bphoto/wwYpaC6GJmck20KIKXPZBA/o.jpg", "is_closed": false, "url": "https://www.yelp.com/biz/jack-chens-east-longmeadow?adjust_creative=h5HwbyQ0TYvQjBo6Ys5Bgw&utm_campaign=yelp_api_v3&utm_medium=api_v3_business_search&utm_source=h5HwbyQ0TYvQjBo6Ys5Bgw", "review_count": 10, "categories": [{"alias": "chinese", "title": "Chinese"}], "rating": 3.0, "coordinates": {"latitude": 42.0635885, "longitude": -72.5165277}, "transactions": ["delivery"], "price": "$$", "location": {"address1": "59 Maple St", "address2": "", "address3": "", "city": "East Longmeadow", "zip_code": "01028", "country": "US", "state": "MA", "display_address": ["59 Maple St", "East Longmeadow, MA 01028"]}, "phone": "+14135269828", "display_phone": "(413) 526-9828", "distance": 2308.430346370495}, {"id": "wP59E3G0irF-vqpKGMH_BA", "alias": "chipotle-mexican-grill-east-longmeadow", "name": "Chipotle Mexican Grill", "image_url": "https://s3-media1.fl.yelpcdn.com/bphoto/z9KMX5FCgaLXdKbI0H1dKQ/o.jpg", "is_closed": false, "url": "https://www.yelp.com/biz/chipotle-mexican-grill-east-longmeadow?adjust_creative=h5HwbyQ0TYvQjBo6Ys5Bgw&utm_campaign=yelp_api_v3&utm_medium=api_v3_business_search&utm_source=h5HwbyQ0TYvQjBo6Ys5Bgw", "review_count": 4, "categories": [{"alias": "hotdogs", "title": "Fast Food"}, {"alias": "mexican", "title": "Mexican"}], "rating": 3.0, "coordinates": {"latitude": 42.06512, "longitude": -72.515104}, "transactions": ["delivery"], "price": "$", "location": {"address1": "42 Center Sq", "address2": null, "address3": null, "city": "East Longmeadow", "zip_code": "01028", "country": "US", "state": "MA", "display_address": ["42 Center Sq", "East Longmeadow, MA 01028"]}, "phone": "+14135251059", "display_phone": "(413) 525-1059", "distance": 2487.692588374695}, {"id": "norfMJfZE-8U-8EOMI5iMg", "alias": "cookies-cafe-east-longmeadow", "name": "Cookie's Cafe", "image_url": "https://s3-media3.fl.yelpcdn.com/bphoto/OGumdf4UCpcoWfk8_Q7J9w/o.jpg", "is_closed": false, "url": "https://www.yelp.com/biz/cookies-cafe-east-longmeadow?adjust_creative=h5HwbyQ0TYvQjBo6Ys5Bgw&utm_campaign=yelp_api_v3&utm_medium=api_v3_business_search&utm_source=h5HwbyQ0TYvQjBo6Ys5Bgw", "review_count": 58, "categories": [{"alias": "breakfast_brunch", "title": "Breakfast & Brunch"}, {"alias": "cafes", "title": "Cafes"}, {"alias": "bagels", "title": "Bagels"}], "rating": 4.0, "coordinates": {"latitude": 42.07905, "longitude": -72.53166}, "transactions": ["delivery"], "price": "$", "location": {"address1": "520 N Main St", "address2": null, "address3": null, "city": "East Longmeadow", "zip_code": "01028", "country": "US", "state": "MA", "display_address": ["520 N Main St", "East Longmeadow, MA 01028"]}, "phone": "+14137341615", "display_phone": "(413) 734-1615", "distance": 3571.1375765083963}, {"id": "hJh9l6PQCGQS4yQ621GxIg", "alias": "friendlys-east-longmeadow", "name": "Friendly's", "image_url": "https://s3-media2.fl.yelpcdn.com/bphoto/8fUNl5CT8PuRpG9jCz7CMQ/o.jpg", "is_closed": false, "url": "https://www.yelp.com/biz/friendlys-east-longmeadow?adjust_creative=h5HwbyQ0TYvQjBo6Ys5Bgw&utm_campaign=yelp_api_v3&utm_medium=api_v3_business_search&utm_source=h5HwbyQ0TYvQjBo6Ys5Bgw", "review_count": 32, "categories": [{"alias": "icecream", "title": "Ice Cream & Frozen Yogurt"}, {"alias": "burgers", "title": "Burgers"}, {"alias": "tradamerican", "title": "American (Traditional)"}], "rating": 1.5, "coordinates": {"latitude": 42.0796846602732, "longitude": -72.5336506664738}, "transactions": ["delivery"], "price": "$", "location": {"address1": "562 North Main St", "address2": "", "address3": "", "city": "East Longmeadow", "zip_code": "01028", "country": "US", "state": "MA", "display_address": ["562 North Main St", "East Longmeadow, MA 01028"]}, "phone": "+14137810839", "display_phone": "(413) 781-0839", "distance": 3635.622119295952}, {"id": "E-GBzX-_puSiAIQBHf5XTA", "alias": "holyoke-hummus-company-holyoke", "name": "Holyoke Hummus Company", "image_url": "https://s3-media2.fl.yelpcdn.com/bphoto/K-RvwwHMrU-8EFC9r_j1bw/o.jpg", "is_closed": false, "url": "https://www.yelp.com/biz/holyoke-hummus-company-holyoke?adjust_creative=h5HwbyQ0TYvQjBo6Ys5Bgw&utm_campaign=yelp_api_v3&utm_medium=api_v3_business_search&utm_source=h5HwbyQ0TYvQjBo6Ys5Bgw", "review_count": 65, "categories": [{"alias": "mideastern", "title": "Middle Eastern"}, {"alias": "foodtrucks", "title": "Food Trucks"}, {"alias": "breakfast_brunch", "title": "Breakfast & Brunch"}], "rating": 4.5, "coordinates": {"latitude": 42.206426, "longitude": -72.6086119}, "transactions": ["delivery", "pickup"], "price": "$", "location": {"address1": "285 High St", "address2": null, "address3": "", "city": "Holyoke", "zip_code": "01040", "country": "US", "state": "MA", "display_address": ["285 High St", "Holyoke, MA 01040"]}, "phone": "+14132251755", "display_phone": "(413) 225-1755", "distance": 18798.91738690916}, {"id": "D8N9r8hEyuomqobeIwO_yg", "alias": "village-pizza-springfield", "name": "Village Pizza", "image_url": "https://s3-media2.fl.yelpcdn.com/bphoto/BsMF5zWBQJe9De0B3SSneA/o.jpg", "is_closed": false, "url": "https://www.yelp.com/biz/village-pizza-springfield?adjust_creative=h5HwbyQ0TYvQjBo6Ys5Bgw&utm_campaign=yelp_api_v3&utm_medium=api_v3_business_search&utm_source=h5HwbyQ0TYvQjBo6Ys5Bgw", "review_count": 11, "categories": [{"alias": "pizza", "title": "Pizza"}, {"alias": "italian", "title": "Italian"}, {"alias": "sandwiches", "title": "Sandwiches"}], "rating": 3.0, "coordinates": {"latitude": 42.0813871175051, "longitude": -72.5393242388964}, "transactions": ["delivery"], "price": "$", "location": {"address1": "7 Audubon St", "address2": "", "address3": "", "city": "Springfield", "zip_code": "01108", "country": "US", "state": "MA", "display_address": ["7 Audubon St", "Springfield, MA 01108"]}, "phone": "+14137324700", "display_phone": "(413) 732-4700", "distance": 3854.2341560244586}, {"id": "r0Fb7VbDN2NXc23dhAE8OQ", "alias": "subway-east-longmeadow-3", "name": "Subway", "image_url": "https://s3-media1.fl.yelpcdn.com/bphoto/v92DM3Ehbdt4OWX5L3_NnQ/o.jpg", "is_closed": false, "url": "https://www.yelp.com/biz/subway-east-longmeadow-3?adjust_creative=h5HwbyQ0TYvQjBo6Ys5Bgw&utm_campaign=yelp_api_v3&utm_medium=api_v3_business_search&utm_source=h5HwbyQ0TYvQjBo6Ys5Bgw", "review_count": 2, "categories": [{"alias": "sandwiches", "title": "Sandwiches"}], "rating": 3.0, "coordinates": {"latitude": 42.0639089088259, "longitude": -72.5133884}, "transactions": ["delivery", "pickup"], "price": "$", "location": {"address1": "24 Shaker Rd", "address2": "", "address3": "", "city": "East Longmeadow", "zip_code": "01028", "country": "US", "state": "MA", "display_address": ["24 Shaker Rd", "East Longmeadow, MA 01028"]}, "phone": "+14135258189", "display_phone": "(413) 525-8189", "distance": 2469.2478838625198}, {"id": "d2Gt2jGeXMGan7h98P-xLA", "alias": "damiano-pizza-springfield", "name": "Damiano Pizza", "image_url": "", "is_closed": false, "url": "https://www.yelp.com/biz/damiano-pizza-springfield?adjust_creative=h5HwbyQ0TYvQjBo6Ys5Bgw&utm_campaign=yelp_api_v3&utm_medium=api_v3_business_search&utm_source=h5HwbyQ0TYvQjBo6Ys5Bgw", "review_count": 2, "categories": [{"alias": "pizza", "title": "Pizza"}], "rating": 3.5, "coordinates": {"latitude": 42.08131, "longitude": -72.53917}, "transactions": [], "location": {"address1": "7 Audubon St", "address2": "", "address3": "", "city": "Springfield", "zip_code": "01108", "country": "US", "state": "MA", "display_address": ["7 Audubon St", "Springfield, MA 01108"]}, "phone": "+14137328300", "display_phone": "(413) 732-8300", "distance": 3852.3668715086687}, {"id": "yG0Gi5388AH2-mnQwmXwuw", "alias": "subway-longmeadow-3", "name": "Subway", "image_url": "https://s3-media2.fl.yelpcdn.com/bphoto/riWrAaRetx6NHpdqC9ESfQ/o.jpg", "is_closed": false, "url": "https://www.yelp.com/biz/subway-longmeadow-3?adjust_creative=h5HwbyQ0TYvQjBo6Ys5Bgw&utm_campaign=yelp_api_v3&utm_medium=api_v3_business_search&utm_source=h5HwbyQ0TYvQjBo6Ys5Bgw", "review_count": 2, "categories": [{"alias": "sandwiches", "title": "Sandwiches"}], "rating": 3.0, "coordinates": {"latitude": 42.0555400557497, "longitude": -72.5542380276214}, "transactions": ["delivery", "pickup"], "price": "$", "location": {"address1": "819 Williams St", "address2": "Unit M", "address3": null, "city": "Longmeadow", "zip_code": "01106", "country": "US", "state": "MA", "display_address": ["819 Williams St", "Unit M", "Longmeadow, MA 01106"]}, "phone": "+14135674400", "display_phone": "(413) 567-4400", "distance": 2011.27512129154}, {"id": "_SIzEfUN-aKV9TZEBDk2sg", "alias": "panera-bread-east-longmeadow", "name": "Panera Bread", "image_url": "https://s3-media2.fl.yelpcdn.com/bphoto/1k34hsEuvx1TrOPUWrXc4g/o.jpg", "is_closed": false, "url": "https://www.yelp.com/biz/panera-bread-east-longmeadow?adjust_creative=h5HwbyQ0TYvQjBo6Ys5Bgw&utm_campaign=yelp_api_v3&utm_medium=api_v3_business_search&utm_source=h5HwbyQ0TYvQjBo6Ys5Bgw", "review_count": 17, "categories": [{"alias": "sandwiches", "title": "Sandwiches"}, {"alias": "salad", "title": "Salad"}, {"alias": "soup", "title": "Soup"}], "rating": 3.0, "coordinates": {"latitude": 42.078086, "longitude": -72.527942}, "transactions": [], "price": "$$", "location": {"address1": "450 N Main St", "address2": null, "address3": null, "city": "East Longmeadow", "zip_code": "01028", "country": "US", "state": "MA", "display_address": ["450 N Main St", "East Longmeadow, MA 01028"]}, "phone": "+14135258006", "display_phone": "(413) 525-8006", "distance": 3480.011885825609}, {"id": "Io4C5tUwnb_YzeaMXHBqBA", "alias": "shuckin-truck-narragansett-2", "name": "Shuckin Truck", "image_url": "https://s3-media2.fl.yelpcdn.com/bphoto/r7QRORfe9UYVS7GGzUm9DQ/o.jpg", "is_closed": false, "url": "https://www.yelp.com/biz/shuckin-truck-narragansett-2?adjust_creative=h5HwbyQ0TYvQjBo6Ys5Bgw&utm_campaign=yelp_api_v3&utm_medium=api_v3_business_search&utm_source=h5HwbyQ0TYvQjBo6Ys5Bgw", "review_count": 24, "categories": [{"alias": "foodtrucks", "title": "Food Trucks"}, {"alias": "seafood", "title": "Seafood"}], "rating": 4.5, "coordinates": {"latitude": 41.4274482727051, "longitude": -71.4597778320313}, "transactions": [], "price": "$$", "location": {"address1": "", "address2": "", "address3": "", "city": "Narragansett", "zip_code": "02882", "country": "US", "state": "RI", "display_address": ["Narragansett, RI 02882"]}, "phone": "+14017415953", "display_phone": "(401) 741-5953", "distance": 112701.33461161637}, {"id": "qqA8YX58xnmEXLyanHfdUg", "alias": "stufd-food-truck-brooklyn", "name": "Stuf'd Food Truck", "image_url": "https://s3-media2.fl.yelpcdn.com/bphoto/_Wn0i-tLIOFinw8BPAqxPA/o.jpg", "is_closed": false, "url": "https://www.yelp.com/biz/stufd-food-truck-brooklyn?adjust_creative=h5HwbyQ0TYvQjBo6Ys5Bgw&utm_campaign=yelp_api_v3&utm_medium=api_v3_business_search&utm_source=h5HwbyQ0TYvQjBo6Ys5Bgw", "review_count": 4, "categories": [{"alias": "sandwiches", "title": "Sandwiches"}, {"alias": "foodtrucks", "title": "Food Trucks"}], "rating": 4.0, "coordinates": {"latitude": 40.7124539, "longitude": -73.9287374}, "transactions": [], "location": {"address1": "178 Varick Ave", "address2": "", "address3": null, "city": "Brooklyn", "zip_code": "11237", "country": "US", "state": "NY", "display_address": ["178 Varick Ave", "Brooklyn, NY 11237"]}, "phone": "+18457091808", "display_phone": "(845) 709-1808", "distance": 188637.68816744848}]