[{"id": "1xHC1WbRBSv_DRRh8dP5IA", "alias": "honeycrisp-chicken-amherst", "name": "Honeycrisp Chicken", "image_url": "https://s3-media2.fl.yelpcdn.com/bphoto/XLGMTWn3UhX0aia6AjXtmw/o.jpg", "is_closed": false, "url": "https://www.yelp.com/biz/honeycrisp-chicken-amherst?adjust_creative=HdhkN5EEH6lAqE3kwhsHEQ&utm_campaign=yelp_api_v3&utm_medium=api_v3_business_search&utm_source=HdhkN5EEH6lAqE3kwhsHEQ", "review_count": 39, "categories": [{"alias": "chicken_wings", "title": "Chicken Wings"}, {"alias": "korean", "title": "Korean"}, {"alias": "taiwanese", "title": "Taiwanese"}], "rating": 4.5, "coordinates": {"latitude": 42.3759103, "longitude": -72.5184821}, "transactions": ["delivery"], "location": {"address1": "1 Boltwood Walk", "address2": null, "address3": "", "city": "Amherst", "zip_code": "01002", "country": "US", "state": "MA", "display_address": ["1 Boltwood Walk", "Amherst, MA 01002"]}, "phone": "+14132004490", "display_phone": "(413) 200-4490", "distance": 1135.2976170434008}, {"id": "1Gdcycg8N2j9oJbH1D6lBg", "alias": "lilis-restaurant-amherst", "name": "Lili's Restaurant", "image_url": "https://s3-media3.fl.yelpcdn.com/bphoto/ZmX1Ueig1zzUppwR700qMg/o.jpg", "is_closed": false, "url": "https://www.yelp.com/biz/lilis-restaurant-amherst?adjust_creative=HdhkN5EEH6lAqE3kwhsHEQ&utm_campaign=yelp_api_v3&utm_medium=api_v3_business_search&utm_source=HdhkN5EEH6lAqE3kwhsHEQ", "review_count": 132, "categories": [{"alias": "chinese", "title": "Chinese"}, {"alias": "noodles", "title": "Noodles"}], "rating": 5.0, "coordinates": {"latitude": 42.3785346, "longitude": -72.519757}, "transactions": ["delivery"], "price": "$", "location": {"address1": "197 North Pleasant St", "address2": "", "address3": null, "city": "Amherst", "zip_code": "01002", "country": "US", "state": "MA", "display_address": ["197 North Pleasant St", "Amherst, MA 01002"]}, "phone": "+14132535888", "display_phone": "(413) 253-5888", "distance": 1081.9000063967599}, {"id": "Ie-qeBdtdOavjzdQPH1IGw", "alias": "osteria-vespa-amherst", "name": "Osteria Vespa", "image_url": "https://s3-media2.fl.yelpcdn.com/bphoto/oKJx3-9rIr-8_CJ10HkaSQ/o.jpg", "is_closed": false, "url": "https://www.yelp.com/biz/osteria-vespa-amherst?adjust_creative=HdhkN5EEH6lAqE3kwhsHEQ&utm_campaign=yelp_api_v3&utm_medium=api_v3_business_search&utm_source=HdhkN5EEH6lAqE3kwhsHEQ", "review_count": 90, "categories": [{"alias": "italian", "title": "Italian"}, {"alias": "mediterranean", "title": "Mediterranean"}], "rating": 4.0, "coordinates": {"latitude": 42.375387, "longitude": -72.52048}, "transactions": ["delivery", "restaurant_reservation"], "price": "$$$", "location": {"address1": "28 Amity St", "address2": "", "address3": "", "city": "Amherst", "zip_code": "01002", "country": "US", "state": "MA", "display_address": ["28 Amity St", "Amherst, MA 01002"]}, "phone": "+14132303194", "display_phone": "(413) 230-3194", "distance": 981.6420556914062}, {"id": "tHR3HsAmGfDOcjWe2n6Ftw", "alias": "shanghai-gourmet-amherst", "name": "Shanghai Gourmet", "image_url": "https://s3-media3.fl.yelpcdn.com/bphoto/iY1_iOMI0o_evS5fB__uOg/o.jpg", "is_closed": false, "url": "https://www.yelp.com/biz/shanghai-gourmet-amherst?adjust_creative=HdhkN5EEH6lAqE3kwhsHEQ&utm_campaign=yelp_api_v3&utm_medium=api_v3_business_search&utm_source=HdhkN5EEH6lAqE3kwhsHEQ", "review_count": 21, "categories": [{"alias": "shanghainese", "title": "Shanghainese"}], "rating": 4.5, "coordinates": {"latitude": 42.37729067, "longitude": -72.52038267}, "transactions": [], "price": "$$", "location": {"address1": "104 N Pleasant St", "address2": null, "address3": "", "city": "Amherst", "zip_code": "01002", "country": "US", "state": "MA", "display_address": ["104 N Pleasant St", "Amherst, MA 01002"]}, "phone": "+14138350913", "display_phone": "(413) 835-0913", "distance": 993.4713884508428}, {"id": "S9w52Y8f_nfv8QXuHmXBCg", "alias": "johnnys-tavern-amherst", "name": "Johnny's Tavern", "image_url": "https://s3-media4.fl.yelpcdn.com/bphoto/CGGNA4tbYJkDkSsBqJTq-w/o.jpg", "is_closed": false, "url": "https://www.yelp.com/biz/johnnys-tavern-amherst?adjust_creative=HdhkN5EEH6lAqE3kwhsHEQ&utm_campaign=yelp_api_v3&utm_medium=api_v3_business_search&utm_source=HdhkN5EEH6lAqE3kwhsHEQ", "review_count": 295, "categories": [{"alias": "newamerican", "title": "American (New)"}, {"alias": "burgers", "title": "Burgers"}, {"alias": "beer_and_wine", "title": "Beer, Wine & Spirits"}], "rating": 4.0, "coordinates": {"latitude": 42.376276, "longitude": -72.518136}, "transactions": ["delivery", "pickup"], "price": "$$", "location": {"address1": "30 Boltwood Walk", "address2": "", "address3": "", "city": "Amherst", "zip_code": "01002", "country": "US", "state": "MA", "display_address": ["30 Boltwood Walk", "Amherst, MA 01002"]}, "phone": "+14132303818", "display_phone": "(413) 230-3818", "distance": 1167.2409352561594}, {"id": "0ggseJ7x1t-I-I8GA6knjw", "alias": "bistro-63-amherst-3", "name": "Bistro 63", "image_url": "https://s3-media4.fl.yelpcdn.com/bphoto/2DDhras34EfIQjko9vTX_w/o.jpg", "is_closed": false, "url": "https://www.yelp.com/biz/bistro-63-amherst-3?adjust_creative=HdhkN5EEH6lAqE3kwhsHEQ&utm_campaign=yelp_api_v3&utm_medium=api_v3_business_search&utm_source=HdhkN5EEH6lAqE3kwhsHEQ", "review_count": 156, "categories": [{"alias": "newamerican", "title": "American (New)"}, {"alias": "venues", "title": "Venues & Event Spaces"}], "rating": 4.0, "coordinates": {"latitude": 42.37668, "longitude": -72.51952}, "transactions": ["delivery"], "price": "$$", "location": {"address1": "63 N Pleasant St", "address2": null, "address3": "Monkey Bar & Grill", "city": "Amherst", "zip_code": "01002", "country": "US", "state": "MA", "display_address": ["63 N Pleasant St", "Monkey Bar & Grill", "Amherst, MA 01002"]}, "phone": "+14132591600", "display_phone": "(413) 259-1600", "distance": 1056.4634553236476}, {"id": "Oa-E-xgz9ZBZxPwBGmfLcA", "alias": "momo-tibetan-restaurant-amherst-4", "name": "Momo Tibetan Restaurant", "image_url": "https://s3-media2.fl.yelpcdn.com/bphoto/amBbrKZvctCPOGYA3tMhCQ/o.jpg", "is_closed": false, "url": "https://www.yelp.com/biz/momo-tibetan-restaurant-amherst-4?adjust_creative=HdhkN5EEH6lAqE3kwhsHEQ&utm_campaign=yelp_api_v3&utm_medium=api_v3_business_search&utm_source=HdhkN5EEH6lAqE3kwhsHEQ", "review_count": 53, "categories": [{"alias": "himalayan", "title": "Himalayan/Nepalese"}], "rating": 4.5, "coordinates": {"latitude": 42.3759300394761, "longitude": -72.5195162614796}, "transactions": ["delivery"], "price": "$$", "location": {"address1": "23 North Pleasant St", "address2": null, "address3": "", "city": "Amherst", "zip_code": "01002", "country": "US", "state": "MA", "display_address": ["23 North Pleasant St", "Amherst, MA 01002"]}, "phone": "+14138350382", "display_phone": "(413) 835-0382", "distance": 1060.7027864543545}, {"id": "1K-cj8tD7mHMuDxvkeI-xw", "alias": "omi-omy-amherst", "name": "Omi Omy", "image_url": "https://s3-media2.fl.yelpcdn.com/bphoto/hpTgx-fE3TBg4ow70fPRuQ/o.jpg", "is_closed": false, "url": "https://www.yelp.com/biz/omi-omy-amherst?adjust_creative=HdhkN5EEH6lAqE3kwhsHEQ&utm_campaign=yelp_api_v3&utm_medium=api_v3_business_search&utm_source=HdhkN5EEH6lAqE3kwhsHEQ", "review_count": 44, "categories": [{"alias": "vietnamese", "title": "Vietnamese"}, {"alias": "sandwiches", "title": "Sandwiches"}, {"alias": "soup", "title": "Soup"}], "rating": 4.5, "coordinates": {"latitude": 42.36781, "longitude": -72.53494}, "transactions": ["delivery", "pickup"], "price": "$", "location": {"address1": "181 University Dr", "address2": "Ste D", "address3": "", "city": "Amherst", "zip_code": "01002", "country": "US", "state": "MA", "display_address": ["181 University Dr", "Ste D", "Amherst, MA 01002"]}, "phone": "+14132303766", "display_phone": "(413) 230-3766", "distance": 931.8587346595137}, {"id": "2xvvqUWeYDsMgixuZCpyLQ", "alias": "hangar-pub-and-grill-amherst-2", "name": "Hangar Pub & Grill", "image_url": "https://s3-media4.fl.yelpcdn.com/bphoto/KIfRNP6aRjAtfcTkSFepyg/o.jpg", "is_closed": false, "url": "https://www.yelp.com/biz/hangar-pub-and-grill-amherst-2?adjust_creative=HdhkN5EEH6lAqE3kwhsHEQ&utm_campaign=yelp_api_v3&utm_medium=api_v3_business_search&utm_source=HdhkN5EEH6lAqE3kwhsHEQ", "review_count": 129, "categories": [{"alias": "pubs", "title": "Pubs"}, {"alias": "arcades", "title": "Arcades"}, {"alias": "tradamerican", "title": "American (Traditional)"}], "rating": 3.5, "coordinates": {"latitude": 42.3733375, "longitude": -72.5326808}, "transactions": ["delivery", "pickup"], "price": "$$", "location": {"address1": "10 University Dr", "address2": "", "address3": "", "city": "Amherst", "zip_code": "01002", "country": "US", "state": "MA", "display_address": ["10 University Dr", "Amherst, MA 01002"]}, "phone": "+14135499461", "display_phone": "(413) 549-9461", "distance": 382.9089532648063}, {"id": "d1PfS_bozULtBY4PjF3D-w", "alias": "antonios-amherst", "name": "Antonio's", "image_url": "https://s3-media1.fl.yelpcdn.com/bphoto/P-Xc3GMql09E_4KfL3t_XA/o.jpg", "is_closed": false, "url": "https://www.yelp.com/biz/antonios-amherst?adjust_creative=HdhkN5EEH6lAqE3kwhsHEQ&utm_campaign=yelp_api_v3&utm_medium=api_v3_business_search&utm_source=HdhkN5EEH6lAqE3kwhsHEQ", "review_count": 470, "categories": [{"alias": "pizza", "title": "Pizza"}], "rating": 4.5, "coordinates": {"latitude": 42.37619, "longitude": -72.51961}, "transactions": ["delivery"], "price": "$", "location": {"address1": "31 N Pleasant St", "address2": "", "address3": "", "city": "Amherst", "zip_code": "01002", "country": "US", "state": "MA", "display_address": ["31 N Pleasant St", "Amherst, MA 01002"]}, "phone": "+14132530808", "display_phone": "(413) 253-0808", "distance": 1051.2196036591733}, {"id": "FumYAtwmfAo1d0X3GouTHQ", "alias": "judies-amherst", "name": "Judie's", "image_url": "https://s3-media3.fl.yelpcdn.com/bphoto/GezgUMNSfF0Wuv7pHvp2jA/o.jpg", "is_closed": false, "url": "https://www.yelp.com/biz/judies-amherst?adjust_creative=HdhkN5EEH6lAqE3kwhsHEQ&utm_campaign=yelp_api_v3&utm_medium=api_v3_business_search&utm_source=HdhkN5EEH6lAqE3kwhsHEQ", "review_count": 338, "categories": [{"alias": "tradamerican", "title": "American (Traditional)"}, {"alias": "newamerican", "title": "American (New)"}], "rating": 3.5, "coordinates": {"latitude": 42.376468, "longitude": -72.5195815}, "transactions": ["delivery"], "price": "$$", "location": {"address1": "51 N Pleasant St", "address2": "", "address3": "", "city": "Amherst", "zip_code": "01002", "country": "US", "state": "MA", "display_address": ["51 N Pleasant St", "Amherst, MA 01002"]}, "phone": "+14132533491", "display_phone": "(413) 253-3491", "distance": 1055.5212088375597}, {"id": "LcfGULHH5iJ5VkT9q04iMg", "alias": "oriental-flavor-amherst", "name": "Oriental Flavor", "image_url": "https://s3-media1.fl.yelpcdn.com/bphoto/o4t1koat-p2gVbLwl0VuSQ/o.jpg", "is_closed": false, "url": "https://www.yelp.com/biz/oriental-flavor-amherst?adjust_creative=HdhkN5EEH6lAqE3kwhsHEQ&utm_campaign=yelp_api_v3&utm_medium=api_v3_business_search&utm_source=HdhkN5EEH6lAqE3kwhsHEQ", "review_count": 205, "categories": [{"alias": "szechuan", "title": "Szechuan"}, {"alias": "dimsum", "title": "Dim Sum"}, {"alias": "cantonese", "title": "Cantonese"}], "rating": 4.0, "coordinates": {"latitude": 42.37527, "longitude": -72.52}, "transactions": ["delivery", "pickup"], "price": "$$", "location": {"address1": "25 S Pleasant St", "address2": null, "address3": "", "city": "Amherst", "zip_code": "01002", "country": "US", "state": "MA", "display_address": ["25 S Pleasant St", "Amherst, MA 01002"]}, "phone": "+14132537673", "display_phone": "(413) 253-7673", "distance": 1020.2143548511431}, {"id": "Qcr_HFpf7IX7hzG2rUkjWA", "alias": "pita-pockets-amherst-amherst", "name": "Pita Pockets - Amherst", "image_url": "https://s3-media2.fl.yelpcdn.com/bphoto/4Y5WGziMRU_O1KmqahR_IQ/o.jpg", "is_closed": false, "url": "https://www.yelp.com/biz/pita-pockets-amherst-amherst?adjust_creative=HdhkN5EEH6lAqE3kwhsHEQ&utm_campaign=yelp_api_v3&utm_medium=api_v3_business_search&utm_source=HdhkN5EEH6lAqE3kwhsHEQ", "review_count": 200, "categories": [{"alias": "falafel", "title": "Falafel"}, {"alias": "vegetarian", "title": "Vegetarian"}, {"alias": "mideastern", "title": "Middle Eastern"}], "rating": 5.0, "coordinates": {"latitude": 42.37722, "longitude": -72.51936}, "transactions": ["delivery"], "price": "$", "location": {"address1": "103 N Pleasant St", "address2": null, "address3": "", "city": "Amherst", "zip_code": "01002", "country": "US", "state": "MA", "display_address": ["103 N Pleasant St", "Amherst, MA 01002"]}, "phone": "", "display_phone": "", "distance": 1066.6656768568416}, {"id": "snV8jGHnoVWBNJyRUBJYug", "alias": "crazy-noodles-amherst", "name": "Crazy Noodles", "image_url": "https://s3-media2.fl.yelpcdn.com/bphoto/xEAIOZaKDme3BdwU223A2w/o.jpg", "is_closed": false, "url": "https://www.yelp.com/biz/crazy-noodles-amherst?adjust_creative=HdhkN5EEH6lAqE3kwhsHEQ&utm_campaign=yelp_api_v3&utm_medium=api_v3_business_search&utm_source=HdhkN5EEH6lAqE3kwhsHEQ", "review_count": 101, "categories": [{"alias": "soup", "title": "Soup"}, {"alias": "noodles", "title": "Noodles"}, {"alias": "chinese", "title": "Chinese"}], "rating": 4.0, "coordinates": {"latitude": 42.37596, "longitude": -72.51913}, "transactions": ["delivery"], "price": "$", "location": {"address1": "36 Main St", "address2": "", "address3": "", "city": "Amherst", "zip_code": "01002", "country": "US", "state": "MA", "display_address": ["36 Main St", "Amherst, MA 01002"]}, "phone": "+14132533287", "display_phone": "(413) 253-3287", "distance": 1103.2327022739883}, {"id": "VlzeNUSkepYtIgYCkrqRbg", "alias": "the-lone-wolf-amherst", "name": "The Lone Wolf", "image_url": "https://s3-media3.fl.yelpcdn.com/bphoto/16Ov-_O1_0h4BzipsZG9GQ/o.jpg", "is_closed": false, "url": "https://www.yelp.com/biz/the-lone-wolf-amherst?adjust_creative=HdhkN5EEH6lAqE3kwhsHEQ&utm_campaign=yelp_api_v3&utm_medium=api_v3_business_search&utm_source=HdhkN5EEH6lAqE3kwhsHEQ", "review_count": 246, "categories": [{"alias": "breakfast_brunch", "title": "Breakfast & Brunch"}, {"alias": "tradamerican", "title": "American (Traditional)"}], "rating": 4.0, "coordinates": {"latitude": 42.3755499, "longitude": -72.5184699}, "transactions": ["delivery"], "price": "$$", "location": {"address1": "63 Main St", "address2": null, "address3": "", "city": "Amherst", "zip_code": "01002", "country": "US", "state": "MA", "display_address": ["63 Main St", "Amherst, MA 01002"]}, "phone": "+14132564643", "display_phone": "(413) 256-4643", "distance": 1148.695764819882}, {"id": "t3ZQ2eUTL4c683gbP4fmjA", "alias": "wheelhouse-amherst", "name": "Wheelhouse", "image_url": "https://s3-media1.fl.yelpcdn.com/bphoto/QGKcxLFQqVq8AM1ORQcQQQ/o.jpg", "is_closed": false, "url": "https://www.yelp.com/biz/wheelhouse-amherst?adjust_creative=HdhkN5EEH6lAqE3kwhsHEQ&utm_campaign=yelp_api_v3&utm_medium=api_v3_business_search&utm_source=HdhkN5EEH6lAqE3kwhsHEQ", "review_count": 13, "categories": [{"alias": "foodtrucks", "title": "Food Trucks"}, {"alias": "catering", "title": "Caterers"}, {"alias": "newamerican", "title": "American (New)"}], "rating": 4.5, "coordinates": {"latitude": 42.3756729, "longitude": -72.5123716}, "transactions": [], "price": "$$", "location": {"address1": "383 Main St", "address2": "", "address3": "", "city": "Amherst", "zip_code": "01002", "country": "US", "state": "MA", "display_address": ["383 Main St", "Amherst, MA 01002"]}, "phone": "+15084462935", "display_phone": "(508) 446-2935", "distance": 1648.1871840650697}, {"id": "gjEJbmb3zxK79b1gCZkEUw", "alias": "north-hot-pot-amherst", "name": "North Hot Pot", "image_url": "https://s3-media2.fl.yelpcdn.com/bphoto/Xm6uqML_YYRG1sn2cy-YYw/o.jpg", "is_closed": false, "url": "https://www.yelp.com/biz/north-hot-pot-amherst?adjust_creative=HdhkN5EEH6lAqE3kwhsHEQ&utm_campaign=yelp_api_v3&utm_medium=api_v3_business_search&utm_source=HdhkN5EEH6lAqE3kwhsHEQ", "review_count": 31, "categories": [{"alias": "chinese", "title": "Chinese"}, {"alias": "hotpot", "title": "Hot Pot"}], "rating": 4.5, "coordinates": {"latitude": 42.37233, "longitude": -72.49943}, "transactions": ["delivery"], "location": {"address1": "20 Belchertown Rd", "address2": null, "address3": "", "city": "Amherst", "zip_code": "01002", "country": "US", "state": "MA", "display_address": ["20 Belchertown Rd", "Amherst, MA 01002"]}, "phone": "+14138350351", "display_phone": "(413) 835-0351", "distance": 2724.7580225392994}, {"id": "LXXAXCEiU4nCM8wScorQHQ", "alias": "pasta-e-basta-amherst", "name": "Pasta E Basta", "image_url": "https://s3-media2.fl.yelpcdn.com/bphoto/6lUE1U50Tech7n-hRRzBrQ/o.jpg", "is_closed": false, "url": "https://www.yelp.com/biz/pasta-e-basta-amherst?adjust_creative=HdhkN5EEH6lAqE3kwhsHEQ&utm_campaign=yelp_api_v3&utm_medium=api_v3_business_search&utm_source=HdhkN5EEH6lAqE3kwhsHEQ", "review_count": 140, "categories": [{"alias": "italian", "title": "Italian"}], "rating": 4.0, "coordinates": {"latitude": 42.3758399, "longitude": -72.51926}, "transactions": ["delivery"], "price": "$$", "location": {"address1": "26 Main St", "address2": null, "address3": "", "city": "Amherst", "zip_code": "01002", "country": "US", "state": "MA", "display_address": ["26 Main St", "Amherst, MA 01002"]}, "phone": "+14132563550", "display_phone": "(413) 256-3550", "distance": 1085.0136397163149}, {"id": "0_n0QgP_AookwqzVfZIFgQ", "alias": "mission-cantina-amherst-2", "name": "Mission Cantina", "image_url": "https://s3-media4.fl.yelpcdn.com/bphoto/LZMh8ZoJ1M6C05M3kS8tcg/o.jpg", "is_closed": false, "url": "https://www.yelp.com/biz/mission-cantina-amherst-2?adjust_creative=HdhkN5EEH6lAqE3kwhsHEQ&utm_campaign=yelp_api_v3&utm_medium=api_v3_business_search&utm_source=HdhkN5EEH6lAqE3kwhsHEQ", "review_count": 316, "categories": [{"alias": "mexican", "title": "Mexican"}], "rating": 4.0, "coordinates": {"latitude": 42.3397429940276, "longitude": -72.5209043590139}, "transactions": ["delivery", "pickup"], "price": "$$", "location": {"address1": "485 W St", "address2": "", "address3": "", "city": "Amherst", "zip_code": "01002", "country": "US", "state": "MA", "display_address": ["485 W St", "Amherst, MA 01002"]}, "phone": "+14132303580", "display_phone": "(413) 230-3580", "distance": 4159.683733851768}, {"id": "sRO-U8Kxd1tXJlENTqv89A", "alias": "miss-saigon-amherst", "name": "Miss Saigon", "image_url": "https://s3-media2.fl.yelpcdn.com/bphoto/ewJ4OfKjEDPImLUeFgcpaA/o.jpg", "is_closed": false, "url": "https://www.yelp.com/biz/miss-saigon-amherst?adjust_creative=HdhkN5EEH6lAqE3kwhsHEQ&utm_campaign=yelp_api_v3&utm_medium=api_v3_business_search&utm_source=HdhkN5EEH6lAqE3kwhsHEQ", "review_count": 183, "categories": [{"alias": "vietnamese", "title": "Vietnamese"}, {"alias": "salad", "title": "Salad"}, {"alias": "soup", "title": "Soup"}], "rating": 3.5, "coordinates": {"latitude": 42.377159, "longitude": -72.5204679}, "transactions": ["delivery"], "price": "$$", "location": {"address1": "96 N Pleasant St", "address2": "", "address3": null, "city": "Amherst", "zip_code": "01002", "country": "US", "state": "MA", "display_address": ["96 N Pleasant St", "Amherst, MA 01002"]}, "phone": "+14132539988", "display_phone": "(413) 253-9988", "distance": 988.317214576819}, {"id": "o766sCbxUEbiBxr14X4ryw", "alias": "formosa-chinese-restaurant-amherst-11", "name": "Formosa Chinese Restaurant", "image_url": "https://s3-media1.fl.yelpcdn.com/bphoto/iZxlIEZywP257_ADRfTKrQ/o.jpg", "is_closed": false, "url": "https://www.yelp.com/biz/formosa-chinese-restaurant-amherst-11?adjust_creative=HdhkN5EEH6lAqE3kwhsHEQ&utm_campaign=yelp_api_v3&utm_medium=api_v3_business_search&utm_source=HdhkN5EEH6lAqE3kwhsHEQ", "review_count": 50, "categories": [{"alias": "taiwanese", "title": "Taiwanese"}, {"alias": "chinese", "title": "Chinese"}], "rating": 4.0, "coordinates": {"latitude": 42.3758907917114, "longitude": -72.5185187374798}, "transactions": ["delivery"], "price": "$$", "location": {"address1": "62 Main St", "address2": "", "address3": null, "city": "Amherst", "zip_code": "01002", "country": "US", "state": "MA", "display_address": ["62 Main St", "Amherst, MA 01002"]}, "phone": "+14132537835", "display_phone": "(413) 253-7835", "distance": 1142.72975208153}, {"id": "kZyn3Hoss5qRyBauGreexA", "alias": "110-grill-hadley", "name": "110 Grill", "image_url": "https://s3-media1.fl.yelpcdn.com/bphoto/tsE935EgK7P17-XCRBQzUg/o.jpg", "is_closed": false, "url": "https://www.yelp.com/biz/110-grill-hadley?adjust_creative=HdhkN5EEH6lAqE3kwhsHEQ&utm_campaign=yelp_api_v3&utm_medium=api_v3_business_search&utm_source=HdhkN5EEH6lAqE3kwhsHEQ", "review_count": 30, "categories": [{"alias": "tradamerican", "title": "American (Traditional)"}, {"alias": "gluten_free", "title": "Gluten-Free"}, {"alias": "cocktailbars", "title": "Cocktail Bars"}], "rating": 3.5, "coordinates": {"latitude": 42.3568108489038, "longitude": -72.5517587515841}, "transactions": [], "location": {"address1": "355 Russell St", "address2": null, "address3": "", "city": "Hadley", "zip_code": "01035", "country": "US", "state": "MA", "display_address": ["355 Russell St", "Hadley, MA 01035"]}, "phone": "+14135840110", "display_phone": "(413) 584-0110", "distance": 2675.2661530276823}, {"id": "6EIJiG73rc9zCZSXOrksbw", "alias": "kaiju-amherst", "name": "Kaiju", "image_url": "https://s3-media3.fl.yelpcdn.com/bphoto/sAN5t3u-cNywqMwkwfMLIA/o.jpg", "is_closed": false, "url": "https://www.yelp.com/biz/kaiju-amherst?adjust_creative=HdhkN5EEH6lAqE3kwhsHEQ&utm_campaign=yelp_api_v3&utm_medium=api_v3_business_search&utm_source=HdhkN5EEH6lAqE3kwhsHEQ", "review_count": 72, "categories": [{"alias": "ramen", "title": "Ramen"}, {"alias": "bbq", "title": "Barbeque"}, {"alias": "cocktailbars", "title": "Cocktail Bars"}], "rating": 3.5, "coordinates": {"latitude": 42.376387, "longitude": -72.518217}, "transactions": ["delivery", "pickup"], "price": "$$", "location": {"address1": "30 Boltwood Walk", "address2": "Basement", "address3": null, "city": "Amherst", "zip_code": "01002", "country": "US", "state": "MA", "display_address": ["30 Boltwood Walk", "Basement", "Amherst, MA 01002"]}, "phone": "+14134610405", "display_phone": "(413) 461-0405", "distance": 1167.3362746272321}, {"id": "vXmQXGQN-DnhBPFwa9rAZg", "alias": "the-taste-thai-restaurant-amherst", "name": "The Taste Thai Restaurant", "image_url": "https://s3-media3.fl.yelpcdn.com/bphoto/YT-wiZqYgEj5L6l7mJX7EQ/o.jpg", "is_closed": false, "url": "https://www.yelp.com/biz/the-taste-thai-restaurant-amherst?adjust_creative=HdhkN5EEH6lAqE3kwhsHEQ&utm_campaign=yelp_api_v3&utm_medium=api_v3_business_search&utm_source=HdhkN5EEH6lAqE3kwhsHEQ", "review_count": 82, "categories": [{"alias": "thai", "title": "Thai"}], "rating": 4.0, "coordinates": {"latitude": 42.376332, "longitude": -72.519874}, "transactions": ["delivery"], "price": "$$", "location": {"address1": "25 N Pleasant St", "address2": "", "address3": "", "city": "Amherst", "zip_code": "01002", "country": "US", "state": "MA", "display_address": ["25 N Pleasant St", "Amherst, MA 01002"]}, "phone": "+14132565421", "display_phone": "(413) 256-5421", "distance": 1031.1331645319813}, {"id": "0msAbcZIxbd0SNScpNaDkg", "alias": "ginger-garden-amherst", "name": "Ginger Garden", "image_url": "https://s3-media2.fl.yelpcdn.com/bphoto/js4UWunD8xiJmWjFWuerWw/o.jpg", "is_closed": false, "url": "https://www.yelp.com/biz/ginger-garden-amherst?adjust_creative=HdhkN5EEH6lAqE3kwhsHEQ&utm_campaign=yelp_api_v3&utm_medium=api_v3_business_search&utm_source=HdhkN5EEH6lAqE3kwhsHEQ", "review_count": 170, "categories": [{"alias": "chinese", "title": "Chinese"}, {"alias": "asianfusion", "title": "Asian Fusion"}, {"alias": "japanese", "title": "Japanese"}], "rating": 3.5, "coordinates": {"latitude": 42.3669775033261, "longitude": -72.5339299812913}, "transactions": ["delivery"], "price": "$$", "location": {"address1": "351 Northampton Rd", "address2": "", "address3": "", "city": "Amherst", "zip_code": "01002", "country": "US", "state": "MA", "display_address": ["351 Northampton Rd", "Amherst, MA 01002"]}, "phone": "+14132566666", "display_phone": "(413) 256-6666", "distance": 1029.6560805503798}, {"id": "mdb20FDiW_bL3Hf0C1Jqvw", "alias": "iya-sushi-and-noodle-kitchen-amherst", "name": "IYA Sushi and Noodle Kitchen", "image_url": "https://s3-media4.fl.yelpcdn.com/bphoto/zkKWpDNZbJVLv5YiIVUAVg/o.jpg", "is_closed": false, "url": "https://www.yelp.com/biz/iya-sushi-and-noodle-kitchen-amherst?adjust_creative=HdhkN5EEH6lAqE3kwhsHEQ&utm_campaign=yelp_api_v3&utm_medium=api_v3_business_search&utm_source=HdhkN5EEH6lAqE3kwhsHEQ", "review_count": 25, "categories": [{"alias": "sushi", "title": "Sushi Bars"}, {"alias": "ramen", "title": "Ramen"}], "rating": 3.0, "coordinates": {"latitude": 42.37919, "longitude": -72.5195815}, "transactions": ["delivery", "pickup"], "location": {"address1": "1 E Pleasant St", "address2": "", "address3": null, "city": "Amherst", "zip_code": "01002", "country": "US", "state": "MA", "display_address": ["1 E Pleasant St", "Amherst, MA 01002"]}, "phone": "+14133278000", "display_phone": "(413) 327-8000", "distance": 1107.1210050614038}, {"id": "e5bI0nEjKHM6xYRc1hb3vA", "alias": "high-horse-amherst", "name": "High Horse", "image_url": "https://s3-media1.fl.yelpcdn.com/bphoto/4Lx-eMX-7hjyrSwfSGvKWQ/o.jpg", "is_closed": false, "url": "https://www.yelp.com/biz/high-horse-amherst?adjust_creative=HdhkN5EEH6lAqE3kwhsHEQ&utm_campaign=yelp_api_v3&utm_medium=api_v3_business_search&utm_source=HdhkN5EEH6lAqE3kwhsHEQ", "review_count": 274, "categories": [{"alias": "pubs", "title": "Pubs"}, {"alias": "newamerican", "title": "American (New)"}], "rating": 3.0, "coordinates": {"latitude": 42.376197040205, "longitude": -72.5201359183853}, "transactions": ["delivery"], "price": "$$", "location": {"address1": "24 N Pleasant St", "address2": "", "address3": "", "city": "Amherst", "zip_code": "01002", "country": "US", "state": "MA", "display_address": ["24 N Pleasant St", "Amherst, MA 01002"]}, "phone": "+14132303034", "display_phone": "(413) 230-3034", "distance": 1009.4671814709831}, {"id": "Vax50JhWTgAdpRJyAWimoQ", "alias": "kkuljaem-korean-kitchen-hadley-2", "name": "KKulJaem Korean Kitchen", "image_url": "https://s3-media4.fl.yelpcdn.com/bphoto/2cqMVNV88TvOVW9PqbaCWw/o.jpg", "is_closed": false, "url": "https://www.yelp.com/biz/kkuljaem-korean-kitchen-hadley-2?adjust_creative=HdhkN5EEH6lAqE3kwhsHEQ&utm_campaign=yelp_api_v3&utm_medium=api_v3_business_search&utm_source=HdhkN5EEH6lAqE3kwhsHEQ", "review_count": 21, "categories": [{"alias": "korean", "title": "Korean"}], "rating": 4.0, "coordinates": {"latitude": 42.35599, "longitude": -72.54771}, "transactions": ["delivery", "pickup"], "location": {"address1": "367 Russell St", "address2": null, "address3": "", "city": "Hadley", "zip_code": "01035", "country": "US", "state": "MA", "display_address": ["367 Russell St", "Hadley, MA 01035"]}, "phone": "+14133870585", "display_phone": "(413) 387-0585", "distance": 2571.442519328472}, {"id": "_-DpIGE758Vq2hSJTF-P2w", "alias": "johnnys-roadside-diner-hadley", "name": "Johnny's Roadside Diner", "image_url": "https://s3-media2.fl.yelpcdn.com/bphoto/XlgfWs2nB0vm2QV5VJ7lyw/o.jpg", "is_closed": false, "url": "https://www.yelp.com/biz/johnnys-roadside-diner-hadley?adjust_creative=HdhkN5EEH6lAqE3kwhsHEQ&utm_campaign=yelp_api_v3&utm_medium=api_v3_business_search&utm_source=HdhkN5EEH6lAqE3kwhsHEQ", "review_count": 128, "categories": [{"alias": "tradamerican", "title": "American (Traditional)"}, {"alias": "diners", "title": "Diners"}, {"alias": "breakfast_brunch", "title": "Breakfast & Brunch"}], "rating": 3.5, "coordinates": {"latitude": 42.3655072874757, "longitude": -72.5364167243242}, "transactions": ["delivery", "pickup"], "price": "$$", "location": {"address1": "458 Russell St", "address2": "", "address3": "Campus Plaza Shopping Ctr", "city": "Hadley", "zip_code": "01035", "country": "US", "state": "MA", "display_address": ["458 Russell St", "Campus Plaza Shopping Ctr", "Hadley, MA 01035"]}, "phone": "+14132568000", "display_phone": "(413) 256-8000", "distance": 1230.1987257482976}, {"id": "i_N21-BF8Lj3ejHEldeWqA", "alias": "bueno-y-sano-amherst", "name": "Bueno Y Sano", "image_url": "https://s3-media1.fl.yelpcdn.com/bphoto/duOb3oSfyUVi4k-NmZqQdQ/o.jpg", "is_closed": false, "url": "https://www.yelp.com/biz/bueno-y-sano-amherst?adjust_creative=HdhkN5EEH6lAqE3kwhsHEQ&utm_campaign=yelp_api_v3&utm_medium=api_v3_business_search&utm_source=HdhkN5EEH6lAqE3kwhsHEQ", "review_count": 204, "categories": [{"alias": "mexican", "title": "Mexican"}], "rating": 4.0, "coordinates": {"latitude": 42.3759103, "longitude": -72.5184821}, "transactions": ["delivery", "pickup"], "price": "$", "location": {"address1": "1 Boltwood Walk", "address2": null, "address3": "", "city": "Amherst", "zip_code": "01002", "country": "US", "state": "MA", "display_address": ["1 Boltwood Walk", "Amherst, MA 01002"]}, "phone": "+14132534000", "display_phone": "(413) 253-4000", "distance": 1135.2976170434008}, {"id": "fYOPoMtoJ4m0yGbxAMjNfw", "alias": "sunset-grill-and-pizza-amherst-2", "name": "Sunset Grill and Pizza", "image_url": "https://s3-media2.fl.yelpcdn.com/bphoto/dyKhKfKpARCn-1Mkxp6tog/o.jpg", "is_closed": false, "url": "https://www.yelp.com/biz/sunset-grill-and-pizza-amherst-2?adjust_creative=HdhkN5EEH6lAqE3kwhsHEQ&utm_campaign=yelp_api_v3&utm_medium=api_v3_business_search&utm_source=HdhkN5EEH6lAqE3kwhsHEQ", "review_count": 20, "categories": [{"alias": "pizza", "title": "Pizza"}, {"alias": "tradamerican", "title": "American (Traditional)"}], "rating": 3.5, "coordinates": {"latitude": 42.38105, "longitude": -72.52728}, "transactions": ["delivery"], "price": "$", "location": {"address1": "150 Fearing St", "address2": null, "address3": "", "city": "Amherst", "zip_code": "01002", "country": "US", "state": "MA", "display_address": ["150 Fearing St", "Amherst, MA 01002"]}, "phone": "+14138350568", "display_phone": "(413) 835-0568", "distance": 676.6123648404808}, {"id": "actYV0sh0IL-2FmM0iA8mw", "alias": "pulse-cafe-hadley-2", "name": "Pulse Cafe", "image_url": "https://s3-media2.fl.yelpcdn.com/bphoto/VJeYG0WOKBCYxajMs9XGqA/o.jpg", "is_closed": false, "url": "https://www.yelp.com/biz/pulse-cafe-hadley-2?adjust_creative=HdhkN5EEH6lAqE3kwhsHEQ&utm_campaign=yelp_api_v3&utm_medium=api_v3_business_search&utm_source=HdhkN5EEH6lAqE3kwhsHEQ", "review_count": 121, "categories": [{"alias": "vegan", "title": "Vegan"}, {"alias": "juicebars", "title": "Juice Bars & Smoothies"}, {"alias": "pizza", "title": "Pizza"}], "rating": 4.5, "coordinates": {"latitude": 42.3514255777614, "longitude": -72.5670206797623}, "transactions": ["delivery"], "price": "$$", "location": {"address1": null, "address2": "270 Russell St", "address3": "", "city": "Hadley", "zip_code": "01035", "country": "US", "state": "MA", "display_address": ["270 Russell St", "Hadley, MA 01035"]}, "phone": "+14133870555", "display_phone": "(413) 387-0555", "distance": 3955.99081632143}, {"id": "v8dqq-bW7cTLvo_jECUraA", "alias": "cheers-cut-amherst-amherst", "name": "Cheers Cut Amherst", "image_url": "https://s3-media2.fl.yelpcdn.com/bphoto/HZ5g3ozwe4wrvOuRVz2Nmw/o.jpg", "is_closed": false, "url": "https://www.yelp.com/biz/cheers-cut-amherst-amherst?adjust_creative=HdhkN5EEH6lAqE3kwhsHEQ&utm_campaign=yelp_api_v3&utm_medium=api_v3_business_search&utm_source=HdhkN5EEH6lAqE3kwhsHEQ", "review_count": 3, "categories": [{"alias": "chickenshop", "title": "Chicken Shop"}], "rating": 2.5, "coordinates": {"latitude": 42.376064, "longitude": -72.519357}, "transactions": ["delivery", "pickup"], "location": {"address1": "31 Boltwood Walk", "address2": null, "address3": "", "city": "Amherst", "zip_code": "01002", "country": "US", "state": "MA", "display_address": ["31 Boltwood Walk", "Amherst, MA 01002"]}, "phone": "+14132303127", "display_phone": "(413) 230-3127", "distance": 1074.0610310635957}, {"id": "AosVp_67irlM1MzpgURciw", "alias": "el-comalito-amherst", "name": "El Comalito", "image_url": "https://s3-media4.fl.yelpcdn.com/bphoto/AUZgmbAEqMb52HMmPUOO5w/o.jpg", "is_closed": false, "url": "https://www.yelp.com/biz/el-comalito-amherst?adjust_creative=HdhkN5EEH6lAqE3kwhsHEQ&utm_campaign=yelp_api_v3&utm_medium=api_v3_business_search&utm_source=HdhkN5EEH6lAqE3kwhsHEQ", "review_count": 131, "categories": [{"alias": "mexican", "title": "Mexican"}, {"alias": "salvadoran", "title": "Salvadoran"}, {"alias": "bars", "title": "Bars"}], "rating": 4.0, "coordinates": {"latitude": 42.3405129991382, "longitude": -72.5193391647356}, "transactions": ["delivery"], "price": "$$", "location": {"address1": "460 W St", "address2": "", "address3": "", "city": "Amherst", "zip_code": "01002", "country": "US", "state": "MA", "display_address": ["460 W St", "Amherst, MA 01002"]}, "phone": "+14132599999", "display_phone": "(413) 259-9999", "distance": 4108.12493601375}, {"id": "PlMKmByQbmWCvyOPYK-CkQ", "alias": "the-halal-cart-amherst", "name": "The Halal Cart", "image_url": "https://s3-media4.fl.yelpcdn.com/bphoto/csLyLBr79QF-PBeDrINX1A/o.jpg", "is_closed": false, "url": "https://www.yelp.com/biz/the-halal-cart-amherst?adjust_creative=HdhkN5EEH6lAqE3kwhsHEQ&utm_campaign=yelp_api_v3&utm_medium=api_v3_business_search&utm_source=HdhkN5EEH6lAqE3kwhsHEQ", "review_count": 21, "categories": [{"alias": "halal", "title": "Halal"}, {"alias": "streetvendors", "title": "Street Vendors"}, {"alias": "mediterranean", "title": "Mediterranean"}], "rating": 4.5, "coordinates": {"latitude": 42.378148, "longitude": -72.519928}, "transactions": [], "price": "$", "location": {"address1": "115 N Pleasant St", "address2": "", "address3": "", "city": "Amherst", "zip_code": "01002", "country": "US", "state": "MA", "display_address": ["115 N Pleasant St", "Amherst, MA 01002"]}, "phone": "+16463315115", "display_phone": "(646) 331-5115", "distance": 1049.8141161232943}, {"id": "QxuZGiHF3jnatCUmI41FmA", "alias": "the-black-sheep-deli-amherst-2", "name": "The Black Sheep Deli", "image_url": "https://s3-media2.fl.yelpcdn.com/bphoto/DCb__h0cGUGK2wA-6T_ZEQ/o.jpg", "is_closed": false, "url": "https://www.yelp.com/biz/the-black-sheep-deli-amherst-2?adjust_creative=HdhkN5EEH6lAqE3kwhsHEQ&utm_campaign=yelp_api_v3&utm_medium=api_v3_business_search&utm_source=HdhkN5EEH6lAqE3kwhsHEQ", "review_count": 152, "categories": [{"alias": "bakeries", "title": "Bakeries"}, {"alias": "delis", "title": "Delis"}], "rating": 3.5, "coordinates": {"latitude": 42.3754577636719, "longitude": -72.5180435180664}, "transactions": ["delivery"], "price": "$", "location": {"address1": "79 Main St", "address2": "", "address3": "", "city": "Amherst", "zip_code": "01002", "country": "US", "state": "MA", "display_address": ["79 Main St", "Amherst, MA 01002"]}, "phone": "+14132533442", "display_phone": "(413) 253-3442", "distance": 1176.1634467676781}, {"id": "IiX7lGoQQE3T4wg_1cx8Og", "alias": "fresh-side-amherst", "name": "Fresh Side", "image_url": "https://s3-media1.fl.yelpcdn.com/bphoto/JnFSiF5wYb9Y4yIojqiNiQ/o.jpg", "is_closed": false, "url": "https://www.yelp.com/biz/fresh-side-amherst?adjust_creative=HdhkN5EEH6lAqE3kwhsHEQ&utm_campaign=yelp_api_v3&utm_medium=api_v3_business_search&utm_source=HdhkN5EEH6lAqE3kwhsHEQ", "review_count": 179, "categories": [{"alias": "coffee", "title": "Coffee & Tea"}, {"alias": "panasian", "title": "Pan Asian"}], "rating": 3.5, "coordinates": {"latitude": 42.3752749, "longitude": -72.5200186}, "transactions": ["delivery"], "price": "$$", "location": {"address1": "39 S Pleasant St", "address2": "", "address3": "", "city": "Amherst", "zip_code": "01002", "country": "US", "state": "MA", "display_address": ["39 S Pleasant St", "Amherst, MA 01002"]}, "phone": "+14132560296", "display_phone": "(413) 256-0296", "distance": 1021.5568741385007}, {"id": "9hfW5LampTq-tf-_Xc8nyQ", "alias": "texas-roadhouse-hadley", "name": "Texas Roadhouse", "image_url": "https://s3-media2.fl.yelpcdn.com/bphoto/6TC9EqKhCtLCEKibTRW3Zg/o.jpg", "is_closed": false, "url": "https://www.yelp.com/biz/texas-roadhouse-hadley?adjust_creative=HdhkN5EEH6lAqE3kwhsHEQ&utm_campaign=yelp_api_v3&utm_medium=api_v3_business_search&utm_source=HdhkN5EEH6lAqE3kwhsHEQ", "review_count": 63, "categories": [{"alias": "tradamerican", "title": "American (Traditional)"}, {"alias": "steak", "title": "Steakhouses"}, {"alias": "bbq", "title": "Barbeque"}], "rating": 3.5, "coordinates": {"latitude": 42.352027, "longitude": -72.563707}, "transactions": [], "price": "$$", "location": {"address1": "280 Russell St", "address2": null, "address3": null, "city": "Hadley", "zip_code": "01035", "country": "US", "state": "MA", "display_address": ["280 Russell St", "Hadley, MA 01035"]}, "phone": "+14135840100", "display_phone": "(413) 584-0100", "distance": 3716.5438941842776}, {"id": "gCaIfAJ93W6fvmKuasF6Xw", "alias": "house-of-teriyaki-amherst", "name": "House of Teriyaki", "image_url": "https://s3-media2.fl.yelpcdn.com/bphoto/R6hmbdgtPeUaM87IpWdmeg/o.jpg", "is_closed": false, "url": "https://www.yelp.com/biz/house-of-teriyaki-amherst?adjust_creative=HdhkN5EEH6lAqE3kwhsHEQ&utm_campaign=yelp_api_v3&utm_medium=api_v3_business_search&utm_source=HdhkN5EEH6lAqE3kwhsHEQ", "review_count": 90, "categories": [{"alias": "japanese", "title": "Japanese"}, {"alias": "korean", "title": "Korean"}, {"alias": "sushi", "title": "Sushi Bars"}], "rating": 4.0, "coordinates": {"latitude": 42.40953, "longitude": -72.53044}, "transactions": ["delivery"], "price": "$$", "location": {"address1": "1177 N Pleasant St", "address2": "", "address3": "", "city": "Amherst", "zip_code": "01002", "country": "US", "state": "MA", "display_address": ["1177 N Pleasant St", "Amherst, MA 01002"]}, "phone": "+14135493666", "display_phone": "(413) 549-3666", "distance": 3714.3239386630285}, {"id": "BV7lzWCXot_NQaQ5YS9z7Q", "alias": "30-boltwood-amherst-2", "name": "30 Boltwood", "image_url": "https://s3-media1.fl.yelpcdn.com/bphoto/CeAd9sSs2k6QHFBtCyx0GQ/o.jpg", "is_closed": false, "url": "https://www.yelp.com/biz/30-boltwood-amherst-2?adjust_creative=HdhkN5EEH6lAqE3kwhsHEQ&utm_campaign=yelp_api_v3&utm_medium=api_v3_business_search&utm_source=HdhkN5EEH6lAqE3kwhsHEQ", "review_count": 67, "categories": [{"alias": "newamerican", "title": "American (New)"}, {"alias": "bars", "title": "Bars"}, {"alias": "breakfast_brunch", "title": "Breakfast & Brunch"}], "rating": 3.5, "coordinates": {"latitude": 42.37452, "longitude": -72.51826}, "transactions": ["delivery"], "price": "$$$", "location": {"address1": "30 Boltwood Ave", "address2": "", "address3": "", "city": "Amherst", "zip_code": "01002", "country": "US", "state": "MA", "display_address": ["30 Boltwood Ave", "Amherst, MA 01002"]}, "phone": "+14138352011", "display_phone": "(413) 835-2011", "distance": 1169.094471730382}, {"id": "Eu9D2dTHMxUZifR8Nw_7sg", "alias": "dominos-pizza-hadley-2", "name": "Domino's Pizza", "image_url": "https://s3-media4.fl.yelpcdn.com/bphoto/WhZ0RjxN0fl-omymcOPiow/o.jpg", "is_closed": false, "url": "https://www.yelp.com/biz/dominos-pizza-hadley-2?adjust_creative=HdhkN5EEH6lAqE3kwhsHEQ&utm_campaign=yelp_api_v3&utm_medium=api_v3_business_search&utm_source=HdhkN5EEH6lAqE3kwhsHEQ", "review_count": 28, "categories": [{"alias": "pizza", "title": "Pizza"}, {"alias": "chicken_wings", "title": "Chicken Wings"}, {"alias": "sandwiches", "title": "Sandwiches"}], "rating": 1.5, "coordinates": {"latitude": 42.36456463353, "longitude": -72.5365933603404}, "transactions": [], "price": "$", "location": {"address1": "459 Russell St", "address2": "", "address3": "", "city": "Hadley", "zip_code": "01035", "country": "US", "state": "MA", "display_address": ["459 Russell St", "Hadley, MA 01035"]}, "phone": "+14132568911", "display_phone": "(413) 256-8911", "distance": 1335.1659451933754}, {"id": "Py-pq_QzEvEKFIce_x6k6w", "alias": "wildwood-barbeque-hadley", "name": "Wildwood Barbeque", "image_url": "https://s3-media2.fl.yelpcdn.com/bphoto/Z3EhA7EHNfv1GVWXI2TXRA/o.jpg", "is_closed": false, "url": "https://www.yelp.com/biz/wildwood-barbeque-hadley?adjust_creative=HdhkN5EEH6lAqE3kwhsHEQ&utm_campaign=yelp_api_v3&utm_medium=api_v3_business_search&utm_source=HdhkN5EEH6lAqE3kwhsHEQ", "review_count": 170, "categories": [{"alias": "bbq", "title": "Barbeque"}, {"alias": "beerbar", "title": "Beer Bar"}, {"alias": "tradamerican", "title": "American (Traditional)"}], "rating": 3.5, "coordinates": {"latitude": 42.34659, "longitude": -72.57226}, "transactions": ["delivery"], "price": "$$", "location": {"address1": "235 Russell St", "address2": null, "address3": "", "city": "Hadley", "zip_code": "01035", "country": "US", "state": "MA", "display_address": ["235 Russell St", "Hadley, MA 01035"]}, "phone": "+14135844227", "display_phone": "(413) 584-4227", "distance": 4649.276396256991}, {"id": "qoFGGxfhFDd3sy99KJhfZw", "alias": "the-stables-restaurant-hadley", "name": "The Stables Restaurant", "image_url": "https://s3-media1.fl.yelpcdn.com/bphoto/BeWfAHSzfA2C7BN8N0mriQ/o.jpg", "is_closed": false, "url": "https://www.yelp.com/biz/the-stables-restaurant-hadley?adjust_creative=HdhkN5EEH6lAqE3kwhsHEQ&utm_campaign=yelp_api_v3&utm_medium=api_v3_business_search&utm_source=HdhkN5EEH6lAqE3kwhsHEQ", "review_count": 104, "categories": [{"alias": "breakfast_brunch", "title": "Breakfast & Brunch"}, {"alias": "newamerican", "title": "American (New)"}], "rating": 4.0, "coordinates": {"latitude": 42.355545, "longitude": -72.556625}, "transactions": ["delivery"], "price": "$$", "location": {"address1": "326 Russell St", "address2": "", "address3": "", "city": "Hadley", "zip_code": "01035", "country": "US", "state": "MA", "display_address": ["326 Russell St", "Hadley, MA 01035"]}, "phone": "+14135844700", "display_phone": "(413) 584-4700", "distance": 3035.2656327563213}, {"id": "54NNpmmHGyas53lS-hqzJQ", "alias": "earthfoods-cafe-amherst", "name": "Earthfoods Cafe", "image_url": "https://s3-media4.fl.yelpcdn.com/bphoto/gJkxRb6i5qzisvdib_vIMA/o.jpg", "is_closed": false, "url": "https://www.yelp.com/biz/earthfoods-cafe-amherst?adjust_creative=HdhkN5EEH6lAqE3kwhsHEQ&utm_campaign=yelp_api_v3&utm_medium=api_v3_business_search&utm_source=HdhkN5EEH6lAqE3kwhsHEQ", "review_count": 5, "categories": [{"alias": "vegetarian", "title": "Vegetarian"}], "rating": 4.5, "coordinates": {"latitude": 42.388348, "longitude": -72.528917}, "transactions": [], "price": "$", "location": {"address1": "130 Hicks Way", "address2": "", "address3": "", "city": "Amherst", "zip_code": "01002", "country": "US", "state": "MA", "display_address": ["130 Hicks Way", "Amherst, MA 01002"]}, "phone": "+14135451554", "display_phone": "(413) 545-1554", "distance": 1384.3970659842505}, {"id": "ZiDnZGOCsr9xBGEL9ihzjg", "alias": "panda-east-amherst-2", "name": "Panda East", "image_url": "https://s3-media4.fl.yelpcdn.com/bphoto/TFJTGvU83_lxSSMSbAYjVQ/o.jpg", "is_closed": false, "url": "https://www.yelp.com/biz/panda-east-amherst-2?adjust_creative=HdhkN5EEH6lAqE3kwhsHEQ&utm_campaign=yelp_api_v3&utm_medium=api_v3_business_search&utm_source=HdhkN5EEH6lAqE3kwhsHEQ", "review_count": 96, "categories": [{"alias": "chinese", "title": "Chinese"}, {"alias": "japanese", "title": "Japanese"}], "rating": 3.0, "coordinates": {"latitude": 42.37722, "longitude": -72.51936}, "transactions": ["delivery"], "price": "$$", "location": {"address1": "103 N Pleasant St", "address2": "", "address3": "", "city": "Amherst", "zip_code": "01002", "country": "US", "state": "MA", "display_address": ["103 N Pleasant St", "Amherst, MA 01002"]}, "phone": "+14132568923", "display_phone": "(413) 256-8923", "distance": 1066.6656768568416}, {"id": "bUOQz09aRLhDVV5Lg35o6w", "alias": "paradise-of-india-restaurant-amherst", "name": "Paradise Of India Restaurant", "image_url": "https://s3-media4.fl.yelpcdn.com/bphoto/bzRIUko7RhNRfr8ANGpMSg/o.jpg", "is_closed": false, "url": "https://www.yelp.com/biz/paradise-of-india-restaurant-amherst?adjust_creative=HdhkN5EEH6lAqE3kwhsHEQ&utm_campaign=yelp_api_v3&utm_medium=api_v3_business_search&utm_source=HdhkN5EEH6lAqE3kwhsHEQ", "review_count": 44, "categories": [{"alias": "indpak", "title": "Indian"}], "rating": 3.0, "coordinates": {"latitude": 42.375682107816, "longitude": -72.518003456808}, "transactions": ["delivery"], "price": "$$", "location": {"address1": "87 Main St", "address2": "", "address3": "", "city": "Amherst", "zip_code": "01002", "country": "US", "state": "MA", "display_address": ["87 Main St", "Amherst, MA 01002"]}, "phone": "+14132561067", "display_phone": "(413) 256-1067", "distance": 1185.8794561376617}, {"id": "3Wr0o6qZfbUoP7mkl0zPoQ", "alias": "la-veracruzana-mexican-restaurant-amherst", "name": "La Veracruzana Mexican Restaurant", "image_url": "https://s3-media4.fl.yelpcdn.com/bphoto/6ThJ2mUPLvY3CqmQHLTk2Q/o.jpg", "is_closed": false, "url": "https://www.yelp.com/biz/la-veracruzana-mexican-restaurant-amherst?adjust_creative=HdhkN5EEH6lAqE3kwhsHEQ&utm_campaign=yelp_api_v3&utm_medium=api_v3_business_search&utm_source=HdhkN5EEH6lAqE3kwhsHEQ", "review_count": 105, "categories": [{"alias": "mexican", "title": "Mexican"}], "rating": 3.0, "coordinates": {"latitude": 42.374797453538, "longitude": -72.520020664947}, "transactions": ["delivery"], "price": "$$", "location": {"address1": "63 S Pleasant St", "address2": "", "address3": "", "city": "Amherst", "zip_code": "01002", "country": "US", "state": "MA", "display_address": ["63 S Pleasant St", "Amherst, MA 01002"]}, "phone": "+14132536900", "display_phone": "(413) 253-6900", "distance": 1030.3151822142027}, {"id": "R_Dbzv_Qldr8iQSurwMgNQ", "alias": "friendlys-hadley", "name": "Friendly's", "image_url": "https://s3-media1.fl.yelpcdn.com/bphoto/qcBD0f0dXi-o-3DxaVbfhA/o.jpg", "is_closed": false, "url": "https://www.yelp.com/biz/friendlys-hadley?adjust_creative=HdhkN5EEH6lAqE3kwhsHEQ&utm_campaign=yelp_api_v3&utm_medium=api_v3_business_search&utm_source=HdhkN5EEH6lAqE3kwhsHEQ", "review_count": 12, "categories": [{"alias": "icecream", "title": "Ice Cream & Frozen Yogurt"}, {"alias": "burgers", "title": "Burgers"}, {"alias": "tradamerican", "title": "American (Traditional)"}], "rating": 4.0, "coordinates": {"latitude": 42.3637771606445, "longitude": -72.5378112792969}, "transactions": [], "price": "$$", "location": {"address1": "455 Russell St", "address2": "", "address3": "", "city": "Hadley", "zip_code": "01035", "country": "US", "state": "MA", "display_address": ["455 Russell St", "Hadley, MA 01035"]}, "phone": "+14132537640", "display_phone": "(413) 253-7640", "distance": 1429.7440435088727}, {"id": "bzP1utyRGu6ywPric5UmGg", "alias": "arigato-sushi-amherst", "name": "Arigato Sushi", "image_url": "https://s3-media2.fl.yelpcdn.com/bphoto/ilaUY0nSTDWV0uGxKWxSKQ/o.jpg", "is_closed": false, "url": "https://www.yelp.com/biz/arigato-sushi-amherst?adjust_creative=HdhkN5EEH6lAqE3kwhsHEQ&utm_campaign=yelp_api_v3&utm_medium=api_v3_business_search&utm_source=HdhkN5EEH6lAqE3kwhsHEQ", "review_count": 75, "categories": [{"alias": "sushi", "title": "Sushi Bars"}, {"alias": "japanese", "title": "Japanese"}, {"alias": "korean", "title": "Korean"}], "rating": 3.5, "coordinates": {"latitude": 42.3759798393699, "longitude": -72.5196934563388}, "transactions": ["delivery"], "price": "$$", "location": {"address1": "11 N Pleasant St", "address2": null, "address3": "", "city": "Amherst", "zip_code": "01002", "country": "US", "state": "MA", "display_address": ["11 N Pleasant St", "Amherst, MA 01002"]}, "phone": "+14132531070", "display_phone": "(413) 253-1070", "distance": 1046.0247706154305}, {"id": "WSV-t7fuDkvZonTC-MHbPw", "alias": "lit-restaurant-and-lounge-amherst", "name": "Lit Restaurant & Lounge", "image_url": "https://s3-media1.fl.yelpcdn.com/bphoto/Bs3jjvEUd2acuZb4fk0cdA/o.jpg", "is_closed": false, "url": "https://www.yelp.com/biz/lit-restaurant-and-lounge-amherst?adjust_creative=HdhkN5EEH6lAqE3kwhsHEQ&utm_campaign=yelp_api_v3&utm_medium=api_v3_business_search&utm_source=HdhkN5EEH6lAqE3kwhsHEQ", "review_count": 11, "categories": [{"alias": "danceclubs", "title": "Dance Clubs"}, {"alias": "lounges", "title": "Lounges"}, {"alias": "newamerican", "title": "American (New)"}], "rating": 3.5, "coordinates": {"latitude": 42.3763305335657, "longitude": -72.5191700687967}, "transactions": [], "price": "$$", "location": {"address1": "41 Boltwood Walk", "address2": "", "address3": "", "city": "Amherst", "zip_code": "01002", "country": "US", "state": "MA", "display_address": ["41 Boltwood Walk", "Amherst, MA 01002"]}, "phone": "+14133206322", "display_phone": "(413) 320-6322", "distance": 1116.9009114305734}, {"id": "Im68PoWLtYHB7AcxGfoM_A", "alias": "athenas-pizza-amherst", "name": "Athena's Pizza", "image_url": "https://s3-media1.fl.yelpcdn.com/bphoto/Jp1WPOmRPFycwGfsgFEYqA/o.jpg", "is_closed": false, "url": "https://www.yelp.com/biz/athenas-pizza-amherst?adjust_creative=HdhkN5EEH6lAqE3kwhsHEQ&utm_campaign=yelp_api_v3&utm_medium=api_v3_business_search&utm_source=HdhkN5EEH6lAqE3kwhsHEQ", "review_count": 27, "categories": [{"alias": "greek", "title": "Greek"}, {"alias": "pizza", "title": "Pizza"}, {"alias": "chicken_wings", "title": "Chicken Wings"}], "rating": 4.0, "coordinates": {"latitude": 42.371578, "longitude": -72.533959}, "transactions": ["pickup", "delivery"], "price": "$", "location": {"address1": "65 University Dr", "address2": "Ste 1", "address3": "", "city": "Amherst", "zip_code": "01002", "country": "US", "state": "MA", "display_address": ["65 University Dr", "Ste 1", "Amherst, MA 01002"]}, "phone": "+14135499900", "display_phone": "(413) 549-9900", "distance": 533.8902261080058}, {"id": "qXh_8dyoLpniX1pv5jquOA", "alias": "chilis-hadley-2", "name": "Chili's", "image_url": "https://s3-media2.fl.yelpcdn.com/bphoto/ZgpcqyND1_O4weS7Np15Tg/o.jpg", "is_closed": false, "url": "https://www.yelp.com/biz/chilis-hadley-2?adjust_creative=HdhkN5EEH6lAqE3kwhsHEQ&utm_campaign=yelp_api_v3&utm_medium=api_v3_business_search&utm_source=HdhkN5EEH6lAqE3kwhsHEQ", "review_count": 48, "categories": [{"alias": "tradamerican", "title": "American (Traditional)"}, {"alias": "bars", "title": "Bars"}, {"alias": "tex-mex", "title": "Tex-Mex"}], "rating": 2.0, "coordinates": {"latitude": 42.3637066, "longitude": -72.5395134}, "transactions": [], "price": "$$", "location": {"address1": "426 Russell St", "address2": "", "address3": "", "city": "Hadley", "zip_code": "01035", "country": "US", "state": "MA", "display_address": ["426 Russell St", "Hadley, MA 01035"]}, "phone": "+14132534008", "display_phone": "(413) 253-4008", "distance": 1469.9697054063424}, {"id": "vhMAnf6-he-QpsXVqMe_WQ", "alias": "hot-table-hadley", "name": "Hot Table", "image_url": "https://s3-media4.fl.yelpcdn.com/bphoto/FbW5EUrHsd9_oLPvQok-YQ/o.jpg", "is_closed": false, "url": "https://www.yelp.com/biz/hot-table-hadley?adjust_creative=HdhkN5EEH6lAqE3kwhsHEQ&utm_campaign=yelp_api_v3&utm_medium=api_v3_business_search&utm_source=HdhkN5EEH6lAqE3kwhsHEQ", "review_count": 41, "categories": [{"alias": "sandwiches", "title": "Sandwiches"}, {"alias": "salad", "title": "Salad"}, {"alias": "coffee", "title": "Coffee & Tea"}], "rating": 4.0, "coordinates": {"latitude": 42.35744, "longitude": -72.55198}, "transactions": ["delivery"], "price": "$", "location": {"address1": "344 Russell St", "address2": "", "address3": "", "city": "Hadley", "zip_code": "01035", "country": "US", "state": "MA", "display_address": ["344 Russell St", "Hadley, MA 01035"]}, "phone": "+14133870331", "display_phone": "(413) 387-0331", "distance": 2648.3905208940214}, {"id": "achCxO4Vwx7my8lcllTASA", "alias": "pinz-hadley-hadley", "name": "Pinz - Hadley", "image_url": "https://s3-media3.fl.yelpcdn.com/bphoto/7PUlY3uJTpLPyUVvYWIAKg/o.jpg", "is_closed": false, "url": "https://www.yelp.com/biz/pinz-hadley-hadley?adjust_creative=HdhkN5EEH6lAqE3kwhsHEQ&utm_campaign=yelp_api_v3&utm_medium=api_v3_business_search&utm_source=HdhkN5EEH6lAqE3kwhsHEQ", "review_count": 46, "categories": [{"alias": "bowling", "title": "Bowling"}, {"alias": "newamerican", "title": "American (New)"}, {"alias": "arcades", "title": "Arcades"}], "rating": 3.5, "coordinates": {"latitude": 42.356208, "longitude": -72.547214}, "transactions": [], "location": {"address1": "367 Russell St", "address2": "Hampshire Mall", "address3": "", "city": "Hadley", "zip_code": "01035", "country": "US", "state": "MA", "display_address": ["367 Russell St", "Hampshire Mall", "Hadley, MA 01035"]}, "phone": "+14133870550", "display_phone": "(413) 387-0550", "distance": 2530.499078791492}, {"id": "UEYeGewAHsCLA-OAFxKJ5A", "alias": "amherst-house-of-pizza-north-amherst", "name": "Amherst House of Pizza", "image_url": "https://s3-media2.fl.yelpcdn.com/bphoto/fOr-ygossK2adzltS9jayA/o.jpg", "is_closed": false, "url": "https://www.yelp.com/biz/amherst-house-of-pizza-north-amherst?adjust_creative=HdhkN5EEH6lAqE3kwhsHEQ&utm_campaign=yelp_api_v3&utm_medium=api_v3_business_search&utm_source=HdhkN5EEH6lAqE3kwhsHEQ", "review_count": 53, "categories": [{"alias": "pizza", "title": "Pizza"}], "rating": 3.5, "coordinates": {"latitude": 42.410941, "longitude": -72.53031}, "transactions": ["delivery"], "price": "$", "location": {"address1": "17B Montague Rd", "address2": "", "address3": "", "city": "North Amherst", "zip_code": "01002", "country": "US", "state": "MA", "display_address": ["17B Montague Rd", "North Amherst, MA 01002"]}, "phone": "+14134613510", "display_phone": "(413) 461-3510", "distance": 3870.2054601526233}, {"id": "5lZ6vYXgDWjYC2DfUfiLuw", "alias": "the-blue-wall-amherst", "name": "The Blue Wall", "image_url": "https://s3-media3.fl.yelpcdn.com/bphoto/vrnn4FII9CRUFx1XzhshtA/o.jpg", "is_closed": false, "url": "https://www.yelp.com/biz/the-blue-wall-amherst?adjust_creative=HdhkN5EEH6lAqE3kwhsHEQ&utm_campaign=yelp_api_v3&utm_medium=api_v3_business_search&utm_source=HdhkN5EEH6lAqE3kwhsHEQ", "review_count": 19, "categories": [{"alias": "food_court", "title": "Food Court"}], "rating": 2.5, "coordinates": {"latitude": 42.391782, "longitude": -72.527004}, "transactions": [], "price": "$$", "location": {"address1": "1 Campus Center Way", "address2": "", "address3": "University of Massachusetts Campus Center", "city": "Amherst", "zip_code": "01003", "country": "US", "state": "MA", "display_address": ["1 Campus Center Way", "University of Massachusetts Campus Center", "Amherst, MA 01003"]}, "phone": "", "display_phone": "", "distance": 1792.1144294734074}, {"id": "33NPj7t3cxn_dPJiJN5-UQ", "alias": "roots-caf\u00e9-amherst", "name": "Roots Caf\u00e9", "image_url": "https://s3-media2.fl.yelpcdn.com/bphoto/qaM-JfiuX82_TrH_CJZbug/o.jpg", "is_closed": false, "url": "https://www.yelp.com/biz/roots-caf%C3%A9-amherst?adjust_creative=HdhkN5EEH6lAqE3kwhsHEQ&utm_campaign=yelp_api_v3&utm_medium=api_v3_business_search&utm_source=HdhkN5EEH6lAqE3kwhsHEQ", "review_count": 1, "categories": [{"alias": "cafes", "title": "Cafes"}, {"alias": "coffee", "title": "Coffee & Tea"}], "rating": 4.0, "coordinates": {"latitude": 42.3882024948657, "longitude": -72.5305322930217}, "transactions": [], "location": {"address1": "157 Commonwealth Ave", "address2": "", "address3": null, "city": "Amherst", "zip_code": "01002", "country": "US", "state": "MA", "display_address": ["157 Commonwealth Ave", "Amherst, MA 01002"]}, "phone": "+14135458402", "display_phone": "(413) 545-8402", "distance": 1346.9037265763798}, {"id": "NWZbIKlYUT9LwUD7v-5vfA", "alias": "the-works-bakery-caf\u00e9-amherst", "name": "The Works Bakery Caf\u00e9", "image_url": "https://s3-media2.fl.yelpcdn.com/bphoto/w6Zcisqdu7cOkPZSNmtzJg/o.jpg", "is_closed": false, "url": "https://www.yelp.com/biz/the-works-bakery-caf%C3%A9-amherst?adjust_creative=HdhkN5EEH6lAqE3kwhsHEQ&utm_campaign=yelp_api_v3&utm_medium=api_v3_business_search&utm_source=HdhkN5EEH6lAqE3kwhsHEQ", "review_count": 67, "categories": [{"alias": "bagels", "title": "Bagels"}, {"alias": "sandwiches", "title": "Sandwiches"}, {"alias": "breakfast_brunch", "title": "Breakfast & Brunch"}], "rating": 3.0, "coordinates": {"latitude": 42.376465, "longitude": -72.52031}, "transactions": ["delivery"], "price": "$$", "location": {"address1": "48 N Pleasant St", "address2": "", "address3": "", "city": "Amherst", "zip_code": "01002", "country": "US", "state": "MA", "display_address": ["48 N Pleasant St", "Amherst, MA 01002"]}, "phone": "+14138350561", "display_phone": "(413) 835-0561", "distance": 995.6999284592949}, {"id": "CeNue9aAo1r58011k9-SEw", "alias": "hadley-scoop-hadley", "name": "Hadley Scoop", "image_url": "https://s3-media4.fl.yelpcdn.com/bphoto/qp9s9khJRoY75ekT0sYmqQ/o.jpg", "is_closed": false, "url": "https://www.yelp.com/biz/hadley-scoop-hadley?adjust_creative=HdhkN5EEH6lAqE3kwhsHEQ&utm_campaign=yelp_api_v3&utm_medium=api_v3_business_search&utm_source=HdhkN5EEH6lAqE3kwhsHEQ", "review_count": 8, "categories": [{"alias": "icecream", "title": "Ice Cream & Frozen Yogurt"}, {"alias": "hotdog", "title": "Hot Dogs"}], "rating": 5.0, "coordinates": {"latitude": 42.3467072918696, "longitude": -72.5731841102242}, "transactions": [], "price": "$", "location": {"address1": "229 Russell St", "address2": "", "address3": null, "city": "Hadley", "zip_code": "01035", "country": "US", "state": "MA", "display_address": ["229 Russell St", "Hadley, MA 01035"]}, "phone": "+14133870097", "display_phone": "(413) 387-0097", "distance": 4684.891796099888}, {"id": "aZ0spgQ-Hfr3j8OLbtQ8kQ", "alias": "zhangs-kitchen-amherst", "name": "Zhang's Kitchen", "image_url": "https://s3-media2.fl.yelpcdn.com/bphoto/wsG_-KqgFhk91wyJLPNOvw/o.jpg", "is_closed": false, "url": "https://www.yelp.com/biz/zhangs-kitchen-amherst?adjust_creative=HdhkN5EEH6lAqE3kwhsHEQ&utm_campaign=yelp_api_v3&utm_medium=api_v3_business_search&utm_source=HdhkN5EEH6lAqE3kwhsHEQ", "review_count": 28, "categories": [{"alias": "chinese", "title": "Chinese"}], "rating": 2.5, "coordinates": {"latitude": 42.3407759993207, "longitude": -72.5196475170102}, "transactions": ["pickup", "delivery"], "price": "$", "location": {"address1": "460 West St", "address2": "", "address3": "", "city": "Amherst", "zip_code": "01002", "country": "US", "state": "MA", "display_address": ["460 West St", "Amherst, MA 01002"]}, "phone": "+14132530584", "display_phone": "(413) 253-0584", "distance": 4073.302911269118}, {"id": "sHu2khcNR7edvPY7eMI3hg", "alias": "chipotle-mexican-grill-hadley", "name": "Chipotle Mexican Grill", "image_url": "https://s3-media3.fl.yelpcdn.com/bphoto/R_v7GvkdY-S9TGY50l8Urw/o.jpg", "is_closed": false, "url": "https://www.yelp.com/biz/chipotle-mexican-grill-hadley?adjust_creative=HdhkN5EEH6lAqE3kwhsHEQ&utm_campaign=yelp_api_v3&utm_medium=api_v3_business_search&utm_source=HdhkN5EEH6lAqE3kwhsHEQ", "review_count": 48, "categories": [{"alias": "mexican", "title": "Mexican"}, {"alias": "hotdogs", "title": "Fast Food"}], "rating": 2.5, "coordinates": {"latitude": 42.3566126078367, "longitude": -72.5532884895802}, "transactions": [], "price": "$", "location": {"address1": "334 Russell St", "address2": "", "address3": "", "city": "Hadley", "zip_code": "01035", "country": "US", "state": "MA", "display_address": ["334 Russell St", "Hadley, MA 01035"]}, "phone": "+14135879888", "display_phone": "(413) 587-9888", "distance": 2769.068199332106}, {"id": "q9yRUhtTnlxTJPhTMrMWCg", "alias": "applebees-grill-bar-hadley", "name": "Applebee's Grill + Bar", "image_url": "https://s3-media3.fl.yelpcdn.com/bphoto/I8xkdpbJkAp5bTutdKcpXA/o.jpg", "is_closed": false, "url": "https://www.yelp.com/biz/applebees-grill-bar-hadley?adjust_creative=HdhkN5EEH6lAqE3kwhsHEQ&utm_campaign=yelp_api_v3&utm_medium=api_v3_business_search&utm_source=HdhkN5EEH6lAqE3kwhsHEQ", "review_count": 27, "categories": [{"alias": "burgers", "title": "Burgers"}, {"alias": "sportsbars", "title": "Sports Bars"}, {"alias": "tradamerican", "title": "American (Traditional)"}], "rating": 3.0, "coordinates": {"latitude": 42.361753, "longitude": -72.54188}, "transactions": ["delivery"], "price": "$$", "location": {"address1": "100 Westgate Center Dr", "address2": "", "address3": "", "city": "Hadley", "zip_code": "01035", "country": "US", "state": "MA", "display_address": ["100 Westgate Center Dr", "Hadley, MA 01035"]}, "phone": "+14132535799", "display_phone": "(413) 253-5799", "distance": 1781.4121736692086}, {"id": "MQ9PTbD-EFRUxhg0R5kjUw", "alias": "cushman-market-and-cafe-amherst", "name": "Cushman Market and Cafe", "image_url": "https://s3-media1.fl.yelpcdn.com/bphoto/DO5X8alL6hHAyTMwtOLyvg/o.jpg", "is_closed": false, "url": "https://www.yelp.com/biz/cushman-market-and-cafe-amherst?adjust_creative=HdhkN5EEH6lAqE3kwhsHEQ&utm_campaign=yelp_api_v3&utm_medium=api_v3_business_search&utm_source=HdhkN5EEH6lAqE3kwhsHEQ", "review_count": 82, "categories": [{"alias": "breakfast_brunch", "title": "Breakfast & Brunch"}, {"alias": "grocery", "title": "Grocery"}, {"alias": "coffee", "title": "Coffee & Tea"}], "rating": 4.0, "coordinates": {"latitude": 42.4126167297363, "longitude": -72.5079345703125}, "transactions": ["pickup", "delivery"], "price": "$", "location": {"address1": "491 Pine St", "address2": "", "address3": "", "city": "Amherst", "zip_code": "01002", "country": "US", "state": "MA", "display_address": ["491 Pine St", "Amherst, MA 01002"]}, "phone": "+14135490100", "display_phone": "(413) 549-0100", "distance": 4532.583520270708}, {"id": "7rD52PKYYUpAQDSruT8UJA", "alias": "primo-pizzeria-too-amherst", "name": "Primo Pizzeria Too", "image_url": "https://s3-media3.fl.yelpcdn.com/bphoto/n7w5NR3glh-ADtjH0UQdKg/o.jpg", "is_closed": false, "url": "https://www.yelp.com/biz/primo-pizzeria-too-amherst?adjust_creative=HdhkN5EEH6lAqE3kwhsHEQ&utm_campaign=yelp_api_v3&utm_medium=api_v3_business_search&utm_source=HdhkN5EEH6lAqE3kwhsHEQ", "review_count": 27, "categories": [{"alias": "pizza", "title": "Pizza"}, {"alias": "italian", "title": "Italian"}, {"alias": "burgers", "title": "Burgers"}], "rating": 3.5, "coordinates": {"latitude": 42.3811003969016, "longitude": -72.5186309760506}, "transactions": ["delivery"], "price": "$", "location": {"address1": "255 Triangle St", "address2": "", "address3": "", "city": "Amherst", "zip_code": "01002", "country": "US", "state": "MA", "display_address": ["255 Triangle St", "Amherst, MA 01002"]}, "phone": "+14136580100", "display_phone": "(413) 658-0100", "distance": 1276.900263370175}, {"id": "-QyJ17Tl5StCDa-J4tWCQw", "alias": "valentine-dining-hall-amherst", "name": "Valentine Dining Hall", "image_url": "https://s3-media2.fl.yelpcdn.com/bphoto/MElCxmjV49nCBS6tStIZBw/o.jpg", "is_closed": false, "url": "https://www.yelp.com/biz/valentine-dining-hall-amherst?adjust_creative=HdhkN5EEH6lAqE3kwhsHEQ&utm_campaign=yelp_api_v3&utm_medium=api_v3_business_search&utm_source=HdhkN5EEH6lAqE3kwhsHEQ", "review_count": 3, "categories": [{"alias": "tradamerican", "title": "American (Traditional)"}, {"alias": "diners", "title": "Diners"}, {"alias": "breakfast_brunch", "title": "Breakfast & Brunch"}], "rating": 2.5, "coordinates": {"latitude": 42.3731250339904, "longitude": -72.51625}, "transactions": [], "location": {"address1": "59 College St", "address2": "", "address3": null, "city": "Amherst", "zip_code": "01002", "country": "US", "state": "MA", "display_address": ["59 College St", "Amherst, MA 01002"]}, "phone": "+14135422220", "display_phone": "(413) 542-2220", "distance": 1425.3485200838697}, {"id": "_9fx7H2bsf_COclbn5xbrg", "alias": "worcester-dining-commons-amherst", "name": "Worcester Dining Commons", "image_url": "https://s3-media1.fl.yelpcdn.com/bphoto/ty1MQG9UGyR0vn8sLx5Fqw/o.jpg", "is_closed": false, "url": "https://www.yelp.com/biz/worcester-dining-commons-amherst?adjust_creative=HdhkN5EEH6lAqE3kwhsHEQ&utm_campaign=yelp_api_v3&utm_medium=api_v3_business_search&utm_source=HdhkN5EEH6lAqE3kwhsHEQ", "review_count": 3, "categories": [{"alias": "soup", "title": "Soup"}, {"alias": "pizza", "title": "Pizza"}], "rating": 4.0, "coordinates": {"latitude": 42.3936650395243, "longitude": -72.5240462528631}, "transactions": [], "price": "$", "location": {"address1": "669 N Pleasant St", "address2": "", "address3": "", "city": "Amherst", "zip_code": "01003", "country": "US", "state": "MA", "display_address": ["669 N Pleasant St", "Amherst, MA 01003"]}, "phone": "+14135452472", "display_phone": "(413) 545-2472", "distance": 2063.441473934515}, {"id": "leTHc9wctzklRk6rGw7VBw", "alias": "the-university-club-and-restaurant-amherst", "name": "The University Club & Restaurant", "image_url": "https://s3-media3.fl.yelpcdn.com/bphoto/Z2aAUuOi-k7EsO4_wi92nA/o.jpg", "is_closed": false, "url": "https://www.yelp.com/biz/the-university-club-and-restaurant-amherst?adjust_creative=HdhkN5EEH6lAqE3kwhsHEQ&utm_campaign=yelp_api_v3&utm_medium=api_v3_business_search&utm_source=HdhkN5EEH6lAqE3kwhsHEQ", "review_count": 8, "categories": [{"alias": "tradamerican", "title": "American (Traditional)"}, {"alias": "newamerican", "title": "American (New)"}, {"alias": "lounges", "title": "Lounges"}], "rating": 3.5, "coordinates": {"latitude": 42.3891652753559, "longitude": -72.5234329620205}, "transactions": ["delivery"], "price": "$$$", "location": {"address1": "243 Stockbridge Rd", "address2": "", "address3": "", "city": "Amherst", "zip_code": "01003", "country": "US", "state": "MA", "display_address": ["243 Stockbridge Rd", "Amherst, MA 01003"]}, "phone": "+14135452551", "display_phone": "(413) 545-2551", "distance": 1676.8012395287913}, {"id": "KbFb1n-RZd5HOn2q1qOD1A", "alias": "brunos-pizza-amherst", "name": "Bruno's Pizza", "image_url": "https://s3-media3.fl.yelpcdn.com/bphoto/hXRlZF08A_ATYFsuWGx9-A/o.jpg", "is_closed": false, "url": "https://www.yelp.com/biz/brunos-pizza-amherst?adjust_creative=HdhkN5EEH6lAqE3kwhsHEQ&utm_campaign=yelp_api_v3&utm_medium=api_v3_business_search&utm_source=HdhkN5EEH6lAqE3kwhsHEQ", "review_count": 51, "categories": [{"alias": "pizza", "title": "Pizza"}], "rating": 3.5, "coordinates": {"latitude": 42.3757726413449, "longitude": -72.5127280375822}, "transactions": ["delivery"], "price": "$", "location": {"address1": "363 Main St", "address2": "", "address3": "", "city": "Amherst", "zip_code": "01002", "country": "US", "state": "MA", "display_address": ["363 Main St", "Amherst, MA 01002"]}, "phone": "+14132560222", "display_phone": "(413) 256-0222", "distance": 1618.5824783003363}, {"id": "0p8H5orIBw7Ba-a4czpzhA", "alias": "mcdonalds-hadley", "name": "McDonald's", "image_url": "https://s3-media2.fl.yelpcdn.com/bphoto/cvUP4skZ7jwsuynnXX52Yg/o.jpg", "is_closed": false, "url": "https://www.yelp.com/biz/mcdonalds-hadley?adjust_creative=HdhkN5EEH6lAqE3kwhsHEQ&utm_campaign=yelp_api_v3&utm_medium=api_v3_business_search&utm_source=HdhkN5EEH6lAqE3kwhsHEQ", "review_count": 21, "categories": [{"alias": "hotdogs", "title": "Fast Food"}, {"alias": "burgers", "title": "Burgers"}, {"alias": "coffee", "title": "Coffee & Tea"}], "rating": 3.0, "coordinates": {"latitude": 42.358855090675, "longitude": -72.549741268158}, "transactions": [], "price": "$", "location": {"address1": "374 Russell St", "address2": "", "address3": "", "city": "Hadley", "zip_code": "01035", "country": "US", "state": "MA", "display_address": ["374 Russell St", "Hadley, MA 01035"]}, "phone": "+14135820176", "display_phone": "(413) 582-0176", "distance": 2393.9353832195266}, {"id": "WQkrz00jNyQsaJadxL0h7Q", "alias": "kellys-restaurant-amherst", "name": "Kelly's Restaurant", "image_url": "https://s3-media4.fl.yelpcdn.com/bphoto/hwuMSRbWALIzfeUkyoHXWA/o.jpg", "is_closed": false, "url": "https://www.yelp.com/biz/kellys-restaurant-amherst?adjust_creative=HdhkN5EEH6lAqE3kwhsHEQ&utm_campaign=yelp_api_v3&utm_medium=api_v3_business_search&utm_source=HdhkN5EEH6lAqE3kwhsHEQ", "review_count": 19, "categories": [{"alias": "newamerican", "title": "American (New)"}, {"alias": "breakfast_brunch", "title": "Breakfast & Brunch"}], "rating": 3.5, "coordinates": {"latitude": 42.373229, "longitude": -72.503424}, "transactions": ["delivery"], "price": "$", "location": {"address1": "314 College St", "address2": "", "address3": "", "city": "Amherst", "zip_code": "01002", "country": "US", "state": "MA", "display_address": ["314 College St", "Amherst, MA 01002"]}, "phone": "+14132539521", "display_phone": "(413) 253-9521", "distance": 2404.6430207743524}, {"id": "08KuvUqdONvE2YE9OGKqWQ", "alias": "sibies-pizza-amherst", "name": "Sibie's Pizza", "image_url": "https://s3-media4.fl.yelpcdn.com/bphoto/FT0_Pmw4uTNcR1gItpb9mg/o.jpg", "is_closed": false, "url": "https://www.yelp.com/biz/sibies-pizza-amherst?adjust_creative=HdhkN5EEH6lAqE3kwhsHEQ&utm_campaign=yelp_api_v3&utm_medium=api_v3_business_search&utm_source=HdhkN5EEH6lAqE3kwhsHEQ", "review_count": 44, "categories": [{"alias": "pizza", "title": "Pizza"}, {"alias": "chicken_wings", "title": "Chicken Wings"}, {"alias": "vegan", "title": "Vegan"}], "rating": 4.0, "coordinates": {"latitude": 42.339745, "longitude": -72.520776}, "transactions": ["pickup", "delivery"], "price": "$", "location": {"address1": "481 West St", "address2": "", "address3": "", "city": "Amherst", "zip_code": "01002", "country": "US", "state": "MA", "display_address": ["481 West St", "Amherst, MA 01002"]}, "phone": "+14132566100", "display_phone": "(413) 256-6100", "distance": 4147.961135310693}, {"id": "hwCthMrt77pywJA7Q6T_9Q", "alias": "panera-bread-hadley", "name": "Panera Bread", "image_url": "https://s3-media1.fl.yelpcdn.com/bphoto/4lTXpzejR73ulmxBCz5bbQ/o.jpg", "is_closed": false, "url": "https://www.yelp.com/biz/panera-bread-hadley?adjust_creative=HdhkN5EEH6lAqE3kwhsHEQ&utm_campaign=yelp_api_v3&utm_medium=api_v3_business_search&utm_source=HdhkN5EEH6lAqE3kwhsHEQ", "review_count": 29, "categories": [{"alias": "sandwiches", "title": "Sandwiches"}, {"alias": "salad", "title": "Salad"}, {"alias": "soup", "title": "Soup"}], "rating": 3.0, "coordinates": {"latitude": 42.353491, "longitude": -72.553435}, "transactions": [], "price": "$$", "location": {"address1": "351 Russell St", "address2": "Ste \u00a0351B", "address3": "", "city": "Hadley", "zip_code": "01035", "country": "US", "state": "MA", "display_address": ["351 Russell St", "Ste \u00a0351B", "Hadley, MA 01035"]}, "phone": "+14133876336", "display_phone": "(413) 387-6336", "distance": 3056.0202017705114}, {"id": "A0e-tQr8h6nZ7a9VzZMgCg", "alias": "brueggers-bagels-amherst-2", "name": "Bruegger's Bagels", "image_url": "https://s3-media4.fl.yelpcdn.com/bphoto/Wo7oMIDoFYao7kQbaJ4pqw/o.jpg", "is_closed": false, "url": "https://www.yelp.com/biz/brueggers-bagels-amherst-2?adjust_creative=HdhkN5EEH6lAqE3kwhsHEQ&utm_campaign=yelp_api_v3&utm_medium=api_v3_business_search&utm_source=HdhkN5EEH6lAqE3kwhsHEQ", "review_count": 32, "categories": [{"alias": "bagels", "title": "Bagels"}, {"alias": "breakfast_brunch", "title": "Breakfast & Brunch"}, {"alias": "sandwiches", "title": "Sandwiches"}], "rating": 2.5, "coordinates": {"latitude": 42.3782241, "longitude": -72.5201029}, "transactions": [], "price": "$", "location": {"address1": "170 N Pleasant St", "address2": "", "address3": "", "city": "Amherst", "zip_code": "01002", "country": "US", "state": "MA", "display_address": ["170 N Pleasant St", "Amherst, MA 01002"]}, "phone": "+14132535713", "display_phone": "(413) 253-5713", "distance": 1021.5680812107804}, {"id": "pdoNdba03NXOdhaDIFkKcg", "alias": "taco-bell-hadley-2", "name": "Taco Bell", "image_url": "https://s3-media3.fl.yelpcdn.com/bphoto/de8hGnyx0GvBnl1uDq9fkQ/o.jpg", "is_closed": false, "url": "https://www.yelp.com/biz/taco-bell-hadley-2?adjust_creative=HdhkN5EEH6lAqE3kwhsHEQ&utm_campaign=yelp_api_v3&utm_medium=api_v3_business_search&utm_source=HdhkN5EEH6lAqE3kwhsHEQ", "review_count": 21, "categories": [{"alias": "hotdogs", "title": "Fast Food"}, {"alias": "tacos", "title": "Tacos"}], "rating": 3.0, "coordinates": {"latitude": 42.358228, "longitude": -72.551169}, "transactions": ["delivery"], "price": "$", "location": {"address1": "348 Russell Street", "address2": "", "address3": "", "city": "Hadley", "zip_code": "01035", "country": "US", "state": "MA", "display_address": ["348 Russell Street", "Hadley, MA 01035"]}, "phone": "+14135842391", "display_phone": "(413) 584-2391", "distance": 2520.280530830034}, {"id": "nF8R1_vtuVntHLpUN3UoVg", "alias": "wendys-hadley", "name": "Wendy's", "image_url": "https://s3-media4.fl.yelpcdn.com/bphoto/R-xzUZQ03uv1D78-sVBY9A/o.jpg", "is_closed": false, "url": "https://www.yelp.com/biz/wendys-hadley?adjust_creative=HdhkN5EEH6lAqE3kwhsHEQ&utm_campaign=yelp_api_v3&utm_medium=api_v3_business_search&utm_source=HdhkN5EEH6lAqE3kwhsHEQ", "review_count": 18, "categories": [{"alias": "hotdogs", "title": "Fast Food"}, {"alias": "burgers", "title": "Burgers"}], "rating": 1.5, "coordinates": {"latitude": 42.359309, "longitude": -72.548843}, "transactions": ["delivery"], "price": "$", "location": {"address1": "376 Russell Street", "address2": "", "address3": "", "city": "Hadley", "zip_code": "01035", "country": "US", "state": "MA", "display_address": ["376 Russell Street", "Hadley, MA 01035"]}, "phone": "+14135173968", "display_phone": "(413) 517-3968", "distance": 2312.490751363771}, {"id": "rx9X9thYgNImhZWe4o010w", "alias": "arizona-pizza-company-hadley-2", "name": "Arizona Pizza Company", "image_url": "https://s3-media2.fl.yelpcdn.com/bphoto/lDKg4sw00oxgrP1rZqsLIA/o.jpg", "is_closed": false, "url": "https://www.yelp.com/biz/arizona-pizza-company-hadley-2?adjust_creative=HdhkN5EEH6lAqE3kwhsHEQ&utm_campaign=yelp_api_v3&utm_medium=api_v3_business_search&utm_source=HdhkN5EEH6lAqE3kwhsHEQ", "review_count": 55, "categories": [{"alias": "pizza", "title": "Pizza"}], "rating": 3.0, "coordinates": {"latitude": 42.356886, "longitude": -72.548282}, "transactions": ["pickup", "delivery"], "price": "$$", "location": {"address1": "367 Russell St", "address2": "", "address3": "", "city": "Hadley", "zip_code": "01035", "country": "US", "state": "MA", "display_address": ["367 Russell St", "Hadley, MA 01035"]}, "phone": "+14135820400", "display_phone": "(413) 582-0400", "distance": 2509.0476342497846}, {"id": "nKmZUo1GL5gXHI42Y_41kA", "alias": "green-fields-amherst", "name": "Green Fields", "image_url": "https://s3-media2.fl.yelpcdn.com/bphoto/vqdVIfR8a6LDcEkA_hEPVg/o.jpg", "is_closed": false, "url": "https://www.yelp.com/biz/green-fields-amherst?adjust_creative=HdhkN5EEH6lAqE3kwhsHEQ&utm_campaign=yelp_api_v3&utm_medium=api_v3_business_search&utm_source=HdhkN5EEH6lAqE3kwhsHEQ", "review_count": 1, "categories": [{"alias": "salad", "title": "Salad"}], "rating": 3.0, "coordinates": {"latitude": 42.3917175889903, "longitude": -72.5265750995056}, "transactions": [], "location": {"address1": "1 Campus Center Way", "address2": "Ste B", "address3": "", "city": "Amherst", "zip_code": "01003", "country": "US", "state": "MA", "display_address": ["1 Campus Center Way", "Ste B", "Amherst, MA 01003"]}, "phone": "", "display_phone": "", "distance": 1794.2880269097218}, {"id": "rfsbS44y-fo40Zis_9d7qg", "alias": "bite-me-please-amherst-center", "name": "Bite Me Please", "image_url": "https://s3-media4.fl.yelpcdn.com/bphoto/jpu3A2Uar32eGiQ0stg_4Q/o.jpg", "is_closed": false, "url": "https://www.yelp.com/biz/bite-me-please-amherst-center?adjust_creative=HdhkN5EEH6lAqE3kwhsHEQ&utm_campaign=yelp_api_v3&utm_medium=api_v3_business_search&utm_source=HdhkN5EEH6lAqE3kwhsHEQ", "review_count": 1, "categories": [{"alias": "foodstands", "title": "Food Stands"}], "rating": 4.0, "coordinates": {"latitude": 42.3752212524414, "longitude": -72.5198364257812}, "transactions": [], "location": {"address1": "", "address2": "", "address3": "", "city": "Amherst Center", "zip_code": "", "country": "US", "state": "MA", "display_address": ["Amherst Center, MA"]}, "phone": "+14132190591", "display_phone": "(413) 219-0591", "distance": 1085.5896881550557}, {"id": "aSBjd6oZCu-HvXKxX2qNtA", "alias": "moes-southwest-grill-hadley", "name": "Moe's Southwest Grill", "image_url": "https://s3-media1.fl.yelpcdn.com/bphoto/pqlMptfaORCa90jWasP_bA/o.jpg", "is_closed": false, "url": "https://www.yelp.com/biz/moes-southwest-grill-hadley?adjust_creative=HdhkN5EEH6lAqE3kwhsHEQ&utm_campaign=yelp_api_v3&utm_medium=api_v3_business_search&utm_source=HdhkN5EEH6lAqE3kwhsHEQ", "review_count": 29, "categories": [{"alias": "mexican", "title": "Mexican"}, {"alias": "tex-mex", "title": "Tex-Mex"}], "rating": 2.5, "coordinates": {"latitude": 42.3593230862871, "longitude": -72.5475931540132}, "transactions": ["pickup", "delivery"], "price": "$", "location": {"address1": "379 Russell St", "address2": "", "address3": "", "city": "Hadley", "zip_code": "01035", "country": "US", "state": "MA", "display_address": ["379 Russell St", "Hadley, MA 01035"]}, "phone": "+14133870266", "display_phone": "(413) 387-0266", "distance": 2249.9458287601587}, {"id": "Rlt9O-ZnZJwbbz5lNnOe7A", "alias": "greeno-sub-shop-amherst", "name": "Greeno Sub Shop", "image_url": "https://s3-media1.fl.yelpcdn.com/bphoto/YuGAq9LxHLjiE7lQ9rm3KQ/o.jpg", "is_closed": false, "url": "https://www.yelp.com/biz/greeno-sub-shop-amherst?adjust_creative=HdhkN5EEH6lAqE3kwhsHEQ&utm_campaign=yelp_api_v3&utm_medium=api_v3_business_search&utm_source=HdhkN5EEH6lAqE3kwhsHEQ", "review_count": 3, "categories": [{"alias": "sandwiches", "title": "Sandwiches"}], "rating": 3.5, "coordinates": {"latitude": 42.3904151916504, "longitude": -72.5283737182617}, "transactions": [], "price": "$", "location": {"address1": "120 Greenough Hall Basement", "address2": "", "address3": "", "city": "Amherst", "zip_code": "01003", "country": "US", "state": "MA", "display_address": ["120 Greenough Hall Basement", "Amherst, MA 01003"]}, "phone": "+14135452380", "display_phone": "(413) 545-2380", "distance": 1889.3969292600007}, {"id": "EBOKlLXepUQImS8wV4068A", "alias": "subway-amherst-17", "name": "Subway", "image_url": "https://s3-media2.fl.yelpcdn.com/bphoto/8Lcf7urdszZgs5hG6MNr_w/o.jpg", "is_closed": false, "url": "https://www.yelp.com/biz/subway-amherst-17?adjust_creative=HdhkN5EEH6lAqE3kwhsHEQ&utm_campaign=yelp_api_v3&utm_medium=api_v3_business_search&utm_source=HdhkN5EEH6lAqE3kwhsHEQ", "review_count": 8, "categories": [{"alias": "sandwiches", "title": "Sandwiches"}], "rating": 2.5, "coordinates": {"latitude": 42.3758654810346, "longitude": -72.5196445020015}, "transactions": ["pickup", "delivery"], "price": "$", "location": {"address1": "4 Main St", "address2": "Store 1A", "address3": "", "city": "Amherst", "zip_code": "01002", "country": "US", "state": "MA", "display_address": ["4 Main St", "Store 1A", "Amherst, MA 01002"]}, "phone": "+14132561919", "display_phone": "(413) 256-1919", "distance": 1050.3797829790212}, {"id": "ZtM_ln7Tsn075y7RnDTsqQ", "alias": "sylvan-snack-bar-amherst", "name": "Sylvan Snack Bar", "image_url": "https://s3-media2.fl.yelpcdn.com/bphoto/y0DQzgfiJo8DUZDVWZk2Fw/o.jpg", "is_closed": false, "url": "https://www.yelp.com/biz/sylvan-snack-bar-amherst?adjust_creative=HdhkN5EEH6lAqE3kwhsHEQ&utm_campaign=yelp_api_v3&utm_medium=api_v3_business_search&utm_source=HdhkN5EEH6lAqE3kwhsHEQ", "review_count": 3, "categories": [{"alias": "desserts", "title": "Desserts"}, {"alias": "pizza", "title": "Pizza"}, {"alias": "sandwiches", "title": "Sandwiches"}], "rating": 3.0, "coordinates": {"latitude": 42.3973721265793, "longitude": -72.5196287781}, "transactions": [], "location": {"address1": "102 Eastman Ln", "address2": "", "address3": "McNamara Hall - UMass", "city": "Amherst", "zip_code": "01003", "country": "US", "state": "MA", "display_address": ["102 Eastman Ln", "McNamara Hall - UMass", "Amherst, MA 01003"]}, "phone": "+14135453020", "display_phone": "(413) 545-3020", "distance": 2276.4683719203445}, {"id": "ohN09D6g0N0jd6Jc8uQntA", "alias": "subway-hadley-5", "name": "Subway", "image_url": "https://s3-media2.fl.yelpcdn.com/bphoto/ZO0vcbzgn-lwDtJDZAxVjQ/o.jpg", "is_closed": false, "url": "https://www.yelp.com/biz/subway-hadley-5?adjust_creative=HdhkN5EEH6lAqE3kwhsHEQ&utm_campaign=yelp_api_v3&utm_medium=api_v3_business_search&utm_source=HdhkN5EEH6lAqE3kwhsHEQ", "review_count": 2, "categories": [{"alias": "sandwiches", "title": "Sandwiches"}], "rating": 3.5, "coordinates": {"latitude": 42.3545338025272, "longitude": -72.5526640950219}, "transactions": ["pickup", "delivery"], "price": "$", "location": {"address1": "337 Russell St", "address2": null, "address3": null, "city": "Hadley", "zip_code": "01035", "country": "US", "state": "MA", "display_address": ["337 Russell St", "Hadley, MA 01035"]}, "phone": "+14135850670", "display_phone": "(413) 585-0670", "distance": 2924.5818745787665}, {"id": "rT2OyIaXeJUgas7HRL-8NA", "alias": "subway-restaurants-hadley", "name": "Subway Restaurants", "image_url": "https://s3-media2.fl.yelpcdn.com/bphoto/XL-9dntDsQHr9nVLqm73eA/o.jpg", "is_closed": false, "url": "https://www.yelp.com/biz/subway-restaurants-hadley?adjust_creative=HdhkN5EEH6lAqE3kwhsHEQ&utm_campaign=yelp_api_v3&utm_medium=api_v3_business_search&utm_source=HdhkN5EEH6lAqE3kwhsHEQ", "review_count": 1, "categories": [{"alias": "sandwiches", "title": "Sandwiches"}], "rating": 3.0, "coordinates": {"latitude": 42.3559343, "longitude": -72.5475663}, "transactions": ["pickup", "delivery"], "price": "$", "location": {"address1": "367 Russell St", "address2": "Ste C-15", "address3": null, "city": "Hadley", "zip_code": "01035", "country": "US", "state": "MA", "display_address": ["367 Russell St", "Ste C-15", "Hadley, MA 01035"]}, "phone": "+14135843577", "display_phone": "(413) 584-3577", "distance": 2571.1166404577575}, {"id": "qqA8YX58xnmEXLyanHfdUg", "alias": "stufd-food-truck-brooklyn", "name": "Stuf'd Food Truck", "image_url": "https://s3-media2.fl.yelpcdn.com/bphoto/_Wn0i-tLIOFinw8BPAqxPA/o.jpg", "is_closed": false, "url": "https://www.yelp.com/biz/stufd-food-truck-brooklyn?adjust_creative=HdhkN5EEH6lAqE3kwhsHEQ&utm_campaign=yelp_api_v3&utm_medium=api_v3_business_search&utm_source=HdhkN5EEH6lAqE3kwhsHEQ", "review_count": 4, "categories": [{"alias": "sandwiches", "title": "Sandwiches"}, {"alias": "foodtrucks", "title": "Food Trucks"}], "rating": 4.0, "coordinates": {"latitude": 40.7124539, "longitude": -73.9287374}, "transactions": [], "location": {"address1": "178 Varick Ave", "address2": "", "address3": null, "city": "Brooklyn", "zip_code": "11237", "country": "US", "state": "NY", "display_address": ["178 Varick Ave", "Brooklyn, NY 11237"]}, "phone": "+18457091808", "display_phone": "(845) 709-1808", "distance": 218458.10346335382}]