[{"id": "glj2EqPtInlYmC73dASY5Q", "alias": "theodores-booze-blues-and-bbq-springfield", "name": "Theodore's Booze Blues & BBQ", "image_url": "https://s3-media1.fl.yelpcdn.com/bphoto/ye2zfJ5Dnpqax2_j7Gvj_A/o.jpg", "is_closed": false, "url": "https://www.yelp.com/biz/theodores-booze-blues-and-bbq-springfield?adjust_creative=wVJJqwOt_3apsoGmwgRWnw&utm_campaign=yelp_api_v3&utm_medium=api_v3_business_search&utm_source=wVJJqwOt_3apsoGmwgRWnw", "review_count": 524, "categories": [{"alias": "bbq", "title": "Barbeque"}, {"alias": "jazzandblues", "title": "Jazz & Blues"}, {"alias": "bars", "title": "Bars"}], "rating": 4.5, "coordinates": {"latitude": 42.1041412353516, "longitude": -72.592041015625}, "transactions": ["delivery"], "price": "$$", "location": {"address1": "201 Worthington St", "address2": "", "address3": "", "city": "Springfield", "zip_code": "01103", "country": "US", "state": "MA", "display_address": ["201 Worthington St", "Springfield, MA 01103"]}, "phone": "+14137366000", "display_phone": "(413) 736-6000", "distance": 219.05280926915881}, {"id": "uoZFLAnQfFopcPaUC2vX1g", "alias": "nadims-downtown-mediterranean-grill-springfield-3", "name": "Nadim's Downtown Mediterranean Grill", "image_url": "https://s3-media1.fl.yelpcdn.com/bphoto/5NjM6Vl6wRp77g03Kf9LgQ/o.jpg", "is_closed": false, "url": "https://www.yelp.com/biz/nadims-downtown-mediterranean-grill-springfield-3?adjust_creative=wVJJqwOt_3apsoGmwgRWnw&utm_campaign=yelp_api_v3&utm_medium=api_v3_business_search&utm_source=wVJJqwOt_3apsoGmwgRWnw", "review_count": 177, "categories": [{"alias": "mediterranean", "title": "Mediterranean"}, {"alias": "lebanese", "title": "Lebanese"}], "rating": 4.0, "coordinates": {"latitude": 42.10229, "longitude": -72.59}, "transactions": ["pickup", "delivery", "restaurant_reservation"], "price": "$$", "location": {"address1": "1390 Main St", "address2": null, "address3": "", "city": "Springfield", "zip_code": "01103", "country": "US", "state": "MA", "display_address": ["1390 Main St", "Springfield, MA 01103"]}, "phone": "+14137377373", "display_phone": "(413) 737-7373", "distance": 468.905187837434}, {"id": "GlxVHKd0H1pjjUXPRBVPCA", "alias": "chef-waynes-big-mamou-springfield-2", "name": "Chef Wayne's Big Mamou", "image_url": "https://s3-media2.fl.yelpcdn.com/bphoto/bkxTTcFyA44BWB0uHDd2tg/o.jpg", "is_closed": false, "url": "https://www.yelp.com/biz/chef-waynes-big-mamou-springfield-2?adjust_creative=wVJJqwOt_3apsoGmwgRWnw&utm_campaign=yelp_api_v3&utm_medium=api_v3_business_search&utm_source=wVJJqwOt_3apsoGmwgRWnw", "review_count": 473, "categories": [{"alias": "cajun", "title": "Cajun/Creole"}], "rating": 4.5, "coordinates": {"latitude": 42.1063652646148, "longitude": -72.5954923619712}, "transactions": [], "price": "$$", "location": {"address1": "63 Liberty St", "address2": "", "address3": "", "city": "Springfield", "zip_code": "01103", "country": "US", "state": "MA", "display_address": ["63 Liberty St", "Springfield, MA 01103"]}, "phone": "+14137321011", "display_phone": "(413) 732-1011", "distance": 261.93354450645614}, {"id": "K3DiUWJ0UBKpGVLIWBETXw", "alias": "student-prince-cafe-and-fort-restaurant-springfield-2", "name": "Student Prince Cafe And Fort Restaurant", "image_url": "https://s3-media4.fl.yelpcdn.com/bphoto/Vp18qTdt0ntZS-9W6dk-IA/o.jpg", "is_closed": false, "url": "https://www.yelp.com/biz/student-prince-cafe-and-fort-restaurant-springfield-2?adjust_creative=wVJJqwOt_3apsoGmwgRWnw&utm_campaign=yelp_api_v3&utm_medium=api_v3_business_search&utm_source=wVJJqwOt_3apsoGmwgRWnw", "review_count": 313, "categories": [{"alias": "german", "title": "German"}, {"alias": "tradamerican", "title": "American (Traditional)"}, {"alias": "bars", "title": "Bars"}], "rating": 4.0, "coordinates": {"latitude": 42.1031436, "longitude": -72.5943831}, "transactions": ["delivery"], "price": "$$", "location": {"address1": "8 Fort St", "address2": null, "address3": null, "city": "Springfield", "zip_code": "01103", "country": "US", "state": "MA", "display_address": ["8 Fort St", "Springfield, MA 01103"]}, "phone": "+14137347475", "display_phone": "(413) 734-7475", "distance": 293.21416561460313}, {"id": "bJioFdeNHm1U4SJ1xmPlQA", "alias": "350-grill-springfield", "name": "350 Grill", "image_url": "https://s3-media3.fl.yelpcdn.com/bphoto/nIgQIkfjNtTibSuZZ7k7FA/o.jpg", "is_closed": false, "url": "https://www.yelp.com/biz/350-grill-springfield?adjust_creative=wVJJqwOt_3apsoGmwgRWnw&utm_campaign=yelp_api_v3&utm_medium=api_v3_business_search&utm_source=wVJJqwOt_3apsoGmwgRWnw", "review_count": 116, "categories": [{"alias": "newamerican", "title": "American (New)"}, {"alias": "steak", "title": "Steakhouses"}, {"alias": "italian", "title": "Italian"}], "rating": 3.5, "coordinates": {"latitude": 42.106073, "longitude": -72.590842}, "transactions": ["delivery"], "price": "$$", "location": {"address1": "350 Worthington St", "address2": "", "address3": "", "city": "Springfield", "zip_code": "01103", "country": "US", "state": "MA", "display_address": ["350 Worthington St", "Springfield, MA 01103"]}, "phone": "+14134390666", "display_phone": "(413) 439-0666", "distance": 123.24843051606007}, {"id": "EIYT9_IP7olbOxAGYvnL3g", "alias": "barkaya-springfield-7", "name": "BarKaya", "image_url": "https://s3-media2.fl.yelpcdn.com/bphoto/CeJ191o2cfBx996i-H_BPA/o.jpg", "is_closed": false, "url": "https://www.yelp.com/biz/barkaya-springfield-7?adjust_creative=wVJJqwOt_3apsoGmwgRWnw&utm_campaign=yelp_api_v3&utm_medium=api_v3_business_search&utm_source=wVJJqwOt_3apsoGmwgRWnw", "review_count": 28, "categories": [{"alias": "sushi", "title": "Sushi Bars"}, {"alias": "ramen", "title": "Ramen"}, {"alias": "cocktailbars", "title": "Cocktail Bars"}], "rating": 4.0, "coordinates": {"latitude": 42.1051396858134, "longitude": -72.5914650410414}, "transactions": ["delivery"], "location": {"address1": "278 Worthington St", "address2": "", "address3": null, "city": "Springfield", "zip_code": "01103", "country": "US", "state": "MA", "display_address": ["278 Worthington St", "Springfield, MA 01103"]}, "phone": "+14137330000", "display_phone": "(413) 733-0000", "distance": 130.33883848315367}, {"id": "zz30qrP6sGQ9V9f0j0zSUQ", "alias": "costa-springfield", "name": "Costa", "image_url": "https://s3-media3.fl.yelpcdn.com/bphoto/g2WkwWYDjo3B6Mywbct2aw/o.jpg", "is_closed": false, "url": "https://www.yelp.com/biz/costa-springfield?adjust_creative=wVJJqwOt_3apsoGmwgRWnw&utm_campaign=yelp_api_v3&utm_medium=api_v3_business_search&utm_source=wVJJqwOt_3apsoGmwgRWnw", "review_count": 1, "categories": [{"alias": "italian", "title": "Italian"}, {"alias": "pizza", "title": "Pizza"}], "rating": 3.0, "coordinates": {"latitude": 42.09935, "longitude": -72.58702}, "transactions": [], "location": {"address1": "One Mgm Way", "address2": "", "address3": null, "city": "Springfield", "zip_code": "01103", "country": "US", "state": "MA", "display_address": ["One Mgm Way", "Springfield, MA 01103"]}, "phone": "+14132735000", "display_phone": "(413) 273-5000", "distance": 898.1284162457416}, {"id": "zQ99spImDikWqsSFF_hnrg", "alias": "red-rose-springfield", "name": "Red Rose", "image_url": "https://s3-media3.fl.yelpcdn.com/bphoto/Lb150W58C0N0yVlcPpouIA/o.jpg", "is_closed": false, "url": "https://www.yelp.com/biz/red-rose-springfield?adjust_creative=wVJJqwOt_3apsoGmwgRWnw&utm_campaign=yelp_api_v3&utm_medium=api_v3_business_search&utm_source=wVJJqwOt_3apsoGmwgRWnw", "review_count": 437, "categories": [{"alias": "pizza", "title": "Pizza"}, {"alias": "italian", "title": "Italian"}, {"alias": "soup", "title": "Soup"}], "rating": 4.0, "coordinates": {"latitude": 42.0995144, "longitude": -72.5852145}, "transactions": ["delivery"], "price": "$$", "location": {"address1": "1060 Main St", "address2": "", "address3": null, "city": "Springfield", "zip_code": "01103", "country": "US", "state": "MA", "display_address": ["1060 Main St", "Springfield, MA 01103"]}, "phone": "+14137398510", "display_phone": "(413) 739-8510", "distance": 924.6364721349639}, {"id": "scIRcvHOQQm3X7UVV4GESQ", "alias": "sun-kim-bop-restaurant-springfield-2", "name": "Sun Kim Bop - Restaurant", "image_url": "https://s3-media3.fl.yelpcdn.com/bphoto/N3GSu1JjBd4YunGY3xMP7w/o.jpg", "is_closed": false, "url": "https://www.yelp.com/biz/sun-kim-bop-restaurant-springfield-2?adjust_creative=wVJJqwOt_3apsoGmwgRWnw&utm_campaign=yelp_api_v3&utm_medium=api_v3_business_search&utm_source=wVJJqwOt_3apsoGmwgRWnw", "review_count": 60, "categories": [{"alias": "korean", "title": "Korean"}], "rating": 4.5, "coordinates": {"latitude": 42.10112, "longitude": -72.58784}, "transactions": ["pickup", "delivery"], "price": "$", "location": {"address1": "1244 Main St", "address2": "", "address3": null, "city": "Springfield", "zip_code": "01103", "country": "US", "state": "MA", "display_address": ["1244 Main St", "Springfield, MA 01103"]}, "phone": "+14134553932", "display_phone": "(413) 455-3932", "distance": 660.5837575570407}, {"id": "zu7oVgauvXaw0GjR-TMrcw", "alias": "nosh-restaurant-and-caf\u00e8-springfield", "name": "Nosh Restaurant and Caf\u00e8", "image_url": "https://s3-media2.fl.yelpcdn.com/bphoto/4moBBH3zYqUu3W3PEe3dzg/o.jpg", "is_closed": false, "url": "https://www.yelp.com/biz/nosh-restaurant-and-caf%C3%A8-springfield?adjust_creative=wVJJqwOt_3apsoGmwgRWnw&utm_campaign=yelp_api_v3&utm_medium=api_v3_business_search&utm_source=wVJJqwOt_3apsoGmwgRWnw", "review_count": 18, "categories": [{"alias": "cafes", "title": "Cafes"}, {"alias": "sandwiches", "title": "Sandwiches"}, {"alias": "salad", "title": "Salad"}], "rating": 5.0, "coordinates": {"latitude": 42.1022, "longitude": -72.58899}, "transactions": ["delivery"], "location": {"address1": "1341 Main St", "address2": null, "address3": "", "city": "Springfield", "zip_code": "01103", "country": "US", "state": "MA", "display_address": ["1341 Main St", "Springfield, MA 01103"]}, "phone": "+14132371822", "display_phone": "(413) 237-1822", "distance": 516.5889664231406}, {"id": "9SEx9CBnG3In8dkCcj_qjg", "alias": "ciros-springfield", "name": "Ciro's", "image_url": "https://s3-media1.fl.yelpcdn.com/bphoto/G84Dsauj7Ze7CC2w4ds1SA/o.jpg", "is_closed": false, "url": "https://www.yelp.com/biz/ciros-springfield?adjust_creative=wVJJqwOt_3apsoGmwgRWnw&utm_campaign=yelp_api_v3&utm_medium=api_v3_business_search&utm_source=wVJJqwOt_3apsoGmwgRWnw", "review_count": 57, "categories": [{"alias": "italian", "title": "Italian"}], "rating": 4.0, "coordinates": {"latitude": 42.098073, "longitude": -72.58337}, "transactions": [], "price": "$$", "location": {"address1": "912 Main St", "address2": "", "address3": null, "city": "Springfield", "zip_code": "01105", "country": "US", "state": "MA", "display_address": ["912 Main St", "Springfield, MA 01105"]}, "phone": "+14137324767", "display_phone": "(413) 732-4767", "distance": 1160.7354838977446}, {"id": "FjImeE0Eptdz5PhUrRiPXQ", "alias": "taste-of-lebanon-west-springfield", "name": "Taste of Lebanon", "image_url": "https://s3-media2.fl.yelpcdn.com/bphoto/BHw4GaaStFF2vkJDheALSQ/o.jpg", "is_closed": false, "url": "https://www.yelp.com/biz/taste-of-lebanon-west-springfield?adjust_creative=wVJJqwOt_3apsoGmwgRWnw&utm_campaign=yelp_api_v3&utm_medium=api_v3_business_search&utm_source=wVJJqwOt_3apsoGmwgRWnw", "review_count": 300, "categories": [{"alias": "desserts", "title": "Desserts"}, {"alias": "mediterranean", "title": "Mediterranean"}, {"alias": "lebanese", "title": "Lebanese"}], "rating": 4.5, "coordinates": {"latitude": 42.1019861, "longitude": -72.6087658}, "transactions": ["pickup", "delivery"], "price": "$", "location": {"address1": "553 Main St", "address2": "", "address3": "", "city": "West Springfield", "zip_code": "01089", "country": "US", "state": "MA", "display_address": ["553 Main St", "West Springfield, MA 01089"]}, "phone": "+14133630414", "display_phone": "(413) 363-0414", "distance": 1433.7018228259724}, {"id": "ZPsA0mpC4vMmS9JjCQ8voA", "alias": "the-chandler-steakhouse-springfield", "name": "The Chandler Steakhouse", "image_url": "https://s3-media2.fl.yelpcdn.com/bphoto/eQme48293aSC-qGEbE41eQ/o.jpg", "is_closed": false, "url": "https://www.yelp.com/biz/the-chandler-steakhouse-springfield?adjust_creative=wVJJqwOt_3apsoGmwgRWnw&utm_campaign=yelp_api_v3&utm_medium=api_v3_business_search&utm_source=wVJJqwOt_3apsoGmwgRWnw", "review_count": 101, "categories": [{"alias": "steak", "title": "Steakhouses"}], "rating": 3.5, "coordinates": {"latitude": 42.100167, "longitude": -72.586214}, "transactions": [], "price": "$$$", "location": {"address1": "One MGM Way", "address2": null, "address3": null, "city": "Springfield", "zip_code": "01103", "country": "US", "state": "MA", "display_address": ["One MGM Way", "Springfield, MA 01103"]}, "phone": "+14132735420", "display_phone": "(413) 273-5420", "distance": 832.4054936492764}, {"id": "SdTi833EjUg-Cn8ZxdZ20A", "alias": "panjabi-tadka-springfield", "name": "Panjabi Tadka", "image_url": "https://s3-media1.fl.yelpcdn.com/bphoto/7QQuYtTwtk9AURSMroy6BQ/o.jpg", "is_closed": false, "url": "https://www.yelp.com/biz/panjabi-tadka-springfield?adjust_creative=wVJJqwOt_3apsoGmwgRWnw&utm_campaign=yelp_api_v3&utm_medium=api_v3_business_search&utm_source=wVJJqwOt_3apsoGmwgRWnw", "review_count": 115, "categories": [{"alias": "indpak", "title": "Indian"}], "rating": 4.0, "coordinates": {"latitude": 42.10444592769, "longitude": -72.5946414470673}, "transactions": ["pickup", "delivery"], "price": "$$", "location": {"address1": "1688 Main St", "address2": "", "address3": "", "city": "Springfield", "zip_code": "01103", "country": "US", "state": "MA", "display_address": ["1688 Main St", "Springfield, MA 01103"]}, "phone": "+14137321453", "display_phone": "(413) 732-1453", "distance": 266.06804201703017}, {"id": "RKBNGeAW8_BWebflMuJNtg", "alias": "chef-waynes-cajun-on-the-go-springfield", "name": "Chef Wayne's Cajun on the Go", "image_url": "https://s3-media3.fl.yelpcdn.com/bphoto/B4ielqUVcaT_9fwNFAcUgQ/o.jpg", "is_closed": false, "url": "https://www.yelp.com/biz/chef-waynes-cajun-on-the-go-springfield?adjust_creative=wVJJqwOt_3apsoGmwgRWnw&utm_campaign=yelp_api_v3&utm_medium=api_v3_business_search&utm_source=wVJJqwOt_3apsoGmwgRWnw", "review_count": 2, "categories": [{"alias": "cajun", "title": "Cajun/Creole"}], "rating": 4.5, "coordinates": {"latitude": 42.106107, "longitude": -72.590905}, "transactions": ["pickup", "delivery"], "location": {"address1": "350 Worthington St", "address2": "", "address3": null, "city": "Springfield", "zip_code": "01103", "country": "US", "state": "MA", "display_address": ["350 Worthington St", "Springfield, MA 01103"]}, "phone": "+14134177050", "display_phone": "(413) 417-7050", "distance": 104.2226696171601}, {"id": "GaAj9DEE7k_1-n4LKeaBhg", "alias": "maxs-tavern-springfield-2", "name": "Max's Tavern", "image_url": "https://s3-media1.fl.yelpcdn.com/bphoto/qo7ytjH-uFB1QH7BHmH2UQ/o.jpg", "is_closed": false, "url": "https://www.yelp.com/biz/maxs-tavern-springfield-2?adjust_creative=wVJJqwOt_3apsoGmwgRWnw&utm_campaign=yelp_api_v3&utm_medium=api_v3_business_search&utm_source=wVJJqwOt_3apsoGmwgRWnw", "review_count": 245, "categories": [{"alias": "pubs", "title": "Pubs"}, {"alias": "steak", "title": "Steakhouses"}], "rating": 3.5, "coordinates": {"latitude": 42.093973, "longitude": -72.585511}, "transactions": ["delivery"], "price": "$$$", "location": {"address1": "1000 W Columbus Ave", "address2": "", "address3": "", "city": "Springfield", "zip_code": "01105", "country": "US", "state": "MA", "display_address": ["1000 W Columbus Ave", "Springfield, MA 01105"]}, "phone": "+14137466299", "display_phone": "(413) 746-6299", "distance": 1463.1401594411304}, {"id": "EZgA64Z5dC44i96YwR8Ayw", "alias": "le-souk-hookah-lounge-springfield-2", "name": "Le Souk Hookah Lounge", "image_url": "https://s3-media2.fl.yelpcdn.com/bphoto/vXNPgaSDoJuTx15CMGXctg/o.jpg", "is_closed": false, "url": "https://www.yelp.com/biz/le-souk-hookah-lounge-springfield-2?adjust_creative=wVJJqwOt_3apsoGmwgRWnw&utm_campaign=yelp_api_v3&utm_medium=api_v3_business_search&utm_source=wVJJqwOt_3apsoGmwgRWnw", "review_count": 22, "categories": [{"alias": "hookah_bars", "title": "Hookah Bars"}, {"alias": "lounges", "title": "Lounges"}, {"alias": "mediterranean", "title": "Mediterranean"}], "rating": 4.0, "coordinates": {"latitude": 42.1028827210832, "longitude": -72.5939935635566}, "transactions": ["delivery"], "price": "$$", "location": {"address1": "1 Worthington St", "address2": null, "address3": "", "city": "Springfield", "zip_code": "01105", "country": "US", "state": "MA", "display_address": ["1 Worthington St", "Springfield, MA 01105"]}, "phone": "+14133018262", "display_phone": "(413) 301-8262", "distance": 261.9050394573454}, {"id": "qh_Ctaa1_96vIQP0qVkHiQ", "alias": "queenies-island-cuisine-and-grill-springfield", "name": "Queenie's Island Cuisine and Grill", "image_url": "https://s3-media2.fl.yelpcdn.com/bphoto/bu1BiVIU2elZQsxAmJAQKQ/o.jpg", "is_closed": false, "url": "https://www.yelp.com/biz/queenies-island-cuisine-and-grill-springfield?adjust_creative=wVJJqwOt_3apsoGmwgRWnw&utm_campaign=yelp_api_v3&utm_medium=api_v3_business_search&utm_source=wVJJqwOt_3apsoGmwgRWnw", "review_count": 18, "categories": [{"alias": "caribbean", "title": "Caribbean"}], "rating": 4.0, "coordinates": {"latitude": 42.1044946825426, "longitude": -72.5920980423689}, "transactions": ["pickup", "delivery"], "price": "$", "location": {"address1": "220 Worthington St", "address2": "", "address3": "", "city": "Springfield", "zip_code": "01103", "country": "US", "state": "MA", "display_address": ["220 Worthington St", "Springfield, MA 01103"]}, "phone": "+14133639046", "display_phone": "(413) 363-9046", "distance": 181.58796331246407}, {"id": "GbSFMUlmh-f-xW4HGq7-dg", "alias": "ale-house-springfield-3", "name": "Ale House", "image_url": "https://s3-media1.fl.yelpcdn.com/bphoto/4aDKapfJTXxuOgtjhjR_ww/o.jpg", "is_closed": false, "url": "https://www.yelp.com/biz/ale-house-springfield-3?adjust_creative=wVJJqwOt_3apsoGmwgRWnw&utm_campaign=yelp_api_v3&utm_medium=api_v3_business_search&utm_source=wVJJqwOt_3apsoGmwgRWnw", "review_count": 3, "categories": [{"alias": "tradamerican", "title": "American (Traditional)"}], "rating": 5.0, "coordinates": {"latitude": 42.107811, "longitude": -72.5883789}, "transactions": [], "location": {"address1": "536 Worthington St", "address2": "", "address3": "", "city": "Springfield", "zip_code": "01105", "country": "US", "state": "MA", "display_address": ["536 Worthington St", "Springfield, MA 01105"]}, "phone": "+14137366969", "display_phone": "(413) 736-6969", "distance": 376.9662894121994}, {"id": "TVXuwgDTKcYUD2-gTbi1LA", "alias": "family-nepali-and-indian-cuisine-west-springfield", "name": "Family Nepali and Indian Cuisine", "image_url": "https://s3-media2.fl.yelpcdn.com/bphoto/rpD6Aq10NYKnsyxZE1OnVA/o.jpg", "is_closed": false, "url": "https://www.yelp.com/biz/family-nepali-and-indian-cuisine-west-springfield?adjust_creative=wVJJqwOt_3apsoGmwgRWnw&utm_campaign=yelp_api_v3&utm_medium=api_v3_business_search&utm_source=wVJJqwOt_3apsoGmwgRWnw", "review_count": 12, "categories": [{"alias": "himalayan", "title": "Himalayan/Nepalese"}, {"alias": "indpak", "title": "Indian"}], "rating": 5.0, "coordinates": {"latitude": 42.098388, "longitude": -72.602319}, "transactions": ["pickup", "delivery"], "location": {"address1": "977 a Main St", "address2": null, "address3": "", "city": "West Springfield", "zip_code": "01089", "country": "US", "state": "MA", "display_address": ["977 a Main St", "West Springfield, MA 01089"]}, "phone": "+14132858706", "display_phone": "(413) 285-8706", "distance": 1190.1843705217782}, {"id": "wXpijaaA6uCQrAR4_6i2ug", "alias": "plan-b-burger-bar-springfield", "name": "Plan B Burger Bar", "image_url": "https://s3-media2.fl.yelpcdn.com/bphoto/MKkXqdgM4Z1XUGzYfqzkGw/o.jpg", "is_closed": false, "url": "https://www.yelp.com/biz/plan-b-burger-bar-springfield?adjust_creative=wVJJqwOt_3apsoGmwgRWnw&utm_campaign=yelp_api_v3&utm_medium=api_v3_business_search&utm_source=wVJJqwOt_3apsoGmwgRWnw", "review_count": 432, "categories": [{"alias": "burgers", "title": "Burgers"}, {"alias": "beerbar", "title": "Beer Bar"}, {"alias": "tradamerican", "title": "American (Traditional)"}], "rating": 3.5, "coordinates": {"latitude": 42.094073, "longitude": -72.585155}, "transactions": ["delivery"], "price": "$$", "location": {"address1": "1000 W Columbus Ave", "address2": "", "address3": "", "city": "Springfield", "zip_code": "01105", "country": "US", "state": "MA", "display_address": ["1000 W Columbus Ave", "Springfield, MA 01105"]}, "phone": "+14132858296", "display_phone": "(413) 285-8296", "distance": 1464.5144699957475}, {"id": "FWujJ9SVSxgPhbPV4kkDiQ", "alias": "hot-table-springfield", "name": "Hot Table", "image_url": "https://s3-media1.fl.yelpcdn.com/bphoto/RGSdFACtr60xsYblclr4QQ/o.jpg", "is_closed": false, "url": "https://www.yelp.com/biz/hot-table-springfield?adjust_creative=wVJJqwOt_3apsoGmwgRWnw&utm_campaign=yelp_api_v3&utm_medium=api_v3_business_search&utm_source=wVJJqwOt_3apsoGmwgRWnw", "review_count": 70, "categories": [{"alias": "sandwiches", "title": "Sandwiches"}], "rating": 4.0, "coordinates": {"latitude": 42.102816, "longitude": -72.592177}, "transactions": ["pickup", "delivery"], "price": "$", "location": {"address1": "1500 Main St", "address2": "", "address3": "", "city": "Springfield", "zip_code": "01103", "country": "US", "state": "MA", "display_address": ["1500 Main St", "Springfield, MA 01103"]}, "phone": "+14137311200", "display_phone": "(413) 731-1200", "distance": 367.42626422532715}, {"id": "oNIMMYFRYCyBtWdC4W3bCQ", "alias": "the-tent-restaurant-west-springfield", "name": "The Tent Restaurant", "image_url": "https://s3-media3.fl.yelpcdn.com/bphoto/wekmvI__TnhXymVVzO4Jtw/o.jpg", "is_closed": false, "url": "https://www.yelp.com/biz/the-tent-restaurant-west-springfield?adjust_creative=wVJJqwOt_3apsoGmwgRWnw&utm_campaign=yelp_api_v3&utm_medium=api_v3_business_search&utm_source=wVJJqwOt_3apsoGmwgRWnw", "review_count": 3, "categories": [{"alias": "mideastern", "title": "Middle Eastern"}], "rating": 4.5, "coordinates": {"latitude": 42.098408, "longitude": -72.6023192}, "transactions": [], "location": {"address1": "977B Main St", "address2": null, "address3": "", "city": "West Springfield", "zip_code": "01089", "country": "US", "state": "MA", "display_address": ["977B Main St", "West Springfield, MA 01089"]}, "phone": "+14133017077", "display_phone": "(413) 301-7077", "distance": 1188.9328411933936}, {"id": "-12Aa1FrAJ3-ObSOIi-FAg", "alias": "blake-house-caf\u00e9-springfield", "name": "Blake House Caf\u00e9", "image_url": "https://s3-media1.fl.yelpcdn.com/bphoto/CmXjb2gzEKv_9fbEODrb4g/o.jpg", "is_closed": false, "url": "https://www.yelp.com/biz/blake-house-caf%C3%A9-springfield?adjust_creative=wVJJqwOt_3apsoGmwgRWnw&utm_campaign=yelp_api_v3&utm_medium=api_v3_business_search&utm_source=wVJJqwOt_3apsoGmwgRWnw", "review_count": 10, "categories": [{"alias": "cafes", "title": "Cafes"}], "rating": 4.0, "coordinates": {"latitude": 42.1046677431947, "longitude": -72.5866930101224}, "transactions": ["delivery"], "price": "$", "location": {"address1": "21 Edwards St", "address2": "", "address3": "", "city": "Springfield", "zip_code": "01103", "country": "US", "state": "MA", "display_address": ["21 Edwards St", "Springfield, MA 01103"]}, "phone": "+14137792199", "display_phone": "(413) 779-2199", "distance": 492.58079386925016}, {"id": "mAWG4YohYbv--vaVVrqz4g", "alias": "revitalize-superfoods-springfield", "name": "Revitalize Superfoods", "image_url": "https://s3-media3.fl.yelpcdn.com/bphoto/GVc1cSO5YLkzDVDad-JTjA/o.jpg", "is_closed": false, "url": "https://www.yelp.com/biz/revitalize-superfoods-springfield?adjust_creative=wVJJqwOt_3apsoGmwgRWnw&utm_campaign=yelp_api_v3&utm_medium=api_v3_business_search&utm_source=wVJJqwOt_3apsoGmwgRWnw", "review_count": 2, "categories": [{"alias": "juicebars", "title": "Juice Bars & Smoothies"}, {"alias": "breakfast_brunch", "title": "Breakfast & Brunch"}, {"alias": "healthmarkets", "title": "Health Markets"}], "rating": 5.0, "coordinates": {"latitude": 42.10238, "longitude": -72.59196}, "transactions": ["pickup", "delivery"], "location": {"address1": "1500 Main St", "address2": "Fl 2, Ste 306", "address3": "Tower Square", "city": "Springfield", "zip_code": "01115", "country": "US", "state": "MA", "display_address": ["1500 Main St", "Fl 2, Ste 306", "Tower Square", "Springfield, MA 01115"]}, "phone": "+14133631187", "display_phone": "(413) 363-1187", "distance": 372.8757761524286}, {"id": "3EzYNZFh3-Ys-D3I9SOh8Q", "alias": "raices-restaurant-springfield", "name": "Raices Restaurant", "image_url": "https://s3-media3.fl.yelpcdn.com/bphoto/y3rCW9vsr1K8Vwo4Z8x6MA/o.jpg", "is_closed": false, "url": "https://www.yelp.com/biz/raices-restaurant-springfield?adjust_creative=wVJJqwOt_3apsoGmwgRWnw&utm_campaign=yelp_api_v3&utm_medium=api_v3_business_search&utm_source=wVJJqwOt_3apsoGmwgRWnw", "review_count": 20, "categories": [{"alias": "puertorican", "title": "Puerto Rican"}], "rating": 4.0, "coordinates": {"latitude": 42.0992170847224, "longitude": -72.5843813860436}, "transactions": ["delivery"], "price": "$$", "location": {"address1": "1021 Main St", "address2": "", "address3": "", "city": "Springfield", "zip_code": "01103", "country": "US", "state": "MA", "display_address": ["1021 Main St", "Springfield, MA 01103"]}, "phone": "+14137335618", "display_phone": "(413) 733-5618", "distance": 1009.656585359404}, {"id": "QcahsJsm6Zfrg2vJkddxKg", "alias": "pintus-indian-restaurant-west-springfield-2", "name": "Pintu's Indian Restaurant", "image_url": "https://s3-media3.fl.yelpcdn.com/bphoto/Ii_2H1UaCcBRbdXOk0E57w/o.jpg", "is_closed": false, "url": "https://www.yelp.com/biz/pintus-indian-restaurant-west-springfield-2?adjust_creative=wVJJqwOt_3apsoGmwgRWnw&utm_campaign=yelp_api_v3&utm_medium=api_v3_business_search&utm_source=wVJJqwOt_3apsoGmwgRWnw", "review_count": 159, "categories": [{"alias": "indpak", "title": "Indian"}], "rating": 4.0, "coordinates": {"latitude": 42.1070542, "longitude": -72.6161883}, "transactions": [], "price": "$$", "location": {"address1": "25 Park Ave", "address2": "", "address3": "", "city": "West Springfield", "zip_code": "01089", "country": "US", "state": "MA", "display_address": ["25 Park Ave", "West Springfield, MA 01089"]}, "phone": "+14137884929", "display_phone": "(413) 788-4929", "distance": 1970.5557092746783}, {"id": "2R54SEWExk3s3ac5bcz4tg", "alias": "naismiths-pub-and-pretzel-springfield-2", "name": "Naismith's Pub & Pretzel", "image_url": "https://s3-media3.fl.yelpcdn.com/bphoto/BWys-rZoBfu4UgJBHqaN1w/o.jpg", "is_closed": false, "url": "https://www.yelp.com/biz/naismiths-pub-and-pretzel-springfield-2?adjust_creative=wVJJqwOt_3apsoGmwgRWnw&utm_campaign=yelp_api_v3&utm_medium=api_v3_business_search&utm_source=wVJJqwOt_3apsoGmwgRWnw", "review_count": 10, "categories": [{"alias": "pretzels", "title": "Pretzels"}, {"alias": "beerbar", "title": "Beer Bar"}, {"alias": "sandwiches", "title": "Sandwiches"}], "rating": 3.0, "coordinates": {"latitude": 42.1042300128922, "longitude": -72.5919300690293}, "transactions": ["delivery"], "location": {"address1": "211 Worthington St", "address2": "", "address3": null, "city": "Springfield", "zip_code": "01103", "country": "US", "state": "MA", "display_address": ["211 Worthington St", "Springfield, MA 01103"]}, "phone": "+14133424189", "display_phone": "(413) 342-4189", "distance": 212.6023937795898}, {"id": "y2Wr3CwqHTu9iep3eh8rWw", "alias": "frigo-gourmet-foods-springfield", "name": "Frigo Gourmet Foods", "image_url": "https://s3-media2.fl.yelpcdn.com/bphoto/YuQjbDiznA2x9zCRZEp3lw/o.jpg", "is_closed": false, "url": "https://www.yelp.com/biz/frigo-gourmet-foods-springfield?adjust_creative=wVJJqwOt_3apsoGmwgRWnw&utm_campaign=yelp_api_v3&utm_medium=api_v3_business_search&utm_source=wVJJqwOt_3apsoGmwgRWnw", "review_count": 117, "categories": [{"alias": "delis", "title": "Delis"}, {"alias": "italian", "title": "Italian"}, {"alias": "sandwiches", "title": "Sandwiches"}], "rating": 4.5, "coordinates": {"latitude": 42.09708, "longitude": -72.58512}, "transactions": ["delivery"], "price": "$", "location": {"address1": "90 William St", "address2": "", "address3": "", "city": "Springfield", "zip_code": "01105", "country": "US", "state": "MA", "display_address": ["90 William St", "Springfield, MA 01105"]}, "phone": "+14137325428", "display_phone": "(413) 732-5428", "distance": 1162.1952451671225}, {"id": "6kZOvn7G3w0IkF1sB4VH1Q", "alias": "picks-springfield-2", "name": "PICKS", "image_url": "https://s3-media2.fl.yelpcdn.com/bphoto/VG_BL7u-YrCn3wh2fQ5FsQ/o.jpg", "is_closed": false, "url": "https://www.yelp.com/biz/picks-springfield-2?adjust_creative=wVJJqwOt_3apsoGmwgRWnw&utm_campaign=yelp_api_v3&utm_medium=api_v3_business_search&utm_source=wVJJqwOt_3apsoGmwgRWnw", "review_count": 10, "categories": [{"alias": "tradamerican", "title": "American (Traditional)"}, {"alias": "steak", "title": "Steakhouses"}, {"alias": "burgers", "title": "Burgers"}], "rating": 3.0, "coordinates": {"latitude": 42.1018356, "longitude": -72.5893485}, "transactions": [], "location": {"address1": "1 Monarch Pl", "address2": "", "address3": "Sheraton Springfield Monarch Place Hotel", "city": "Springfield", "zip_code": "01144", "country": "US", "state": "MA", "display_address": ["1 Monarch Pl", "Sheraton Springfield Monarch Place Hotel", "Springfield, MA 01144"]}, "phone": "+14137811010", "display_phone": "(413) 781-1010", "distance": 536.1632161718385}, {"id": "_qu6yaUvbmrQMkGr7Aiu0g", "alias": "palazzo-cafe-springfield", "name": "Palazzo Cafe", "image_url": "https://s3-media1.fl.yelpcdn.com/bphoto/7kehRbXrm76_76XXDRCCaA/o.jpg", "is_closed": false, "url": "https://www.yelp.com/biz/palazzo-cafe-springfield?adjust_creative=wVJJqwOt_3apsoGmwgRWnw&utm_campaign=yelp_api_v3&utm_medium=api_v3_business_search&utm_source=wVJJqwOt_3apsoGmwgRWnw", "review_count": 13, "categories": [{"alias": "italian", "title": "Italian"}, {"alias": "cafes", "title": "Cafes"}], "rating": 4.5, "coordinates": {"latitude": 42.1018104553223, "longitude": -72.5894775390625}, "transactions": [], "price": "$", "location": {"address1": "1350 Main St", "address2": null, "address3": null, "city": "Springfield", "zip_code": "01103", "country": "US", "state": "MA", "display_address": ["1350 Main St", "Springfield, MA 01103"]}, "phone": "+14137310011", "display_phone": "(413) 731-0011", "distance": 531.6371213233432}, {"id": "tIDbnUn8gxTkIEYRfMkEtg", "alias": "le-greque-springfield", "name": "Le Greque", "image_url": "", "is_closed": false, "url": "https://www.yelp.com/biz/le-greque-springfield?adjust_creative=wVJJqwOt_3apsoGmwgRWnw&utm_campaign=yelp_api_v3&utm_medium=api_v3_business_search&utm_source=wVJJqwOt_3apsoGmwgRWnw", "review_count": 7, "categories": [{"alias": "greek", "title": "Greek"}], "rating": 5.0, "coordinates": {"latitude": 42.102406, "longitude": -72.591825}, "transactions": [], "price": "$", "location": {"address1": "1500 Main St", "address2": "", "address3": "", "city": "Springfield", "zip_code": "01115", "country": "US", "state": "MA", "display_address": ["1500 Main St", "Springfield, MA 01115"]}, "phone": "+14137367789", "display_phone": "(413) 736-7789", "distance": 414.92219181197254}, {"id": "KDD6sQJSTOCbwxZkzZcS2w", "alias": "cornerstone-cafe-springfield", "name": "Cornerstone Cafe", "image_url": "https://s3-media1.fl.yelpcdn.com/bphoto/SiMbFPJCRcbvqjD34pWkQA/o.jpg", "is_closed": false, "url": "https://www.yelp.com/biz/cornerstone-cafe-springfield?adjust_creative=wVJJqwOt_3apsoGmwgRWnw&utm_campaign=yelp_api_v3&utm_medium=api_v3_business_search&utm_source=wVJJqwOt_3apsoGmwgRWnw", "review_count": 31, "categories": [{"alias": "cafes", "title": "Cafes"}, {"alias": "soup", "title": "Soup"}, {"alias": "breakfast_brunch", "title": "Breakfast & Brunch"}], "rating": 4.5, "coordinates": {"latitude": 42.102083, "longitude": -72.591225}, "transactions": [], "price": "$", "location": {"address1": "1414 Main St", "address2": "", "address3": "", "city": "Springfield", "zip_code": "01103", "country": "US", "state": "MA", "display_address": ["1414 Main St", "Springfield, MA 01103"]}, "phone": "+14137461025", "display_phone": "(413) 746-1025", "distance": 457.94640713322207}, {"id": "4bmbK1hXvwpGuj1WBZbhWA", "alias": "fantastico-wraps-and-salads-springfield", "name": "Fantastico Wraps & Salads", "image_url": "https://s3-media1.fl.yelpcdn.com/bphoto/5CyN60kCDdeTYm2wYh_lCg/o.jpg", "is_closed": false, "url": "https://www.yelp.com/biz/fantastico-wraps-and-salads-springfield?adjust_creative=wVJJqwOt_3apsoGmwgRWnw&utm_campaign=yelp_api_v3&utm_medium=api_v3_business_search&utm_source=wVJJqwOt_3apsoGmwgRWnw", "review_count": 3, "categories": [{"alias": "salad", "title": "Salad"}, {"alias": "wraps", "title": "Wraps"}], "rating": 5.0, "coordinates": {"latitude": 42.10301, "longitude": -72.59173}, "transactions": [], "location": {"address1": "1500 Main St", "address2": "", "address3": "", "city": "Springfield", "zip_code": "01115", "country": "US", "state": "MA", "display_address": ["1500 Main St", "Springfield, MA 01115"]}, "phone": "+14137327559", "display_phone": "(413) 732-7559", "distance": 372.8757761524286}, {"id": "dtXeHsyWk7ITu2rUtf5_dQ", "alias": "la-fiorentina-pastry-shop-springfield", "name": "La Fiorentina Pastry Shop", "image_url": "https://s3-media1.fl.yelpcdn.com/bphoto/spoCjjOTm48e3fzcN2N37w/o.jpg", "is_closed": false, "url": "https://www.yelp.com/biz/la-fiorentina-pastry-shop-springfield?adjust_creative=wVJJqwOt_3apsoGmwgRWnw&utm_campaign=yelp_api_v3&utm_medium=api_v3_business_search&utm_source=wVJJqwOt_3apsoGmwgRWnw", "review_count": 58, "categories": [{"alias": "bakeries", "title": "Bakeries"}, {"alias": "italian", "title": "Italian"}], "rating": 4.5, "coordinates": {"latitude": 42.09802, "longitude": -72.58288}, "transactions": ["delivery"], "price": "$", "location": {"address1": "883 Main St", "address2": "", "address3": "", "city": "Springfield", "zip_code": "01103", "country": "US", "state": "MA", "display_address": ["883 Main St", "Springfield, MA 01103"]}, "phone": "+14137323151", "display_phone": "(413) 732-3151", "distance": 1201.554728234081}, {"id": "F6ZYx6ibbWm6dA-kdg3W0w", "alias": "city-jakes-cafe-springfield", "name": "City Jake's Cafe", "image_url": "https://s3-media3.fl.yelpcdn.com/bphoto/v0eBo9KQC1DzlTX_WVOJ0w/o.jpg", "is_closed": false, "url": "https://www.yelp.com/biz/city-jakes-cafe-springfield?adjust_creative=wVJJqwOt_3apsoGmwgRWnw&utm_campaign=yelp_api_v3&utm_medium=api_v3_business_search&utm_source=wVJJqwOt_3apsoGmwgRWnw", "review_count": 42, "categories": [{"alias": "breakfast_brunch", "title": "Breakfast & Brunch"}, {"alias": "cafes", "title": "Cafes"}, {"alias": "sandwiches", "title": "Sandwiches"}], "rating": 4.5, "coordinates": {"latitude": 42.1036816388369, "longitude": -72.5926975160837}, "transactions": ["delivery"], "price": "$", "location": {"address1": "1573 Main St", "address2": "", "address3": "", "city": "Springfield", "zip_code": "01103", "country": "US", "state": "MA", "display_address": ["1573 Main St", "Springfield, MA 01103"]}, "phone": "+14137315077", "display_phone": "(413) 731-5077", "distance": 264.15161933241416}, {"id": "Qq_P6hCE_3idzfhDSC00Wg", "alias": "puerto-rican-bakery-and-restaurant-springfield", "name": "Puerto Rican Bakery & Restaurant", "image_url": "https://s3-media2.fl.yelpcdn.com/bphoto/CKEz4VAZM_tYcKJCH_8TXg/o.jpg", "is_closed": false, "url": "https://www.yelp.com/biz/puerto-rican-bakery-and-restaurant-springfield?adjust_creative=wVJJqwOt_3apsoGmwgRWnw&utm_campaign=yelp_api_v3&utm_medium=api_v3_business_search&utm_source=wVJJqwOt_3apsoGmwgRWnw", "review_count": 71, "categories": [{"alias": "spanish", "title": "Spanish"}, {"alias": "soulfood", "title": "Soul Food"}, {"alias": "caribbean", "title": "Caribbean"}], "rating": 4.5, "coordinates": {"latitude": 42.1160583496094, "longitude": -72.5825653076172}, "transactions": ["delivery"], "price": "$", "location": {"address1": "214 Armory Sq", "address2": "", "address3": "", "city": "Springfield", "zip_code": "01104", "country": "US", "state": "MA", "display_address": ["214 Armory Sq", "Springfield, MA 01104"]}, "phone": "+14137320259", "display_phone": "(413) 732-0259", "distance": 1367.8777975562593}, {"id": "vEG3XfGZ7gJKbc2rIfzPTg", "alias": "samuels-sports-bar-and-j-quincys-restaurant-springfield", "name": "Samuel's Sports Bar & J Quincy's Restaurant", "image_url": "https://s3-media4.fl.yelpcdn.com/bphoto/PN1BNz66zvqIq66XUz4FrA/o.jpg", "is_closed": false, "url": "https://www.yelp.com/biz/samuels-sports-bar-and-j-quincys-restaurant-springfield?adjust_creative=wVJJqwOt_3apsoGmwgRWnw&utm_campaign=yelp_api_v3&utm_medium=api_v3_business_search&utm_source=wVJJqwOt_3apsoGmwgRWnw", "review_count": 92, "categories": [{"alias": "bars", "title": "Bars"}, {"alias": "tradamerican", "title": "American (Traditional)"}], "rating": 3.0, "coordinates": {"latitude": 42.0935935974121, "longitude": -72.5840377807617}, "transactions": ["delivery"], "price": "$$", "location": {"address1": "1000 W Columbus Ave", "address2": "", "address3": "", "city": "Springfield", "zip_code": "01105", "country": "US", "state": "MA", "display_address": ["1000 W Columbus Ave", "Springfield, MA 01105"]}, "phone": "+14137317267", "display_phone": "(413) 731-7267", "distance": 1179.0987274023869}, {"id": "32H7keN1CReV-ynzpVr2WA", "alias": "olympic-deli-restaurant-springfield", "name": "Olympic Deli Restaurant", "image_url": "https://s3-media3.fl.yelpcdn.com/bphoto/JNH0U6VnrsdiD3YMeM90dA/o.jpg", "is_closed": false, "url": "https://www.yelp.com/biz/olympic-deli-restaurant-springfield?adjust_creative=wVJJqwOt_3apsoGmwgRWnw&utm_campaign=yelp_api_v3&utm_medium=api_v3_business_search&utm_source=wVJJqwOt_3apsoGmwgRWnw", "review_count": 9, "categories": [{"alias": "puertorican", "title": "Puerto Rican"}, {"alias": "latin", "title": "Latin American"}, {"alias": "dominican", "title": "Dominican"}], "rating": 4.5, "coordinates": {"latitude": 42.1079940795898, "longitude": -72.5922317504883}, "transactions": ["pickup", "delivery"], "price": "$", "location": {"address1": "232 Chestnut St", "address2": "", "address3": "", "city": "Springfield", "zip_code": "01103", "country": "US", "state": "MA", "display_address": ["232 Chestnut St", "Springfield, MA 01103"]}, "phone": "+14137321600", "display_phone": "(413) 732-1600", "distance": 200.93204553285543}, {"id": "AblJb4CIIARlWyALbEP4YQ", "alias": "mvp-pub-at-the-sheraton-springfield", "name": "MVP Pub At The Sheraton", "image_url": "https://s3-media4.fl.yelpcdn.com/bphoto/uypbbPEgIHpi_sZVPxm-sQ/o.jpg", "is_closed": false, "url": "https://www.yelp.com/biz/mvp-pub-at-the-sheraton-springfield?adjust_creative=wVJJqwOt_3apsoGmwgRWnw&utm_campaign=yelp_api_v3&utm_medium=api_v3_business_search&utm_source=wVJJqwOt_3apsoGmwgRWnw", "review_count": 11, "categories": [{"alias": "sportsbars", "title": "Sports Bars"}, {"alias": "tradamerican", "title": "American (Traditional)"}], "rating": 2.5, "coordinates": {"latitude": 42.1021111233605, "longitude": -72.5908541679382}, "transactions": [], "price": "$$$", "location": {"address1": "1 Monarch Pl", "address2": "", "address3": "", "city": "Springfield", "zip_code": "01144", "country": "US", "state": "MA", "display_address": ["1 Monarch Pl", "Springfield, MA 01144"]}, "phone": "", "display_phone": "", "distance": 462.013028615946}, {"id": "HqHRHeS8CK_aQd1mC_Tw0Q", "alias": "petra-lounge-springfield", "name": "Petra Lounge", "image_url": "https://s3-media2.fl.yelpcdn.com/bphoto/coApiUMjWZWHzhZ0XEt2uw/o.jpg", "is_closed": false, "url": "https://www.yelp.com/biz/petra-lounge-springfield?adjust_creative=wVJJqwOt_3apsoGmwgRWnw&utm_campaign=yelp_api_v3&utm_medium=api_v3_business_search&utm_source=wVJJqwOt_3apsoGmwgRWnw", "review_count": 39, "categories": [{"alias": "hookah_bars", "title": "Hookah Bars"}, {"alias": "lounges", "title": "Lounges"}, {"alias": "mediterranean", "title": "Mediterranean"}], "rating": 3.5, "coordinates": {"latitude": 42.10497, "longitude": -72.59181}, "transactions": ["pickup", "delivery"], "price": "$$", "location": {"address1": "270 Worthington St", "address2": null, "address3": "", "city": "Springfield", "zip_code": "01103", "country": "US", "state": "MA", "display_address": ["270 Worthington St", "Springfield, MA 01103"]}, "phone": "+14137870001", "display_phone": "(413) 787-0001", "distance": 138.15136533533106}, {"id": "616-oQCamCRDa5JhXQnBuw", "alias": "cantina-curbside-grill-springfield", "name": "Cantina Curbside Grill", "image_url": "https://s3-media3.fl.yelpcdn.com/bphoto/DmWL1gUNkbEH9PdiO9Or9g/o.jpg", "is_closed": false, "url": "https://www.yelp.com/biz/cantina-curbside-grill-springfield?adjust_creative=wVJJqwOt_3apsoGmwgRWnw&utm_campaign=yelp_api_v3&utm_medium=api_v3_business_search&utm_source=wVJJqwOt_3apsoGmwgRWnw", "review_count": 1, "categories": [{"alias": "latin", "title": "Latin American"}, {"alias": "foodtrucks", "title": "Food Trucks"}], "rating": 5.0, "coordinates": {"latitude": 42.1011632858, "longitude": -72.5874854261}, "transactions": [], "location": {"address1": null, "address2": null, "address3": null, "city": "Springfield", "zip_code": "01103", "country": "US", "state": "MA", "display_address": ["Springfield, MA 01103"]}, "phone": "+14134262604", "display_phone": "(413) 426-2604", "distance": 680.8954253784841}, {"id": "UhSenOaxiGL21mHjZDvq7w", "alias": "storrowton-tavern-and-carriage-house-west-springfield", "name": "Storrowton Tavern & Carriage House", "image_url": "https://s3-media4.fl.yelpcdn.com/bphoto/By7Wo1BfREvRaqTO3h5w1w/o.jpg", "is_closed": false, "url": "https://www.yelp.com/biz/storrowton-tavern-and-carriage-house-west-springfield?adjust_creative=wVJJqwOt_3apsoGmwgRWnw&utm_campaign=yelp_api_v3&utm_medium=api_v3_business_search&utm_source=wVJJqwOt_3apsoGmwgRWnw", "review_count": 56, "categories": [{"alias": "tradamerican", "title": "American (Traditional)"}, {"alias": "bars", "title": "Bars"}, {"alias": "venues", "title": "Venues & Event Spaces"}], "rating": 3.5, "coordinates": {"latitude": 42.091147, "longitude": -72.6160879}, "transactions": ["delivery"], "price": "$$", "location": {"address1": "1305 Memorial Ave", "address2": "", "address3": "", "city": "West Springfield", "zip_code": "01089", "country": "US", "state": "MA", "display_address": ["1305 Memorial Ave", "West Springfield, MA 01089"]}, "phone": "+14137324188", "display_phone": "(413) 732-4188", "distance": 2571.3835401965716}, {"id": "T2I-BDEbYDZMymGqI1qfMA", "alias": "ahalna-foods-west-springfield", "name": "Ahalna Foods", "image_url": "https://s3-media4.fl.yelpcdn.com/bphoto/NvDjEHwvjo-WCIBsseTvqw/o.jpg", "is_closed": false, "url": "https://www.yelp.com/biz/ahalna-foods-west-springfield?adjust_creative=wVJJqwOt_3apsoGmwgRWnw&utm_campaign=yelp_api_v3&utm_medium=api_v3_business_search&utm_source=wVJJqwOt_3apsoGmwgRWnw", "review_count": 2, "categories": [{"alias": "mideastern", "title": "Middle Eastern"}], "rating": 4.5, "coordinates": {"latitude": 42.0989904552698, "longitude": -72.6036436110735}, "transactions": ["delivery"], "location": {"address1": "909 Main St", "address2": null, "address3": "", "city": "West Springfield", "zip_code": "01089", "country": "US", "state": "MA", "display_address": ["909 Main St", "West Springfield, MA 01089"]}, "phone": "+14133168428", "display_phone": "(413) 316-8428", "distance": 1218.1456292879227}, {"id": "iD7ewYbUfBkkKfaLcm_QzA", "alias": "wicked-noodles-at-mgm-springfield-springfield", "name": "Wicked Noodles at MGM Springfield", "image_url": "https://s3-media3.fl.yelpcdn.com/bphoto/NgFLyQa-iIv_y_oCkeSq9g/o.jpg", "is_closed": false, "url": "https://www.yelp.com/biz/wicked-noodles-at-mgm-springfield-springfield?adjust_creative=wVJJqwOt_3apsoGmwgRWnw&utm_campaign=yelp_api_v3&utm_medium=api_v3_business_search&utm_source=wVJJqwOt_3apsoGmwgRWnw", "review_count": 23, "categories": [{"alias": "asianfusion", "title": "Asian Fusion"}, {"alias": "chinese", "title": "Chinese"}], "rating": 2.0, "coordinates": {"latitude": 42.0997326517027, "longitude": -72.5871610069352}, "transactions": [], "location": {"address1": "One Mgm Way", "address2": "", "address3": null, "city": "Springfield", "zip_code": "01103", "country": "US", "state": "MA", "display_address": ["One Mgm Way", "Springfield, MA 01103"]}, "phone": "+14132735000", "display_phone": "(413) 273-5000", "distance": 828.4656530725907}, {"id": "7oQJsNNyabE0iRYgmWNVCA", "alias": "sok-s-siam-springfield", "name": "Sok\u2019s Siam", "image_url": "https://s3-media2.fl.yelpcdn.com/bphoto/4EL37zl-FvGbWoPaIntP8g/o.jpg", "is_closed": false, "url": "https://www.yelp.com/biz/sok-s-siam-springfield?adjust_creative=wVJJqwOt_3apsoGmwgRWnw&utm_campaign=yelp_api_v3&utm_medium=api_v3_business_search&utm_source=wVJJqwOt_3apsoGmwgRWnw", "review_count": 1, "categories": [{"alias": "asianfusion", "title": "Asian Fusion"}], "rating": 1.0, "coordinates": {"latitude": 42.105094, "longitude": -72.591691}, "transactions": [], "location": {"address1": "272 Worthington St", "address2": null, "address3": "", "city": "Springfield", "zip_code": "01103", "country": "US", "state": "MA", "display_address": ["272 Worthington St", "Springfield, MA 01103"]}, "phone": "+14133639034", "display_phone": "(413) 363-9034", "distance": 139.47950045788403}, {"id": "phHO6UwbIjTRVMOz4DhqVQ", "alias": "la-fritura-restaurant-springfield", "name": "La fritura restaurant", "image_url": "https://s3-media1.fl.yelpcdn.com/bphoto/ElcJY5n_hohCJPybUG9msw/o.jpg", "is_closed": false, "url": "https://www.yelp.com/biz/la-fritura-restaurant-springfield?adjust_creative=wVJJqwOt_3apsoGmwgRWnw&utm_campaign=yelp_api_v3&utm_medium=api_v3_business_search&utm_source=wVJJqwOt_3apsoGmwgRWnw", "review_count": 1, "categories": [{"alias": "latin", "title": "Latin American"}], "rating": 5.0, "coordinates": {"latitude": 42.105123, "longitude": -72.573189}, "transactions": [], "price": "$", "location": {"address1": "130 Walnut St", "address2": "", "address3": null, "city": "Springfield", "zip_code": "01105", "country": "US", "state": "MA", "display_address": ["130 Walnut St", "Springfield, MA 01105"]}, "phone": "+14132857966", "display_phone": "(413) 285-7966", "distance": 1583.3304235748762}, {"id": "x18AiyFtwzKesOQfFS8yew", "alias": "janna-mediterranean-grill-and-juice-bar-west-springfield", "name": "Janna Mediterranean Grill & Juice Bar", "image_url": "https://s3-media4.fl.yelpcdn.com/bphoto/lbA9cM8luvgRJFqGd-Y-vw/o.jpg", "is_closed": false, "url": "https://www.yelp.com/biz/janna-mediterranean-grill-and-juice-bar-west-springfield?adjust_creative=wVJJqwOt_3apsoGmwgRWnw&utm_campaign=yelp_api_v3&utm_medium=api_v3_business_search&utm_source=wVJJqwOt_3apsoGmwgRWnw", "review_count": 47, "categories": [{"alias": "mediterranean", "title": "Mediterranean"}, {"alias": "juicebars", "title": "Juice Bars & Smoothies"}, {"alias": "lebanese", "title": "Lebanese"}], "rating": 4.5, "coordinates": {"latitude": 42.09891, "longitude": -72.60855}, "transactions": ["pickup", "delivery"], "price": "$$", "location": {"address1": "751 Union St", "address2": "", "address3": null, "city": "West Springfield", "zip_code": "01089", "country": "US", "state": "MA", "display_address": ["751 Union St", "West Springfield, MA 01089"]}, "phone": "+14132737272", "display_phone": "(413) 273-7272", "distance": 1574.510302930078}, {"id": "ZS3kG6VXpHmHlLkpLxDe3A", "alias": "south-end-market-springfield", "name": "South End Market", "image_url": "https://s3-media2.fl.yelpcdn.com/bphoto/PtiK0CPeR4H_ACl0905yKA/o.jpg", "is_closed": false, "url": "https://www.yelp.com/biz/south-end-market-springfield?adjust_creative=wVJJqwOt_3apsoGmwgRWnw&utm_campaign=yelp_api_v3&utm_medium=api_v3_business_search&utm_source=wVJJqwOt_3apsoGmwgRWnw", "review_count": 12, "categories": [{"alias": "food_court", "title": "Food Court"}], "rating": 2.5, "coordinates": {"latitude": 42.0983764, "longitude": -72.5884723}, "transactions": [], "location": {"address1": "One MGM Way", "address2": null, "address3": null, "city": "Springfield", "zip_code": "01103", "country": "US", "state": "MA", "display_address": ["One MGM Way", "Springfield, MA 01103"]}, "phone": "+14132735000", "display_phone": "(413) 273-5000", "distance": 898.1284162457416}, {"id": "McoHD38EztGmDdRjxmFFHA", "alias": "felixs-breakfast-and-sandwich-shop-springfield", "name": "Felix's Breakfast and Sandwich Shop", "image_url": "https://s3-media3.fl.yelpcdn.com/bphoto/V27h_wLUIG_uvRu5DMAiSw/o.jpg", "is_closed": false, "url": "https://www.yelp.com/biz/felixs-breakfast-and-sandwich-shop-springfield?adjust_creative=wVJJqwOt_3apsoGmwgRWnw&utm_campaign=yelp_api_v3&utm_medium=api_v3_business_search&utm_source=wVJJqwOt_3apsoGmwgRWnw", "review_count": 67, "categories": [{"alias": "sandwiches", "title": "Sandwiches"}, {"alias": "breakfast_brunch", "title": "Breakfast & Brunch"}], "rating": 4.0, "coordinates": {"latitude": 42.1065522201793, "longitude": -72.5954360788028}, "transactions": ["delivery"], "price": "$", "location": {"address1": "67 Liberty St", "address2": null, "address3": null, "city": "Springfield", "zip_code": "01103", "country": "US", "state": "MA", "display_address": ["67 Liberty St", "Springfield, MA 01103"]}, "phone": "+14133066010", "display_phone": "(413) 306-6010", "distance": 259.10863658626386}, {"id": "7A7xWF4V9KKrLKrto9LYdw", "alias": "jacks-lobster-shack-springfield", "name": "Jack's Lobster Shack", "image_url": "https://s3-media3.fl.yelpcdn.com/bphoto/t7IEQIs3s7GDUct2v5A7lg/o.jpg", "is_closed": false, "url": "https://www.yelp.com/biz/jacks-lobster-shack-springfield?adjust_creative=wVJJqwOt_3apsoGmwgRWnw&utm_campaign=yelp_api_v3&utm_medium=api_v3_business_search&utm_source=wVJJqwOt_3apsoGmwgRWnw", "review_count": 8, "categories": [{"alias": "seafood", "title": "Seafood"}], "rating": 3.0, "coordinates": {"latitude": 42.0983764, "longitude": -72.5884723}, "transactions": [], "location": {"address1": "One Mgm Way", "address2": "", "address3": null, "city": "Springfield", "zip_code": "01103", "country": "US", "state": "MA", "display_address": ["One Mgm Way", "Springfield, MA 01103"]}, "phone": "+14132735000", "display_phone": "(413) 273-5000", "distance": 898.1284162457416}, {"id": "8OoJkFIv6Uq4DcBC0QL9qQ", "alias": "calabrese-market-and-deli-west-springfield-2", "name": "Calabrese Market and Deli", "image_url": "https://s3-media1.fl.yelpcdn.com/bphoto/maOdVMYSwmsEVZyokDscIA/o.jpg", "is_closed": false, "url": "https://www.yelp.com/biz/calabrese-market-and-deli-west-springfield-2?adjust_creative=wVJJqwOt_3apsoGmwgRWnw&utm_campaign=yelp_api_v3&utm_medium=api_v3_business_search&utm_source=wVJJqwOt_3apsoGmwgRWnw", "review_count": 25, "categories": [{"alias": "sandwiches", "title": "Sandwiches"}, {"alias": "grocery", "title": "Grocery"}], "rating": 5.0, "coordinates": {"latitude": 42.10723, "longitude": -72.6179}, "transactions": ["delivery"], "price": "$", "location": {"address1": "54 Park St", "address2": "", "address3": null, "city": "West Springfield", "zip_code": "01089", "country": "US", "state": "MA", "display_address": ["54 Park St", "West Springfield, MA 01089"]}, "phone": "+14134551196", "display_phone": "(413) 455-1196", "distance": 2110.4835870216816}, {"id": "xOx0-L5qcIbDbWIrlRM_qQ", "alias": "traditional-saigon-restaurant-springfield", "name": "Traditional Saigon Restaurant", "image_url": "https://s3-media1.fl.yelpcdn.com/bphoto/Wb9EF3rIEkwObUGKyEvA3A/o.jpg", "is_closed": false, "url": "https://www.yelp.com/biz/traditional-saigon-restaurant-springfield?adjust_creative=wVJJqwOt_3apsoGmwgRWnw&utm_campaign=yelp_api_v3&utm_medium=api_v3_business_search&utm_source=wVJJqwOt_3apsoGmwgRWnw", "review_count": 15, "categories": [{"alias": "vietnamese", "title": "Vietnamese"}], "rating": 5.0, "coordinates": {"latitude": 42.0880699157715, "longitude": -72.5672454833984}, "transactions": ["delivery"], "price": "$", "location": {"address1": "281 Belmont Ave", "address2": null, "address3": null, "city": "Springfield", "zip_code": "01108", "country": "US", "state": "MA", "display_address": ["281 Belmont Ave", "Springfield, MA 01108"]}, "phone": "+14138884196", "display_phone": "(413) 888-4196", "distance": 2883.870011275519}, {"id": "PgWTn7gY1hZ1saa0H97Xog", "alias": "mom-and-ricos-specialty-market-springfield", "name": "Mom & Rico's Specialty Market", "image_url": "https://s3-media2.fl.yelpcdn.com/bphoto/o9xCE9dFSY8hoTOKpszznw/o.jpg", "is_closed": false, "url": "https://www.yelp.com/biz/mom-and-ricos-specialty-market-springfield?adjust_creative=wVJJqwOt_3apsoGmwgRWnw&utm_campaign=yelp_api_v3&utm_medium=api_v3_business_search&utm_source=wVJJqwOt_3apsoGmwgRWnw", "review_count": 17, "categories": [{"alias": "grocery", "title": "Grocery"}, {"alias": "delis", "title": "Delis"}], "rating": 4.0, "coordinates": {"latitude": 42.09823, "longitude": -72.58306}, "transactions": [], "price": "$", "location": {"address1": "899 Main St", "address2": "", "address3": "", "city": "Springfield", "zip_code": "01103", "country": "US", "state": "MA", "display_address": ["899 Main St", "Springfield, MA 01103"]}, "phone": "+14137328941", "display_phone": "(413) 732-8941", "distance": 1174.7081118264637}, {"id": "JdgKU33JqMhfdAMu7nDh4Q", "alias": "ginos-pizza-and-grill-springfield", "name": "Gino's Pizza & Grill ", "image_url": "https://s3-media1.fl.yelpcdn.com/bphoto/ERc8oSo0OK8tsFLDHV-4iQ/o.jpg", "is_closed": false, "url": "https://www.yelp.com/biz/ginos-pizza-and-grill-springfield?adjust_creative=wVJJqwOt_3apsoGmwgRWnw&utm_campaign=yelp_api_v3&utm_medium=api_v3_business_search&utm_source=wVJJqwOt_3apsoGmwgRWnw", "review_count": 11, "categories": [{"alias": "pizza", "title": "Pizza"}, {"alias": "breakfast_brunch", "title": "Breakfast & Brunch"}, {"alias": "burgers", "title": "Burgers"}], "rating": 3.5, "coordinates": {"latitude": 42.1063801730792, "longitude": -72.5920973718166}, "transactions": ["delivery", "pickup"], "location": {"address1": "459 Dwight St", "address2": "", "address3": null, "city": "Springfield", "zip_code": "01103", "country": "US", "state": "MA", "display_address": ["459 Dwight St", "Springfield, MA 01103"]}, "phone": "+14137344466", "display_phone": "(413) 734-4466", "distance": 35.09347782795403}, {"id": "M7ozuK7U2sh_FRQN3eoFkw", "alias": "latinos-kitchen-springfield", "name": "Latino's Kitchen", "image_url": "https://s3-media1.fl.yelpcdn.com/bphoto/XJ4i7hNcfK0hUkD2LuWivA/o.jpg", "is_closed": false, "url": "https://www.yelp.com/biz/latinos-kitchen-springfield?adjust_creative=wVJJqwOt_3apsoGmwgRWnw&utm_campaign=yelp_api_v3&utm_medium=api_v3_business_search&utm_source=wVJJqwOt_3apsoGmwgRWnw", "review_count": 10, "categories": [{"alias": "latin", "title": "Latin American"}], "rating": 4.0, "coordinates": {"latitude": 42.116042599082, "longitude": -72.6065866649151}, "transactions": [], "price": "$", "location": {"address1": "2757 Main St", "address2": "", "address3": "", "city": "Springfield", "zip_code": "01107", "country": "US", "state": "MA", "display_address": ["2757 Main St", "Springfield, MA 01107"]}, "phone": "+14137372142", "display_phone": "(413) 737-2142", "distance": 1606.5636041279622}, {"id": "CpqY_tl5e4DkZFTNo6n2cw", "alias": "malecon-bar-and-restaurant-springfield", "name": "Malecon Bar & Restaurant", "image_url": "https://s3-media2.fl.yelpcdn.com/bphoto/NrztviHMd9uV7vxXu1kptw/o.jpg", "is_closed": false, "url": "https://www.yelp.com/biz/malecon-bar-and-restaurant-springfield?adjust_creative=wVJJqwOt_3apsoGmwgRWnw&utm_campaign=yelp_api_v3&utm_medium=api_v3_business_search&utm_source=wVJJqwOt_3apsoGmwgRWnw", "review_count": 6, "categories": [{"alias": "latin", "title": "Latin American"}, {"alias": "bars", "title": "Bars"}, {"alias": "dominican", "title": "Dominican"}], "rating": 2.0, "coordinates": {"latitude": 42.1054453, "longitude": -72.5888553}, "transactions": ["delivery", "pickup"], "location": {"address1": "137 Chestnut St", "address2": "", "address3": null, "city": "Springfield", "zip_code": "01103", "country": "US", "state": "MA", "display_address": ["137 Chestnut St", "Springfield, MA 01103"]}, "phone": "+14132858407", "display_phone": "(413) 285-8407", "distance": 275.98777100196884}, {"id": "2KfR4Pj1XBtXxrXZvn8F4Q", "alias": "currents-at-the-marriott-springfield", "name": "Currents at the Marriott", "image_url": "https://s3-media1.fl.yelpcdn.com/bphoto/rd14y-2qJyxioJ3B88xEHw/o.jpg", "is_closed": false, "url": "https://www.yelp.com/biz/currents-at-the-marriott-springfield?adjust_creative=wVJJqwOt_3apsoGmwgRWnw&utm_campaign=yelp_api_v3&utm_medium=api_v3_business_search&utm_source=wVJJqwOt_3apsoGmwgRWnw", "review_count": 10, "categories": [{"alias": "newamerican", "title": "American (New)"}, {"alias": "tradamerican", "title": "American (Traditional)"}, {"alias": "buffets", "title": "Buffets"}], "rating": 2.5, "coordinates": {"latitude": 42.10238, "longitude": -72.59196}, "transactions": [], "price": "$$", "location": {"address1": "1500 Main St", "address2": "", "address3": "", "city": "Springfield", "zip_code": "01115", "country": "US", "state": "MA", "display_address": ["1500 Main St", "Springfield, MA 01115"]}, "phone": "", "display_phone": "", "distance": 372.8757761524286}, {"id": "znBePHm2wFOjVzR91UGG9g", "alias": "crepes-tea-house-west-springfield", "name": "Crepes Tea House", "image_url": "https://s3-media3.fl.yelpcdn.com/bphoto/-D95oJpOdlFFV5Ex3JGDTQ/o.jpg", "is_closed": false, "url": "https://www.yelp.com/biz/crepes-tea-house-west-springfield?adjust_creative=wVJJqwOt_3apsoGmwgRWnw&utm_campaign=yelp_api_v3&utm_medium=api_v3_business_search&utm_source=wVJJqwOt_3apsoGmwgRWnw", "review_count": 306, "categories": [{"alias": "coffee", "title": "Coffee & Tea"}, {"alias": "breakfast_brunch", "title": "Breakfast & Brunch"}, {"alias": "creperies", "title": "Creperies"}], "rating": 4.5, "coordinates": {"latitude": 42.1025529, "longitude": -72.6165117}, "transactions": ["delivery", "pickup"], "price": "$$", "location": {"address1": "261 Union St", "address2": "", "address3": "", "city": "West Springfield", "zip_code": "01089", "country": "US", "state": "MA", "display_address": ["261 Union St", "West Springfield, MA 01089"]}, "phone": "+14133042052", "display_phone": "(413) 304-2052", "distance": 2033.574431009378}, {"id": "yOwjX9AzCO5Nu9Rw7i3vdA", "alias": "salerno-pizzeria-springfield", "name": "Salerno Pizzeria", "image_url": "https://s3-media2.fl.yelpcdn.com/bphoto/FZpLYDa84U_ktDH_zv13zg/o.jpg", "is_closed": false, "url": "https://www.yelp.com/biz/salerno-pizzeria-springfield?adjust_creative=wVJJqwOt_3apsoGmwgRWnw&utm_campaign=yelp_api_v3&utm_medium=api_v3_business_search&utm_source=wVJJqwOt_3apsoGmwgRWnw", "review_count": 33, "categories": [{"alias": "pizza", "title": "Pizza"}], "rating": 4.5, "coordinates": {"latitude": 42.123553, "longitude": -72.584251}, "transactions": ["delivery"], "price": "$", "location": {"address1": "747 Liberty St", "address2": "", "address3": "", "city": "Springfield", "zip_code": "01104", "country": "US", "state": "MA", "display_address": ["747 Liberty St", "Springfield, MA 01104"]}, "phone": "+14137334382", "display_phone": "(413) 733-4382", "distance": 2050.114294771229}, {"id": "zxU53w1DrsIwAY85nGqOcA", "alias": "storrowton-tavern-west-springfield-2", "name": "Storrowton Tavern", "image_url": "https://s3-media2.fl.yelpcdn.com/bphoto/FS_3-hr9OiTxN3bDrAIq4A/o.jpg", "is_closed": false, "url": "https://www.yelp.com/biz/storrowton-tavern-west-springfield-2?adjust_creative=wVJJqwOt_3apsoGmwgRWnw&utm_campaign=yelp_api_v3&utm_medium=api_v3_business_search&utm_source=wVJJqwOt_3apsoGmwgRWnw", "review_count": 6, "categories": [{"alias": "bars", "title": "Bars"}, {"alias": "seafood", "title": "Seafood"}, {"alias": "tradamerican", "title": "American (Traditional)"}], "rating": 4.0, "coordinates": {"latitude": 42.09288, "longitude": -72.6191}, "transactions": [], "location": {"address1": "1305 Memorial Ave", "address2": "", "address3": "", "city": "West Springfield", "zip_code": "01089", "country": "US", "state": "MA", "display_address": ["1305 Memorial Ave", "West Springfield, MA 01089"]}, "phone": "+14137324188", "display_phone": "(413) 732-4188", "distance": 2572.4566486023996}, {"id": "57OMzqv0t3t0mJhMBvxFuw", "alias": "topgolf-swing-suite-springfield", "name": "Topgolf Swing Suite", "image_url": "https://s3-media2.fl.yelpcdn.com/bphoto/81ITTgskSpiByP5Jw0mKqQ/o.jpg", "is_closed": false, "url": "https://www.yelp.com/biz/topgolf-swing-suite-springfield?adjust_creative=wVJJqwOt_3apsoGmwgRWnw&utm_campaign=yelp_api_v3&utm_medium=api_v3_business_search&utm_source=wVJJqwOt_3apsoGmwgRWnw", "review_count": 1, "categories": [{"alias": "tradamerican", "title": "American (Traditional)"}], "rating": 5.0, "coordinates": {"latitude": 42.0983764, "longitude": -72.5884723}, "transactions": [], "location": {"address1": "One Mgm Way", "address2": "", "address3": "MGM Springfield", "city": "Springfield", "zip_code": "01103", "country": "US", "state": "MA", "display_address": ["One Mgm Way", "MGM Springfield", "Springfield, MA 01103"]}, "phone": "+14132735000", "display_phone": "(413) 273-5000", "distance": 898.1284162457416}, {"id": "Mio0aA8qtoo0RG9VgLvAWw", "alias": "bills-diner-springfield", "name": "Bill's Diner", "image_url": "https://s3-media1.fl.yelpcdn.com/bphoto/4N2YeeVAIx_xHxLIahmIVw/o.jpg", "is_closed": false, "url": "https://www.yelp.com/biz/bills-diner-springfield?adjust_creative=wVJJqwOt_3apsoGmwgRWnw&utm_campaign=yelp_api_v3&utm_medium=api_v3_business_search&utm_source=wVJJqwOt_3apsoGmwgRWnw", "review_count": 10, "categories": [{"alias": "diners", "title": "Diners"}], "rating": 2.0, "coordinates": {"latitude": 42.0983764, "longitude": -72.5884723}, "transactions": [], "location": {"address1": "1 Mgm Way", "address2": "", "address3": null, "city": "Springfield", "zip_code": "01103", "country": "US", "state": "MA", "display_address": ["1 Mgm Way", "Springfield, MA 01103"]}, "phone": "+14132735000", "display_phone": "(413) 273-5000", "distance": 949.2992107434618}, {"id": "ez-gML3qD_Og1noXwcXeEQ", "alias": "sweet-ideas-cafe-springfield-2", "name": "Sweet Ideas Cafe", "image_url": "https://s3-media2.fl.yelpcdn.com/bphoto/ErKPEySprM5BKMB1Ts2s7Q/o.jpg", "is_closed": false, "url": "https://www.yelp.com/biz/sweet-ideas-cafe-springfield-2?adjust_creative=wVJJqwOt_3apsoGmwgRWnw&utm_campaign=yelp_api_v3&utm_medium=api_v3_business_search&utm_source=wVJJqwOt_3apsoGmwgRWnw", "review_count": 7, "categories": [{"alias": "desserts", "title": "Desserts"}, {"alias": "coffee", "title": "Coffee & Tea"}, {"alias": "sandwiches", "title": "Sandwiches"}], "rating": 3.5, "coordinates": {"latitude": 42.102312, "longitude": -72.589434}, "transactions": ["delivery", "pickup"], "location": {"address1": "1365 Main St", "address2": "", "address3": "", "city": "Springfield", "zip_code": "01103", "country": "US", "state": "MA", "display_address": ["1365 Main St", "Springfield, MA 01103"]}, "phone": "+14132780400", "display_phone": "(413) 278-0400", "distance": 486.20791085059244}, {"id": "Kwg9YAxsQBex2euS4VTyvg", "alias": "milano-importing-springfield-2", "name": "Milano Importing", "image_url": "https://s3-media3.fl.yelpcdn.com/bphoto/L2yfWI607FWdQi-3d-rmwA/o.jpg", "is_closed": false, "url": "https://www.yelp.com/biz/milano-importing-springfield-2?adjust_creative=wVJJqwOt_3apsoGmwgRWnw&utm_campaign=yelp_api_v3&utm_medium=api_v3_business_search&utm_source=wVJJqwOt_3apsoGmwgRWnw", "review_count": 10, "categories": [{"alias": "delis", "title": "Delis"}, {"alias": "italian", "title": "Italian"}, {"alias": "sandwiches", "title": "Sandwiches"}], "rating": 4.5, "coordinates": {"latitude": 42.0988, "longitude": -72.58443}, "transactions": ["delivery"], "price": "$", "location": {"address1": "988 Main St", "address2": "", "address3": "", "city": "Springfield", "zip_code": "01105", "country": "US", "state": "MA", "display_address": ["988 Main St", "Springfield, MA 01105"]}, "phone": "+14137377367", "display_phone": "(413) 737-7367", "distance": 1042.9839449937626}, {"id": "Gh9VAK5ThKkPo_Tp8WblWA", "alias": "city-pizza-and-fried-chicken-springfield", "name": "City Pizza And Fried Chicken", "image_url": "https://s3-media3.fl.yelpcdn.com/bphoto/Z1tZlwDc8d164CXLu0mG2g/o.jpg", "is_closed": false, "url": "https://www.yelp.com/biz/city-pizza-and-fried-chicken-springfield?adjust_creative=wVJJqwOt_3apsoGmwgRWnw&utm_campaign=yelp_api_v3&utm_medium=api_v3_business_search&utm_source=wVJJqwOt_3apsoGmwgRWnw", "review_count": 2, "categories": [{"alias": "pizza", "title": "Pizza"}, {"alias": "tradamerican", "title": "American (Traditional)"}, {"alias": "halal", "title": "Halal"}], "rating": 5.0, "coordinates": {"latitude": 42.09872, "longitude": -72.58433}, "transactions": ["delivery"], "price": "$", "location": {"address1": "982 Main St", "address2": "", "address3": null, "city": "Springfield", "zip_code": "01103", "country": "US", "state": "MA", "display_address": ["982 Main St", "Springfield, MA 01103"]}, "phone": "+14133639762", "display_phone": "(413) 363-9762", "distance": 1054.7233337457099}, {"id": "3hwJ67BBSPIA5a1YuIYNDg", "alias": "uno-pizzeria-and-grill-springfield", "name": "Uno Pizzeria & Grill", "image_url": "https://s3-media1.fl.yelpcdn.com/bphoto/PtBF_S3PcfSXfgr9F6OAJQ/o.jpg", "is_closed": false, "url": "https://www.yelp.com/biz/uno-pizzeria-and-grill-springfield?adjust_creative=wVJJqwOt_3apsoGmwgRWnw&utm_campaign=yelp_api_v3&utm_medium=api_v3_business_search&utm_source=wVJJqwOt_3apsoGmwgRWnw", "review_count": 73, "categories": [{"alias": "pizza", "title": "Pizza"}, {"alias": "gluten_free", "title": "Gluten-Free"}, {"alias": "tradamerican", "title": "American (Traditional)"}, {"alias": "desserts", "title": "Desserts"}], "rating": 3.0, "coordinates": {"latitude": 42.0922715, "longitude": -72.5832992}, "transactions": ["delivery"], "price": "$$", "location": {"address1": "820 W Columbus Ave", "address2": "", "address3": "", "city": "Springfield", "zip_code": "01105", "country": "US", "state": "MA", "display_address": ["820 W Columbus Ave", "Springfield, MA 01105"]}, "phone": "+14137331300", "display_phone": "(413) 733-1300", "distance": 1713.7121864665626}, {"id": "jzpxqcPrUX7V5UHOXyHGVg", "alias": "la-taqueria-del-pueblo-springfield-4", "name": "La Taqueria del Pueblo", "image_url": "https://s3-media3.fl.yelpcdn.com/bphoto/Pb8mAfI9iaYQCLdxloKpUw/o.jpg", "is_closed": false, "url": "https://www.yelp.com/biz/la-taqueria-del-pueblo-springfield-4?adjust_creative=wVJJqwOt_3apsoGmwgRWnw&utm_campaign=yelp_api_v3&utm_medium=api_v3_business_search&utm_source=wVJJqwOt_3apsoGmwgRWnw", "review_count": 1, "categories": [{"alias": "foodtrucks", "title": "Food Trucks"}, {"alias": "mexican", "title": "Mexican"}, {"alias": "latin", "title": "Latin American"}], "rating": 5.0, "coordinates": {"latitude": 42.106259, "longitude": -72.599471}, "transactions": [], "location": {"address1": "Boylston St", "address2": "", "address3": null, "city": "Springfield", "zip_code": "01103", "country": "US", "state": "MA", "display_address": ["Boylston St", "Springfield, MA 01103"]}, "phone": "+18605157045", "display_phone": "(860) 515-7045", "distance": 588.9188364505538}, {"id": "P8gMdNQn78PSmdFfQdjdFQ", "alias": "mi-antojito-bakery-springfield", "name": "Mi Antojito Bakery", "image_url": "https://s3-media2.fl.yelpcdn.com/bphoto/_MfpaYmD-PaGilFOzd5dAA/o.jpg", "is_closed": false, "url": "https://www.yelp.com/biz/mi-antojito-bakery-springfield?adjust_creative=wVJJqwOt_3apsoGmwgRWnw&utm_campaign=yelp_api_v3&utm_medium=api_v3_business_search&utm_source=wVJJqwOt_3apsoGmwgRWnw", "review_count": 10, "categories": [{"alias": "puertorican", "title": "Puerto Rican"}], "rating": 4.0, "coordinates": {"latitude": 42.1053573824145, "longitude": -72.5734911480439}, "transactions": ["delivery"], "price": "$", "location": {"address1": "126 Walnut St", "address2": "", "address3": "", "city": "Springfield", "zip_code": "01105", "country": "US", "state": "MA", "display_address": ["126 Walnut St", "Springfield, MA 01105"]}, "phone": "+14137812201", "display_phone": "(413) 781-2201", "distance": 1556.829669006226}, {"id": "qL1PzRBmx2pN-aP1zO6quw", "alias": "the-gluten-thief-springfield", "name": "The Gluten Thief", "image_url": "", "is_closed": false, "url": "https://www.yelp.com/biz/the-gluten-thief-springfield?adjust_creative=wVJJqwOt_3apsoGmwgRWnw&utm_campaign=yelp_api_v3&utm_medium=api_v3_business_search&utm_source=wVJJqwOt_3apsoGmwgRWnw", "review_count": 1, "categories": [{"alias": "gluten_free", "title": "Gluten-Free"}, {"alias": "desserts", "title": "Desserts"}], "rating": 5.0, "coordinates": {"latitude": 42.11754, "longitude": -72.60278}, "transactions": [], "location": {"address1": null, "address2": null, "address3": "", "city": "Springfield", "zip_code": "01107", "country": "US", "state": "MA", "display_address": ["Springfield, MA 01107"]}, "phone": "+14137269077", "display_phone": "(413) 726-9077", "distance": 1565.280812063474}, {"id": "yyGM9IgatjWBWZaWyhvzLw", "alias": "petes-daily-food-springfield", "name": "Pete's Daily Food", "image_url": "https://s3-media4.fl.yelpcdn.com/bphoto/W2eKly7_7y8eDE1fczVEWQ/o.jpg", "is_closed": false, "url": "https://www.yelp.com/biz/petes-daily-food-springfield?adjust_creative=wVJJqwOt_3apsoGmwgRWnw&utm_campaign=yelp_api_v3&utm_medium=api_v3_business_search&utm_source=wVJJqwOt_3apsoGmwgRWnw", "review_count": 2, "categories": [{"alias": "caribbean", "title": "Caribbean"}, {"alias": "newamerican", "title": "American (New)"}, {"alias": "tradamerican", "title": "American (Traditional)"}], "rating": 4.5, "coordinates": {"latitude": 42.1154136657715, "longitude": -72.5675659179688}, "transactions": ["delivery"], "location": {"address1": "259 Bay St", "address2": null, "address3": null, "city": "Springfield", "zip_code": "01109", "country": "US", "state": "MA", "display_address": ["259 Bay St", "Springfield, MA 01109"]}, "phone": "+14138278388", "display_phone": "(413) 827-8388", "distance": 2301.404077221983}, {"id": "Zb7avzFyE9Js-LLqnBFYBQ", "alias": "crown-fried-chicken-and-pizza-springfield", "name": "Crown Fried Chicken and Pizza", "image_url": "https://s3-media4.fl.yelpcdn.com/bphoto/e_z7spe_z3CPehG6EL1Aag/o.jpg", "is_closed": false, "url": "https://www.yelp.com/biz/crown-fried-chicken-and-pizza-springfield?adjust_creative=wVJJqwOt_3apsoGmwgRWnw&utm_campaign=yelp_api_v3&utm_medium=api_v3_business_search&utm_source=wVJJqwOt_3apsoGmwgRWnw", "review_count": 4, "categories": [{"alias": "pizza", "title": "Pizza"}], "rating": 3.5, "coordinates": {"latitude": 42.1008338928223, "longitude": -72.5875396728516}, "transactions": [], "price": "$", "location": {"address1": "1208 Main St", "address2": "", "address3": "", "city": "Springfield", "zip_code": "01103", "country": "US", "state": "MA", "display_address": ["1208 Main St", "Springfield, MA 01103"]}, "phone": "+14137472147", "display_phone": "(413) 747-2147", "distance": 713.3618840229027}, {"id": "NYOK1a75n68qSQmuGVH8rg", "alias": "cedars-food-mart-and-grill-springfield", "name": "Cedar's Food Mart & Grill", "image_url": "https://s3-media4.fl.yelpcdn.com/bphoto/5A2f0osqzyI1hHIxf8FWzQ/o.jpg", "is_closed": false, "url": "https://www.yelp.com/biz/cedars-food-mart-and-grill-springfield?adjust_creative=wVJJqwOt_3apsoGmwgRWnw&utm_campaign=yelp_api_v3&utm_medium=api_v3_business_search&utm_source=wVJJqwOt_3apsoGmwgRWnw", "review_count": 25, "categories": [{"alias": "grocery", "title": "Grocery"}, {"alias": "mediterranean", "title": "Mediterranean"}, {"alias": "headshops", "title": "Head Shops"}], "rating": 4.0, "coordinates": {"latitude": 42.12052, "longitude": -72.585797}, "transactions": ["delivery", "pickup"], "price": "$", "location": {"address1": "405 Armory St", "address2": "", "address3": "", "city": "Springfield", "zip_code": "01104", "country": "US", "state": "MA", "display_address": ["405 Armory St", "Springfield, MA 01104"]}, "phone": "+14132731215", "display_phone": "(413) 273-1215", "distance": 1689.7607096997835}, {"id": "JHuUYE2JuH5Casqk0ef57g", "alias": "sabor-a-quisqueya-restaurant-springfield", "name": "Sabor A Quisqueya Restaurant", "image_url": "https://s3-media1.fl.yelpcdn.com/bphoto/T9HWLw6CNQSgCdiWVdomHw/o.jpg", "is_closed": false, "url": "https://www.yelp.com/biz/sabor-a-quisqueya-restaurant-springfield?adjust_creative=wVJJqwOt_3apsoGmwgRWnw&utm_campaign=yelp_api_v3&utm_medium=api_v3_business_search&utm_source=wVJJqwOt_3apsoGmwgRWnw", "review_count": 9, "categories": [{"alias": "dominican", "title": "Dominican"}], "rating": 4.0, "coordinates": {"latitude": 42.1183243, "longitude": -72.5712128}, "transactions": ["delivery"], "price": "$", "location": {"address1": "326 Saint James Ave", "address2": null, "address3": null, "city": "Springfield", "zip_code": "01109", "country": "US", "state": "MA", "display_address": ["326 Saint James Ave", "Springfield, MA 01109"]}, "phone": "+14137363940", "display_phone": "(413) 736-3940", "distance": 2214.5236139742055}, {"id": "Vzx6JADtVXVHU5V9aKEUgQ", "alias": "hearth-grill-springfield", "name": "Hearth Grill", "image_url": "https://s3-media3.fl.yelpcdn.com/bphoto/gQjhQt9Ben_7sGRsg_3AaQ/o.jpg", "is_closed": false, "url": "https://www.yelp.com/biz/hearth-grill-springfield?adjust_creative=wVJJqwOt_3apsoGmwgRWnw&utm_campaign=yelp_api_v3&utm_medium=api_v3_business_search&utm_source=wVJJqwOt_3apsoGmwgRWnw", "review_count": 4, "categories": [{"alias": "tradamerican", "title": "American (Traditional)"}, {"alias": "breakfast_brunch", "title": "Breakfast & Brunch"}], "rating": 3.0, "coordinates": {"latitude": 42.0983764, "longitude": -72.5884723}, "transactions": [], "location": {"address1": "One Mgm Way", "address2": "", "address3": null, "city": "Springfield", "zip_code": "01103", "country": "US", "state": "MA", "display_address": ["One Mgm Way", "Springfield, MA 01103"]}, "phone": "+14132735000", "display_phone": "(413) 273-5000", "distance": 898.1284162457416}, {"id": "W1ZaNYCiR678E0wZ-uCotg", "alias": "chipotle-mexican-grill-west-springfield-2", "name": "Chipotle Mexican Grill", "image_url": "https://s3-media3.fl.yelpcdn.com/bphoto/-wlSRsZhcZHFUQSqPwYm2g/o.jpg", "is_closed": false, "url": "https://www.yelp.com/biz/chipotle-mexican-grill-west-springfield-2?adjust_creative=wVJJqwOt_3apsoGmwgRWnw&utm_campaign=yelp_api_v3&utm_medium=api_v3_business_search&utm_source=wVJJqwOt_3apsoGmwgRWnw", "review_count": 11, "categories": [{"alias": "mexican", "title": "Mexican"}, {"alias": "hotdogs", "title": "Fast Food"}], "rating": 4.0, "coordinates": {"latitude": 42.0959, "longitude": -72.600039}, "transactions": ["delivery"], "price": "$", "location": {"address1": "219 Memorial Ave", "address2": "", "address3": null, "city": "West Springfield", "zip_code": "01089", "country": "US", "state": "MA", "display_address": ["219 Memorial Ave", "West Springfield, MA 01089"]}, "phone": "+14137361005", "display_phone": "(413) 736-1005", "distance": 1301.924319120457}, {"id": "GXYGTErXOROi3meMh8mWKQ", "alias": "mexirico-food-shop-springfield", "name": "MexiRico Food Shop", "image_url": "https://s3-media2.fl.yelpcdn.com/bphoto/VRNd3O4yFCdYqVQsadGOzA/o.jpg", "is_closed": false, "url": "https://www.yelp.com/biz/mexirico-food-shop-springfield?adjust_creative=wVJJqwOt_3apsoGmwgRWnw&utm_campaign=yelp_api_v3&utm_medium=api_v3_business_search&utm_source=wVJJqwOt_3apsoGmwgRWnw", "review_count": 1, "categories": [{"alias": "grocery", "title": "Grocery"}, {"alias": "puertorican", "title": "Puerto Rican"}, {"alias": "mexican", "title": "Mexican"}], "rating": 5.0, "coordinates": {"latitude": 42.10834, "longitude": -72.56887}, "transactions": ["delivery", "pickup"], "location": {"address1": "64 Hancock St", "address2": null, "address3": "", "city": "Springfield", "zip_code": "01109", "country": "US", "state": "MA", "display_address": ["64 Hancock St", "Springfield, MA 01109"]}, "phone": "+14133177142", "display_phone": "(413) 317-7142", "distance": 1959.9981395707946}, {"id": "e2JAM_-r39YoBWTzJaRcYg", "alias": "felixs-baked-potatoes-springfield", "name": "Felix's Baked Potatoes", "image_url": "", "is_closed": false, "url": "https://www.yelp.com/biz/felixs-baked-potatoes-springfield?adjust_creative=wVJJqwOt_3apsoGmwgRWnw&utm_campaign=yelp_api_v3&utm_medium=api_v3_business_search&utm_source=wVJJqwOt_3apsoGmwgRWnw", "review_count": 2, "categories": [{"alias": "foodtrucks", "title": "Food Trucks"}, {"alias": "tradamerican", "title": "American (Traditional)"}], "rating": 5.0, "coordinates": {"latitude": 42.109637537703, "longitude": -72.602358291795}, "transactions": [], "location": {"address1": "St George Rd", "address2": null, "address3": null, "city": "Springfield", "zip_code": "01107", "country": "US", "state": "MA", "display_address": ["St George Rd", "Springfield, MA 01107"]}, "phone": "+14136571048", "display_phone": "(413) 657-1048", "distance": 914.8016816040825}, {"id": "SOjKBfnZhZRvlW4B0IByVQ", "alias": "ericas-hall-of-fame-kitchen-springfield", "name": "Erica's Hall of Fame Kitchen", "image_url": "https://s3-media2.fl.yelpcdn.com/bphoto/4_cJ2cns8hoZlI72wx08iA/o.jpg", "is_closed": false, "url": "https://www.yelp.com/biz/ericas-hall-of-fame-kitchen-springfield?adjust_creative=wVJJqwOt_3apsoGmwgRWnw&utm_campaign=yelp_api_v3&utm_medium=api_v3_business_search&utm_source=wVJJqwOt_3apsoGmwgRWnw", "review_count": 7, "categories": [{"alias": "soulfood", "title": "Soul Food"}], "rating": 3.0, "coordinates": {"latitude": 42.1105, "longitude": -72.57023}, "transactions": ["delivery"], "price": "$$", "location": {"address1": "666 State St", "address2": "", "address3": "", "city": "Springfield", "zip_code": "01109", "country": "US", "state": "MA", "display_address": ["666 State St", "Springfield, MA 01109"]}, "phone": "+14133917072", "display_phone": "(413) 391-7072", "distance": 1881.7619221650386}, {"id": "zJtVVEZj7hNZQAb77mUgIg", "alias": "primos-pizzeria-springfield-3", "name": "Primo's Pizzeria", "image_url": "https://s3-media1.fl.yelpcdn.com/bphoto/3DLySjs7RF44lMNaeDkxlA/o.jpg", "is_closed": false, "url": "https://www.yelp.com/biz/primos-pizzeria-springfield-3?adjust_creative=wVJJqwOt_3apsoGmwgRWnw&utm_campaign=yelp_api_v3&utm_medium=api_v3_business_search&utm_source=wVJJqwOt_3apsoGmwgRWnw", "review_count": 10, "categories": [{"alias": "pizza", "title": "Pizza"}, {"alias": "italian", "title": "Italian"}], "rating": 3.5, "coordinates": {"latitude": 42.1118247, "longitude": -72.5834407}, "transactions": ["delivery"], "price": "$", "location": {"address1": "824 Worthington St", "address2": "", "address3": "", "city": "Springfield", "zip_code": "01105", "country": "US", "state": "MA", "display_address": ["824 Worthington St", "Springfield, MA 01105"]}, "phone": "+14137812119", "display_phone": "(413) 781-2119", "distance": 970.0113211223176}, {"id": "3jlSwhT55sSwB7O-yw5tsA", "alias": "richards-giant-grinders-and-delicatessen-west-springfield", "name": "Richard's Giant Grinders & Delicatessen", "image_url": "https://s3-media4.fl.yelpcdn.com/bphoto/iP7OJJMt05Kl5JW7Oi7uAA/o.jpg", "is_closed": false, "url": "https://www.yelp.com/biz/richards-giant-grinders-and-delicatessen-west-springfield?adjust_creative=wVJJqwOt_3apsoGmwgRWnw&utm_campaign=yelp_api_v3&utm_medium=api_v3_business_search&utm_source=wVJJqwOt_3apsoGmwgRWnw", "review_count": 10, "categories": [{"alias": "delis", "title": "Delis"}, {"alias": "sandwiches", "title": "Sandwiches"}], "rating": 4.0, "coordinates": {"latitude": 42.0951034, "longitude": -72.6117503}, "transactions": ["delivery"], "price": "$", "location": {"address1": "875 Memorial Ave", "address2": "", "address3": "", "city": "West Springfield", "zip_code": "01089", "country": "US", "state": "MA", "display_address": ["875 Memorial Ave", "West Springfield, MA 01089"]}, "phone": "+14137323435", "display_phone": "(413) 732-3435", "distance": 2032.8295921245472}, {"id": "AtMj5OECGvNlpbwmy2SjRw", "alias": "sol-karibe-springfield", "name": "Sol Karibe", "image_url": "https://s3-media3.fl.yelpcdn.com/bphoto/83J9YWIUOTWd61Bi9G-llw/o.jpg", "is_closed": false, "url": "https://www.yelp.com/biz/sol-karibe-springfield?adjust_creative=wVJJqwOt_3apsoGmwgRWnw&utm_campaign=yelp_api_v3&utm_medium=api_v3_business_search&utm_source=wVJJqwOt_3apsoGmwgRWnw", "review_count": 10, "categories": [{"alias": "bars", "title": "Bars"}, {"alias": "hotdogs", "title": "Fast Food"}, {"alias": "sandwiches", "title": "Sandwiches"}], "rating": 3.0, "coordinates": {"latitude": 42.1012227, "longitude": -72.5876561}, "transactions": ["delivery", "pickup"], "price": "$", "location": {"address1": "1236 Main St", "address2": "", "address3": "", "city": "Springfield", "zip_code": "01103", "country": "US", "state": "MA", "display_address": ["1236 Main St", "Springfield, MA 01103"]}, "phone": "+14137371217", "display_phone": "(413) 737-1217", "distance": 667.3186328113396}, {"id": "0H-q3BIDpGnHGa1JA0jLLw", "alias": "paramount-pizza-springfield", "name": "Paramount Pizza", "image_url": "https://s3-media2.fl.yelpcdn.com/bphoto/ioS1fLWCXXO8y-NoJy7aRg/o.jpg", "is_closed": false, "url": "https://www.yelp.com/biz/paramount-pizza-springfield?adjust_creative=wVJJqwOt_3apsoGmwgRWnw&utm_campaign=yelp_api_v3&utm_medium=api_v3_business_search&utm_source=wVJJqwOt_3apsoGmwgRWnw", "review_count": 15, "categories": [{"alias": "pizza", "title": "Pizza"}], "rating": 2.5, "coordinates": {"latitude": 42.1044078469276, "longitude": -72.5941304862499}, "transactions": ["delivery", "pickup"], "price": "$", "location": {"address1": "1659 Main St", "address2": "", "address3": "", "city": "Springfield", "zip_code": "01103", "country": "US", "state": "MA", "display_address": ["1659 Main St", "Springfield, MA 01103"]}, "phone": "+14137330300", "display_phone": "(413) 733-0300", "distance": 237.82075648897896}, {"id": "bj1mjmubdCi4d5URL3y_gQ", "alias": "shakago-martini-and-piano-bar-springfield", "name": "Shakago Martini & Piano Bar", "image_url": "https://s3-media3.fl.yelpcdn.com/bphoto/NnkkqteajU8xuw77ALjs5g/o.jpg", "is_closed": false, "url": "https://www.yelp.com/biz/shakago-martini-and-piano-bar-springfield?adjust_creative=wVJJqwOt_3apsoGmwgRWnw&utm_campaign=yelp_api_v3&utm_medium=api_v3_business_search&utm_source=wVJJqwOt_3apsoGmwgRWnw", "review_count": 22, "categories": [{"alias": "newamerican", "title": "American (New)"}], "rating": 2.0, "coordinates": {"latitude": 42.1034549921751, "longitude": -72.5949110090733}, "transactions": ["delivery"], "price": "$$", "location": {"address1": "23 Hampden St", "address2": "", "address3": "", "city": "Springfield", "zip_code": "01103", "country": "US", "state": "MA", "display_address": ["23 Hampden St", "Springfield, MA 01103"]}, "phone": "+14137818885", "display_phone": "(413) 781-8885", "distance": 326.86871639792327}, {"id": "xQSNfyCncvdUcdT5CMRtTg", "alias": "peters-grille-springfield", "name": "Peter's Grille", "image_url": "https://s3-media4.fl.yelpcdn.com/bphoto/gdlKt5Twh6UNzgFNNpbzbQ/o.jpg", "is_closed": false, "url": "https://www.yelp.com/biz/peters-grille-springfield?adjust_creative=wVJJqwOt_3apsoGmwgRWnw&utm_campaign=yelp_api_v3&utm_medium=api_v3_business_search&utm_source=wVJJqwOt_3apsoGmwgRWnw", "review_count": 1, "categories": [{"alias": "gyms", "title": "Gyms"}, {"alias": "hotels", "title": "Hotels"}, {"alias": "restaurants", "title": "Restaurants"}], "rating": 2.0, "coordinates": {"latitude": 42.1015230651729, "longitude": -72.5917822424865}, "transactions": [], "price": "$$", "location": {"address1": "1 Monarch Pl", "address2": "Ste 100", "address3": "", "city": "Springfield", "zip_code": "01144", "country": "US", "state": "MA", "display_address": ["1 Monarch Pl", "Ste 100", "Springfield, MA 01144"]}, "phone": "+14137811010", "display_phone": "(413) 781-1010", "distance": 478.9866270208511}, {"id": "evkWgTX3sn2mF0tEnxNL3g", "alias": "charlies-diner-west-springfield", "name": "Charlie's Diner", "image_url": "https://s3-media4.fl.yelpcdn.com/bphoto/5vRrjF97PHwoGN7X2Ggyjg/o.jpg", "is_closed": false, "url": "https://www.yelp.com/biz/charlies-diner-west-springfield?adjust_creative=wVJJqwOt_3apsoGmwgRWnw&utm_campaign=yelp_api_v3&utm_medium=api_v3_business_search&utm_source=wVJJqwOt_3apsoGmwgRWnw", "review_count": 34, "categories": [{"alias": "breakfast_brunch", "title": "Breakfast & Brunch"}, {"alias": "diners", "title": "Diners"}], "rating": 4.0, "coordinates": {"latitude": 42.102717, "longitude": -72.617537}, "transactions": ["delivery"], "price": "$", "location": {"address1": "218 Union St", "address2": "", "address3": "", "city": "West Springfield", "zip_code": "01089", "country": "US", "state": "MA", "display_address": ["218 Union St", "West Springfield, MA 01089"]}, "phone": "+14137338551", "display_phone": "(413) 733-8551", "distance": 2093.269533223085}, {"id": "E-GBzX-_puSiAIQBHf5XTA", "alias": "holyoke-hummus-company-holyoke", "name": "Holyoke Hummus Company", "image_url": "https://s3-media2.fl.yelpcdn.com/bphoto/K-RvwwHMrU-8EFC9r_j1bw/o.jpg", "is_closed": false, "url": "https://www.yelp.com/biz/holyoke-hummus-company-holyoke?adjust_creative=wVJJqwOt_3apsoGmwgRWnw&utm_campaign=yelp_api_v3&utm_medium=api_v3_business_search&utm_source=wVJJqwOt_3apsoGmwgRWnw", "review_count": 65, "categories": [{"alias": "mideastern", "title": "Middle Eastern"}, {"alias": "foodtrucks", "title": "Food Trucks"}, {"alias": "breakfast_brunch", "title": "Breakfast & Brunch"}], "rating": 4.5, "coordinates": {"latitude": 42.206426, "longitude": -72.6086119}, "transactions": ["delivery", "pickup"], "price": "$", "location": {"address1": "285 High St", "address2": null, "address3": "", "city": "Holyoke", "zip_code": "01040", "country": "US", "state": "MA", "display_address": ["285 High St", "Holyoke, MA 01040"]}, "phone": "+14132251755", "display_phone": "(413) 225-1755", "distance": 11234.110032495917}, {"id": "FQ0movUHHPaLRt2rV7lCOQ", "alias": "premier-pizza-springfield", "name": "Premier Pizza", "image_url": "https://s3-media4.fl.yelpcdn.com/bphoto/Y91QEbeZMDeOJTk8A-S8yQ/o.jpg", "is_closed": false, "url": "https://www.yelp.com/biz/premier-pizza-springfield?adjust_creative=wVJJqwOt_3apsoGmwgRWnw&utm_campaign=yelp_api_v3&utm_medium=api_v3_business_search&utm_source=wVJJqwOt_3apsoGmwgRWnw", "review_count": 1, "categories": [{"alias": "pizza", "title": "Pizza"}], "rating": 4.0, "coordinates": {"latitude": 42.11313, "longitude": -72.60537}, "transactions": [], "location": {"address1": "2550 Main St", "address2": "", "address3": null, "city": "Springfield", "zip_code": "01107", "country": "US", "state": "MA", "display_address": ["2550 Main St", "Springfield, MA 01107"]}, "phone": "+14133177417", "display_phone": "(413) 317-7417", "distance": 1331.683106327623}, {"id": "kjGMjPUQ-VnoZbDET4cZHQ", "alias": "chandlers-springfield", "name": "chandlers", "image_url": "", "is_closed": false, "url": "https://www.yelp.com/biz/chandlers-springfield?adjust_creative=wVJJqwOt_3apsoGmwgRWnw&utm_campaign=yelp_api_v3&utm_medium=api_v3_business_search&utm_source=wVJJqwOt_3apsoGmwgRWnw", "review_count": 2, "categories": [{"alias": "steak", "title": "Steakhouses"}], "rating": 1.5, "coordinates": {"latitude": 42.1005692994099, "longitude": -72.5870595127344}, "transactions": [], "location": {"address1": "One Mgm Way", "address2": "", "address3": null, "city": "Springfield", "zip_code": "01103", "country": "US", "state": "MA", "display_address": ["One Mgm Way", "Springfield, MA 01103"]}, "phone": "", "display_phone": "", "distance": 755.0582152732401}, {"id": "sDp8RRk0W9PSYQPDU2n5Pw", "alias": "antonios-grinders-springfield", "name": "Antonio's Grinders", "image_url": "https://s3-media1.fl.yelpcdn.com/bphoto/fKLQUOQsIiYrbMcliT_TMA/o.jpg", "is_closed": false, "url": "https://www.yelp.com/biz/antonios-grinders-springfield?adjust_creative=wVJJqwOt_3apsoGmwgRWnw&utm_campaign=yelp_api_v3&utm_medium=api_v3_business_search&utm_source=wVJJqwOt_3apsoGmwgRWnw", "review_count": 28, "categories": [{"alias": "pizza", "title": "Pizza"}, {"alias": "sandwiches", "title": "Sandwiches"}], "rating": 3.0, "coordinates": {"latitude": 42.087175, "longitude": -72.579291}, "transactions": ["delivery"], "price": "$", "location": {"address1": "17 Longhill St", "address2": "", "address3": "", "city": "Springfield", "zip_code": "01108", "country": "US", "state": "MA", "display_address": ["17 Longhill St", "Springfield, MA 01108"]}, "phone": "+14137348822", "display_phone": "(413) 734-8822", "distance": 2335.4544748893177}, {"id": "9hBUK_Z9m3c7AQjtWY6e_w", "alias": "subway-springfield-191", "name": "Subway", "image_url": "https://s3-media1.fl.yelpcdn.com/bphoto/Q2n90l8IRChVe9F71gGVCA/o.jpg", "is_closed": false, "url": "https://www.yelp.com/biz/subway-springfield-191?adjust_creative=wVJJqwOt_3apsoGmwgRWnw&utm_campaign=yelp_api_v3&utm_medium=api_v3_business_search&utm_source=wVJJqwOt_3apsoGmwgRWnw", "review_count": 1, "categories": [{"alias": "sandwiches", "title": "Sandwiches"}], "rating": 5.0, "coordinates": {"latitude": 42.0973543114018, "longitude": -72.5860203129916}, "transactions": [], "price": "$", "location": {"address1": "1211 E Columbus Ave", "address2": null, "address3": null, "city": "Springfield", "zip_code": "01105", "country": "US", "state": "MA", "display_address": ["1211 E Columbus Ave", "Springfield, MA 01105"]}, "phone": "+14137367410", "display_phone": "(413) 736-7410", "distance": 1105.013112380331}, {"id": "39B1_xBMSGFNpoksbUhQDg", "alias": "zonins-market-springfield-2", "name": "Zonin's Market", "image_url": "https://s3-media1.fl.yelpcdn.com/bphoto/lkNAj9o-HpxIIsZ_cbuS5Q/o.jpg", "is_closed": false, "url": "https://www.yelp.com/biz/zonins-market-springfield-2?adjust_creative=wVJJqwOt_3apsoGmwgRWnw&utm_campaign=yelp_api_v3&utm_medium=api_v3_business_search&utm_source=wVJJqwOt_3apsoGmwgRWnw", "review_count": 3, "categories": [{"alias": "italian", "title": "Italian"}, {"alias": "sandwiches", "title": "Sandwiches"}], "rating": 3.5, "coordinates": {"latitude": 42.09802, "longitude": -72.58288}, "transactions": ["delivery"], "price": "$", "location": {"address1": "883 Main St", "address2": "", "address3": "", "city": "Springfield", "zip_code": "01105", "country": "US", "state": "MA", "display_address": ["883 Main St", "Springfield, MA 01105"]}, "phone": "+14137321055", "display_phone": "(413) 732-1055", "distance": 1201.554728234081}, {"id": "7zrrKZ8ExDUyldA3Ppvwpw", "alias": "star-pizza-west-springfield", "name": "Star Pizza", "image_url": "https://s3-media3.fl.yelpcdn.com/bphoto/kSVWqGYdQmZiPF_ucpogtA/o.jpg", "is_closed": false, "url": "https://www.yelp.com/biz/star-pizza-west-springfield?adjust_creative=wVJJqwOt_3apsoGmwgRWnw&utm_campaign=yelp_api_v3&utm_medium=api_v3_business_search&utm_source=wVJJqwOt_3apsoGmwgRWnw", "review_count": 22, "categories": [{"alias": "pizza", "title": "Pizza"}], "rating": 3.5, "coordinates": {"latitude": 42.1008379, "longitude": -72.606327}, "transactions": ["delivery", "pickup"], "price": "$", "location": {"address1": "707 Main St", "address2": "", "address3": "", "city": "West Springfield", "zip_code": "01089", "country": "US", "state": "MA", "display_address": ["707 Main St", "West Springfield, MA 01089"]}, "phone": "+14137889999", "display_phone": "(413) 788-9999", "distance": 1295.095633527016}, {"id": "QzbMPCTEHRgfqLQH76iJbw", "alias": "ho-mei-springfield", "name": "Ho Mei", "image_url": "https://s3-media2.fl.yelpcdn.com/bphoto/eyDAzNtQJfyLeY_INxSf5A/o.jpg", "is_closed": false, "url": "https://www.yelp.com/biz/ho-mei-springfield?adjust_creative=wVJJqwOt_3apsoGmwgRWnw&utm_campaign=yelp_api_v3&utm_medium=api_v3_business_search&utm_source=wVJJqwOt_3apsoGmwgRWnw", "review_count": 3, "categories": [{"alias": "chinese", "title": "Chinese"}], "rating": 2.5, "coordinates": {"latitude": 42.097471, "longitude": -72.582992}, "transactions": ["delivery"], "location": {"address1": "852 Main St", "address2": null, "address3": null, "city": "Springfield", "zip_code": "01103", "country": "US", "state": "MA", "display_address": ["852 Main St", "Springfield, MA 01103"]}, "phone": "+14137851681", "display_phone": "(413) 785-1681", "distance": 1244.2536088519976}, {"id": "8icwrxRMn02Iax6hxd7kYg", "alias": "subway-springfield-194", "name": "Subway", "image_url": "https://s3-media3.fl.yelpcdn.com/bphoto/mNaIAUe2F06FaW3Mv7ciZw/o.jpg", "is_closed": false, "url": "https://www.yelp.com/biz/subway-springfield-194?adjust_creative=wVJJqwOt_3apsoGmwgRWnw&utm_campaign=yelp_api_v3&utm_medium=api_v3_business_search&utm_source=wVJJqwOt_3apsoGmwgRWnw", "review_count": 2, "categories": [{"alias": "sandwiches", "title": "Sandwiches"}], "rating": 4.0, "coordinates": {"latitude": 42.1207038276463, "longitude": -72.5854319278571}, "transactions": ["delivery"], "price": "$", "location": {"address1": "405 Armory St", "address2": null, "address3": null, "city": "Springfield", "zip_code": "01104", "country": "US", "state": "MA", "display_address": ["405 Armory St", "Springfield, MA 01104"]}, "phone": "+14137340200", "display_phone": "(413) 734-0200", "distance": 1718.883725831688}, {"id": "Yo3NSuPcG7ULdDU21BKOlw", "alias": "uno-restaurant-and-bar-springfield", "name": "Uno Restaurant & Bar", "image_url": "", "is_closed": false, "url": "https://www.yelp.com/biz/uno-restaurant-and-bar-springfield?adjust_creative=wVJJqwOt_3apsoGmwgRWnw&utm_campaign=yelp_api_v3&utm_medium=api_v3_business_search&utm_source=wVJJqwOt_3apsoGmwgRWnw", "review_count": 1, "categories": [{"alias": "pizza", "title": "Pizza"}], "rating": 2.0, "coordinates": {"latitude": 42.1028830111027, "longitude": -72.5939936935902}, "transactions": [], "location": {"address1": "1 Columbus Ctr", "address2": "", "address3": "", "city": "Springfield", "zip_code": "01103", "country": "US", "state": "MA", "display_address": ["1 Columbus Ctr", "Springfield, MA 01103"]}, "phone": "+14137331300", "display_phone": "(413) 733-1300", "distance": 379.0101174974058}, {"id": "qxHuay6VPQyLZrJSsirS6g", "alias": "discount-chinese-restaurant-springfield", "name": "Discount Chinese Restaurant", "image_url": "", "is_closed": false, "url": "https://www.yelp.com/biz/discount-chinese-restaurant-springfield?adjust_creative=wVJJqwOt_3apsoGmwgRWnw&utm_campaign=yelp_api_v3&utm_medium=api_v3_business_search&utm_source=wVJJqwOt_3apsoGmwgRWnw", "review_count": 2, "categories": [{"alias": "chinese", "title": "Chinese"}], "rating": 3.0, "coordinates": {"latitude": 42.10748, "longitude": -72.57724}, "transactions": ["delivery"], "price": "$", "location": {"address1": "457 State St", "address2": "", "address3": "", "city": "Springfield", "zip_code": "01105", "country": "US", "state": "MA", "display_address": ["457 State St", "Springfield, MA 01105"]}, "phone": "+14137365342", "display_phone": "(413) 736-5342", "distance": 1249.2996145047555}, {"id": "HSeBmpN7RgHAEy-CK4QPcA", "alias": "taco-bell-west-springfield", "name": "Taco Bell", "image_url": "https://s3-media2.fl.yelpcdn.com/bphoto/d8dj6q5oSurTg1EuvCJ3QQ/o.jpg", "is_closed": false, "url": "https://www.yelp.com/biz/taco-bell-west-springfield?adjust_creative=wVJJqwOt_3apsoGmwgRWnw&utm_campaign=yelp_api_v3&utm_medium=api_v3_business_search&utm_source=wVJJqwOt_3apsoGmwgRWnw", "review_count": 9, "categories": [{"alias": "hotdogs", "title": "Fast Food"}, {"alias": "tacos", "title": "Tacos"}], "rating": 3.5, "coordinates": {"latitude": 42.095986, "longitude": -72.602433}, "transactions": ["delivery"], "price": "$", "location": {"address1": "298 Memorial Ave", "address2": "", "address3": "", "city": "West Springfield", "zip_code": "01089", "country": "US", "state": "MA", "display_address": ["298 Memorial Ave", "West Springfield, MA 01089"]}, "phone": "+14137397388", "display_phone": "(413) 739-7388", "distance": 1401.2356981319058}, {"id": "PoCuRl8c3c3h39mAM0spLg", "alias": "mamma-mias-pizzeria-west-springfield", "name": "Mamma Mia's Pizzeria", "image_url": "https://s3-media3.fl.yelpcdn.com/bphoto/9ReY_V-sNS6heH9ebOdKAw/o.jpg", "is_closed": false, "url": "https://www.yelp.com/biz/mamma-mias-pizzeria-west-springfield?adjust_creative=wVJJqwOt_3apsoGmwgRWnw&utm_campaign=yelp_api_v3&utm_medium=api_v3_business_search&utm_source=wVJJqwOt_3apsoGmwgRWnw", "review_count": 20, "categories": [{"alias": "pizza", "title": "Pizza"}, {"alias": "salad", "title": "Salad"}, {"alias": "desserts", "title": "Desserts"}], "rating": 3.0, "coordinates": {"latitude": 42.10723, "longitude": -72.6179}, "transactions": ["delivery", "pickup"], "price": "$", "location": {"address1": "60 Park St", "address2": "", "address3": "", "city": "West Springfield", "zip_code": "01089", "country": "US", "state": "MA", "display_address": ["60 Park St", "West Springfield, MA 01089"]}, "phone": "+14137320400", "display_phone": "(413) 732-0400", "distance": 2110.4881015297337}, {"id": "X7XSvueLYViscqaHsExJww", "alias": "dynasty-restaurant-springfield", "name": "Dynasty Restaurant", "image_url": "https://s3-media3.fl.yelpcdn.com/bphoto/Vvzf0I8SMFdvXpjQN7mniw/o.jpg", "is_closed": false, "url": "https://www.yelp.com/biz/dynasty-restaurant-springfield?adjust_creative=wVJJqwOt_3apsoGmwgRWnw&utm_campaign=yelp_api_v3&utm_medium=api_v3_business_search&utm_source=wVJJqwOt_3apsoGmwgRWnw", "review_count": 13, "categories": [{"alias": "chinese", "title": "Chinese"}, {"alias": "seafood", "title": "Seafood"}, {"alias": "soup", "title": "Soup"}], "rating": 3.0, "coordinates": {"latitude": 42.0914942, "longitude": -72.5791367}, "transactions": ["delivery", "pickup"], "price": "$", "location": {"address1": "5 Locust St", "address2": "", "address3": "", "city": "Springfield", "zip_code": "01108", "country": "US", "state": "MA", "display_address": ["5 Locust St", "Springfield, MA 01108"]}, "phone": "+14137343949", "display_phone": "(413) 734-3949", "distance": 1946.018980257337}, {"id": "NbBNp6dIE3XhMAlpiW3oGA", "alias": "house-of-huang-springfield", "name": "House of Huang", "image_url": "", "is_closed": false, "url": "https://www.yelp.com/biz/house-of-huang-springfield?adjust_creative=wVJJqwOt_3apsoGmwgRWnw&utm_campaign=yelp_api_v3&utm_medium=api_v3_business_search&utm_source=wVJJqwOt_3apsoGmwgRWnw", "review_count": 1, "categories": [{"alias": "restaurants", "title": "Restaurants"}], "rating": 1.0, "coordinates": {"latitude": 42.1220566, "longitude": -72.5889694}, "transactions": [], "location": {"address1": "506 Armory St", "address2": "", "address3": "", "city": "Springfield", "zip_code": "01104", "country": "US", "state": "MA", "display_address": ["506 Armory St", "Springfield, MA 01104"]}, "phone": "+14137888967", "display_phone": "(413) 788-8967", "distance": 1797.1079151655313}, {"id": "qVuw2U8CD0AaxQyUXdXPlQ", "alias": "tastys-restaurant-springfield", "name": "Tasty's Restaurant", "image_url": "", "is_closed": false, "url": "https://www.yelp.com/biz/tastys-restaurant-springfield?adjust_creative=wVJJqwOt_3apsoGmwgRWnw&utm_campaign=yelp_api_v3&utm_medium=api_v3_business_search&utm_source=wVJJqwOt_3apsoGmwgRWnw", "review_count": 1, "categories": [{"alias": "restaurants", "title": "Restaurants"}], "rating": 5.0, "coordinates": {"latitude": 42.1075055, "longitude": -72.5721155}, "transactions": [], "location": {"address1": "539 Union St", "address2": "", "address3": "", "city": "Springfield", "zip_code": "01109", "country": "US", "state": "MA", "display_address": ["539 Union St", "Springfield, MA 01109"]}, "phone": "+14137376777", "display_phone": "(413) 737-6777", "distance": 1649.3107724345336}, {"id": "FhcQfJlawFliBGtE7RKsSQ", "alias": "burger-king-springfield-31", "name": "Burger King", "image_url": "https://s3-media2.fl.yelpcdn.com/bphoto/YuQyKbwj8zTejarQHD2KOg/o.jpg", "is_closed": false, "url": "https://www.yelp.com/biz/burger-king-springfield-31?adjust_creative=wVJJqwOt_3apsoGmwgRWnw&utm_campaign=yelp_api_v3&utm_medium=api_v3_business_search&utm_source=wVJJqwOt_3apsoGmwgRWnw", "review_count": 7, "categories": [{"alias": "hotdogs", "title": "Fast Food"}, {"alias": "burgers", "title": "Burgers"}], "rating": 1.0, "coordinates": {"latitude": 42.1078808143228, "longitude": -72.5763742625713}, "transactions": [], "price": "$", "location": {"address1": "489 State Street", "address2": "", "address3": null, "city": "Springfield", "zip_code": "01109", "country": "US", "state": "MA", "display_address": ["489 State Street", "Springfield, MA 01109"]}, "phone": "+14137478712", "display_phone": "(413) 747-8712", "distance": 1331.1625665490103}, {"id": "ywiU9KQ_sO4f-boWH8uuSg", "alias": "mjs-pizza-and-grinders-springfield-2", "name": "MJ'S Pizza & Grinders", "image_url": "https://s3-media2.fl.yelpcdn.com/bphoto/JX5PXmiRxP8P13drq4rYqw/o.jpg", "is_closed": false, "url": "https://www.yelp.com/biz/mjs-pizza-and-grinders-springfield-2?adjust_creative=wVJJqwOt_3apsoGmwgRWnw&utm_campaign=yelp_api_v3&utm_medium=api_v3_business_search&utm_source=wVJJqwOt_3apsoGmwgRWnw", "review_count": 9, "categories": [{"alias": "pizza", "title": "Pizza"}, {"alias": "desserts", "title": "Desserts"}, {"alias": "chicken_wings", "title": "Chicken Wings"}], "rating": 2.5, "coordinates": {"latitude": 42.112704, "longitude": -72.578969}, "transactions": ["pickup", "delivery"], "price": "$$", "location": {"address1": "955 Worthington St", "address2": null, "address3": null, "city": "Springfield", "zip_code": "01105", "country": "US", "state": "MA", "display_address": ["955 Worthington St", "Springfield, MA 01105"]}, "phone": "+14137889211", "display_phone": "(413) 788-9211", "distance": 1323.5951495934287}, {"id": "1dBYk-ZB-WImXYTd2MFv8A", "alias": "pizza-choice-springfield", "name": "Pizza Choice", "image_url": "https://s3-media2.fl.yelpcdn.com/bphoto/dGzt5wohCHz_bbrOAwhnEA/o.jpg", "is_closed": false, "url": "https://www.yelp.com/biz/pizza-choice-springfield?adjust_creative=wVJJqwOt_3apsoGmwgRWnw&utm_campaign=yelp_api_v3&utm_medium=api_v3_business_search&utm_source=wVJJqwOt_3apsoGmwgRWnw", "review_count": 14, "categories": [{"alias": "pizza", "title": "Pizza"}, {"alias": "burgers", "title": "Burgers"}, {"alias": "chicken_wings", "title": "Chicken Wings"}], "rating": 2.0, "coordinates": {"latitude": 42.10738, "longitude": -72.57767}, "transactions": ["pickup", "delivery"], "price": "$$", "location": {"address1": "445 State St", "address2": "", "address3": "", "city": "Springfield", "zip_code": "01105", "country": "US", "state": "MA", "display_address": ["445 State St", "Springfield, MA 01105"]}, "phone": "+14137395511", "display_phone": "(413) 739-5511", "distance": 1225.2360008226135}, {"id": "G0Uu59n_62hM_jvl97AJeg", "alias": "north-end-pizzeria-and-seafood-springfield-2", "name": "North End Pizzeria And Seafood", "image_url": "https://s3-media1.fl.yelpcdn.com/bphoto/A4IyupFXiFIz6K7Rsd6LBg/o.jpg", "is_closed": false, "url": "https://www.yelp.com/biz/north-end-pizzeria-and-seafood-springfield-2?adjust_creative=wVJJqwOt_3apsoGmwgRWnw&utm_campaign=yelp_api_v3&utm_medium=api_v3_business_search&utm_source=wVJJqwOt_3apsoGmwgRWnw", "review_count": 6, "categories": [{"alias": "pizza", "title": "Pizza"}], "rating": 2.5, "coordinates": {"latitude": 42.1131287, "longitude": -72.6053696}, "transactions": ["delivery"], "location": {"address1": "2550 Main St", "address2": "", "address3": "", "city": "Springfield", "zip_code": "01107", "country": "US", "state": "MA", "display_address": ["2550 Main St", "Springfield, MA 01107"]}, "phone": "", "display_phone": "", "distance": 1331.683106327623}, {"id": "bxJ6wKu2XhySgocZ005YiQ", "alias": "kfc-springfield-23", "name": "KFC", "image_url": "https://s3-media3.fl.yelpcdn.com/bphoto/S9XfSVWzUAjskwXQoKbGLg/o.jpg", "is_closed": false, "url": "https://www.yelp.com/biz/kfc-springfield-23?adjust_creative=wVJJqwOt_3apsoGmwgRWnw&utm_campaign=yelp_api_v3&utm_medium=api_v3_business_search&utm_source=wVJJqwOt_3apsoGmwgRWnw", "review_count": 3, "categories": [{"alias": "hotdogs", "title": "Fast Food"}, {"alias": "chickenshop", "title": "Chicken Shop"}, {"alias": "chicken_wings", "title": "Chicken Wings"}], "rating": 1.5, "coordinates": {"latitude": 42.1101698251771, "longitude": -72.5713852}, "transactions": ["pickup", "delivery"], "price": "$", "location": {"address1": "632 State St", "address2": "", "address3": null, "city": "Springfield", "zip_code": "01109", "country": "US", "state": "MA", "display_address": ["632 State St", "Springfield, MA 01109"]}, "phone": "+14133639659", "display_phone": "(413) 363-9659", "distance": 1785.9517197444748}, {"id": "fv-P1d7Gh9Niy_83Th7sPQ", "alias": "red-apple-springfield", "name": "Red Apple", "image_url": "https://s3-media3.fl.yelpcdn.com/bphoto/ndna4bXL7gp0HiP9hQC99w/o.jpg", "is_closed": false, "url": "https://www.yelp.com/biz/red-apple-springfield?adjust_creative=wVJJqwOt_3apsoGmwgRWnw&utm_campaign=yelp_api_v3&utm_medium=api_v3_business_search&utm_source=wVJJqwOt_3apsoGmwgRWnw", "review_count": 3, "categories": [{"alias": "chinese", "title": "Chinese"}], "rating": 2.5, "coordinates": {"latitude": 42.09313, "longitude": -72.56833}, "transactions": ["delivery"], "location": {"address1": "10 Orange St", "address2": "", "address3": "", "city": "Springfield", "zip_code": "01108", "country": "US", "state": "MA", "display_address": ["10 Orange St", "Springfield, MA 01108"]}, "phone": "+14137317722", "display_phone": "(413) 731-7722", "distance": 2433.4268336300725}, {"id": "oqAZyreTSkvUFZoXUZ8f0w", "alias": "jackies-pizza-springfield", "name": "Jackie's Pizza", "image_url": "https://s3-media4.fl.yelpcdn.com/bphoto/bE58iQXwH-Vf5QmKccJDsg/o.jpg", "is_closed": false, "url": "https://www.yelp.com/biz/jackies-pizza-springfield?adjust_creative=wVJJqwOt_3apsoGmwgRWnw&utm_campaign=yelp_api_v3&utm_medium=api_v3_business_search&utm_source=wVJJqwOt_3apsoGmwgRWnw", "review_count": 2, "categories": [{"alias": "pizza", "title": "Pizza"}], "rating": 1.0, "coordinates": {"latitude": 42.1245123012406, "longitude": -72.5841953539148}, "transactions": ["delivery"], "location": {"address1": "4 Kendall St", "address2": "", "address3": "", "city": "Springfield", "zip_code": "01104", "country": "US", "state": "MA", "display_address": ["4 Kendall St", "Springfield, MA 01104"]}, "phone": "+14137347301", "display_phone": "(413) 734-7301", "distance": 2165.492306469024}, {"id": "1vncwXUUyxATQmSHlT9uTQ", "alias": "taco-bell-springfield-42", "name": "Taco Bell", "image_url": "https://s3-media1.fl.yelpcdn.com/bphoto/0_nY3JqSd_v_B_vaMkyUXQ/o.jpg", "is_closed": false, "url": "https://www.yelp.com/biz/taco-bell-springfield-42?adjust_creative=wVJJqwOt_3apsoGmwgRWnw&utm_campaign=yelp_api_v3&utm_medium=api_v3_business_search&utm_source=wVJJqwOt_3apsoGmwgRWnw", "review_count": 3, "categories": [{"alias": "hotdogs", "title": "Fast Food"}, {"alias": "tacos", "title": "Tacos"}], "rating": 1.5, "coordinates": {"latitude": 42.121334, "longitude": -72.584161}, "transactions": ["delivery"], "price": "$", "location": {"address1": "633 Liberty St.", "address2": "", "address3": "", "city": "Springfield", "zip_code": "01104", "country": "US", "state": "MA", "display_address": ["633 Liberty St.", "Springfield, MA 01104"]}, "phone": "+14137348586", "display_phone": "(413) 734-8586", "distance": 1821.2991034797692}, {"id": "_qhFJpA9dOt1YiTjUfnMlg", "alias": "dominos-pizza-springfield-4", "name": "Domino's Pizza", "image_url": "", "is_closed": false, "url": "https://www.yelp.com/biz/dominos-pizza-springfield-4?adjust_creative=wVJJqwOt_3apsoGmwgRWnw&utm_campaign=yelp_api_v3&utm_medium=api_v3_business_search&utm_source=wVJJqwOt_3apsoGmwgRWnw", "review_count": 10, "categories": [{"alias": "pizza", "title": "Pizza"}], "rating": 2.0, "coordinates": {"latitude": 42.1245, "longitude": -72.58459}, "transactions": [], "price": "$", "location": {"address1": "790 Liberty St", "address2": "", "address3": "", "city": "Springfield", "zip_code": "01104", "country": "US", "state": "MA", "display_address": ["790 Liberty St", "Springfield, MA 01104"]}, "phone": "+14138278400", "display_phone": "(413) 827-8400", "distance": 2154.224259598188}, {"id": "nJ0SbaKmw3iX4WFOswydzQ", "alias": "mcdonalds-springfield-47", "name": "McDonald's", "image_url": "https://s3-media3.fl.yelpcdn.com/bphoto/c259VZyO9hHvXesyNpN0GA/o.jpg", "is_closed": false, "url": "https://www.yelp.com/biz/mcdonalds-springfield-47?adjust_creative=wVJJqwOt_3apsoGmwgRWnw&utm_campaign=yelp_api_v3&utm_medium=api_v3_business_search&utm_source=wVJJqwOt_3apsoGmwgRWnw", "review_count": 2, "categories": [{"alias": "burgers", "title": "Burgers"}, {"alias": "hotdogs", "title": "Fast Food"}, {"alias": "coffee", "title": "Coffee & Tea"}], "rating": 1.0, "coordinates": {"latitude": 42.1112787039254, "longitude": -72.6040318608284}, "transactions": ["delivery"], "price": "$", "location": {"address1": "2392 Main St", "address2": "", "address3": "", "city": "Springfield", "zip_code": "01107", "country": "US", "state": "MA", "display_address": ["2392 Main St", "Springfield, MA 01107"]}, "phone": "+14137812603", "display_phone": "(413) 781-2603", "distance": 1122.649009307104}, {"id": "RCobAXdTOagtDTDVoAN0ZA", "alias": "pizza-king-springfield-2", "name": "Pizza King", "image_url": "https://s3-media3.fl.yelpcdn.com/bphoto/lbBVQaNThMR-LLodhh47Zw/o.jpg", "is_closed": false, "url": "https://www.yelp.com/biz/pizza-king-springfield-2?adjust_creative=wVJJqwOt_3apsoGmwgRWnw&utm_campaign=yelp_api_v3&utm_medium=api_v3_business_search&utm_source=wVJJqwOt_3apsoGmwgRWnw", "review_count": 1, "categories": [{"alias": "pizza", "title": "Pizza"}], "rating": 1.0, "coordinates": {"latitude": 42.1017723083496, "longitude": -72.5675659179688}, "transactions": ["delivery"], "location": {"address1": "305 Walnut St", "address2": "", "address3": "", "city": "Springfield", "zip_code": "01105", "country": "US", "state": "MA", "display_address": ["305 Walnut St", "Springfield, MA 01105"]}, "phone": "+14137336444", "display_phone": "(413) 733-6444", "distance": 2096.2669985799293}, {"id": "FVCOg9jNhGO4uyoYIP_b0Q", "alias": "subway-west-springfield-5", "name": "Subway", "image_url": "https://s3-media2.fl.yelpcdn.com/bphoto/cr2TTGOIHIeZDLoCoqMHYA/o.jpg", "is_closed": false, "url": "https://www.yelp.com/biz/subway-west-springfield-5?adjust_creative=wVJJqwOt_3apsoGmwgRWnw&utm_campaign=yelp_api_v3&utm_medium=api_v3_business_search&utm_source=wVJJqwOt_3apsoGmwgRWnw", "review_count": 1, "categories": [{"alias": "sandwiches", "title": "Sandwiches"}], "rating": 4.0, "coordinates": {"latitude": 42.0965759914981, "longitude": -72.6029499053312}, "transactions": [], "price": "$", "location": {"address1": "356 Memorial Ave", "address2": null, "address3": null, "city": "West Springfield", "zip_code": "01089", "country": "US", "state": "MA", "display_address": ["356 Memorial Ave", "West Springfield, MA 01089"]}, "phone": "+14137880008", "display_phone": "(413) 788-0008", "distance": 1375.7943126274902}, {"id": "j04qVeHsjX42FdRNbwEDdA", "alias": "mcdonalds-springfield-4", "name": "McDonald's", "image_url": "https://s3-media2.fl.yelpcdn.com/bphoto/bE9drwnYxAuIYsybyqmVrg/o.jpg", "is_closed": false, "url": "https://www.yelp.com/biz/mcdonalds-springfield-4?adjust_creative=wVJJqwOt_3apsoGmwgRWnw&utm_campaign=yelp_api_v3&utm_medium=api_v3_business_search&utm_source=wVJJqwOt_3apsoGmwgRWnw", "review_count": 1, "categories": [{"alias": "burgers", "title": "Burgers"}, {"alias": "hotdogs", "title": "Fast Food"}, {"alias": "coffee", "title": "Coffee & Tea"}], "rating": 2.0, "coordinates": {"latitude": 42.12084, "longitude": -72.58484}, "transactions": ["delivery"], "price": "$", "location": {"address1": "660 Liberty St", "address2": "", "address3": "", "city": "Springfield", "zip_code": "01103", "country": "US", "state": "MA", "display_address": ["660 Liberty St", "Springfield, MA 01103"]}, "phone": "+14137311529", "display_phone": "(413) 731-1529", "distance": 1752.7302424344484}, {"id": "vbIrtNH7tgqgiE_sSfdbqQ", "alias": "mamma-mias-pizzeria-springfield", "name": "Mamma Mia's Pizzeria", "image_url": "", "is_closed": false, "url": "https://www.yelp.com/biz/mamma-mias-pizzeria-springfield?adjust_creative=wVJJqwOt_3apsoGmwgRWnw&utm_campaign=yelp_api_v3&utm_medium=api_v3_business_search&utm_source=wVJJqwOt_3apsoGmwgRWnw", "review_count": 4, "categories": [{"alias": "pizza", "title": "Pizza"}], "rating": 1.5, "coordinates": {"latitude": 42.10292, "longitude": -72.5908199}, "transactions": ["delivery"], "price": "$$", "location": {"address1": "1441 Main St", "address2": "", "address3": "", "city": "Springfield", "zip_code": "01103", "country": "US", "state": "MA", "display_address": ["1441 Main St", "Springfield, MA 01103"]}, "phone": "+14134390330", "display_phone": "(413) 439-0330", "distance": 375.48460869295434}, {"id": "4z3OhokP-ePODjFZFhjRJQ", "alias": "mcdonalds-springfield-2", "name": "McDonald's", "image_url": "https://s3-media1.fl.yelpcdn.com/bphoto/gTs_749MhZ-ui1dnoW9xaw/o.jpg", "is_closed": false, "url": "https://www.yelp.com/biz/mcdonalds-springfield-2?adjust_creative=wVJJqwOt_3apsoGmwgRWnw&utm_campaign=yelp_api_v3&utm_medium=api_v3_business_search&utm_source=wVJJqwOt_3apsoGmwgRWnw", "review_count": 4, "categories": [{"alias": "hotdogs", "title": "Fast Food"}, {"alias": "burgers", "title": "Burgers"}, {"alias": "coffee", "title": "Coffee & Tea"}], "rating": 1.0, "coordinates": {"latitude": 42.0913937014037, "longitude": -72.580181658268}, "transactions": ["delivery"], "price": "$", "location": {"address1": "360 Main St", "address2": "", "address3": "", "city": "Springfield", "zip_code": "01105", "country": "US", "state": "MA", "display_address": ["360 Main St", "Springfield, MA 01105"]}, "phone": "+14137393534", "display_phone": "(413) 739-3534", "distance": 1919.9318065141144}, {"id": "u3fsgaL-Tc2faYA19Ct7pw", "alias": "springfield-pizza-and-fried-chicken-springfield", "name": "Springfield Pizza & Fried Chicken", "image_url": "", "is_closed": false, "url": "https://www.yelp.com/biz/springfield-pizza-and-fried-chicken-springfield?adjust_creative=wVJJqwOt_3apsoGmwgRWnw&utm_campaign=yelp_api_v3&utm_medium=api_v3_business_search&utm_source=wVJJqwOt_3apsoGmwgRWnw", "review_count": 2, "categories": [{"alias": "pizza", "title": "Pizza"}], "rating": 1.5, "coordinates": {"latitude": 42.098721, "longitude": -72.584335}, "transactions": ["pickup", "delivery"], "location": {"address1": "982 Main St", "address2": "", "address3": "", "city": "Springfield", "zip_code": "01105", "country": "US", "state": "MA", "display_address": ["982 Main St", "Springfield, MA 01105"]}, "phone": "", "display_phone": "", "distance": 1054.7233337457099}, {"id": "AYfXK2gzS9AgV_AON6McMQ", "alias": "mcdonalds-west-springfield", "name": "McDonald's", "image_url": "https://s3-media2.fl.yelpcdn.com/bphoto/3K3BxTyXfytR9NadA2pH5g/o.jpg", "is_closed": false, "url": "https://www.yelp.com/biz/mcdonalds-west-springfield?adjust_creative=wVJJqwOt_3apsoGmwgRWnw&utm_campaign=yelp_api_v3&utm_medium=api_v3_business_search&utm_source=wVJJqwOt_3apsoGmwgRWnw", "review_count": 14, "categories": [{"alias": "hotdogs", "title": "Fast Food"}, {"alias": "burgers", "title": "Burgers"}, {"alias": "coffee", "title": "Coffee & Tea"}], "rating": 1.5, "coordinates": {"latitude": 42.09558, "longitude": -72.60384}, "transactions": ["delivery"], "price": "$", "location": {"address1": "429 Memorial Ave", "address2": null, "address3": null, "city": "West Springfield", "zip_code": "01089", "country": "US", "state": "MA", "display_address": ["429 Memorial Ave", "West Springfield, MA 01089"]}, "phone": "+14137879951", "display_phone": "(413) 787-9951", "distance": 1505.1430733075729}, {"id": "Io4C5tUwnb_YzeaMXHBqBA", "alias": "shuckin-truck-narragansett-2", "name": "Shuckin Truck", "image_url": "https://s3-media2.fl.yelpcdn.com/bphoto/r7QRORfe9UYVS7GGzUm9DQ/o.jpg", "is_closed": false, "url": "https://www.yelp.com/biz/shuckin-truck-narragansett-2?adjust_creative=wVJJqwOt_3apsoGmwgRWnw&utm_campaign=yelp_api_v3&utm_medium=api_v3_business_search&utm_source=wVJJqwOt_3apsoGmwgRWnw", "review_count": 24, "categories": [{"alias": "foodtrucks", "title": "Food Trucks"}, {"alias": "seafood", "title": "Seafood"}], "rating": 4.5, "coordinates": {"latitude": 41.4274482727051, "longitude": -71.4597778320313}, "transactions": [], "price": "$$", "location": {"address1": "", "address2": "", "address3": "", "city": "Narragansett", "zip_code": "02882", "country": "US", "state": "RI", "display_address": ["Narragansett, RI 02882"]}, "phone": "+14017415953", "display_phone": "(401) 741-5953", "distance": 120689.74288997806}]