[{"id": "jwLPIWGACP3mDVqh-mflQw", "alias": "the-blue-rock-shelburne-falls-3", "name": "The Blue Rock", "image_url": "https://s3-media4.fl.yelpcdn.com/bphoto/-WTcjD8LT2yr9p1hu191fw/o.jpg", "is_closed": false, "url": "https://www.yelp.com/biz/the-blue-rock-shelburne-falls-3?adjust_creative=ywY5UnLZrNrRl2b93Ruy_g&utm_campaign=yelp_api_v3&utm_medium=api_v3_business_search&utm_source=ywY5UnLZrNrRl2b93Ruy_g", "review_count": 45, "categories": [{"alias": "newamerican", "title": "American (New)"}, {"alias": "cocktailbars", "title": "Cocktail Bars"}, {"alias": "beerbar", "title": "Beer Bar"}], "rating": 4.5, "coordinates": {"latitude": 42.6031535, "longitude": -72.7412502}, "transactions": [], "price": "$$", "location": {"address1": "1 Ashfield St", "address2": null, "address3": "", "city": "Shelburne Falls", "zip_code": "01370", "country": "US", "state": "MA", "display_address": ["1 Ashfield St", "Shelburne Falls, MA 01370"]}, "phone": "+14136258133", "display_phone": "(413) 625-8133", "distance": 11149.684131433789}, {"id": "oLM42PUJliWpu1_UN-G1fQ", "alias": "hearty-eats-shelburne-falls", "name": "Hearty Eats", "image_url": "https://s3-media4.fl.yelpcdn.com/bphoto/wjyt8KlfCKutpxkYg6F70Q/o.jpg", "is_closed": false, "url": "https://www.yelp.com/biz/hearty-eats-shelburne-falls?adjust_creative=ywY5UnLZrNrRl2b93Ruy_g&utm_campaign=yelp_api_v3&utm_medium=api_v3_business_search&utm_source=ywY5UnLZrNrRl2b93Ruy_g", "review_count": 79, "categories": [{"alias": "fishnchips", "title": "Fish & Chips"}, {"alias": "noodles", "title": "Noodles"}, {"alias": "indpak", "title": "Indian"}], "rating": 4.5, "coordinates": {"latitude": 42.6036331, "longitude": -72.7393198}, "transactions": [], "price": "$$", "location": {"address1": "24 Bridge St", "address2": null, "address3": "", "city": "Shelburne Falls", "zip_code": "01370", "country": "US", "state": "MA", "display_address": ["24 Bridge St", "Shelburne Falls, MA 01370"]}, "phone": "+14136256460", "display_phone": "(413) 625-6460", "distance": 11108.502537137845}, {"id": "JIUMuy58yl_k85Y_Fig7LQ", "alias": "el-sotano-shelburne", "name": "El Sotano", "image_url": "https://s3-media2.fl.yelpcdn.com/bphoto/CRDJumiKXIQXUhF2PlMGlA/o.jpg", "is_closed": false, "url": "https://www.yelp.com/biz/el-sotano-shelburne?adjust_creative=ywY5UnLZrNrRl2b93Ruy_g&utm_campaign=yelp_api_v3&utm_medium=api_v3_business_search&utm_source=ywY5UnLZrNrRl2b93Ruy_g", "review_count": 25, "categories": [{"alias": "mexican", "title": "Mexican"}], "rating": 4.5, "coordinates": {"latitude": 42.603818, "longitude": -72.739733}, "transactions": [], "location": {"address1": "10 Bridge St", "address2": null, "address3": "", "city": "Shelburne", "zip_code": "01370", "country": "US", "state": "MA", "display_address": ["10 Bridge St", "Shelburne, MA 01370"]}, "phone": "+14134893754", "display_phone": "(413) 489-3754", "distance": 11070.465013802092}, {"id": "cjeDbBpMLrjHMIeqHwU_jg", "alias": "west-end-pub-shelburne-falls", "name": "West End Pub", "image_url": "https://s3-media4.fl.yelpcdn.com/bphoto/AAWFoSbAVa7VtXW6U7uLVQ/o.jpg", "is_closed": false, "url": "https://www.yelp.com/biz/west-end-pub-shelburne-falls?adjust_creative=ywY5UnLZrNrRl2b93Ruy_g&utm_campaign=yelp_api_v3&utm_medium=api_v3_business_search&utm_source=ywY5UnLZrNrRl2b93Ruy_g", "review_count": 101, "categories": [{"alias": "tradamerican", "title": "American (Traditional)"}, {"alias": "pubs", "title": "Pubs"}, {"alias": "burgers", "title": "Burgers"}], "rating": 4.0, "coordinates": {"latitude": 42.603919, "longitude": -72.7413603}, "transactions": [], "price": "$$", "location": {"address1": "16 State St", "address2": "", "address3": "", "city": "Shelburne Falls", "zip_code": "01370", "country": "US", "state": "MA", "display_address": ["16 State St", "Shelburne Falls, MA 01370"]}, "phone": "+14136256216", "display_phone": "(413) 625-6216", "distance": 10989.414223093185}, {"id": "j057EY_SSVIsloTjYY_o1Q", "alias": "remedy-wine-bar-whitingham-2", "name": "Remedy Wine Bar", "image_url": "https://s3-media1.fl.yelpcdn.com/bphoto/7TkUBy5tca_8BsjhOCH0mQ/o.jpg", "is_closed": false, "url": "https://www.yelp.com/biz/remedy-wine-bar-whitingham-2?adjust_creative=ywY5UnLZrNrRl2b93Ruy_g&utm_campaign=yelp_api_v3&utm_medium=api_v3_business_search&utm_source=ywY5UnLZrNrRl2b93Ruy_g", "review_count": 6, "categories": [{"alias": "tapas", "title": "Tapas Bars"}, {"alias": "wine_bars", "title": "Wine Bars"}, {"alias": "cheese", "title": "Cheese Shops"}], "rating": 5.0, "coordinates": {"latitude": 42.79698, "longitude": -72.82185}, "transactions": [], "location": {"address1": "3090 Vt Route 100", "address2": "Ste A", "address3": "", "city": "Whitingham", "zip_code": "05342", "country": "US", "state": "VT", "display_address": ["3090 Vt Route 100", "Ste A", "Whitingham, VT 05342"]}, "phone": "+18026594480", "display_phone": "(802) 659-4480", "distance": 12317.926255845245}, {"id": "i1CPEJ_WsW-gzxcOGn6muw", "alias": "readsboro-readsboro-3", "name": "Readsboro", "image_url": "https://s3-media3.fl.yelpcdn.com/bphoto/p035R1BFn7zMwIhjaIW5FA/o.jpg", "is_closed": false, "url": "https://www.yelp.com/biz/readsboro-readsboro-3?adjust_creative=ywY5UnLZrNrRl2b93Ruy_g&utm_campaign=yelp_api_v3&utm_medium=api_v3_business_search&utm_source=ywY5UnLZrNrRl2b93Ruy_g", "review_count": 9, "categories": [{"alias": "hotels", "title": "Hotels"}, {"alias": "pubs", "title": "Pubs"}, {"alias": "pizza", "title": "Pizza"}], "rating": 5.0, "coordinates": {"latitude": 42.77203, "longitude": -72.94696}, "transactions": [], "price": "$$", "location": {"address1": "7077 Main St", "address2": "", "address3": "", "city": "Readsboro", "zip_code": "05350", "country": "US", "state": "VT", "display_address": ["7077 Main St", "Readsboro, VT 05350"]}, "phone": "+18024237077", "display_phone": "(802) 423-7077", "distance": 14368.586010507925}, {"id": "6E4Wd60NQcqPCGYtiKvbWg", "alias": "gypsy-apple-bistro-shelburne-falls", "name": "Gypsy Apple Bistro", "image_url": "https://s3-media4.fl.yelpcdn.com/bphoto/KyaQbCFI5yX1AnN-9q-bIg/o.jpg", "is_closed": false, "url": "https://www.yelp.com/biz/gypsy-apple-bistro-shelburne-falls?adjust_creative=ywY5UnLZrNrRl2b93Ruy_g&utm_campaign=yelp_api_v3&utm_medium=api_v3_business_search&utm_source=ywY5UnLZrNrRl2b93Ruy_g", "review_count": 37, "categories": [{"alias": "french", "title": "French"}, {"alias": "bars", "title": "Bars"}], "rating": 4.5, "coordinates": {"latitude": 42.6034651, "longitude": -72.7377135}, "transactions": [], "price": "$$$", "location": {"address1": "65 Bridge St", "address2": "", "address3": "", "city": "Shelburne Falls", "zip_code": "01370", "country": "US", "state": "MA", "display_address": ["65 Bridge St", "Shelburne Falls, MA 01370"]}, "phone": "+14136256345", "display_phone": "(413) 625-6345", "distance": 11175.23728596362}, {"id": "VvAcjLH87MhtrZC67tPpww", "alias": "cold-river-cafe-and-restaurant-charlemont", "name": "Cold River Cafe & Restaurant", "image_url": "https://s3-media2.fl.yelpcdn.com/bphoto/PV_66NvbKtHue0PFwzD6Eg/o.jpg", "is_closed": false, "url": "https://www.yelp.com/biz/cold-river-cafe-and-restaurant-charlemont?adjust_creative=ywY5UnLZrNrRl2b93Ruy_g&utm_campaign=yelp_api_v3&utm_medium=api_v3_business_search&utm_source=ywY5UnLZrNrRl2b93Ruy_g", "review_count": 48, "categories": [{"alias": "breakfast_brunch", "title": "Breakfast & Brunch"}, {"alias": "cafes", "title": "Cafes"}, {"alias": "pizza", "title": "Pizza"}], "rating": 3.5, "coordinates": {"latitude": 42.62666, "longitude": -72.88171}, "transactions": [], "price": "$$", "location": {"address1": "31A Main St", "address2": "", "address3": "", "city": "Charlemont", "zip_code": "01339", "country": "US", "state": "MA", "display_address": ["31A Main St", "Charlemont, MA 01339"]}, "phone": "+14133390000", "display_phone": "(413) 339-0000", "distance": 8584.347844186728}, {"id": "cSqUvTVIVcf0SxF2OnzQ4A", "alias": "delicatesse-shelburne-falls", "name": "Delicatesse", "image_url": "https://s3-media3.fl.yelpcdn.com/bphoto/QwYRU6Kwi9XUtW7cU1TMyw/o.jpg", "is_closed": false, "url": "https://www.yelp.com/biz/delicatesse-shelburne-falls?adjust_creative=ywY5UnLZrNrRl2b93Ruy_g&utm_campaign=yelp_api_v3&utm_medium=api_v3_business_search&utm_source=ywY5UnLZrNrRl2b93Ruy_g", "review_count": 15, "categories": [{"alias": "delis", "title": "Delis"}, {"alias": "cafes", "title": "Cafes"}, {"alias": "bagels", "title": "Bagels"}], "rating": 5.0, "coordinates": {"latitude": 42.6037749, "longitude": -72.7402612}, "transactions": [], "location": {"address1": "8 Bridge St", "address2": "", "address3": null, "city": "Shelburne Falls", "zip_code": "01370", "country": "US", "state": "MA", "display_address": ["8 Bridge St", "Shelburne Falls, MA 01370"]}, "phone": "+14134893257", "display_phone": "(413) 489-3257", "distance": 11063.709796845487}, {"id": "GrjITzOl6sPP8DSv1RWxnw", "alias": "baked-shelburne-falls", "name": "Baked", "image_url": "https://s3-media4.fl.yelpcdn.com/bphoto/d3lzR8hA5CWajBKGBPND2A/o.jpg", "is_closed": false, "url": "https://www.yelp.com/biz/baked-shelburne-falls?adjust_creative=ywY5UnLZrNrRl2b93Ruy_g&utm_campaign=yelp_api_v3&utm_medium=api_v3_business_search&utm_source=ywY5UnLZrNrRl2b93Ruy_g", "review_count": 42, "categories": [{"alias": "cafes", "title": "Cafes"}, {"alias": "breakfast_brunch", "title": "Breakfast & Brunch"}, {"alias": "bakeries", "title": "Bakeries"}], "rating": 4.0, "coordinates": {"latitude": 42.6032697149586, "longitude": -72.7398762962963}, "transactions": [], "price": "$", "location": {"address1": "4 Deerfield Ave", "address2": "", "address3": null, "city": "Shelburne Falls", "zip_code": "01370", "country": "US", "state": "MA", "display_address": ["4 Deerfield Ave", "Shelburne Falls, MA 01370"]}, "phone": "+14134893139", "display_phone": "(413) 489-3139", "distance": 11116.692422068478}, {"id": "owKxbDnhxlBpqhcfiBjGiA", "alias": "berkshire-pizzeria-charlemont", "name": "Berkshire Pizzeria", "image_url": "https://s3-media1.fl.yelpcdn.com/bphoto/devT5oL9Ji6IwzHm5rv5sA/o.jpg", "is_closed": false, "url": "https://www.yelp.com/biz/berkshire-pizzeria-charlemont?adjust_creative=ywY5UnLZrNrRl2b93Ruy_g&utm_campaign=yelp_api_v3&utm_medium=api_v3_business_search&utm_source=ywY5UnLZrNrRl2b93Ruy_g", "review_count": 36, "categories": [{"alias": "pizza", "title": "Pizza"}, {"alias": "breakfast_brunch", "title": "Breakfast & Brunch"}, {"alias": "wraps", "title": "Wraps"}], "rating": 4.0, "coordinates": {"latitude": 42.6270903, "longitude": -72.8787897}, "transactions": [], "price": "$", "location": {"address1": "72 Main St", "address2": "", "address3": "", "city": "Charlemont", "zip_code": "01339", "country": "US", "state": "MA", "display_address": ["72 Main St", "Charlemont, MA 01339"]}, "phone": "+14133375501", "display_phone": "(413) 337-5501", "distance": 8394.616497254203}, {"id": "0xEKvNlbiPjEpNXeX02LJA", "alias": "buckland-pizza-shelburne-falls", "name": "Buckland Pizza", "image_url": "https://s3-media2.fl.yelpcdn.com/bphoto/n1hVQ3vVJQjfRA_Nfzt3og/o.jpg", "is_closed": false, "url": "https://www.yelp.com/biz/buckland-pizza-shelburne-falls?adjust_creative=ywY5UnLZrNrRl2b93Ruy_g&utm_campaign=yelp_api_v3&utm_medium=api_v3_business_search&utm_source=ywY5UnLZrNrRl2b93Ruy_g", "review_count": 22, "categories": [{"alias": "pizza", "title": "Pizza"}], "rating": 3.5, "coordinates": {"latitude": 42.6038289562622, "longitude": -72.7414358539614}, "transactions": [], "price": "$$", "location": {"address1": "13 State St", "address2": "", "address3": "", "city": "Shelburne Falls", "zip_code": "01370", "country": "US", "state": "MA", "display_address": ["13 State St", "Shelburne Falls, MA 01370"]}, "phone": "+14136256342", "display_phone": "(413) 625-6342", "distance": 10999.37168609687}, {"id": "X_gLEwRckCC3wGGVIGhvuQ", "alias": "crazy-horse-lounge-charlemont", "name": "crazy horse lounge", "image_url": "https://s3-media2.fl.yelpcdn.com/bphoto/sh9BCRP3oQ9exZUdvJRQsw/o.jpg", "is_closed": false, "url": "https://www.yelp.com/biz/crazy-horse-lounge-charlemont?adjust_creative=ywY5UnLZrNrRl2b93Ruy_g&utm_campaign=yelp_api_v3&utm_medium=api_v3_business_search&utm_source=ywY5UnLZrNrRl2b93Ruy_g", "review_count": 1, "categories": [{"alias": "salad", "title": "Salad"}, {"alias": "cafes", "title": "Cafes"}], "rating": 3.0, "coordinates": {"latitude": 42.6225341098203, "longitude": -72.8777315857901}, "transactions": [], "location": {"address1": "66 S River Rd", "address2": "", "address3": "", "city": "Charlemont", "zip_code": "01339", "country": "US", "state": "MA", "display_address": ["66 S River Rd", "Charlemont, MA 01339"]}, "phone": "+14133396617", "display_phone": "(413) 339-6617", "distance": 8747.734893395806}, {"id": "M-DCwXS6_O-rOVJAxr3ofw", "alias": "kobe-hibachi-sushi-and-bar-greenfield-2", "name": "Kobe Hibachi Sushi and Bar", "image_url": "https://s3-media1.fl.yelpcdn.com/bphoto/zBcLhfB-95e9l01Zykb7Cg/o.jpg", "is_closed": false, "url": "https://www.yelp.com/biz/kobe-hibachi-sushi-and-bar-greenfield-2?adjust_creative=ywY5UnLZrNrRl2b93Ruy_g&utm_campaign=yelp_api_v3&utm_medium=api_v3_business_search&utm_source=ywY5UnLZrNrRl2b93Ruy_g", "review_count": 54, "categories": [{"alias": "japanese", "title": "Japanese"}, {"alias": "sushi", "title": "Sushi Bars"}, {"alias": "cocktailbars", "title": "Cocktail Bars"}], "rating": 3.5, "coordinates": {"latitude": 42.5863135, "longitude": -72.6271816}, "transactions": ["pickup"], "price": "$$", "location": {"address1": "254 Mohawk Trl", "address2": null, "address3": "", "city": "Greenfield", "zip_code": "01301", "country": "US", "state": "MA", "display_address": ["254 Mohawk Trl", "Greenfield, MA 01301"]}, "phone": "+14137728888", "display_phone": "(413) 772-8888", "distance": 19042.272567355278}, {"id": "W4sLmaC91ain7-EIW6rJhg", "alias": "99-restaurants-greenfield", "name": "99 Restaurants", "image_url": "https://s3-media1.fl.yelpcdn.com/bphoto/O1tqImdbBB0XmapA_c5vUQ/o.jpg", "is_closed": false, "url": "https://www.yelp.com/biz/99-restaurants-greenfield?adjust_creative=ywY5UnLZrNrRl2b93Ruy_g&utm_campaign=yelp_api_v3&utm_medium=api_v3_business_search&utm_source=ywY5UnLZrNrRl2b93Ruy_g", "review_count": 38, "categories": [{"alias": "pubs", "title": "Pubs"}, {"alias": "tradamerican", "title": "American (Traditional)"}], "rating": 4.0, "coordinates": {"latitude": 42.586313, "longitude": -72.623546}, "transactions": [], "price": "$$", "location": {"address1": "17 Colrain Rd", "address2": null, "address3": null, "city": "Greenfield", "zip_code": "01301", "country": "US", "state": "MA", "display_address": ["17 Colrain Rd", "Greenfield, MA 01301"]}, "phone": "+14137759997", "display_phone": "(413) 775-9997", "distance": 19236.22831598757}, {"id": "4qQyegUA1-1WFuY3MSmngw", "alias": "davenport-maple-farm-shelburne-falls", "name": "Davenport Maple Farm", "image_url": "https://s3-media3.fl.yelpcdn.com/bphoto/e-QMQdijvVHP6rbQDd4QAA/o.jpg", "is_closed": false, "url": "https://www.yelp.com/biz/davenport-maple-farm-shelburne-falls?adjust_creative=ywY5UnLZrNrRl2b93Ruy_g&utm_campaign=yelp_api_v3&utm_medium=api_v3_business_search&utm_source=ywY5UnLZrNrRl2b93Ruy_g", "review_count": 8, "categories": [{"alias": "breakfast_brunch", "title": "Breakfast & Brunch"}, {"alias": "waffles", "title": "Waffles"}], "rating": 3.5, "coordinates": {"latitude": 42.61168, "longitude": -72.70595}, "transactions": [], "price": "$$", "location": {"address1": "111 Tower Rd", "address2": null, "address3": null, "city": "Shelburne Falls", "zip_code": "01370", "country": "US", "state": "MA", "display_address": ["111 Tower Rd", "Shelburne Falls, MA 01370"]}, "phone": "+14136252866", "display_phone": "(413) 625-2866", "distance": 11652.127356080333}, {"id": "F60ZshsheJZSuxb3fpeFtw", "alias": "china-gourmet-greenfield-2", "name": "China Gourmet", "image_url": "https://s3-media2.fl.yelpcdn.com/bphoto/dX3zEIx-W2C6hWmklUr6hA/o.jpg", "is_closed": false, "url": "https://www.yelp.com/biz/china-gourmet-greenfield-2?adjust_creative=ywY5UnLZrNrRl2b93Ruy_g&utm_campaign=yelp_api_v3&utm_medium=api_v3_business_search&utm_source=ywY5UnLZrNrRl2b93Ruy_g", "review_count": 68, "categories": [{"alias": "chinese", "title": "Chinese"}, {"alias": "japanese", "title": "Japanese"}], "rating": 3.0, "coordinates": {"latitude": 42.5846366882324, "longitude": -72.6142959594727}, "transactions": ["delivery"], "price": "$$", "location": {"address1": "78 Mohawk Trl", "address2": null, "address3": "", "city": "Greenfield", "zip_code": "01301", "country": "US", "state": "MA", "display_address": ["78 Mohawk Trl", "Greenfield, MA 01301"]}, "phone": "+14137742299", "display_phone": "(413) 774-2299", "distance": 19959.642342598097}, {"id": "kSfRRZjAFrZamQu4PpKt9w", "alias": "always-emmas-cafe-readsboro", "name": "Always Emma's Cafe", "image_url": "https://s3-media1.fl.yelpcdn.com/bphoto/bHUqvq-3UJVvQ3CxW5bJ1g/o.jpg", "is_closed": false, "url": "https://www.yelp.com/biz/always-emmas-cafe-readsboro?adjust_creative=ywY5UnLZrNrRl2b93Ruy_g&utm_campaign=yelp_api_v3&utm_medium=api_v3_business_search&utm_source=ywY5UnLZrNrRl2b93Ruy_g", "review_count": 1, "categories": [{"alias": "breakfast_brunch", "title": "Breakfast & Brunch"}, {"alias": "cafes", "title": "Cafes"}], "rating": 3.0, "coordinates": {"latitude": 42.7726489347448, "longitude": -72.9493790119886}, "transactions": [], "location": {"address1": "Main St", "address2": "", "address3": null, "city": "Readsboro", "zip_code": "05350", "country": "US", "state": "VT", "display_address": ["Main St", "Readsboro, VT 05350"]}, "phone": "+18024237512", "display_phone": "(802) 423-7512", "distance": 14553.816815481641}, {"id": "Xw5Gz7kiqxN34K8vjslNAQ", "alias": "new-fortune-chinese-restaurant-greenfield", "name": "New Fortune Chinese Restaurant", "image_url": "https://s3-media2.fl.yelpcdn.com/bphoto/ftAnKqMowdiOo9CXaIgZAg/o.jpg", "is_closed": false, "url": "https://www.yelp.com/biz/new-fortune-chinese-restaurant-greenfield?adjust_creative=ywY5UnLZrNrRl2b93Ruy_g&utm_campaign=yelp_api_v3&utm_medium=api_v3_business_search&utm_source=ywY5UnLZrNrRl2b93Ruy_g", "review_count": 37, "categories": [{"alias": "chinese", "title": "Chinese"}, {"alias": "sushi", "title": "Sushi Bars"}, {"alias": "japanese", "title": "Japanese"}], "rating": 3.5, "coordinates": {"latitude": 42.587352, "longitude": -72.626241}, "transactions": ["delivery"], "price": "$$", "location": {"address1": "249 Mohawk Trl", "address2": "", "address3": "", "city": "Greenfield", "zip_code": "01301", "country": "US", "state": "MA", "display_address": ["249 Mohawk Trl", "Greenfield, MA 01301"]}, "phone": "+14137720838", "display_phone": "(413) 772-0838", "distance": 18989.50317946212}, {"id": "b-LHyJufYxVTDZZYgsC5zg", "alias": "applebees-grill-bar-greenfield-2", "name": "Applebee's Grill + Bar", "image_url": "https://s3-media3.fl.yelpcdn.com/bphoto/uspV9fyAGPPDasqqxw9JuQ/o.jpg", "is_closed": false, "url": "https://www.yelp.com/biz/applebees-grill-bar-greenfield-2?adjust_creative=ywY5UnLZrNrRl2b93Ruy_g&utm_campaign=yelp_api_v3&utm_medium=api_v3_business_search&utm_source=ywY5UnLZrNrRl2b93Ruy_g", "review_count": 31, "categories": [{"alias": "tradamerican", "title": "American (Traditional)"}, {"alias": "sportsbars", "title": "Sports Bars"}, {"alias": "burgers", "title": "Burgers"}], "rating": 3.5, "coordinates": {"latitude": 42.585115, "longitude": -72.618677}, "transactions": [], "price": "$$", "location": {"address1": "141 Mohawk Trl", "address2": "", "address3": "", "city": "Greenfield", "zip_code": "01301", "country": "US", "state": "MA", "display_address": ["141 Mohawk Trl", "Greenfield, MA 01301"]}, "phone": "+14137720079", "display_phone": "(413) 772-0079", "distance": 19638.64706431331}, {"id": "vie_fCh-eUqGfKNiNVjFow", "alias": "foxtown-diner-shelburne-falls", "name": "Foxtown Diner", "image_url": "https://s3-media2.fl.yelpcdn.com/bphoto/6w_uOYWUsL-1xZUOZtd9BA/o.jpg", "is_closed": false, "url": "https://www.yelp.com/biz/foxtown-diner-shelburne-falls?adjust_creative=ywY5UnLZrNrRl2b93Ruy_g&utm_campaign=yelp_api_v3&utm_medium=api_v3_business_search&utm_source=ywY5UnLZrNrRl2b93Ruy_g", "review_count": 35, "categories": [{"alias": "sandwiches", "title": "Sandwiches"}, {"alias": "breakfast_brunch", "title": "Breakfast & Brunch"}, {"alias": "burgers", "title": "Burgers"}], "rating": 4.0, "coordinates": {"latitude": 42.603473, "longitude": -72.739337}, "transactions": [], "price": "$", "location": {"address1": "25 Bridge St", "address2": "", "address3": "", "city": "Shelburne Falls", "zip_code": "01370", "country": "US", "state": "MA", "display_address": ["25 Bridge St", "Shelburne Falls, MA 01370"]}, "phone": "+14136256606", "display_phone": "(413) 625-6606", "distance": 11128.355714143938}, {"id": "rSvNQylLO9N4UZxQ0yYnCQ", "alias": "shelburne-falls-coffee-roasters-shelburne-falls-2", "name": "Shelburne Falls Coffee Roasters", "image_url": "https://s3-media1.fl.yelpcdn.com/bphoto/M-wag8ZOGwBN2QvA3D9LyQ/o.jpg", "is_closed": false, "url": "https://www.yelp.com/biz/shelburne-falls-coffee-roasters-shelburne-falls-2?adjust_creative=ywY5UnLZrNrRl2b93Ruy_g&utm_campaign=yelp_api_v3&utm_medium=api_v3_business_search&utm_source=ywY5UnLZrNrRl2b93Ruy_g", "review_count": 34, "categories": [{"alias": "sandwiches", "title": "Sandwiches"}, {"alias": "coffeeroasteries", "title": "Coffee Roasteries"}, {"alias": "bagels", "title": "Bagels"}], "rating": 4.5, "coordinates": {"latitude": 42.610488, "longitude": -72.66992}, "transactions": [], "price": "$", "location": {"address1": "1207 Mohawk Trl", "address2": "", "address3": "", "city": "Shelburne Falls", "zip_code": "01370", "country": "US", "state": "MA", "display_address": ["1207 Mohawk Trl", "Shelburne Falls, MA 01370"]}, "phone": "+14136250116", "display_phone": "(413) 625-0116", "distance": 14550.787025882652}, {"id": "gCdtxabLxonlb7CtJK-Z-w", "alias": "d-angelo-greenfield-2", "name": "D'Angelo", "image_url": "https://s3-media2.fl.yelpcdn.com/bphoto/HHatphW_HpX1SDsDCrngDw/o.jpg", "is_closed": false, "url": "https://www.yelp.com/biz/d-angelo-greenfield-2?adjust_creative=ywY5UnLZrNrRl2b93Ruy_g&utm_campaign=yelp_api_v3&utm_medium=api_v3_business_search&utm_source=ywY5UnLZrNrRl2b93Ruy_g", "review_count": 10, "categories": [{"alias": "sandwiches", "title": "Sandwiches"}], "rating": 4.0, "coordinates": {"latitude": 42.5848445086586, "longitude": -72.6141382441874}, "transactions": [], "price": "$$", "location": {"address1": "68 Mohawk Trl", "address2": "", "address3": "", "city": "Greenfield", "zip_code": "01301", "country": "US", "state": "MA", "display_address": ["68 Mohawk Trl", "Greenfield, MA 01301"]}, "phone": "+14137742106", "display_phone": "(413) 774-2106", "distance": 19960.941619234894}, {"id": "-cTZN8UAmWz98p492Y_OMw", "alias": "friendlys-greenfield-2", "name": "Friendly's", "image_url": "https://s3-media3.fl.yelpcdn.com/bphoto/R8N4TORIBSgbhC1_DRsLZg/o.jpg", "is_closed": false, "url": "https://www.yelp.com/biz/friendlys-greenfield-2?adjust_creative=ywY5UnLZrNrRl2b93Ruy_g&utm_campaign=yelp_api_v3&utm_medium=api_v3_business_search&utm_source=ywY5UnLZrNrRl2b93Ruy_g", "review_count": 54, "categories": [{"alias": "icecream", "title": "Ice Cream & Frozen Yogurt"}, {"alias": "tradamerican", "title": "American (Traditional)"}, {"alias": "burgers", "title": "Burgers"}], "rating": 2.0, "coordinates": {"latitude": 42.5852699, "longitude": -72.6235962}, "transactions": [], "price": "$$", "location": {"address1": "200 Mohawk Trl", "address2": null, "address3": null, "city": "Greenfield", "zip_code": "01301", "country": "US", "state": "MA", "display_address": ["200 Mohawk Trl", "Greenfield, MA 01301"]}, "phone": "+14137745435", "display_phone": "(413) 774-5435", "distance": 19296.374386835978}, {"id": "eolu_9FB74AaXHlgwYwQyw", "alias": "goulds-sugar-house-shelburne-falls", "name": "Gould's Sugar House", "image_url": "https://s3-media2.fl.yelpcdn.com/bphoto/hZVhRfCmNWWgCkjJf5VWBw/o.jpg", "is_closed": false, "url": "https://www.yelp.com/biz/goulds-sugar-house-shelburne-falls?adjust_creative=ywY5UnLZrNrRl2b93Ruy_g&utm_campaign=yelp_api_v3&utm_medium=api_v3_business_search&utm_source=ywY5UnLZrNrRl2b93Ruy_g", "review_count": 44, "categories": [{"alias": "gourmet", "title": "Specialty Food"}, {"alias": "breakfast_brunch", "title": "Breakfast & Brunch"}], "rating": 4.5, "coordinates": {"latitude": 42.584024, "longitude": -72.708754}, "transactions": [], "price": "$$", "location": {"address1": "570 Mohawk Trl", "address2": "", "address3": "", "city": "Shelburne Falls", "zip_code": "01370", "country": "US", "state": "MA", "display_address": ["570 Mohawk Trl", "Shelburne Falls, MA 01370"]}, "phone": "+14136256170", "display_phone": "(413) 625-6170", "distance": 14340.720497509757}, {"id": "mlDZf-GdNIaW5ToE3AR9CA", "alias": "subway-greenfield-20", "name": "Subway", "image_url": "https://s3-media2.fl.yelpcdn.com/bphoto/J25dG23zDO2UgNa3-tc9fw/o.jpg", "is_closed": false, "url": "https://www.yelp.com/biz/subway-greenfield-20?adjust_creative=ywY5UnLZrNrRl2b93Ruy_g&utm_campaign=yelp_api_v3&utm_medium=api_v3_business_search&utm_source=ywY5UnLZrNrRl2b93Ruy_g", "review_count": 3, "categories": [{"alias": "sandwiches", "title": "Sandwiches"}], "rating": 2.0, "coordinates": {"latitude": 42.5873648, "longitude": -72.626196}, "transactions": [], "price": "$", "location": {"address1": "251 Mohawk Trail", "address2": "", "address3": "Greenfield Plz S C", "city": "Greenfield", "zip_code": "01301", "country": "US", "state": "MA", "display_address": ["251 Mohawk Trail", "Greenfield Plz S C", "Greenfield, MA 01301"]}, "phone": "+14137743636", "display_phone": "(413) 774-3636", "distance": 18991.674737974863}, {"id": "VcKnHfkBxXSqPd_a1TJa2Q", "alias": "kfc-greenfield-4", "name": "KFC", "image_url": "https://s3-media4.fl.yelpcdn.com/bphoto/zRrjKWbYcRMZx7xjAgBC5g/o.jpg", "is_closed": false, "url": "https://www.yelp.com/biz/kfc-greenfield-4?adjust_creative=ywY5UnLZrNrRl2b93Ruy_g&utm_campaign=yelp_api_v3&utm_medium=api_v3_business_search&utm_source=ywY5UnLZrNrRl2b93Ruy_g", "review_count": 6, "categories": [{"alias": "hotdogs", "title": "Fast Food"}, {"alias": "chicken_wings", "title": "Chicken Wings"}, {"alias": "chickenshop", "title": "Chicken Shop"}], "rating": 1.5, "coordinates": {"latitude": 42.5857303098406, "longitude": -72.626232}, "transactions": ["delivery", "pickup"], "price": "$", "location": {"address1": "242 Mohawk Trl", "address2": null, "address3": null, "city": "Greenfield", "zip_code": "01301", "country": "US", "state": "MA", "display_address": ["242 Mohawk Trl", "Greenfield, MA 01301"]}, "phone": "+14137747869", "display_phone": "(413) 774-7869", "distance": 19095.441210648463}, {"id": "9gUZ2bgnsPRtihya9yvzVg", "alias": "taco-bell-greenfield", "name": "Taco Bell", "image_url": "https://s3-media1.fl.yelpcdn.com/bphoto/ogHV-spWv4efdk7MthVOLw/o.jpg", "is_closed": false, "url": "https://www.yelp.com/biz/taco-bell-greenfield?adjust_creative=ywY5UnLZrNrRl2b93Ruy_g&utm_campaign=yelp_api_v3&utm_medium=api_v3_business_search&utm_source=ywY5UnLZrNrRl2b93Ruy_g", "review_count": 14, "categories": [{"alias": "hotdogs", "title": "Fast Food"}, {"alias": "tacos", "title": "Tacos"}], "rating": 1.0, "coordinates": {"latitude": 42.586462, "longitude": -72.627696}, "transactions": [], "price": "$", "location": {"address1": "242 Mohawk Trail", "address2": "", "address3": "", "city": "Greenfield", "zip_code": "01301", "country": "US", "state": "MA", "display_address": ["242 Mohawk Trail", "Greenfield, MA 01301"]}, "phone": "+14137747869", "display_phone": "(413) 774-7869", "distance": 18950.651480855384}, {"id": "7IOS0bILt7y2-6eiiXxJRg", "alias": "mcdonalds-greenfield", "name": "McDonald's", "image_url": "https://s3-media4.fl.yelpcdn.com/bphoto/RUa3FiH2Cx7jHuH740Rw8Q/o.jpg", "is_closed": false, "url": "https://www.yelp.com/biz/mcdonalds-greenfield?adjust_creative=ywY5UnLZrNrRl2b93Ruy_g&utm_campaign=yelp_api_v3&utm_medium=api_v3_business_search&utm_source=ywY5UnLZrNrRl2b93Ruy_g", "review_count": 19, "categories": [{"alias": "hotdogs", "title": "Fast Food"}, {"alias": "burgers", "title": "Burgers"}, {"alias": "coffee", "title": "Coffee & Tea"}], "rating": 2.5, "coordinates": {"latitude": 42.5854669, "longitude": -72.6247290475385}, "transactions": [], "price": "$", "location": {"address1": "208 Mohawk Trl", "address2": "", "address3": "", "city": "Greenfield", "zip_code": "01301", "country": "US", "state": "MA", "display_address": ["208 Mohawk Trl", "Greenfield, MA 01301"]}, "phone": "+14137745311", "display_phone": "(413) 774-5311", "distance": 19212.294750439487}, {"id": "qqA8YX58xnmEXLyanHfdUg", "alias": "stufd-food-truck-brooklyn", "name": "Stuf'd Food Truck", "image_url": "https://s3-media2.fl.yelpcdn.com/bphoto/_Wn0i-tLIOFinw8BPAqxPA/o.jpg", "is_closed": false, "url": "https://www.yelp.com/biz/stufd-food-truck-brooklyn?adjust_creative=ywY5UnLZrNrRl2b93Ruy_g&utm_campaign=yelp_api_v3&utm_medium=api_v3_business_search&utm_source=ywY5UnLZrNrRl2b93Ruy_g", "review_count": 4, "categories": [{"alias": "sandwiches", "title": "Sandwiches"}, {"alias": "foodtrucks", "title": "Food Trucks"}], "rating": 4.0, "coordinates": {"latitude": 40.7124539, "longitude": -73.9287374}, "transactions": [], "location": {"address1": "178 Varick Ave", "address2": "", "address3": null, "city": "Brooklyn", "zip_code": "11237", "country": "US", "state": "NY", "display_address": ["178 Varick Ave", "Brooklyn, NY 11237"]}, "phone": "+18457091808", "display_phone": "(845) 709-1808", "distance": 238160.25300209227}]