[{"id": "gJeTDn1BUdcbyotYFyTRiA", "alias": "nudel-lenox", "name": "Nudel", "image_url": "https://s3-media1.fl.yelpcdn.com/bphoto/wAMoTy4KTYYaLoQcXr_8yA/o.jpg", "is_closed": false, "url": "https://www.yelp.com/biz/nudel-lenox?adjust_creative=ywY5UnLZrNrRl2b93Ruy_g&utm_campaign=yelp_api_v3&utm_medium=api_v3_business_search&utm_source=ywY5UnLZrNrRl2b93Ruy_g", "review_count": 277, "categories": [{"alias": "newamerican", "title": "American (New)"}], "rating": 4.5, "coordinates": {"latitude": 42.3573399, "longitude": -73.2832715}, "transactions": ["restaurant_reservation", "delivery"], "price": "$$$", "location": {"address1": "37 Church St", "address2": null, "address3": null, "city": "Lenox", "zip_code": "01240", "country": "US", "state": "MA", "display_address": ["37 Church St", "Lenox, MA 01240"]}, "phone": "+14135517183", "display_phone": "(413) 551-7183", "distance": 7105.929847692341}, {"id": "YYArsKISWhpsOSyO3Yh93w", "alias": "brava-lenox", "name": "Brava", "image_url": "https://s3-media2.fl.yelpcdn.com/bphoto/5mjmMq-ftS5-EzpwVnpTfQ/o.jpg", "is_closed": false, "url": "https://www.yelp.com/biz/brava-lenox?adjust_creative=ywY5UnLZrNrRl2b93Ruy_g&utm_campaign=yelp_api_v3&utm_medium=api_v3_business_search&utm_source=ywY5UnLZrNrRl2b93Ruy_g", "review_count": 196, "categories": [{"alias": "bars", "title": "Bars"}, {"alias": "italian", "title": "Italian"}], "rating": 4.5, "coordinates": {"latitude": 42.357857, "longitude": -73.283105}, "transactions": ["delivery"], "price": "$$", "location": {"address1": "27 Housatonic St", "address2": "", "address3": "", "city": "Lenox", "zip_code": "01240", "country": "US", "state": "MA", "display_address": ["27 Housatonic St", "Lenox, MA 01240"]}, "phone": "+14136379171", "display_phone": "(413) 637-9171", "distance": 7097.127632605082}, {"id": "Uup9c0pISgIdS8ra98H97A", "alias": "rouge-restaurant-and-bistro-west-stockbridge", "name": "Rouge Restaurant & Bistro", "image_url": "https://s3-media2.fl.yelpcdn.com/bphoto/JtcWlJS09JY1G_IbAxn93Q/o.jpg", "is_closed": false, "url": "https://www.yelp.com/biz/rouge-restaurant-and-bistro-west-stockbridge?adjust_creative=ywY5UnLZrNrRl2b93Ruy_g&utm_campaign=yelp_api_v3&utm_medium=api_v3_business_search&utm_source=ywY5UnLZrNrRl2b93Ruy_g", "review_count": 108, "categories": [{"alias": "newamerican", "title": "American (New)"}, {"alias": "french", "title": "French"}], "rating": 4.0, "coordinates": {"latitude": 42.33366, "longitude": -73.36783}, "transactions": [], "price": "$$$", "location": {"address1": "3 Center St", "address2": "", "address3": "", "city": "West Stockbridge", "zip_code": "01266", "country": "US", "state": "MA", "display_address": ["3 Center St", "West Stockbridge, MA 01266"]}, "phone": "+14132324111", "display_phone": "(413) 232-4111", "distance": 5811.506614839299}, {"id": "Aj3tRLhyQYIzSbh8kLvEdA", "alias": "alta-restaurant-and-wine-bar-lenox", "name": "Alta Restaurant & Wine Bar", "image_url": "https://s3-media2.fl.yelpcdn.com/bphoto/c7-dhTmWiV7CRBN2BAZCdA/o.jpg", "is_closed": false, "url": "https://www.yelp.com/biz/alta-restaurant-and-wine-bar-lenox?adjust_creative=ywY5UnLZrNrRl2b93Ruy_g&utm_campaign=yelp_api_v3&utm_medium=api_v3_business_search&utm_source=ywY5UnLZrNrRl2b93Ruy_g", "review_count": 239, "categories": [{"alias": "newamerican", "title": "American (New)"}, {"alias": "wine_bars", "title": "Wine Bars"}, {"alias": "breakfast_brunch", "title": "Breakfast & Brunch"}], "rating": 4.5, "coordinates": {"latitude": 42.35731, "longitude": -73.28289}, "transactions": ["delivery"], "price": "$$$", "location": {"address1": "34 Church St", "address2": "", "address3": "", "city": "Lenox", "zip_code": "01240", "country": "US", "state": "MA", "display_address": ["34 Church St", "Lenox, MA 01240"]}, "phone": "+14136370003", "display_phone": "(413) 637-0003", "distance": 7142.983418163773}, {"id": "CmetvmovgfbsDICV_eKrCw", "alias": "battistas-international-house-of-tacos-pittsfield-2", "name": "Battista's International House of Tacos", "image_url": "https://s3-media1.fl.yelpcdn.com/bphoto/mzrKTjU0GxOy0JRvsLv4JA/o.jpg", "is_closed": false, "url": "https://www.yelp.com/biz/battistas-international-house-of-tacos-pittsfield-2?adjust_creative=ywY5UnLZrNrRl2b93Ruy_g&utm_campaign=yelp_api_v3&utm_medium=api_v3_business_search&utm_source=ywY5UnLZrNrRl2b93Ruy_g", "review_count": 93, "categories": [{"alias": "tacos", "title": "Tacos"}], "rating": 4.5, "coordinates": {"latitude": 42.436264997064, "longitude": -73.3062452450395}, "transactions": ["delivery"], "price": "$", "location": {"address1": "1231 W Housatonic St", "address2": "", "address3": null, "city": "Pittsfield", "zip_code": "01201", "country": "US", "state": "MA", "display_address": ["1231 W Housatonic St", "Pittsfield, MA 01201"]}, "phone": "+14134648654", "display_phone": "(413) 464-8654", "distance": 7194.053728223363}, {"id": "Cf0M6Q1TguRB3Ax_nplI1Q", "alias": "taphouse-at-shaker-mill-west-stockbridge", "name": "Taphouse at Shaker Mill", "image_url": "https://s3-media1.fl.yelpcdn.com/bphoto/iY6FuI9yljD1rgY1XDmbuQ/o.jpg", "is_closed": false, "url": "https://www.yelp.com/biz/taphouse-at-shaker-mill-west-stockbridge?adjust_creative=ywY5UnLZrNrRl2b93Ruy_g&utm_campaign=yelp_api_v3&utm_medium=api_v3_business_search&utm_source=ywY5UnLZrNrRl2b93Ruy_g", "review_count": 7, "categories": [{"alias": "tradamerican", "title": "American (Traditional)"}], "rating": 2.5, "coordinates": {"latitude": 42.335416, "longitude": -73.369229}, "transactions": [], "location": {"address1": "5 Albany Rd", "address2": "", "address3": null, "city": "West Stockbridge", "zip_code": "01266", "country": "US", "state": "MA", "display_address": ["5 Albany Rd", "West Stockbridge, MA 01266"]}, "phone": "+14132328565", "display_phone": "(413) 232-8565", "distance": 5633.0370291123745}, {"id": "65s9bAD_XRYN9kGDlx2SYA", "alias": "backwater-grille-canaan-2", "name": "Backwater Grille", "image_url": "https://s3-media1.fl.yelpcdn.com/bphoto/6sJYu-JV2x4zPO1KWY5cBA/o.jpg", "is_closed": false, "url": "https://www.yelp.com/biz/backwater-grille-canaan-2?adjust_creative=ywY5UnLZrNrRl2b93Ruy_g&utm_campaign=yelp_api_v3&utm_medium=api_v3_business_search&utm_source=ywY5UnLZrNrRl2b93Ruy_g", "review_count": 61, "categories": [{"alias": "tradamerican", "title": "American (Traditional)"}, {"alias": "bars", "title": "Bars"}], "rating": 3.0, "coordinates": {"latitude": 42.4040076, "longitude": -73.4250459}, "transactions": [], "price": "$$", "location": {"address1": "42 Queechy Lake Dr", "address2": "", "address3": "", "city": "Canaan", "zip_code": "12029", "country": "US", "state": "NY", "display_address": ["42 Queechy Lake Dr", "Canaan, NY 12029"]}, "phone": "+15187810199", "display_phone": "(518) 781-0199", "distance": 5651.259315796642}, {"id": "XZzN-OoOF8BuVrmNz9SvvA", "alias": "six-depot-roastery-and-cafe-west-stockbridge", "name": "Six Depot Roastery and Cafe", "image_url": "https://s3-media3.fl.yelpcdn.com/bphoto/FLh8_tCK2sEWDUTukPxbTQ/o.jpg", "is_closed": false, "url": "https://www.yelp.com/biz/six-depot-roastery-and-cafe-west-stockbridge?adjust_creative=ywY5UnLZrNrRl2b93Ruy_g&utm_campaign=yelp_api_v3&utm_medium=api_v3_business_search&utm_source=ywY5UnLZrNrRl2b93Ruy_g", "review_count": 186, "categories": [{"alias": "cafes", "title": "Cafes"}, {"alias": "coffeeroasteries", "title": "Coffee Roasteries"}], "rating": 4.5, "coordinates": {"latitude": 42.3339804633494, "longitude": -73.3684249511008}, "transactions": [], "price": "$$", "location": {"address1": "6 Depot St", "address2": "", "address3": "", "city": "West Stockbridge", "zip_code": "01266", "country": "US", "state": "MA", "display_address": ["6 Depot St", "West Stockbridge, MA 01266"]}, "phone": "+14132320205", "display_phone": "(413) 232-0205", "distance": 5781.316863501833}, {"id": "b__Dz9yt1BUcKlfwH02hng", "alias": "mazzeos-ristorante-pittsfield", "name": "Mazzeo's Ristorante", "image_url": "https://s3-media4.fl.yelpcdn.com/bphoto/qbpAa7i58lM4a8VQ5RYRjA/o.jpg", "is_closed": false, "url": "https://www.yelp.com/biz/mazzeos-ristorante-pittsfield?adjust_creative=ywY5UnLZrNrRl2b93Ruy_g&utm_campaign=yelp_api_v3&utm_medium=api_v3_business_search&utm_source=ywY5UnLZrNrRl2b93Ruy_g", "review_count": 142, "categories": [{"alias": "italian", "title": "Italian"}, {"alias": "gluten_free", "title": "Gluten-Free"}, {"alias": "bars", "title": "Bars"}], "rating": 3.5, "coordinates": {"latitude": 42.413089, "longitude": -73.260826}, "transactions": ["restaurant_reservation", "delivery"], "price": "$$$", "location": {"address1": "1015 South St", "address2": "", "address3": "", "city": "Pittsfield", "zip_code": "01201", "country": "US", "state": "MA", "display_address": ["1015 South St", "Pittsfield, MA 01201"]}, "phone": "+14134482095", "display_phone": "(413) 448-2095", "distance": 8674.805300570755}, {"id": "a3Y0KJZ0Xl3gzRysPO4prg", "alias": "wheatleigh-lenox", "name": "Wheatleigh", "image_url": "https://s3-media2.fl.yelpcdn.com/bphoto/A1J3Ld1Wz6DKPZZxOhYPaw/o.jpg", "is_closed": false, "url": "https://www.yelp.com/biz/wheatleigh-lenox?adjust_creative=ywY5UnLZrNrRl2b93Ruy_g&utm_campaign=yelp_api_v3&utm_medium=api_v3_business_search&utm_source=ywY5UnLZrNrRl2b93Ruy_g", "review_count": 32, "categories": [{"alias": "hotels", "title": "Hotels"}, {"alias": "french", "title": "French"}, {"alias": "newamerican", "title": "American (New)"}], "rating": 4.0, "coordinates": {"latitude": 42.3426224796575, "longitude": -73.3048152923584}, "transactions": [], "price": "$$$$", "location": {"address1": "11 Hawthorne Rd", "address2": "", "address3": "", "city": "Lenox", "zip_code": "01240", "country": "US", "state": "MA", "display_address": ["11 Hawthorne Rd", "Lenox, MA 01240"]}, "phone": "+14136370610", "display_phone": "(413) 637-0610", "distance": 6642.182874905056}, {"id": "oCsKQ2Ns4NZtIjvu4PODBg", "alias": "the-roasted-garlic-pittsfield", "name": "The Roasted Garlic", "image_url": "https://s3-media3.fl.yelpcdn.com/bphoto/9u5QaUpT90u9r2vCPL_oGA/o.jpg", "is_closed": false, "url": "https://www.yelp.com/biz/the-roasted-garlic-pittsfield?adjust_creative=ywY5UnLZrNrRl2b93Ruy_g&utm_campaign=yelp_api_v3&utm_medium=api_v3_business_search&utm_source=ywY5UnLZrNrRl2b93Ruy_g", "review_count": 116, "categories": [{"alias": "tradamerican", "title": "American (Traditional)"}, {"alias": "sportsbars", "title": "Sports Bars"}], "rating": 3.5, "coordinates": {"latitude": 42.44215, "longitude": -73.27677}, "transactions": ["delivery"], "price": "$$", "location": {"address1": "483 W Housatonic St", "address2": "", "address3": "", "city": "Pittsfield", "zip_code": "01201", "country": "US", "state": "MA", "display_address": ["483 W Housatonic St", "Pittsfield, MA 01201"]}, "phone": "+14134999910", "display_phone": "(413) 499-9910", "distance": 9338.068943614368}, {"id": "1y5jl7wdDoJ3RacNAcZreA", "alias": "olde-heritage-tavern-lenox", "name": "Olde Heritage Tavern", "image_url": "https://s3-media3.fl.yelpcdn.com/bphoto/6kOEapqe-SHI52hNBKbRwg/o.jpg", "is_closed": false, "url": "https://www.yelp.com/biz/olde-heritage-tavern-lenox?adjust_creative=ywY5UnLZrNrRl2b93Ruy_g&utm_campaign=yelp_api_v3&utm_medium=api_v3_business_search&utm_source=ywY5UnLZrNrRl2b93Ruy_g", "review_count": 144, "categories": [{"alias": "tradamerican", "title": "American (Traditional)"}, {"alias": "bars", "title": "Bars"}], "rating": 3.5, "coordinates": {"latitude": 42.357731, "longitude": -73.284032}, "transactions": ["delivery"], "price": "$$", "location": {"address1": "12 Housatonic St", "address2": "", "address3": "", "city": "Lenox", "zip_code": "01240", "country": "US", "state": "MA", "display_address": ["12 Housatonic St", "Lenox, MA 01240"]}, "phone": "+14136370884", "display_phone": "(413) 637-0884", "distance": 7035.562977440483}, {"id": "RtMPXedJocZX0VyTB3o6dQ", "alias": "smokey-divas-pittsfield", "name": "Smokey Divas", "image_url": "https://s3-media2.fl.yelpcdn.com/bphoto/eR_ibLv6mWTkZxRqHrL_FQ/o.jpg", "is_closed": false, "url": "https://www.yelp.com/biz/smokey-divas-pittsfield?adjust_creative=ywY5UnLZrNrRl2b93Ruy_g&utm_campaign=yelp_api_v3&utm_medium=api_v3_business_search&utm_source=ywY5UnLZrNrRl2b93Ruy_g", "review_count": 22, "categories": [{"alias": "bbq", "title": "Barbeque"}], "rating": 4.5, "coordinates": {"latitude": 42.4589165630306, "longitude": -73.2636564597487}, "transactions": ["delivery"], "location": {"address1": "239 Onota St", "address2": "", "address3": null, "city": "Pittsfield", "zip_code": "01201", "country": "US", "state": "MA", "display_address": ["239 Onota St", "Pittsfield, MA 01201"]}, "phone": "+14133444206", "display_phone": "(413) 344-4206", "distance": 11401.576794426503}, {"id": "n274ZafbV_1QppGfziIhtg", "alias": "village-harvest-cafe-pittsfield", "name": "Village Harvest Cafe", "image_url": "", "is_closed": false, "url": "https://www.yelp.com/biz/village-harvest-cafe-pittsfield?adjust_creative=ywY5UnLZrNrRl2b93Ruy_g&utm_campaign=yelp_api_v3&utm_medium=api_v3_business_search&utm_source=ywY5UnLZrNrRl2b93Ruy_g", "review_count": 5, "categories": [{"alias": "restaurants", "title": "Restaurants"}], "rating": 4.0, "coordinates": {"latitude": 42.4283104, "longitude": -73.3410721}, "transactions": [], "location": {"address1": "34 Lebanon Mtn Rd", "address2": null, "address3": null, "city": "Pittsfield", "zip_code": "01201", "country": "US", "state": "MA", "display_address": ["34 Lebanon Mtn Rd", "Pittsfield, MA 01201"]}, "phone": "+14134993434", "display_phone": "(413) 499-3434", "distance": 4648.7907854237665}, {"id": "Bqhtws5XxV3xtS8GitivdQ", "alias": "firefly-lenox", "name": "Firefly", "image_url": "https://s3-media1.fl.yelpcdn.com/bphoto/XHlGbpy1-XxX1T76rUGb4A/o.jpg", "is_closed": false, "url": "https://www.yelp.com/biz/firefly-lenox?adjust_creative=ywY5UnLZrNrRl2b93Ruy_g&utm_campaign=yelp_api_v3&utm_medium=api_v3_business_search&utm_source=ywY5UnLZrNrRl2b93Ruy_g", "review_count": 119, "categories": [{"alias": "newamerican", "title": "American (New)"}, {"alias": "comfortfood", "title": "Comfort Food"}, {"alias": "gastropubs", "title": "Gastropubs"}], "rating": 3.0, "coordinates": {"latitude": 42.359059665822, "longitude": -73.282512986181}, "transactions": ["delivery"], "price": "$$$", "location": {"address1": "71 Church St", "address2": "", "address3": "", "city": "Lenox", "zip_code": "01240", "country": "US", "state": "MA", "display_address": ["71 Church St", "Lenox, MA 01240"]}, "phone": "+14136372700", "display_phone": "(413) 637-2700", "distance": 7083.9798281602625}, {"id": "bwKFfSyhtACDwJJu1SX90Q", "alias": "mint-indian-lakeside-dining-lee", "name": "Mint - Indian Lakeside Dining", "image_url": "https://s3-media3.fl.yelpcdn.com/bphoto/9_C5f6ZUtfaNxhaLothc1Q/o.jpg", "is_closed": false, "url": "https://www.yelp.com/biz/mint-indian-lakeside-dining-lee?adjust_creative=ywY5UnLZrNrRl2b93Ruy_g&utm_campaign=yelp_api_v3&utm_medium=api_v3_business_search&utm_source=ywY5UnLZrNrRl2b93Ruy_g", "review_count": 113, "categories": [{"alias": "indpak", "title": "Indian"}], "rating": 3.5, "coordinates": {"latitude": 42.32158, "longitude": -73.25985}, "transactions": ["pickup"], "price": "$$", "location": {"address1": "435 Laurel St", "address2": null, "address3": "", "city": "Lee", "zip_code": "01238", "country": "US", "state": "MA", "display_address": ["435 Laurel St", "Lee, MA 01238"]}, "phone": "+14132436731", "display_phone": "(413) 243-6731", "distance": 10925.8509387352}, {"id": "Phznchi6ENLtuFJ8mw7hQw", "alias": "frankies-ristorante-italiano-lenox", "name": "Frankie's Ristorante Italiano", "image_url": "https://s3-media3.fl.yelpcdn.com/bphoto/EwMJTuzSxAN5joXKplYbzA/o.jpg", "is_closed": false, "url": "https://www.yelp.com/biz/frankies-ristorante-italiano-lenox?adjust_creative=ywY5UnLZrNrRl2b93Ruy_g&utm_campaign=yelp_api_v3&utm_medium=api_v3_business_search&utm_source=ywY5UnLZrNrRl2b93Ruy_g", "review_count": 83, "categories": [{"alias": "italian", "title": "Italian"}, {"alias": "wine_bars", "title": "Wine Bars"}], "rating": 3.5, "coordinates": {"latitude": 42.35926, "longitude": -73.28348}, "transactions": ["delivery"], "price": "$$", "location": {"address1": "80 Main St", "address2": "", "address3": "", "city": "Lenox", "zip_code": "01240", "country": "US", "state": "MA", "display_address": ["80 Main St", "Lenox, MA 01240"]}, "phone": "+14136374455", "display_phone": "(413) 637-4455", "distance": 6999.764860659988}, {"id": "Cpk70Wzg3urDSoKTdEn2mg", "alias": "truc-orient-express-restaurant-west-stockbridge", "name": "Truc Orient Express Restaurant", "image_url": "https://s3-media2.fl.yelpcdn.com/bphoto/e6Wxu6ZtbvWtXwuSp1invg/o.jpg", "is_closed": false, "url": "https://www.yelp.com/biz/truc-orient-express-restaurant-west-stockbridge?adjust_creative=ywY5UnLZrNrRl2b93Ruy_g&utm_campaign=yelp_api_v3&utm_medium=api_v3_business_search&utm_source=ywY5UnLZrNrRl2b93Ruy_g", "review_count": 33, "categories": [{"alias": "vietnamese", "title": "Vietnamese"}, {"alias": "salad", "title": "Salad"}, {"alias": "vegetarian", "title": "Vegetarian"}], "rating": 3.0, "coordinates": {"latitude": 42.3329692899726, "longitude": -73.3681175330594}, "transactions": [], "price": "$$", "location": {"address1": "3 Harris St", "address2": "", "address3": "", "city": "West Stockbridge", "zip_code": "01266", "country": "US", "state": "MA", "display_address": ["3 Harris St", "West Stockbridge, MA 01266"]}, "phone": "+14132324204", "display_phone": "(413) 232-4204", "distance": 5890.506034382133}, {"id": "ovwzwdxgYMUC5gLrPAcL_w", "alias": "prime-italian-steakhouse-and-bar-lenox", "name": "Prime Italian Steakhouse and Bar", "image_url": "https://s3-media1.fl.yelpcdn.com/bphoto/gqVBRAd7RBRubH1kXPUGlA/o.jpg", "is_closed": false, "url": "https://www.yelp.com/biz/prime-italian-steakhouse-and-bar-lenox?adjust_creative=ywY5UnLZrNrRl2b93Ruy_g&utm_campaign=yelp_api_v3&utm_medium=api_v3_business_search&utm_source=ywY5UnLZrNrRl2b93Ruy_g", "review_count": 67, "categories": [{"alias": "bars", "title": "Bars"}, {"alias": "steak", "title": "Steakhouses"}], "rating": 3.5, "coordinates": {"latitude": 42.3599, "longitude": -73.2829}, "transactions": ["delivery"], "price": "$$$", "location": {"address1": "15 Franklin St", "address2": "", "address3": "", "city": "Lenox", "zip_code": "01240", "country": "US", "state": "MA", "display_address": ["15 Franklin St", "Lenox, MA 01240"]}, "phone": "+14136372998", "display_phone": "(413) 637-2998", "distance": 7019.823198351957}, {"id": "b_hxjuPRzTaoziLzP0s-ow", "alias": "table-six-restaurant-lenox", "name": "Table Six Restaurant", "image_url": "https://s3-media4.fl.yelpcdn.com/bphoto/ctraVfDUctH5StpTtYbakw/o.jpg", "is_closed": false, "url": "https://www.yelp.com/biz/table-six-restaurant-lenox?adjust_creative=ywY5UnLZrNrRl2b93Ruy_g&utm_campaign=yelp_api_v3&utm_medium=api_v3_business_search&utm_source=ywY5UnLZrNrRl2b93Ruy_g", "review_count": 94, "categories": [{"alias": "newamerican", "title": "American (New)"}, {"alias": "coffee", "title": "Coffee & Tea"}], "rating": 3.5, "coordinates": {"latitude": 42.3546982, "longitude": -73.2828674}, "transactions": ["delivery"], "price": "$$$", "location": {"address1": "2 Kemble St", "address2": null, "address3": "", "city": "Lenox", "zip_code": "01240", "country": "US", "state": "MA", "display_address": ["2 Kemble St", "Lenox, MA 01240"]}, "phone": "+14136374113", "display_phone": "(413) 637-4113", "distance": 7283.7740183459255}, {"id": "NLvNv-Au5Jldu84CubsoEw", "alias": "trattoria-ii-vesuvio-lenox", "name": "Trattoria II Vesuvio", "image_url": "https://s3-media4.fl.yelpcdn.com/bphoto/NmJnrFxogqj1X_EIa8n19g/o.jpg", "is_closed": false, "url": "https://www.yelp.com/biz/trattoria-ii-vesuvio-lenox?adjust_creative=ywY5UnLZrNrRl2b93Ruy_g&utm_campaign=yelp_api_v3&utm_medium=api_v3_business_search&utm_source=ywY5UnLZrNrRl2b93Ruy_g", "review_count": 58, "categories": [{"alias": "italian", "title": "Italian"}], "rating": 3.5, "coordinates": {"latitude": 42.389434, "longitude": -73.272695}, "transactions": ["delivery"], "price": "$$$", "location": {"address1": "242 Pittsfield Rd", "address2": "", "address3": "", "city": "Lenox", "zip_code": "01240", "country": "US", "state": "MA", "display_address": ["242 Pittsfield Rd", "Lenox, MA 01240"]}, "phone": "+14136374904", "display_phone": "(413) 637-4904", "distance": 7253.172245752726}, {"id": "ZREJXvUqQZD4xKI7UD878Q", "alias": "jaes-pittsfield-3", "name": "Jae's", "image_url": "https://s3-media3.fl.yelpcdn.com/bphoto/1RvlUWeAMCIEYNASpntHCg/o.jpg", "is_closed": false, "url": "https://www.yelp.com/biz/jaes-pittsfield-3?adjust_creative=ywY5UnLZrNrRl2b93Ruy_g&utm_campaign=yelp_api_v3&utm_medium=api_v3_business_search&utm_source=ywY5UnLZrNrRl2b93Ruy_g", "review_count": 32, "categories": [{"alias": "sushi", "title": "Sushi Bars"}, {"alias": "korean", "title": "Korean"}], "rating": 3.5, "coordinates": {"latitude": 42.407877, "longitude": -73.265441}, "transactions": ["delivery"], "location": {"address1": "1032 South St", "address2": "", "address3": "The Hilton Garden Inn", "city": "Pittsfield", "zip_code": "01201", "country": "US", "state": "MA", "display_address": ["1032 South St", "The Hilton Garden Inn", "Pittsfield, MA 01201"]}, "phone": "+14134648791", "display_phone": "(413) 464-8791", "distance": 8215.51579309015}, {"id": "jNP39BLUtsilVi9Kyz1WPQ", "alias": "gateways-inn-and-restaurant-lenox", "name": "Gateways Inn & Restaurant", "image_url": "https://s3-media3.fl.yelpcdn.com/bphoto/Lb87k03FvKSWwwROXsjcfw/o.jpg", "is_closed": false, "url": "https://www.yelp.com/biz/gateways-inn-and-restaurant-lenox?adjust_creative=ywY5UnLZrNrRl2b93Ruy_g&utm_campaign=yelp_api_v3&utm_medium=api_v3_business_search&utm_source=ywY5UnLZrNrRl2b93Ruy_g", "review_count": 28, "categories": [{"alias": "restaurants", "title": "Restaurants"}, {"alias": "bedbreakfast", "title": "Bed & Breakfast"}], "rating": 3.5, "coordinates": {"latitude": 42.35599, "longitude": -73.282639}, "transactions": [], "price": "$$$$", "location": {"address1": "51 Walker St", "address2": "", "address3": "", "city": "Lenox", "zip_code": "01240", "country": "US", "state": "MA", "display_address": ["51 Walker St", "Lenox, MA 01240"]}, "phone": "+14136372532", "display_phone": "(413) 637-2532", "distance": 7224.143320150092}, {"id": "rK9YwE66fbCnZhTCXQ33BQ", "alias": "annas-pizza-restaurant-hancock", "name": "Anna's Pizza Restaurant", "image_url": "https://s3-media1.fl.yelpcdn.com/bphoto/l-K7Ht_wBbJCMnM4t5Oo6A/o.jpg", "is_closed": false, "url": "https://www.yelp.com/biz/annas-pizza-restaurant-hancock?adjust_creative=ywY5UnLZrNrRl2b93Ruy_g&utm_campaign=yelp_api_v3&utm_medium=api_v3_business_search&utm_source=ywY5UnLZrNrRl2b93Ruy_g", "review_count": 6, "categories": [{"alias": "pizza", "title": "Pizza"}], "rating": 4.5, "coordinates": {"latitude": 42.428994192347, "longitude": -73.3472745434418}, "transactions": [], "price": "$$", "location": {"address1": "Liberty Plz", "address2": "", "address3": "Lebanon Mountain Rd (US-20)", "city": "Hancock", "zip_code": "01201", "country": "US", "state": "MA", "display_address": ["Liberty Plz", "Lebanon Mountain Rd (US-20)", "Hancock, MA 01201"]}, "phone": "+14134477119", "display_phone": "(413) 447-7119", "distance": 4944.701219289813}, {"id": "nXyo2FXl0dvF8EdJI_NvSA", "alias": "haven-cafe-and-bakery-lenox", "name": "Haven Cafe & Bakery", "image_url": "https://s3-media3.fl.yelpcdn.com/bphoto/6F3x9fSCiVx7ZkUsu2EXjw/o.jpg", "is_closed": false, "url": "https://www.yelp.com/biz/haven-cafe-and-bakery-lenox?adjust_creative=ywY5UnLZrNrRl2b93Ruy_g&utm_campaign=yelp_api_v3&utm_medium=api_v3_business_search&utm_source=ywY5UnLZrNrRl2b93Ruy_g", "review_count": 283, "categories": [{"alias": "bakeries", "title": "Bakeries"}, {"alias": "cafes", "title": "Cafes"}], "rating": 4.0, "coordinates": {"latitude": 42.3596, "longitude": -73.2833}, "transactions": ["delivery"], "price": "$$", "location": {"address1": "8 Franklin St", "address2": "", "address3": "", "city": "Lenox", "zip_code": "01240", "country": "US", "state": "MA", "display_address": ["8 Franklin St", "Lenox, MA 01240"]}, "phone": "+14136378948", "display_phone": "(413) 637-8948", "distance": 7001.400180770288}, {"id": "8BimRgsU8PEwHpZlhy8dNw", "alias": "seeds-market-cafe-pittsfield", "name": "Seeds Market Cafe", "image_url": "https://s3-media1.fl.yelpcdn.com/bphoto/On11X6p5n3rxOGqSW8qMrg/o.jpg", "is_closed": false, "url": "https://www.yelp.com/biz/seeds-market-cafe-pittsfield?adjust_creative=ywY5UnLZrNrRl2b93Ruy_g&utm_campaign=yelp_api_v3&utm_medium=api_v3_business_search&utm_source=ywY5UnLZrNrRl2b93Ruy_g", "review_count": 5, "categories": [{"alias": "newamerican", "title": "American (New)"}, {"alias": "salad", "title": "Salad"}, {"alias": "sandwiches", "title": "Sandwiches"}], "rating": 4.5, "coordinates": {"latitude": 42.42638, "longitude": -73.33549}, "transactions": [], "location": {"address1": "1843 W Housatonic St", "address2": "", "address3": null, "city": "Pittsfield", "zip_code": "01201", "country": "US", "state": "MA", "display_address": ["1843 W Housatonic St", "Pittsfield, MA 01201"]}, "phone": "+14134430188", "display_phone": "(413) 443-0188", "distance": 5282.505596316296}, {"id": "f6o95zoPUN4o4yAaBiuSeQ", "alias": "canaan-corner-deli-canaan", "name": "Canaan Corner Deli", "image_url": "", "is_closed": false, "url": "https://www.yelp.com/biz/canaan-corner-deli-canaan?adjust_creative=ywY5UnLZrNrRl2b93Ruy_g&utm_campaign=yelp_api_v3&utm_medium=api_v3_business_search&utm_source=ywY5UnLZrNrRl2b93Ruy_g", "review_count": 1, "categories": [{"alias": "delis", "title": "Delis"}], "rating": 5.0, "coordinates": {"latitude": 42.393863, "longitude": -73.412055}, "transactions": [], "location": {"address1": "13366 State Rte 22", "address2": "", "address3": "", "city": "Canaan", "zip_code": "12029", "country": "US", "state": "NY", "display_address": ["13366 State Rte 22", "Canaan, NY 12029"]}, "phone": "+15187814715", "display_phone": "(518) 781-4715", "distance": 4301.731273332282}, {"id": "7_b0CA2fewrYfH5xUJ8l_Q", "alias": "flos-diner-pittsfield-2", "name": "Flo's Diner", "image_url": "https://s3-media3.fl.yelpcdn.com/bphoto/9iUbjOxg24MnaZq4BQ5Mmw/o.jpg", "is_closed": false, "url": "https://www.yelp.com/biz/flos-diner-pittsfield-2?adjust_creative=ywY5UnLZrNrRl2b93Ruy_g&utm_campaign=yelp_api_v3&utm_medium=api_v3_business_search&utm_source=ywY5UnLZrNrRl2b93Ruy_g", "review_count": 14, "categories": [{"alias": "tradamerican", "title": "American (Traditional)"}, {"alias": "breakfast_brunch", "title": "Breakfast & Brunch"}, {"alias": "vegetarian", "title": "Vegetarian"}], "rating": 4.0, "coordinates": {"latitude": 42.4358291625977, "longitude": -73.3070602416992}, "transactions": ["pickup", "delivery"], "price": "$", "location": {"address1": "1245 W Housatonic St", "address2": "", "address3": "", "city": "Pittsfield", "zip_code": "01201", "country": "US", "state": "MA", "display_address": ["1245 W Housatonic St", "Pittsfield, MA 01201"]}, "phone": "+14134423567", "display_phone": "(413) 442-3567", "distance": 7108.331153606494}, {"id": "qHMmlshiWT3hFX-kPOxIEw", "alias": "international-house-of-tacos-pittsfield-3", "name": "international house of tacos", "image_url": "https://s3-media3.fl.yelpcdn.com/bphoto/snGz7Vw6jD7eYNatk_NWgg/o.jpg", "is_closed": false, "url": "https://www.yelp.com/biz/international-house-of-tacos-pittsfield-3?adjust_creative=ywY5UnLZrNrRl2b93Ruy_g&utm_campaign=yelp_api_v3&utm_medium=api_v3_business_search&utm_source=ywY5UnLZrNrRl2b93Ruy_g", "review_count": 0, "categories": [], "rating": 0.0, "coordinates": {"latitude": 42.43616, "longitude": -73.30618}, "transactions": [], "location": {"address1": "1231 W Housatonic St", "address2": "", "address3": null, "city": "Pittsfield", "zip_code": "01201", "country": "US", "state": "MA", "display_address": ["1231 W Housatonic St", "Pittsfield, MA 01201"]}, "phone": "", "display_phone": "", "distance": 7194.431422759022}, {"id": "A40q8l7bgxcZuD3MrjWXbA", "alias": "apple-tree-inn-and-restaurant-lenox", "name": "Apple Tree Inn & Restaurant", "image_url": "", "is_closed": false, "url": "https://www.yelp.com/biz/apple-tree-inn-and-restaurant-lenox?adjust_creative=ywY5UnLZrNrRl2b93Ruy_g&utm_campaign=yelp_api_v3&utm_medium=api_v3_business_search&utm_source=ywY5UnLZrNrRl2b93Ruy_g", "review_count": 11, "categories": [{"alias": "tradamerican", "title": "American (Traditional)"}], "rating": 3.5, "coordinates": {"latitude": 42.35373, "longitude": -73.31594}, "transactions": [], "price": "$$$$", "location": {"address1": "10 Richmond Mountain Rd", "address2": "", "address3": "", "city": "Lenox", "zip_code": "01240", "country": "US", "state": "MA", "display_address": ["10 Richmond Mountain Rd", "Lenox, MA 01240"]}, "phone": "+14136371477", "display_phone": "(413) 637-1477", "distance": 5121.361790421172}, {"id": "7DWfOYBBFb00nOyPLlPAxQ", "alias": "panda-house-restaurant-lenox", "name": "Panda House Restaurant", "image_url": "https://s3-media3.fl.yelpcdn.com/bphoto/el_VnHmiKuPQng6dLT4fBA/o.jpg", "is_closed": false, "url": "https://www.yelp.com/biz/panda-house-restaurant-lenox?adjust_creative=ywY5UnLZrNrRl2b93Ruy_g&utm_campaign=yelp_api_v3&utm_medium=api_v3_business_search&utm_source=ywY5UnLZrNrRl2b93Ruy_g", "review_count": 59, "categories": [{"alias": "chinese", "title": "Chinese"}], "rating": 3.5, "coordinates": {"latitude": 42.4054848, "longitude": -73.2645128}, "transactions": ["pickup"], "price": "$$", "location": {"address1": "506 Pittsfield Rd", "address2": "", "address3": "", "city": "Lenox", "zip_code": "01240", "country": "US", "state": "MA", "display_address": ["506 Pittsfield Rd", "Lenox, MA 01240"]}, "phone": "+14134990660", "display_phone": "(413) 499-0660", "distance": 8213.074066801866}, {"id": "LI9tkrPmuni5EYU2o9KDzA", "alias": "am-best-canaan-superstop-citgo-canaan", "name": "AM-BEST Canaan SuperStop Citgo", "image_url": "https://s3-media1.fl.yelpcdn.com/bphoto/ZBDzQ9F_QQxhvmC_PWU3kw/o.jpg", "is_closed": false, "url": "https://www.yelp.com/biz/am-best-canaan-superstop-citgo-canaan?adjust_creative=ywY5UnLZrNrRl2b93Ruy_g&utm_campaign=yelp_api_v3&utm_medium=api_v3_business_search&utm_source=ywY5UnLZrNrRl2b93Ruy_g", "review_count": 4, "categories": [{"alias": "delis", "title": "Delis"}], "rating": 4.0, "coordinates": {"latitude": 42.3600343635736, "longitude": -73.4278106689453}, "transactions": [], "price": "$$", "location": {"address1": "12816 Route 22", "address2": "", "address3": "", "city": "Canaan", "zip_code": "12029", "country": "US", "state": "NY", "display_address": ["12816 Route 22", "Canaan, NY 12029"]}, "phone": "+15187814144", "display_phone": "(518) 781-4144", "distance": 6194.583267803173}, {"id": "D4_xUi9BdkjQeet8G1cogA", "alias": "the-bistro-lenox", "name": "The Bistro", "image_url": "https://s3-media1.fl.yelpcdn.com/bphoto/ez0NuT9or3hcVzek-8khbQ/o.jpg", "is_closed": false, "url": "https://www.yelp.com/biz/the-bistro-lenox?adjust_creative=ywY5UnLZrNrRl2b93Ruy_g&utm_campaign=yelp_api_v3&utm_medium=api_v3_business_search&utm_source=ywY5UnLZrNrRl2b93Ruy_g", "review_count": 5, "categories": [{"alias": "diners", "title": "Diners"}, {"alias": "bars", "title": "Bars"}, {"alias": "breakfast_brunch", "title": "Breakfast & Brunch"}], "rating": 4.5, "coordinates": {"latitude": 42.33615, "longitude": -73.25892}, "transactions": [], "location": {"address1": "16 Blantyre Rd", "address2": null, "address3": "", "city": "Lenox", "zip_code": "01240", "country": "US", "state": "MA", "display_address": ["16 Blantyre Rd", "Lenox, MA 01240"]}, "phone": "+14136373556", "display_phone": "(413) 637-3556", "distance": 10025.449513369711}, {"id": "ftLxE19Q1XcETl3PppYLXQ", "alias": "soma-catering-cafe-west-stockbridge", "name": "Soma Catering - Cafe", "image_url": "https://s3-media1.fl.yelpcdn.com/bphoto/VyKwfK-HhFu-sdfWvVrc0g/o.jpg", "is_closed": false, "url": "https://www.yelp.com/biz/soma-catering-cafe-west-stockbridge?adjust_creative=ywY5UnLZrNrRl2b93Ruy_g&utm_campaign=yelp_api_v3&utm_medium=api_v3_business_search&utm_source=ywY5UnLZrNrRl2b93Ruy_g", "review_count": 5, "categories": [{"alias": "cafes", "title": "Cafes"}], "rating": 5.0, "coordinates": {"latitude": 42.3349405594726, "longitude": -73.3677865192294}, "transactions": [], "price": "$$", "location": {"address1": "4 Albany Rd", "address2": "", "address3": "", "city": "West Stockbridge", "zip_code": "01266", "country": "US", "state": "MA", "display_address": ["4 Albany Rd", "West Stockbridge, MA 01266"]}, "phone": "+14132320007", "display_phone": "(413) 232-0007", "distance": 5669.685224513924}, {"id": "isnxycnLtKZQ9Suc3R_IKA", "alias": "electras-cafe-lenox", "name": "Electra's Cafe", "image_url": "https://s3-media3.fl.yelpcdn.com/bphoto/Frd_k90pMwQgyfJqfagUzg/o.jpg", "is_closed": false, "url": "https://www.yelp.com/biz/electras-cafe-lenox?adjust_creative=ywY5UnLZrNrRl2b93Ruy_g&utm_campaign=yelp_api_v3&utm_medium=api_v3_business_search&utm_source=ywY5UnLZrNrRl2b93Ruy_g", "review_count": 70, "categories": [{"alias": "greek", "title": "Greek"}, {"alias": "tradamerican", "title": "American (Traditional)"}], "rating": 4.0, "coordinates": {"latitude": 42.401809, "longitude": -73.267399}, "transactions": ["pickup", "delivery"], "price": "$$", "location": {"address1": "439 Pittsfield Rd", "address2": "", "address3": "", "city": "Lenox", "zip_code": "01240", "country": "US", "state": "MA", "display_address": ["439 Pittsfield Rd", "Lenox, MA 01240"]}, "phone": "+14134421000", "display_phone": "(413) 442-1000", "distance": 7882.249970986356}, {"id": "M9sdEGo6VeKbvGtNDlbVFA", "alias": "cafe-lucia-lenox-2", "name": "Cafe Lucia", "image_url": "https://s3-media1.fl.yelpcdn.com/bphoto/dMq3G8lv-DjNe80DafdNQQ/o.jpg", "is_closed": false, "url": "https://www.yelp.com/biz/cafe-lucia-lenox-2?adjust_creative=ywY5UnLZrNrRl2b93Ruy_g&utm_campaign=yelp_api_v3&utm_medium=api_v3_business_search&utm_source=ywY5UnLZrNrRl2b93Ruy_g", "review_count": 45, "categories": [{"alias": "italian", "title": "Italian"}, {"alias": "bars", "title": "Bars"}], "rating": 3.5, "coordinates": {"latitude": 42.3571485742368, "longitude": -73.2831001281738}, "transactions": ["delivery"], "price": "$$$", "location": {"address1": "80 Church St", "address2": "", "address3": "", "city": "Lenox", "zip_code": "01240", "country": "US", "state": "MA", "display_address": ["80 Church St", "Lenox, MA 01240"]}, "phone": "+14136372640", "display_phone": "(413) 637-2640", "distance": 7132.199670136475}, {"id": "j1Caj8bDL2gm4Q4OppvMQQ", "alias": "cork-n-hearth-lee-2", "name": "Cork N' Hearth", "image_url": "https://s3-media1.fl.yelpcdn.com/bphoto/NP_IxYEUvuC983-ZmoND3w/o.jpg", "is_closed": false, "url": "https://www.yelp.com/biz/cork-n-hearth-lee-2?adjust_creative=ywY5UnLZrNrRl2b93Ruy_g&utm_campaign=yelp_api_v3&utm_medium=api_v3_business_search&utm_source=ywY5UnLZrNrRl2b93Ruy_g", "review_count": 29, "categories": [{"alias": "desserts", "title": "Desserts"}, {"alias": "wine_bars", "title": "Wine Bars"}, {"alias": "diners", "title": "Diners"}], "rating": 3.5, "coordinates": {"latitude": 42.32676, "longitude": -73.26269}, "transactions": ["delivery"], "price": "$$$", "location": {"address1": "635 Laurel St", "address2": "", "address3": "", "city": "Lee", "zip_code": "01238", "country": "US", "state": "MA", "display_address": ["635 Laurel St", "Lee, MA 01238"]}, "phone": "+14132430535", "display_phone": "(413) 243-0535", "distance": 10424.945052699897}, {"id": "J70V7xjjmkF_jWqW8Beg3w", "alias": "smokey-sweet-bbq-canaan", "name": "Smokey Sweet Bbq", "image_url": "https://s3-media3.fl.yelpcdn.com/bphoto/KCoEj0j2h6793VH9BGKFTA/o.jpg", "is_closed": false, "url": "https://www.yelp.com/biz/smokey-sweet-bbq-canaan?adjust_creative=ywY5UnLZrNrRl2b93Ruy_g&utm_campaign=yelp_api_v3&utm_medium=api_v3_business_search&utm_source=ywY5UnLZrNrRl2b93Ruy_g", "review_count": 14, "categories": [{"alias": "catering", "title": "Caterers"}, {"alias": "bbq", "title": "Barbeque"}], "rating": 4.0, "coordinates": {"latitude": 42.3932428, "longitude": -73.4129665}, "transactions": [], "location": {"address1": "13361 Rte 22", "address2": null, "address3": null, "city": "Canaan", "zip_code": "12029", "country": "US", "state": "NY", "display_address": ["13361 Rte 22", "Canaan, NY 12029"]}, "phone": "+14137171368", "display_phone": "(413) 717-1368", "distance": 4394.946005934177}, {"id": "RYrIR3PbsOfx4_iV_37RCw", "alias": "mazcots-sports-bar-and-grill-lenox", "name": "Mazcots Sports Bar & Grill", "image_url": "https://s3-media2.fl.yelpcdn.com/bphoto/erIDwW8YZCwQ9dlT72JT9A/o.jpg", "is_closed": false, "url": "https://www.yelp.com/biz/mazcots-sports-bar-and-grill-lenox?adjust_creative=ywY5UnLZrNrRl2b93Ruy_g&utm_campaign=yelp_api_v3&utm_medium=api_v3_business_search&utm_source=ywY5UnLZrNrRl2b93Ruy_g", "review_count": 72, "categories": [{"alias": "sportsbars", "title": "Sports Bars"}, {"alias": "tradamerican", "title": "American (Traditional)"}], "rating": 4.0, "coordinates": {"latitude": 42.4048409, "longitude": -73.265137}, "transactions": ["delivery"], "price": "$$", "location": {"address1": "490 Pittsfield Rd", "address2": "", "address3": "", "city": "Lenox", "zip_code": "01240", "country": "US", "state": "MA", "display_address": ["490 Pittsfield Rd", "Lenox, MA 01240"]}, "phone": "+14134991101", "display_phone": "(413) 499-1101", "distance": 8144.7149908137835}, {"id": "iiGIFPHoEO1J2LyPq7eaiQ", "alias": "bistro-zinc-lenox-3", "name": "Bistro Zinc", "image_url": "https://s3-media2.fl.yelpcdn.com/bphoto/f7jUclzsroTnOYHfGTkE-g/o.jpg", "is_closed": false, "url": "https://www.yelp.com/biz/bistro-zinc-lenox-3?adjust_creative=ywY5UnLZrNrRl2b93Ruy_g&utm_campaign=yelp_api_v3&utm_medium=api_v3_business_search&utm_source=ywY5UnLZrNrRl2b93Ruy_g", "review_count": 121, "categories": [{"alias": "french", "title": "French"}, {"alias": "lounges", "title": "Lounges"}], "rating": 3.5, "coordinates": {"latitude": 42.358163503434, "longitude": -73.282507695418}, "transactions": ["delivery"], "price": "$$$", "location": {"address1": "56 Church St", "address2": "", "address3": "", "city": "Lenox", "zip_code": "01240", "country": "US", "state": "MA", "display_address": ["56 Church St", "Lenox, MA 01240"]}, "phone": "+14136378800", "display_phone": "(413) 637-8800", "distance": 7126.614690710205}, {"id": "Y1LHCbMdBzHUx6B329tNaQ", "alias": "on-a-roll-cafe-lenox-2", "name": "On A Roll Cafe", "image_url": "https://s3-media4.fl.yelpcdn.com/bphoto/R1T8Rd17eqVqxVcingGhXg/o.jpg", "is_closed": false, "url": "https://www.yelp.com/biz/on-a-roll-cafe-lenox-2?adjust_creative=ywY5UnLZrNrRl2b93Ruy_g&utm_campaign=yelp_api_v3&utm_medium=api_v3_business_search&utm_source=ywY5UnLZrNrRl2b93Ruy_g", "review_count": 53, "categories": [{"alias": "cafes", "title": "Cafes"}, {"alias": "breakfast_brunch", "title": "Breakfast & Brunch"}], "rating": 4.0, "coordinates": {"latitude": 42.377329, "longitude": -73.278509}, "transactions": ["delivery"], "price": "$", "location": {"address1": "55 Pittsfield Rd", "address2": "", "address3": "", "city": "Lenox", "zip_code": "01240", "country": "US", "state": "MA", "display_address": ["55 Pittsfield Rd", "Lenox, MA 01240"]}, "phone": "+14136379544", "display_phone": "(413) 637-9544", "distance": 6827.574524303135}, {"id": "WA3AjbPkZAy1V5ytokIrAQ", "alias": "hot-dog-ranch-pittsfield", "name": "Hot Dog Ranch", "image_url": "https://s3-media1.fl.yelpcdn.com/bphoto/S_hO2aJxj2YR4ZkjRCycJQ/o.jpg", "is_closed": false, "url": "https://www.yelp.com/biz/hot-dog-ranch-pittsfield?adjust_creative=ywY5UnLZrNrRl2b93Ruy_g&utm_campaign=yelp_api_v3&utm_medium=api_v3_business_search&utm_source=ywY5UnLZrNrRl2b93Ruy_g", "review_count": 43, "categories": [{"alias": "hotdog", "title": "Hot Dogs"}], "rating": 3.5, "coordinates": {"latitude": 42.4441632, "longitude": -73.2606906}, "transactions": ["delivery"], "price": "$", "location": {"address1": "114 W Housatonic St", "address2": "", "address3": "", "city": "Pittsfield", "zip_code": "01201", "country": "US", "state": "MA", "display_address": ["114 W Housatonic St", "Pittsfield, MA 01201"]}, "phone": "+14134990055", "display_phone": "(413) 499-0055", "distance": 10484.537234609379}, {"id": "m2YgmONpPyqZHA9RNsNF3A", "alias": "luau-hale-restaurant-lenox", "name": "Luau Hale Restaurant", "image_url": "https://s3-media1.fl.yelpcdn.com/bphoto/qAEfT9rwHh3FP8KbJzvVHQ/o.jpg", "is_closed": false, "url": "https://www.yelp.com/biz/luau-hale-restaurant-lenox?adjust_creative=ywY5UnLZrNrRl2b93Ruy_g&utm_campaign=yelp_api_v3&utm_medium=api_v3_business_search&utm_source=ywY5UnLZrNrRl2b93Ruy_g", "review_count": 38, "categories": [{"alias": "chinese", "title": "Chinese"}, {"alias": "asianfusion", "title": "Asian Fusion"}], "rating": 3.0, "coordinates": {"latitude": 42.397719, "longitude": -73.269336}, "transactions": ["delivery"], "price": "$$", "location": {"address1": "569 Pittsfield Rd", "address2": "", "address3": "", "city": "Lenox", "zip_code": "01240", "country": "US", "state": "MA", "display_address": ["569 Pittsfield Rd", "Lenox, MA 01240"]}, "phone": "+14134434745", "display_phone": "(413) 443-4745", "distance": 7634.907020268679}, {"id": "JeS_6EKfI6Qik3PzBc27uQ", "alias": "highwood-manor-house-lenox", "name": "Highwood Manor House", "image_url": "", "is_closed": false, "url": "https://www.yelp.com/biz/highwood-manor-house-lenox?adjust_creative=ywY5UnLZrNrRl2b93Ruy_g&utm_campaign=yelp_api_v3&utm_medium=api_v3_business_search&utm_source=ywY5UnLZrNrRl2b93Ruy_g", "review_count": 3, "categories": [{"alias": "buffets", "title": "Buffets"}], "rating": 3.5, "coordinates": {"latitude": 42.3526, "longitude": -73.30924}, "transactions": [], "location": {"address1": "297 W St", "address2": "", "address3": null, "city": "Lenox", "zip_code": "01240", "country": "US", "state": "MA", "display_address": ["297 W St", "Lenox, MA 01240"]}, "phone": "+14136374486", "display_phone": "(413) 637-4486", "distance": 5521.095811569354}, {"id": "2SCtabMTxctlLgbar3-diA", "alias": "lenox-coffee-lenox", "name": "Lenox Coffee", "image_url": "https://s3-media3.fl.yelpcdn.com/bphoto/sQ8SqpEmWgACa9dKP2kXrA/o.jpg", "is_closed": false, "url": "https://www.yelp.com/biz/lenox-coffee-lenox?adjust_creative=ywY5UnLZrNrRl2b93Ruy_g&utm_campaign=yelp_api_v3&utm_medium=api_v3_business_search&utm_source=ywY5UnLZrNrRl2b93Ruy_g", "review_count": 65, "categories": [{"alias": "coffee", "title": "Coffee & Tea"}, {"alias": "cafes", "title": "Cafes"}], "rating": 4.0, "coordinates": {"latitude": 42.3584016606754, "longitude": -73.2836276361217}, "transactions": ["delivery"], "price": "$", "location": {"address1": "52 Main St", "address2": "", "address3": "", "city": "Lenox", "zip_code": "01240", "country": "US", "state": "MA", "display_address": ["52 Main St", "Lenox, MA 01240"]}, "phone": "+14136371606", "display_phone": "(413) 637-1606", "distance": 7032.157997134043}, {"id": "wWubTfJNuTLgoBocXHvTuQ", "alias": "bettys-pizza-shack-lenox", "name": "Betty's Pizza Shack", "image_url": "https://s3-media4.fl.yelpcdn.com/bphoto/hSgobMniX4KSkF3SW6Uhkw/o.jpg", "is_closed": false, "url": "https://www.yelp.com/biz/bettys-pizza-shack-lenox?adjust_creative=ywY5UnLZrNrRl2b93Ruy_g&utm_campaign=yelp_api_v3&utm_medium=api_v3_business_search&utm_source=ywY5UnLZrNrRl2b93Ruy_g", "review_count": 66, "categories": [{"alias": "pizza", "title": "Pizza"}], "rating": 3.5, "coordinates": {"latitude": 42.3575673, "longitude": -73.2831226}, "transactions": ["delivery"], "price": "$", "location": {"address1": "26 Housatonic St", "address2": "", "address3": "", "city": "Lenox", "zip_code": "01240", "country": "US", "state": "MA", "display_address": ["26 Housatonic St", "Lenox, MA 01240"]}, "phone": "+14136378171", "display_phone": "(413) 637-8171", "distance": 7094.623386273156}, {"id": "3HkWPWkC_kvP9Px_5B29nQ", "alias": "arizona-pizza-lenox", "name": "Arizona Pizza", "image_url": "https://s3-media1.fl.yelpcdn.com/bphoto/9XD2XuqDIzrOtLI7HTVVQw/o.jpg", "is_closed": false, "url": "https://www.yelp.com/biz/arizona-pizza-lenox?adjust_creative=ywY5UnLZrNrRl2b93Ruy_g&utm_campaign=yelp_api_v3&utm_medium=api_v3_business_search&utm_source=ywY5UnLZrNrRl2b93Ruy_g", "review_count": 75, "categories": [{"alias": "pizza", "title": "Pizza"}], "rating": 2.5, "coordinates": {"latitude": 42.39851, "longitude": -73.2684699}, "transactions": ["pickup", "delivery"], "price": "$$", "location": {"address1": "395 Pittsfield Rd", "address2": "", "address3": "", "city": "Lenox", "zip_code": "01240", "country": "US", "state": "MA", "display_address": ["395 Pittsfield Rd", "Lenox, MA 01240"]}, "phone": "+14134429746", "display_phone": "(413) 442-9746", "distance": 7722.401389363658}, {"id": "EVGrHXuAo1bPFzs187TqDA", "alias": "wyndhurst-restaurant-at-cranwell-lenox-2", "name": "Wyndhurst Restaurant At Cranwell", "image_url": "https://s3-media3.fl.yelpcdn.com/bphoto/7WxPFjXNfs5lkNKvGBV2uA/o.jpg", "is_closed": false, "url": "https://www.yelp.com/biz/wyndhurst-restaurant-at-cranwell-lenox-2?adjust_creative=ywY5UnLZrNrRl2b93Ruy_g&utm_campaign=yelp_api_v3&utm_medium=api_v3_business_search&utm_source=ywY5UnLZrNrRl2b93Ruy_g", "review_count": 12, "categories": [{"alias": "coffee", "title": "Coffee & Tea"}, {"alias": "breakfast_brunch", "title": "Breakfast & Brunch"}, {"alias": "buffets", "title": "Buffets"}], "rating": 3.5, "coordinates": {"latitude": 42.33985, "longitude": -73.265758}, "transactions": ["delivery"], "price": "$$$", "location": {"address1": "55 Lee Rd", "address2": "", "address3": "", "city": "Lenox", "zip_code": "01240", "country": "US", "state": "MA", "display_address": ["55 Lee Rd", "Lenox, MA 01240"]}, "phone": "+14136371364", "display_phone": "(413) 637-1364", "distance": 9328.339397490723}, {"id": "KZBbwy47pY-Xj4a51CHGzg", "alias": "bagel-and-brew-lenox", "name": "Bagel And Brew", "image_url": "https://s3-media2.fl.yelpcdn.com/bphoto/jymeELaqVRRrs-YLCscAlQ/o.jpg", "is_closed": false, "url": "https://www.yelp.com/biz/bagel-and-brew-lenox?adjust_creative=ywY5UnLZrNrRl2b93Ruy_g&utm_campaign=yelp_api_v3&utm_medium=api_v3_business_search&utm_source=ywY5UnLZrNrRl2b93Ruy_g", "review_count": 40, "categories": [{"alias": "breakfast_brunch", "title": "Breakfast & Brunch"}, {"alias": "bagels", "title": "Bagels"}], "rating": 4.0, "coordinates": {"latitude": 42.35951, "longitude": -73.28298}, "transactions": ["delivery"], "price": "$", "location": {"address1": "18 Franklin St", "address2": "", "address3": "", "city": "Lenox", "zip_code": "01240", "country": "US", "state": "MA", "display_address": ["18 Franklin St", "Lenox, MA 01240"]}, "phone": "+14136370055", "display_phone": "(413) 637-0055", "distance": 7036.486428579723}, {"id": "hXSi6voU0mmcyr0SHHbSVQ", "alias": "joel-s-hot-dog-cart-lenox", "name": "Joel\u2019s Hot Dog Cart", "image_url": "https://s3-media4.fl.yelpcdn.com/bphoto/B8jFXBhCnKV2H_PVdL8TsQ/o.jpg", "is_closed": false, "url": "https://www.yelp.com/biz/joel-s-hot-dog-cart-lenox?adjust_creative=ywY5UnLZrNrRl2b93Ruy_g&utm_campaign=yelp_api_v3&utm_medium=api_v3_business_search&utm_source=ywY5UnLZrNrRl2b93Ruy_g", "review_count": 2, "categories": [{"alias": "hotdog", "title": "Hot Dogs"}, {"alias": "streetvendors", "title": "Street Vendors"}], "rating": 5.0, "coordinates": {"latitude": 42.36819, "longitude": -73.28831}, "transactions": [], "location": {"address1": "", "address2": "", "address3": null, "city": "Lenox", "zip_code": "01240", "country": "US", "state": "MA", "display_address": ["Lenox, MA 01240"]}, "phone": "", "display_phone": "", "distance": 8039.060330363466}, {"id": "tGwILqB7e6xVa9GcreUsWQ", "alias": "southern-comfort-pittsfield", "name": "Southern Comfort", "image_url": "https://s3-media2.fl.yelpcdn.com/bphoto/_SyNRL6fJf9qm7jR8Y_55A/o.jpg", "is_closed": false, "url": "https://www.yelp.com/biz/southern-comfort-pittsfield?adjust_creative=ywY5UnLZrNrRl2b93Ruy_g&utm_campaign=yelp_api_v3&utm_medium=api_v3_business_search&utm_source=ywY5UnLZrNrRl2b93Ruy_g", "review_count": 1, "categories": [{"alias": "southern", "title": "Southern"}, {"alias": "soulfood", "title": "Soul Food"}], "rating": 1.0, "coordinates": {"latitude": 42.4527247428891, "longitude": -73.2609913498163}, "transactions": ["delivery", "pickup"], "location": {"address1": "302 Columbus Ave", "address2": "", "address3": null, "city": "Pittsfield", "zip_code": "01201", "country": "US", "state": "MA", "display_address": ["302 Columbus Ave", "Pittsfield, MA 01201"]}, "phone": "+14134648444", "display_phone": "(413) 464-8444", "distance": 11081.54477390508}, {"id": "UpGxqkYYWLe3aXvHAaA6iw", "alias": "sloanes-restaurant-and-bar-lenox-2", "name": "Sloane's Restaurant & Bar", "image_url": "https://s3-media4.fl.yelpcdn.com/bphoto/pbN3999sshy1WyjCSu4A2w/o.jpg", "is_closed": false, "url": "https://www.yelp.com/biz/sloanes-restaurant-and-bar-lenox-2?adjust_creative=ywY5UnLZrNrRl2b93Ruy_g&utm_campaign=yelp_api_v3&utm_medium=api_v3_business_search&utm_source=ywY5UnLZrNrRl2b93Ruy_g", "review_count": 21, "categories": [{"alias": "salad", "title": "Salad"}, {"alias": "tradamerican", "title": "American (Traditional)"}, {"alias": "sandwiches", "title": "Sandwiches"}], "rating": 2.5, "coordinates": {"latitude": 42.34162, "longitude": -73.26428}, "transactions": [], "price": "$$", "location": {"address1": "55 Lee Rd", "address2": "", "address3": "", "city": "Lenox", "zip_code": "01240", "country": "US", "state": "MA", "display_address": ["55 Lee Rd", "Lenox, MA 01240"]}, "phone": "+14136371364", "display_phone": "(413) 637-1364", "distance": 9426.170358293984}, {"id": "NIjApH7oY6fL-nDM0tfncg", "alias": "subway-canaan-3", "name": "Subway", "image_url": "https://s3-media3.fl.yelpcdn.com/bphoto/5Fkjvc6Dc4t2gaeNyCGMDA/o.jpg", "is_closed": false, "url": "https://www.yelp.com/biz/subway-canaan-3?adjust_creative=ywY5UnLZrNrRl2b93Ruy_g&utm_campaign=yelp_api_v3&utm_medium=api_v3_business_search&utm_source=ywY5UnLZrNrRl2b93Ruy_g", "review_count": 1, "categories": [{"alias": "sandwiches", "title": "Sandwiches"}], "rating": 2.0, "coordinates": {"latitude": 42.3628318049372, "longitude": -73.4298367449937}, "transactions": [], "location": {"address1": "12845 Route 22", "address2": null, "address3": null, "city": "Canaan", "zip_code": "12029", "country": "US", "state": "NY", "display_address": ["12845 Route 22", "Canaan, NY 12029"]}, "phone": "+15187814044", "display_phone": "(518) 781-4044", "distance": 6209.111050445404}, {"id": "5ZUVWF9rUGvrT2lx4kle0w", "alias": "loebs-foodtown-lenox", "name": "Loeb's Foodtown", "image_url": "https://s3-media1.fl.yelpcdn.com/bphoto/e_NV-aJTmklW2PN-gOmyrQ/o.jpg", "is_closed": false, "url": "https://www.yelp.com/biz/loebs-foodtown-lenox?adjust_creative=ywY5UnLZrNrRl2b93Ruy_g&utm_campaign=yelp_api_v3&utm_medium=api_v3_business_search&utm_source=ywY5UnLZrNrRl2b93Ruy_g", "review_count": 17, "categories": [{"alias": "grocery", "title": "Grocery"}, {"alias": "delis", "title": "Delis"}], "rating": 3.0, "coordinates": {"latitude": 42.358152, "longitude": -73.284163}, "transactions": [], "price": "$$", "location": {"address1": "42 Main St", "address2": "", "address3": "", "city": "Lenox", "zip_code": "01240", "country": "US", "state": "MA", "display_address": ["42 Main St", "Lenox, MA 01240"]}, "phone": "+14136370270", "display_phone": "(413) 637-0270", "distance": 7005.451543502298}, {"id": "YD7kCPJv-KqyzxhqFjUMBQ", "alias": "papa-johns-pizza-lenox", "name": "Papa John's Pizza", "image_url": "", "is_closed": false, "url": "https://www.yelp.com/biz/papa-johns-pizza-lenox?adjust_creative=ywY5UnLZrNrRl2b93Ruy_g&utm_campaign=yelp_api_v3&utm_medium=api_v3_business_search&utm_source=ywY5UnLZrNrRl2b93Ruy_g", "review_count": 7, "categories": [{"alias": "pizza", "title": "Pizza"}], "rating": 3.0, "coordinates": {"latitude": 42.40179, "longitude": -73.267439}, "transactions": [], "price": "$", "location": {"address1": "439 Pittsfield Rd", "address2": "", "address3": "", "city": "Lenox", "zip_code": "01240", "country": "US", "state": "MA", "display_address": ["439 Pittsfield Rd", "Lenox, MA 01240"]}, "phone": "+14134457272", "display_phone": "(413) 445-7272", "distance": 7878.571688391635}, {"id": "npvK3ybU9n5GPZzCwJtN5Q", "alias": "costanzos-package-variety-and-deli-pittsfield", "name": "Costanzo's Package Variety & Deli", "image_url": "", "is_closed": false, "url": "https://www.yelp.com/biz/costanzos-package-variety-and-deli-pittsfield?adjust_creative=ywY5UnLZrNrRl2b93Ruy_g&utm_campaign=yelp_api_v3&utm_medium=api_v3_business_search&utm_source=ywY5UnLZrNrRl2b93Ruy_g", "review_count": 1, "categories": [{"alias": "beer_and_wine", "title": "Beer, Wine & Spirits"}, {"alias": "catering", "title": "Caterers"}, {"alias": "delis", "title": "Delis"}], "rating": 4.0, "coordinates": {"latitude": 42.4566612243652, "longitude": -73.2628479003906}, "transactions": ["delivery"], "price": "$", "location": {"address1": "180 Onota St", "address2": "", "address3": "", "city": "Pittsfield", "zip_code": "01201", "country": "US", "state": "MA", "display_address": ["180 Onota St", "Pittsfield, MA 01201"]}, "phone": "+14134477661", "display_phone": "(413) 447-7661", "distance": 11286.925780781896}, {"id": "7_vJvMcb3ioDXh4kRE4lOQ", "alias": "angelinas-submarine-shop-pittsfield", "name": "Angelina's Submarine Shop", "image_url": "https://s3-media3.fl.yelpcdn.com/bphoto/6HgEWRIjK9XNHTEnYL8T0g/o.jpg", "is_closed": false, "url": "https://www.yelp.com/biz/angelinas-submarine-shop-pittsfield?adjust_creative=ywY5UnLZrNrRl2b93Ruy_g&utm_campaign=yelp_api_v3&utm_medium=api_v3_business_search&utm_source=ywY5UnLZrNrRl2b93Ruy_g", "review_count": 3, "categories": [{"alias": "sandwiches", "title": "Sandwiches"}], "rating": 3.5, "coordinates": {"latitude": 42.4442558288574, "longitude": -73.2594528198242}, "transactions": ["delivery"], "price": "$", "location": {"address1": "97 W Housatonic St", "address2": "", "address3": "", "city": "Pittsfield", "zip_code": "01201", "country": "US", "state": "MA", "display_address": ["97 W Housatonic St", "Pittsfield, MA 01201"]}, "phone": "+14134437928", "display_phone": "(413) 443-7928", "distance": 10574.180208013113}, {"id": "gzZEEMPceGKkba3HRuy8KQ", "alias": "subway-lenox-2", "name": "Subway", "image_url": "https://s3-media4.fl.yelpcdn.com/bphoto/tqwx6-Q70kAUrlmz4i4bfA/o.jpg", "is_closed": false, "url": "https://www.yelp.com/biz/subway-lenox-2?adjust_creative=ywY5UnLZrNrRl2b93Ruy_g&utm_campaign=yelp_api_v3&utm_medium=api_v3_business_search&utm_source=ywY5UnLZrNrRl2b93Ruy_g", "review_count": 1, "categories": [{"alias": "sandwiches", "title": "Sandwiches"}], "rating": 5.0, "coordinates": {"latitude": 42.401901, "longitude": -73.266031}, "transactions": [], "price": "$", "location": {"address1": "450 Pittsfield Rd", "address2": "", "address3": "", "city": "Lenox", "zip_code": "01240", "country": "US", "state": "MA", "display_address": ["450 Pittsfield Rd", "Lenox, MA 01240"]}, "phone": "+14134425311", "display_phone": "(413) 442-5311", "distance": 7993.979796613606}, {"id": "fgQXVuAG-qRZeGgBiD_2Uw", "alias": "shots-cafe-lenox", "name": "Shots Cafe", "image_url": "https://s3-media4.fl.yelpcdn.com/bphoto/m6e3OSpqy6R3pyjw7QbEVA/o.jpg", "is_closed": false, "url": "https://www.yelp.com/biz/shots-cafe-lenox?adjust_creative=ywY5UnLZrNrRl2b93Ruy_g&utm_campaign=yelp_api_v3&utm_medium=api_v3_business_search&utm_source=ywY5UnLZrNrRl2b93Ruy_g", "review_count": 81, "categories": [{"alias": "cafes", "title": "Cafes"}], "rating": 3.0, "coordinates": {"latitude": 42.35786, "longitude": -73.2831}, "transactions": ["delivery"], "price": "$$", "location": {"address1": "27 Housatonic St", "address2": "Ste D", "address3": "", "city": "Lenox", "zip_code": "01240", "country": "US", "state": "MA", "display_address": ["27 Housatonic St", "Ste D", "Lenox, MA 01240"]}, "phone": "+14136371055", "display_phone": "(413) 637-1055", "distance": 7097.767551296835}, {"id": "LsJESTdNxIHgnlsYiep9YA", "alias": "parkside-restaurant-pittsfield", "name": "Parkside Restaurant", "image_url": "", "is_closed": false, "url": "https://www.yelp.com/biz/parkside-restaurant-pittsfield?adjust_creative=ywY5UnLZrNrRl2b93Ruy_g&utm_campaign=yelp_api_v3&utm_medium=api_v3_business_search&utm_source=ywY5UnLZrNrRl2b93Ruy_g", "review_count": 1, "categories": [{"alias": "restaurants", "title": "Restaurants"}], "rating": 1.0, "coordinates": {"latitude": 42.4428520202637, "longitude": -73.2650604248047}, "transactions": [], "location": {"address1": "220 W Housatonic St", "address2": "", "address3": "", "city": "Pittsfield", "zip_code": "01201", "country": "US", "state": "MA", "display_address": ["220 W Housatonic St", "Pittsfield, MA 01201"]}, "phone": "+14134479536", "display_phone": "(413) 447-9536", "distance": 10113.527017695194}, {"id": "-IWUXpBpMv1tPQKwXzA6mQ", "alias": "burger-king-lenox", "name": "Burger King", "image_url": "https://s3-media4.fl.yelpcdn.com/bphoto/H48TdBqy4qWwh-lZPk4tng/o.jpg", "is_closed": false, "url": "https://www.yelp.com/biz/burger-king-lenox?adjust_creative=ywY5UnLZrNrRl2b93Ruy_g&utm_campaign=yelp_api_v3&utm_medium=api_v3_business_search&utm_source=ywY5UnLZrNrRl2b93Ruy_g", "review_count": 6, "categories": [{"alias": "burgers", "title": "Burgers"}, {"alias": "hotdogs", "title": "Fast Food"}], "rating": 2.0, "coordinates": {"latitude": 42.403848, "longitude": -73.265098}, "transactions": [], "price": "$", "location": {"address1": "500 Pittsfield Rd", "address2": "", "address3": "", "city": "Lenox", "zip_code": "01240", "country": "US", "state": "MA", "display_address": ["500 Pittsfield Rd", "Lenox, MA 01240"]}, "phone": "", "display_phone": "", "distance": 8119.683327334851}, {"id": "F5RjLFPDJzWnN3fbL0-gDg", "alias": "mcdonalds-pittsfield-2", "name": "McDonald's", "image_url": "https://s3-media1.fl.yelpcdn.com/bphoto/GSTZvTKKW65XCBu70oor-w/o.jpg", "is_closed": false, "url": "https://www.yelp.com/biz/mcdonalds-pittsfield-2?adjust_creative=ywY5UnLZrNrRl2b93Ruy_g&utm_campaign=yelp_api_v3&utm_medium=api_v3_business_search&utm_source=ywY5UnLZrNrRl2b93Ruy_g", "review_count": 9, "categories": [{"alias": "burgers", "title": "Burgers"}, {"alias": "hotdogs", "title": "Fast Food"}, {"alias": "coffee", "title": "Coffee & Tea"}], "rating": 2.0, "coordinates": {"latitude": 42.442670060133, "longitude": -73.2749373774732}, "transactions": [], "price": "$", "location": {"address1": "445 W Housatonic St", "address2": "", "address3": "", "city": "Pittsfield", "zip_code": "01201", "country": "US", "state": "MA", "display_address": ["445 W Housatonic St", "Pittsfield, MA 01201"]}, "phone": "+14134424629", "display_phone": "(413) 442-4629", "distance": 9482.980706367009}, {"id": "C4OiIXuNN6PbCq8gaMyc1Q", "alias": "papas-best-batch-red-hook", "name": "Papa's Best Batch", "image_url": "https://s3-media2.fl.yelpcdn.com/bphoto/TP_X6t_lwfuT-1MI915hhA/o.jpg", "is_closed": false, "url": "https://www.yelp.com/biz/papas-best-batch-red-hook?adjust_creative=ywY5UnLZrNrRl2b93Ruy_g&utm_campaign=yelp_api_v3&utm_medium=api_v3_business_search&utm_source=ywY5UnLZrNrRl2b93Ruy_g", "review_count": 44, "categories": [{"alias": "bbq", "title": "Barbeque"}, {"alias": "foodtrucks", "title": "Food Trucks"}], "rating": 5.0, "coordinates": {"latitude": 42.028686, "longitude": -73.852675}, "transactions": [], "price": "$$", "location": {"address1": "243 Pitcher Ln", "address2": "", "address3": "Greig Farm", "city": "Red Hook", "zip_code": "12571", "country": "US", "state": "NY", "display_address": ["243 Pitcher Ln", "Greig Farm", "Red Hook, NY 12571"]}, "phone": "+19143885202", "display_phone": "(914) 388-5202", "distance": 56714.61257131817}, {"id": "qqA8YX58xnmEXLyanHfdUg", "alias": "stufd-food-truck-brooklyn", "name": "Stuf'd Food Truck", "image_url": "https://s3-media2.fl.yelpcdn.com/bphoto/_Wn0i-tLIOFinw8BPAqxPA/o.jpg", "is_closed": false, "url": "https://www.yelp.com/biz/stufd-food-truck-brooklyn?adjust_creative=ywY5UnLZrNrRl2b93Ruy_g&utm_campaign=yelp_api_v3&utm_medium=api_v3_business_search&utm_source=ywY5UnLZrNrRl2b93Ruy_g", "review_count": 4, "categories": [{"alias": "sandwiches", "title": "Sandwiches"}, {"alias": "foodtrucks", "title": "Food Trucks"}], "rating": 4.0, "coordinates": {"latitude": 40.7124539, "longitude": -73.9287374}, "transactions": [], "location": {"address1": "178 Varick Ave", "address2": "", "address3": null, "city": "Brooklyn", "zip_code": "11237", "country": "US", "state": "NY", "display_address": ["178 Varick Ave", "Brooklyn, NY 11237"]}, "phone": "+18457091808", "display_phone": "(845) 709-1808", "distance": 191959.46637729896}]