[{"id": "ZW8J9HdUYRerT3uLjAwrzA", "alias": "back-in-thyme-herb-farm-and-kitchen-hopkinton-2", "name": "Back In Thyme Herb Farm And Kitchen", "image_url": "https://s3-media3.fl.yelpcdn.com/bphoto/NcLYU6zRgGkIv-wzTOYMWw/o.jpg", "is_closed": false, "url": "https://www.yelp.com/biz/back-in-thyme-herb-farm-and-kitchen-hopkinton-2?adjust_creative=1woF1Kwn15wJJxNZkMIAgw&utm_campaign=yelp_api_v3&utm_medium=api_v3_business_search&utm_source=1woF1Kwn15wJJxNZkMIAgw", "review_count": 43, "categories": [{"alias": "gourmet", "title": "Specialty Food"}, {"alias": "comfortfood", "title": "Comfort Food"}, {"alias": "soulfood", "title": "Soul Food"}], "rating": 4.5, "coordinates": {"latitude": 41.4616231620312, "longitude": -71.7780187726021}, "transactions": [], "price": "$$", "location": {"address1": "493 Main St", "address2": null, "address3": "", "city": "Hopkinton", "zip_code": "02833", "country": "US", "state": "RI", "display_address": ["493 Main St", "Hopkinton, RI 02833"]}, "phone": "+14016444967", "display_phone": "(401) 644-4967", "distance": 6522.540959926825}, {"id": "aJpADNlc7HsFLelDyU5sCw", "alias": "11th-green-restaurant-and-pub-hope-valley", "name": "11th Green Restaurant & Pub", "image_url": "https://s3-media1.fl.yelpcdn.com/bphoto/qEAM1gVez4sxGMZNc2c32w/o.jpg", "is_closed": false, "url": "https://www.yelp.com/biz/11th-green-restaurant-and-pub-hope-valley?adjust_creative=1woF1Kwn15wJJxNZkMIAgw&utm_campaign=yelp_api_v3&utm_medium=api_v3_business_search&utm_source=1woF1Kwn15wJJxNZkMIAgw", "review_count": 17, "categories": [{"alias": "pubs", "title": "Pubs"}, {"alias": "newamerican", "title": "American (New)"}], "rating": 4.5, "coordinates": {"latitude": 41.4482724, "longitude": -71.7235942}, "transactions": [], "price": "$$", "location": {"address1": "78 Woodville Alton Rd", "address2": null, "address3": null, "city": "Hope Valley", "zip_code": "02832", "country": "US", "state": "RI", "display_address": ["78 Woodville Alton Rd", "Hope Valley, RI 02832"]}, "phone": "+14013640700", "display_phone": "(401) 364-0700", "distance": 1668.9502572912118}, {"id": "5GAnvuVaAtvKO1W9Jkl2Iw", "alias": "alainas-ale-house-richmond", "name": "Alaina's Ale House", "image_url": "https://s3-media1.fl.yelpcdn.com/bphoto/Wpp0231Mj90RNBXIvJWVuA/o.jpg", "is_closed": false, "url": "https://www.yelp.com/biz/alainas-ale-house-richmond?adjust_creative=1woF1Kwn15wJJxNZkMIAgw&utm_campaign=yelp_api_v3&utm_medium=api_v3_business_search&utm_source=1woF1Kwn15wJJxNZkMIAgw", "review_count": 36, "categories": [{"alias": "irish_pubs", "title": "Irish Pub"}, {"alias": "comfortfood", "title": "Comfort Food"}], "rating": 4.5, "coordinates": {"latitude": 41.496851, "longitude": -71.636585}, "transactions": [], "price": "$$", "location": {"address1": "343 Kingstown Rd", "address2": "", "address3": null, "city": "Richmond", "zip_code": "02892", "country": "US", "state": "RI", "display_address": ["343 Kingstown Rd", "Richmond, RI 02892"]}, "phone": "+14015397300", "display_phone": "(401) 539-7300", "distance": 7762.08967642276}, {"id": "JLoH-YkReFoUoEN3VCLL4w", "alias": "bouchers-wood-river-inn-wyoming", "name": "Boucher's Wood River Inn", "image_url": "https://s3-media3.fl.yelpcdn.com/bphoto/1XgE3dIGSPlgxbvLOjTJoQ/o.jpg", "is_closed": false, "url": "https://www.yelp.com/biz/bouchers-wood-river-inn-wyoming?adjust_creative=1woF1Kwn15wJJxNZkMIAgw&utm_campaign=yelp_api_v3&utm_medium=api_v3_business_search&utm_source=1woF1Kwn15wJJxNZkMIAgw", "review_count": 60, "categories": [{"alias": "tradamerican", "title": "American (Traditional)"}, {"alias": "breakfast_brunch", "title": "Breakfast & Brunch"}, {"alias": "burgers", "title": "Burgers"}], "rating": 4.0, "coordinates": {"latitude": 41.514980218318, "longitude": -71.702437510575}, "transactions": [], "price": "$$", "location": {"address1": "1139 Main St", "address2": "", "address3": "", "city": "Wyoming", "zip_code": "02898", "country": "US", "state": "RI", "display_address": ["1139 Main St", "Wyoming, RI 02898"]}, "phone": "+14015399800", "display_phone": "(401) 539-9800", "distance": 7520.450371582812}, {"id": "m7YxP9jWLnTUwsS72sbxfA", "alias": "the-charlestown-rathskeller-charlestown", "name": "The Charlestown Rathskeller", "image_url": "https://s3-media1.fl.yelpcdn.com/bphoto/JedVP1NgtnoOeZH_r1yItQ/o.jpg", "is_closed": false, "url": "https://www.yelp.com/biz/the-charlestown-rathskeller-charlestown?adjust_creative=1woF1Kwn15wJJxNZkMIAgw&utm_campaign=yelp_api_v3&utm_medium=api_v3_business_search&utm_source=1woF1Kwn15wJJxNZkMIAgw", "review_count": 215, "categories": [{"alias": "pubs", "title": "Pubs"}, {"alias": "burgers", "title": "Burgers"}, {"alias": "tradamerican", "title": "American (Traditional)"}], "rating": 3.5, "coordinates": {"latitude": 41.424044, "longitude": -71.61319}, "transactions": [], "price": "$$", "location": {"address1": "489A Old Coach Rd", "address2": "", "address3": "", "city": "Charlestown", "zip_code": "02813", "country": "US", "state": "RI", "display_address": ["489A Old Coach Rd", "Charlestown, RI 02813"]}, "phone": "+14017921000", "display_phone": "(401) 792-1000", "distance": 7865.084130331644}, {"id": "V9TwViQcxLHbk1nb1gtF0A", "alias": "the-cove-restaurant-charlestown", "name": "The Cove Restaurant", "image_url": "https://s3-media2.fl.yelpcdn.com/bphoto/6wSeVU9P5tAyLYBIFvS3Zw/o.jpg", "is_closed": false, "url": "https://www.yelp.com/biz/the-cove-restaurant-charlestown?adjust_creative=1woF1Kwn15wJJxNZkMIAgw&utm_campaign=yelp_api_v3&utm_medium=api_v3_business_search&utm_source=1woF1Kwn15wJJxNZkMIAgw", "review_count": 105, "categories": [{"alias": "seafood", "title": "Seafood"}, {"alias": "burgers", "title": "Burgers"}, {"alias": "tradamerican", "title": "American (Traditional)"}], "rating": 3.5, "coordinates": {"latitude": 41.38801, "longitude": -71.62355}, "transactions": [], "price": "$$", "location": {"address1": "3963 Old Post Rd", "address2": "", "address3": "", "city": "Charlestown", "zip_code": "02813", "country": "US", "state": "RI", "display_address": ["3963 Old Post Rd", "Charlestown, RI 02813"]}, "phone": "+14013649222", "display_phone": "(401) 364-9222", "distance": 9282.821970417881}, {"id": "sAjx9M9bwQ5SyiAOnRsM9w", "alias": "spring-street-market-and-pizza-hope-valley", "name": "Spring Street Market and Pizza", "image_url": "https://s3-media4.fl.yelpcdn.com/bphoto/p-RQjUVJc3zWsGcVSYtK-A/o.jpg", "is_closed": false, "url": "https://www.yelp.com/biz/spring-street-market-and-pizza-hope-valley?adjust_creative=1woF1Kwn15wJJxNZkMIAgw&utm_campaign=yelp_api_v3&utm_medium=api_v3_business_search&utm_source=1woF1Kwn15wJJxNZkMIAgw", "review_count": 9, "categories": [{"alias": "seafood", "title": "Seafood"}, {"alias": "burgers", "title": "Burgers"}, {"alias": "pizza", "title": "Pizza"}], "rating": 4.5, "coordinates": {"latitude": 41.507408, "longitude": -71.716866}, "transactions": [], "price": "$", "location": {"address1": "1 Spring St", "address2": "", "address3": "", "city": "Hope Valley", "zip_code": "02832", "country": "US", "state": "RI", "display_address": ["1 Spring St", "Hope Valley, RI 02832"]}, "phone": "+14015390111", "display_phone": "(401) 539-0111", "distance": 6788.235805108981}, {"id": "eHEIUOcQNjDAfFS3zkF_kQ", "alias": "wests-bakery-hope-valley", "name": "West's Bakery", "image_url": "https://s3-media4.fl.yelpcdn.com/bphoto/eAb_XFxZqRx_TvM7z9mlCA/o.jpg", "is_closed": false, "url": "https://www.yelp.com/biz/wests-bakery-hope-valley?adjust_creative=1woF1Kwn15wJJxNZkMIAgw&utm_campaign=yelp_api_v3&utm_medium=api_v3_business_search&utm_source=1woF1Kwn15wJJxNZkMIAgw", "review_count": 42, "categories": [{"alias": "bakeries", "title": "Bakeries"}, {"alias": "breakfast_brunch", "title": "Breakfast & Brunch"}], "rating": 4.5, "coordinates": {"latitude": 41.507668, "longitude": -71.716579}, "transactions": [], "price": "$", "location": {"address1": "995 Main St", "address2": "", "address3": "", "city": "Hope Valley", "zip_code": "02832", "country": "US", "state": "RI", "display_address": ["995 Main St", "Hope Valley, RI 02832"]}, "phone": "+14015392451", "display_phone": "(401) 539-2451", "distance": 6812.456106709424}, {"id": "1wJrMF0cAkFM2yUH9s_5Xg", "alias": "the-nordic-charlestown-2", "name": "The Nordic", "image_url": "https://s3-media4.fl.yelpcdn.com/bphoto/YFJRUSDbWbqZ_uaqyQD3Cg/o.jpg", "is_closed": false, "url": "https://www.yelp.com/biz/the-nordic-charlestown-2?adjust_creative=1woF1Kwn15wJJxNZkMIAgw&utm_campaign=yelp_api_v3&utm_medium=api_v3_business_search&utm_source=1woF1Kwn15wJJxNZkMIAgw", "review_count": 342, "categories": [{"alias": "buffets", "title": "Buffets"}, {"alias": "seafood", "title": "Seafood"}, {"alias": "steak", "title": "Steakhouses"}], "rating": 4.5, "coordinates": {"latitude": 41.4262084471543, "longitude": -71.6286110132933}, "transactions": [], "price": "$$$$", "location": {"address1": "178 Nordic Trl", "address2": "", "address3": "", "city": "Charlestown", "zip_code": "02813", "country": "US", "state": "RI", "display_address": ["178 Nordic Trl", "Charlestown, RI 02813"]}, "phone": "+14017834515", "display_phone": "(401) 783-4515", "distance": 6574.861541939879}, {"id": "7pboO5e2uHbe5ByTtUKh5A", "alias": "the-hungry-haven-charlestown", "name": "The Hungry Haven", "image_url": "https://s3-media2.fl.yelpcdn.com/bphoto/fyUT5sTLkNFZVYHeGFsLng/o.jpg", "is_closed": false, "url": "https://www.yelp.com/biz/the-hungry-haven-charlestown?adjust_creative=1woF1Kwn15wJJxNZkMIAgw&utm_campaign=yelp_api_v3&utm_medium=api_v3_business_search&utm_source=1woF1Kwn15wJJxNZkMIAgw", "review_count": 76, "categories": [{"alias": "newamerican", "title": "American (New)"}, {"alias": "breakfast_brunch", "title": "Breakfast & Brunch"}], "rating": 4.0, "coordinates": {"latitude": 41.386519, "longitude": -71.640512}, "transactions": [], "price": "$$", "location": {"address1": "5000 S County Trl", "address2": "", "address3": "", "city": "Charlestown", "zip_code": "02813", "country": "US", "state": "RI", "display_address": ["5000 S County Trl", "Charlestown, RI 02813"]}, "phone": "+14013643609", "display_phone": "(401) 364-3609", "distance": 8501.152088466979}, {"id": "-6yzBK_KobYBXCE3jLBJ4w", "alias": "brick-oven-hopkinton", "name": "Brick Oven", "image_url": "https://s3-media3.fl.yelpcdn.com/bphoto/OYYPsGwJC9qNAEJQjTzyHg/o.jpg", "is_closed": false, "url": "https://www.yelp.com/biz/brick-oven-hopkinton?adjust_creative=1woF1Kwn15wJJxNZkMIAgw&utm_campaign=yelp_api_v3&utm_medium=api_v3_business_search&utm_source=1woF1Kwn15wJJxNZkMIAgw", "review_count": 22, "categories": [{"alias": "breakfast_brunch", "title": "Breakfast & Brunch"}], "rating": 3.5, "coordinates": {"latitude": 41.42472, "longitude": -71.78527}, "transactions": ["delivery"], "price": "$", "location": {"address1": "209 Main", "address2": "", "address3": "", "city": "Hopkinton", "zip_code": "02833", "country": "US", "state": "RI", "display_address": ["209 Main", "Hopkinton, RI 02833"]}, "phone": "+14013772230", "display_phone": "(401) 377-2230", "distance": 7366.095000719506}, {"id": "Eh-9kqz5c_sFf_-rkn8dYQ", "alias": "gemelli-bistro-charlestown", "name": "Gemelli Bistro", "image_url": "https://s3-media2.fl.yelpcdn.com/bphoto/aOsdX9Cui8dvwQmAuYxDKQ/o.jpg", "is_closed": false, "url": "https://www.yelp.com/biz/gemelli-bistro-charlestown?adjust_creative=1woF1Kwn15wJJxNZkMIAgw&utm_campaign=yelp_api_v3&utm_medium=api_v3_business_search&utm_source=1woF1Kwn15wJJxNZkMIAgw", "review_count": 18, "categories": [{"alias": "delis", "title": "Delis"}, {"alias": "sandwiches", "title": "Sandwiches"}], "rating": 4.0, "coordinates": {"latitude": 41.3853367061412, "longitude": -71.6324774175882}, "transactions": [], "price": "$$", "location": {"address1": "4680 Post Rd 2 Falcone Ln", "address2": "", "address3": null, "city": "Charlestown", "zip_code": "02813", "country": "US", "state": "RI", "display_address": ["4680 Post Rd 2 Falcone Ln", "Charlestown, RI 02813"]}, "phone": "+14013642300", "display_phone": "(401) 364-2300", "distance": 9023.043025117877}, {"id": "7gUf70LOzjZ9SG9r7-25qA", "alias": "k-and-s-pizza-charlestown", "name": "K & S Pizza", "image_url": "https://s3-media2.fl.yelpcdn.com/bphoto/VRNgydNfbBKHDnjy7nNf3g/o.jpg", "is_closed": false, "url": "https://www.yelp.com/biz/k-and-s-pizza-charlestown?adjust_creative=1woF1Kwn15wJJxNZkMIAgw&utm_campaign=yelp_api_v3&utm_medium=api_v3_business_search&utm_source=1woF1Kwn15wJJxNZkMIAgw", "review_count": 26, "categories": [{"alias": "pizza", "title": "Pizza"}], "rating": 3.5, "coordinates": {"latitude": 41.4546752868335, "longitude": -71.6611065036563}, "transactions": [], "price": "$$", "location": {"address1": "469 Carolina Back Rd", "address2": "", "address3": "", "city": "Charlestown", "zip_code": "02813", "country": "US", "state": "RI", "display_address": ["469 Carolina Back Rd", "Charlestown, RI 02813"]}, "phone": "+14013640040", "display_phone": "(401) 364-0040", "distance": 3526.169807024208}, {"id": "cfA04iAoXZbGwUeT_-0sdg", "alias": "the-bakery-charlestown", "name": "The Bakery", "image_url": "https://s3-media4.fl.yelpcdn.com/bphoto/C1T9rCf9kIl0tFl4McNmrg/o.jpg", "is_closed": false, "url": "https://www.yelp.com/biz/the-bakery-charlestown?adjust_creative=1woF1Kwn15wJJxNZkMIAgw&utm_campaign=yelp_api_v3&utm_medium=api_v3_business_search&utm_source=1woF1Kwn15wJJxNZkMIAgw", "review_count": 29, "categories": [{"alias": "bakeries", "title": "Bakeries"}, {"alias": "bagels", "title": "Bagels"}, {"alias": "breakfast_brunch", "title": "Breakfast & Brunch"}], "rating": 4.5, "coordinates": {"latitude": 41.38106, "longitude": -71.62366}, "transactions": [], "price": "$$", "location": {"address1": "2 Charlestown Beach Rd", "address2": null, "address3": null, "city": "Charlestown", "zip_code": "02813", "country": "US", "state": "RI", "display_address": ["2 Charlestown Beach Rd", "Charlestown, RI 02813"]}, "phone": "+14013640070", "display_phone": "(401) 364-0070", "distance": 9861.730650687252}, {"id": "H4g9fbbMB9BVfbUDGSeTcA", "alias": "ma-and-pas-country-store-hope-valley", "name": "Ma & Pa's Country Store", "image_url": "https://s3-media3.fl.yelpcdn.com/bphoto/PkQJN-dOPgHRBUbGKxNJ6Q/o.jpg", "is_closed": false, "url": "https://www.yelp.com/biz/ma-and-pas-country-store-hope-valley?adjust_creative=1woF1Kwn15wJJxNZkMIAgw&utm_campaign=yelp_api_v3&utm_medium=api_v3_business_search&utm_source=1woF1Kwn15wJJxNZkMIAgw", "review_count": 18, "categories": [{"alias": "convenience", "title": "Convenience Stores"}, {"alias": "sandwiches", "title": "Sandwiches"}, {"alias": "delis", "title": "Delis"}], "rating": 4.0, "coordinates": {"latitude": 41.509668, "longitude": -71.713031}, "transactions": [], "price": "$$", "location": {"address1": "1044 Main St", "address2": "", "address3": "", "city": "Hope Valley", "zip_code": "02832", "country": "US", "state": "RI", "display_address": ["1044 Main St", "Hope Valley, RI 02832"]}, "phone": "+14015397053", "display_phone": "(401) 539-7053", "distance": 6986.483760124378}, {"id": "v_bPIP7E2pHKvQpzPtv4EQ", "alias": "guac-n-roll-truck-richmond", "name": "Guac\u2018n Roll Truck", "image_url": "https://s3-media1.fl.yelpcdn.com/bphoto/Y-5vV3uck4sWTcxt310xuQ/o.jpg", "is_closed": false, "url": "https://www.yelp.com/biz/guac-n-roll-truck-richmond?adjust_creative=1woF1Kwn15wJJxNZkMIAgw&utm_campaign=yelp_api_v3&utm_medium=api_v3_business_search&utm_source=1woF1Kwn15wJJxNZkMIAgw", "review_count": 3, "categories": [{"alias": "mexican", "title": "Mexican"}, {"alias": "foodtrucks", "title": "Food Trucks"}, {"alias": "tex-mex", "title": "Tex-Mex"}], "rating": 4.5, "coordinates": {"latitude": 41.512776, "longitude": -71.695398}, "transactions": [], "location": {"address1": "1219 Main St", "address2": null, "address3": "", "city": "Richmond", "zip_code": "02898", "country": "US", "state": "RI", "display_address": ["1219 Main St", "Richmond, RI 02898"]}, "phone": "+14016184822", "display_phone": "(401) 618-4822", "distance": 7297.505359634512}, {"id": "1S-Cavf_tZwoerbvAz2HCg", "alias": "bali-village-restaurant-wyoming", "name": "Bali Village Restaurant", "image_url": "https://s3-media1.fl.yelpcdn.com/bphoto/_JZabeVxQZ5vJccogcgW8g/o.jpg", "is_closed": false, "url": "https://www.yelp.com/biz/bali-village-restaurant-wyoming?adjust_creative=1woF1Kwn15wJJxNZkMIAgw&utm_campaign=yelp_api_v3&utm_medium=api_v3_business_search&utm_source=1woF1Kwn15wJJxNZkMIAgw", "review_count": 42, "categories": [{"alias": "chinese", "title": "Chinese"}], "rating": 3.0, "coordinates": {"latitude": 41.515, "longitude": -71.69838}, "transactions": [], "price": "$$", "location": {"address1": "1172 Main St", "address2": "", "address3": "", "city": "Wyoming", "zip_code": "02898", "country": "US", "state": "RI", "display_address": ["1172 Main St", "Wyoming, RI 02898"]}, "phone": "+14015399060", "display_phone": "(401) 539-9060", "distance": 7533.129376710442}, {"id": "7oq4EY0WEO840xfLS6c9iQ", "alias": "main-street-pizza-ashaway-2", "name": "Main Street Pizza", "image_url": "https://s3-media2.fl.yelpcdn.com/bphoto/ToiwOdio3GbPiiOcDcPLkg/o.jpg", "is_closed": false, "url": "https://www.yelp.com/biz/main-street-pizza-ashaway-2?adjust_creative=1woF1Kwn15wJJxNZkMIAgw&utm_campaign=yelp_api_v3&utm_medium=api_v3_business_search&utm_source=1woF1Kwn15wJJxNZkMIAgw", "review_count": 28, "categories": [{"alias": "pizza", "title": "Pizza"}], "rating": 3.5, "coordinates": {"latitude": 41.427066, "longitude": -71.784767}, "transactions": [], "price": "$", "location": {"address1": "229 Main", "address2": null, "address3": null, "city": "Ashaway", "zip_code": "02804", "country": "US", "state": "RI", "display_address": ["229 Main", "Ashaway, RI 02804"]}, "phone": "+14013776860", "display_phone": "(401) 377-6860", "distance": 7237.292679662272}, {"id": "WtVx5tGt8Y5A61as7UhrnQ", "alias": "dragon-palace-wyoming", "name": "Dragon Palace", "image_url": "https://s3-media3.fl.yelpcdn.com/bphoto/InYTvlF3CEshTeBKjuNcKg/o.jpg", "is_closed": false, "url": "https://www.yelp.com/biz/dragon-palace-wyoming?adjust_creative=1woF1Kwn15wJJxNZkMIAgw&utm_campaign=yelp_api_v3&utm_medium=api_v3_business_search&utm_source=1woF1Kwn15wJJxNZkMIAgw", "review_count": 59, "categories": [{"alias": "chinese", "title": "Chinese"}, {"alias": "japanese", "title": "Japanese"}, {"alias": "sushi", "title": "Sushi Bars"}], "rating": 3.5, "coordinates": {"latitude": 41.513876, "longitude": -71.6945421}, "transactions": [], "price": "$$", "location": {"address1": "1210 Main St", "address2": "", "address3": "", "city": "Wyoming", "zip_code": "02898", "country": "US", "state": "RI", "display_address": ["1210 Main St", "Wyoming, RI 02898"]}, "phone": "+14015391112", "display_phone": "(401) 539-1112", "distance": 7425.61673419675}, {"id": "lwPzsh8ZjmiDUrU9jSM6VQ", "alias": "petes-grocery-bradford", "name": "Pete's Grocery", "image_url": "https://s3-media2.fl.yelpcdn.com/bphoto/QAZKJiPkeBcROBPbrkO54w/o.jpg", "is_closed": false, "url": "https://www.yelp.com/biz/petes-grocery-bradford?adjust_creative=1woF1Kwn15wJJxNZkMIAgw&utm_campaign=yelp_api_v3&utm_medium=api_v3_business_search&utm_source=1woF1Kwn15wJJxNZkMIAgw", "review_count": 6, "categories": [{"alias": "grocery", "title": "Grocery"}, {"alias": "delis", "title": "Delis"}], "rating": 5.0, "coordinates": {"latitude": 41.4116829, "longitude": -71.748908}, "transactions": [], "price": "$$", "location": {"address1": "244 Ashaway Rd", "address2": "", "address3": "", "city": "Bradford", "zip_code": "02808", "country": "US", "state": "RI", "display_address": ["244 Ashaway Rd", "Bradford, RI 02808"]}, "phone": "+14013778109", "display_phone": "(401) 377-8109", "distance": 5553.8029498114975}, {"id": "aea8Lb74kpd7hfqrfc6ybg", "alias": "kingston-pizza-richmond-2", "name": "Kingston Pizza", "image_url": "https://s3-media2.fl.yelpcdn.com/bphoto/6QiIoaF67JMYzsJf8x5IGQ/o.jpg", "is_closed": false, "url": "https://www.yelp.com/biz/kingston-pizza-richmond-2?adjust_creative=1woF1Kwn15wJJxNZkMIAgw&utm_campaign=yelp_api_v3&utm_medium=api_v3_business_search&utm_source=1woF1Kwn15wJJxNZkMIAgw", "review_count": 11, "categories": [{"alias": "pizza", "title": "Pizza"}, {"alias": "italian", "title": "Italian"}, {"alias": "salad", "title": "Salad"}], "rating": 3.5, "coordinates": {"latitude": 41.49277, "longitude": -71.66015}, "transactions": [], "price": "$$", "location": {"address1": "54 Richmond Townhouse Rd", "address2": "", "address3": null, "city": "Richmond", "zip_code": "02898", "country": "US", "state": "RI", "display_address": ["54 Richmond Townhouse Rd", "Richmond, RI 02898"]}, "phone": "+14015397776", "display_phone": "(401) 539-7776", "distance": 6144.050857355115}, {"id": "Eg1u7qJMkApQo6COSf-cyg", "alias": "town-pizza-two-wyoming-2", "name": "Town Pizza Two", "image_url": "https://s3-media3.fl.yelpcdn.com/bphoto/E_G8gHIHsdG7hSut3SnFNw/o.jpg", "is_closed": false, "url": "https://www.yelp.com/biz/town-pizza-two-wyoming-2?adjust_creative=1woF1Kwn15wJJxNZkMIAgw&utm_campaign=yelp_api_v3&utm_medium=api_v3_business_search&utm_source=1woF1Kwn15wJJxNZkMIAgw", "review_count": 35, "categories": [{"alias": "pizza", "title": "Pizza"}, {"alias": "seafood", "title": "Seafood"}, {"alias": "sandwiches", "title": "Sandwiches"}], "rating": 3.5, "coordinates": {"latitude": 41.5118099, "longitude": -71.68795}, "transactions": [], "price": "$$", "location": {"address1": "18 Kingstown Rd", "address2": null, "address3": "", "city": "Wyoming", "zip_code": "02898", "country": "US", "state": "RI", "display_address": ["18 Kingstown Rd", "Wyoming, RI 02898"]}, "phone": "+14015390005", "display_phone": "(401) 539-0005", "distance": 7268.856297791698}, {"id": "h3S-G-5syTG90ppEEQKVxQ", "alias": "small-axe-cafe-charlestown", "name": "Small Axe Cafe", "image_url": "https://s3-media4.fl.yelpcdn.com/bphoto/_jPOGKUeBYG1Hk5u-fcoUw/o.jpg", "is_closed": false, "url": "https://www.yelp.com/biz/small-axe-cafe-charlestown?adjust_creative=1woF1Kwn15wJJxNZkMIAgw&utm_campaign=yelp_api_v3&utm_medium=api_v3_business_search&utm_source=1woF1Kwn15wJJxNZkMIAgw", "review_count": 25, "categories": [{"alias": "cafes", "title": "Cafes"}, {"alias": "newamerican", "title": "American (New)"}], "rating": 3.5, "coordinates": {"latitude": 41.377494, "longitude": -71.661696}, "transactions": [], "price": "$$", "location": {"address1": "4820 Old Post Rd", "address2": "", "address3": "", "city": "Charlestown", "zip_code": "02813", "country": "US", "state": "RI", "display_address": ["4820 Old Post Rd", "Charlestown, RI 02813"]}, "phone": "+14013643638", "display_phone": "(401) 364-3638", "distance": 8472.307957872405}, {"id": "3IEBIKSrUvIwPy9qBwUQEA", "alias": "kingston-coffee-charlestown", "name": "Kingston Coffee", "image_url": "https://s3-media1.fl.yelpcdn.com/bphoto/n3LnZ-PL8gzk0-HnMiD-vg/o.jpg", "is_closed": false, "url": "https://www.yelp.com/biz/kingston-coffee-charlestown?adjust_creative=1woF1Kwn15wJJxNZkMIAgw&utm_campaign=yelp_api_v3&utm_medium=api_v3_business_search&utm_source=1woF1Kwn15wJJxNZkMIAgw", "review_count": 7, "categories": [{"alias": "donuts", "title": "Donuts"}, {"alias": "coffee", "title": "Coffee & Tea"}, {"alias": "breakfast_brunch", "title": "Breakfast & Brunch"}], "rating": 3.5, "coordinates": {"latitude": 41.3844711131492, "longitude": -71.6313636302948}, "transactions": [], "location": {"address1": "4159 Old Post Rd", "address2": "", "address3": null, "city": "Charlestown", "zip_code": "02813", "country": "US", "state": "RI", "display_address": ["4159 Old Post Rd", "Charlestown, RI 02813"]}, "phone": "", "display_phone": "", "distance": 9156.529869328355}, {"id": "sPbbTlBvfoSYeFhXw4kuCw", "alias": "breachway-gourmet-charlestown-3", "name": "Breachway Gourmet", "image_url": "https://s3-media4.fl.yelpcdn.com/bphoto/8sQoam0vCEWN50LJAa0Xnw/o.jpg", "is_closed": false, "url": "https://www.yelp.com/biz/breachway-gourmet-charlestown-3?adjust_creative=1woF1Kwn15wJJxNZkMIAgw&utm_campaign=yelp_api_v3&utm_medium=api_v3_business_search&utm_source=1woF1Kwn15wJJxNZkMIAgw", "review_count": 9, "categories": [{"alias": "salad", "title": "Salad"}, {"alias": "sandwiches", "title": "Sandwiches"}, {"alias": "delis", "title": "Delis"}], "rating": 3.5, "coordinates": {"latitude": 41.38112, "longitude": -71.62438}, "transactions": [], "location": {"address1": "1 Charlestown Beach Rd", "address2": "", "address3": null, "city": "Charlestown", "zip_code": "02813", "country": "US", "state": "RI", "display_address": ["1 Charlestown Beach Rd", "Charlestown, RI 02813"]}, "phone": "+14013649000", "display_phone": "(401) 364-9000", "distance": 9812.968306563642}, {"id": "SosyaavezZ5us4UmOSa9Xg", "alias": "lucky-house-hopkinton", "name": "Lucky House", "image_url": "https://s3-media2.fl.yelpcdn.com/bphoto/_G9RX0tGNiGDTdQ5yB2RPQ/o.jpg", "is_closed": false, "url": "https://www.yelp.com/biz/lucky-house-hopkinton?adjust_creative=1woF1Kwn15wJJxNZkMIAgw&utm_campaign=yelp_api_v3&utm_medium=api_v3_business_search&utm_source=1woF1Kwn15wJJxNZkMIAgw", "review_count": 41, "categories": [{"alias": "chinese", "title": "Chinese"}], "rating": 3.5, "coordinates": {"latitude": 41.40332, "longitude": -71.79777}, "transactions": [], "price": "$$", "location": {"address1": "32 Main", "address2": "", "address3": "", "city": "Hopkinton", "zip_code": "02833", "country": "US", "state": "RI", "display_address": ["32 Main", "Hopkinton, RI 02833"]}, "phone": "+14015963922", "display_phone": "(401) 596-3922", "distance": 9330.612268103067}, {"id": "qmt8pjP5aOSByAZ-bf9b4A", "alias": "the-corner-deli-charlestown", "name": "The Corner Deli", "image_url": "https://s3-media3.fl.yelpcdn.com/bphoto/qRtyx61FMQXD-_1MnP8VMQ/o.jpg", "is_closed": false, "url": "https://www.yelp.com/biz/the-corner-deli-charlestown?adjust_creative=1woF1Kwn15wJJxNZkMIAgw&utm_campaign=yelp_api_v3&utm_medium=api_v3_business_search&utm_source=1woF1Kwn15wJJxNZkMIAgw", "review_count": 12, "categories": [{"alias": "delis", "title": "Delis"}, {"alias": "sandwiches", "title": "Sandwiches"}], "rating": 3.5, "coordinates": {"latitude": 41.3812755793333, "longitude": -71.6238138824701}, "transactions": [], "price": "$", "location": {"address1": "2 Charlestown Beach Rd", "address2": null, "address3": null, "city": "Charlestown", "zip_code": "02813", "country": "US", "state": "RI", "display_address": ["2 Charlestown Beach Rd", "Charlestown, RI 02813"]}, "phone": "", "display_phone": "", "distance": 9861.730650687252}, {"id": "qwoF-Ul8hal3aV74aPKu0A", "alias": "the-breachway-grill-charlestown", "name": "The Breachway Grill", "image_url": "https://s3-media4.fl.yelpcdn.com/bphoto/a8J2mLBFsW9BK83zypwUvQ/o.jpg", "is_closed": false, "url": "https://www.yelp.com/biz/the-breachway-grill-charlestown?adjust_creative=1woF1Kwn15wJJxNZkMIAgw&utm_campaign=yelp_api_v3&utm_medium=api_v3_business_search&utm_source=1woF1Kwn15wJJxNZkMIAgw", "review_count": 127, "categories": [{"alias": "pizza", "title": "Pizza"}, {"alias": "seafood", "title": "Seafood"}, {"alias": "burgers", "title": "Burgers"}], "rating": 3.5, "coordinates": {"latitude": 41.38112, "longitude": -71.62438}, "transactions": [], "price": "$$", "location": {"address1": "1 Charlestown Beach Rd", "address2": "", "address3": "", "city": "Charlestown", "zip_code": "02813", "country": "US", "state": "RI", "display_address": ["1 Charlestown Beach Rd", "Charlestown, RI 02813"]}, "phone": "+14012136615", "display_phone": "(401) 213-6615", "distance": 9812.968306563642}, {"id": "nVhIlC6gLW2iY66agtKhKw", "alias": "johnny-pastrami-north-stonington", "name": "Johnny Pastrami", "image_url": "", "is_closed": false, "url": "https://www.yelp.com/biz/johnny-pastrami-north-stonington?adjust_creative=1woF1Kwn15wJJxNZkMIAgw&utm_campaign=yelp_api_v3&utm_medium=api_v3_business_search&utm_source=1woF1Kwn15wJJxNZkMIAgw", "review_count": 4, "categories": [{"alias": "tradamerican", "title": "American (Traditional)"}], "rating": 2.0, "coordinates": {"latitude": 41.4424625, "longitude": -71.8015894}, "transactions": [], "price": "$", "location": {"address1": "273 Clarks Falls Rd", "address2": "", "address3": "", "city": "North Stonington", "zip_code": "06359", "country": "US", "state": "CT", "display_address": ["273 Clarks Falls Rd", "North Stonington, CT 06359"]}, "phone": "+18605992020", "display_phone": "(860) 599-2020", "distance": 8296.107835350656}, {"id": "Io4C5tUwnb_YzeaMXHBqBA", "alias": "shuckin-truck-narragansett-2", "name": "Shuckin Truck", "image_url": "https://s3-media2.fl.yelpcdn.com/bphoto/r7QRORfe9UYVS7GGzUm9DQ/o.jpg", "is_closed": false, "url": "https://www.yelp.com/biz/shuckin-truck-narragansett-2?adjust_creative=1woF1Kwn15wJJxNZkMIAgw&utm_campaign=yelp_api_v3&utm_medium=api_v3_business_search&utm_source=1woF1Kwn15wJJxNZkMIAgw", "review_count": 24, "categories": [{"alias": "foodtrucks", "title": "Food Trucks"}, {"alias": "seafood", "title": "Seafood"}], "rating": 4.5, "coordinates": {"latitude": 41.4274482727051, "longitude": -71.4597778320313}, "transactions": [], "price": "$$", "location": {"address1": "", "address2": "", "address3": "", "city": "Narragansett", "zip_code": "02882", "country": "US", "state": "RI", "display_address": ["Narragansett, RI 02882"]}, "phone": "+14017415953", "display_phone": "(401) 741-5953", "distance": 18574.512087236817}, {"id": "nTvimo4mrloFkMz2A-9vwQ", "alias": "sbarro-north-stonington", "name": "Sbarro", "image_url": "https://s3-media4.fl.yelpcdn.com/bphoto/dwluJOAAnczIQ86IjjNisQ/o.jpg", "is_closed": false, "url": "https://www.yelp.com/biz/sbarro-north-stonington?adjust_creative=1woF1Kwn15wJJxNZkMIAgw&utm_campaign=yelp_api_v3&utm_medium=api_v3_business_search&utm_source=1woF1Kwn15wJJxNZkMIAgw", "review_count": 5, "categories": [{"alias": "hotdogs", "title": "Fast Food"}, {"alias": "pizza", "title": "Pizza"}], "rating": 4.0, "coordinates": {"latitude": 41.4417130115424, "longitude": -71.8002784252167}, "transactions": [], "price": "$", "location": {"address1": "247-285 Clarks Falls Rd", "address2": "", "address3": "", "city": "North Stonington", "zip_code": "06359", "country": "US", "state": "CT", "display_address": ["247-285 Clarks Falls Rd", "North Stonington, CT 06359"]}, "phone": "+18605992020", "display_phone": "(860) 599-2020", "distance": 8193.072660429001}, {"id": "dVAAh_ia1QlYYkI3asgP7A", "alias": "subway-north-stonington-2", "name": "Subway", "image_url": "https://s3-media3.fl.yelpcdn.com/bphoto/JDywlxgLBkBbnKzRynv-OA/o.jpg", "is_closed": false, "url": "https://www.yelp.com/biz/subway-north-stonington-2?adjust_creative=1woF1Kwn15wJJxNZkMIAgw&utm_campaign=yelp_api_v3&utm_medium=api_v3_business_search&utm_source=1woF1Kwn15wJJxNZkMIAgw", "review_count": 1, "categories": [{"alias": "sandwiches", "title": "Sandwiches"}], "rating": 4.0, "coordinates": {"latitude": 41.4389453238396, "longitude": -71.7978903172862}, "transactions": [], "price": "$", "location": {"address1": "323 Clarks Falls Rd", "address2": null, "address3": null, "city": "North Stonington", "zip_code": "06359", "country": "US", "state": "CT", "display_address": ["323 Clarks Falls Rd", "North Stonington, CT 06359"]}, "phone": "+18605995512", "display_phone": "(860) 599-5512", "distance": 8024.771068114216}, {"id": "HSTjKSfiJNbc4SBFH6ELOA", "alias": "wendys-richmond-39", "name": "Wendy's", "image_url": "https://s3-media3.fl.yelpcdn.com/bphoto/EJFLSIoLG0VOAIgMLni6Cw/o.jpg", "is_closed": false, "url": "https://www.yelp.com/biz/wendys-richmond-39?adjust_creative=1woF1Kwn15wJJxNZkMIAgw&utm_campaign=yelp_api_v3&utm_medium=api_v3_business_search&utm_source=1woF1Kwn15wJJxNZkMIAgw", "review_count": 26, "categories": [{"alias": "burgers", "title": "Burgers"}, {"alias": "hotdogs", "title": "Fast Food"}], "rating": 1.5, "coordinates": {"latitude": 41.5105143122983, "longitude": -71.6839398225724}, "transactions": [], "price": "$", "location": {"address1": "1 Stilson Rd", "address2": "", "address3": "", "city": "Richmond", "zip_code": "02898", "country": "US", "state": "RI", "display_address": ["1 Stilson Rd", "Richmond, RI 02898"]}, "phone": "+14015390630", "display_phone": "(401) 539-0630", "distance": 7187.9382203164805}, {"id": "AdseOKvyVERhOwOhyRTmsw", "alias": "charlestown-famous-pizza-charlestown", "name": "Charlestown Famous Pizza", "image_url": "https://s3-media3.fl.yelpcdn.com/bphoto/BznQVmgaLPXJaaflQbdXbg/o.jpg", "is_closed": false, "url": "https://www.yelp.com/biz/charlestown-famous-pizza-charlestown?adjust_creative=1woF1Kwn15wJJxNZkMIAgw&utm_campaign=yelp_api_v3&utm_medium=api_v3_business_search&utm_source=1woF1Kwn15wJJxNZkMIAgw", "review_count": 25, "categories": [{"alias": "pizza", "title": "Pizza"}, {"alias": "sandwiches", "title": "Sandwiches"}], "rating": 3.0, "coordinates": {"latitude": 41.38745, "longitude": -71.62442}, "transactions": [], "price": "$$", "location": {"address1": "3986 Old Post Rd", "address2": "Rte 1A", "address3": null, "city": "Charlestown", "zip_code": "02813", "country": "US", "state": "RI", "display_address": ["3986 Old Post Rd", "Rte 1A", "Charlestown, RI 02813"]}, "phone": "+14013640020", "display_phone": "(401) 364-0020", "distance": 9308.586441164387}, {"id": "_nvHgrMhlDbby-RZFD3adA", "alias": "charlestown-mini-super-charlestown", "name": "Charlestown Mini-Super", "image_url": "https://s3-media2.fl.yelpcdn.com/bphoto/S6XKQMlLWOZPkshiZXTVGg/o.jpg", "is_closed": false, "url": "https://www.yelp.com/biz/charlestown-mini-super-charlestown?adjust_creative=1woF1Kwn15wJJxNZkMIAgw&utm_campaign=yelp_api_v3&utm_medium=api_v3_business_search&utm_source=1woF1Kwn15wJJxNZkMIAgw", "review_count": 28, "categories": [{"alias": "bakeries", "title": "Bakeries"}, {"alias": "grocery", "title": "Grocery"}, {"alias": "seafoodmarkets", "title": "Seafood Markets"}], "rating": 3.5, "coordinates": {"latitude": 41.38687, "longitude": -71.62808}, "transactions": [], "price": "$$", "location": {"address1": "4071 Old Post Rd", "address2": "", "address3": "", "city": "Charlestown", "zip_code": "02813", "country": "US", "state": "RI", "display_address": ["4071 Old Post Rd", "Charlestown, RI 02813"]}, "phone": "+14013646600", "display_phone": "(401) 364-6600", "distance": 9135.99032168723}, {"id": "AUxLtRlI5vkBFxXqvRFoxQ", "alias": "mcdonalds-wyoming-3", "name": "McDonald's", "image_url": "https://s3-media3.fl.yelpcdn.com/bphoto/8ATmPhLg3ytOg9ObhCtS-A/o.jpg", "is_closed": false, "url": "https://www.yelp.com/biz/mcdonalds-wyoming-3?adjust_creative=1woF1Kwn15wJJxNZkMIAgw&utm_campaign=yelp_api_v3&utm_medium=api_v3_business_search&utm_source=1woF1Kwn15wJJxNZkMIAgw", "review_count": 22, "categories": [{"alias": "hotdogs", "title": "Fast Food"}, {"alias": "burgers", "title": "Burgers"}, {"alias": "coffee", "title": "Coffee & Tea"}], "rating": 2.0, "coordinates": {"latitude": 41.5122912216178, "longitude": -71.6882493}, "transactions": [], "price": "$", "location": {"address1": "14 Kingston Rd", "address2": "", "address3": "", "city": "Wyoming", "zip_code": "02898", "country": "US", "state": "RI", "display_address": ["14 Kingston Rd", "Wyoming, RI 02898"]}, "phone": "+14015391115", "display_phone": "(401) 539-1115", "distance": 7315.28973183284}, {"id": "ZlpZpHXjDNk7asg4jQ06SQ", "alias": "subway-richmond-157", "name": "Subway", "image_url": "https://s3-media2.fl.yelpcdn.com/bphoto/UaawUmwID5d3PeJxubLkvA/o.jpg", "is_closed": false, "url": "https://www.yelp.com/biz/subway-richmond-157?adjust_creative=1woF1Kwn15wJJxNZkMIAgw&utm_campaign=yelp_api_v3&utm_medium=api_v3_business_search&utm_source=1woF1Kwn15wJJxNZkMIAgw", "review_count": 4, "categories": [{"alias": "sandwiches", "title": "Sandwiches"}], "rating": 3.0, "coordinates": {"latitude": 41.514932, "longitude": -71.6970314926564}, "transactions": [], "price": "$", "location": {"address1": "1190 Main St", "address2": "Unit 302", "address3": null, "city": "Richmond", "zip_code": "02898", "country": "US", "state": "RI", "display_address": ["1190 Main St", "Unit 302", "Richmond, RI 02898"]}, "phone": "+14014919789", "display_phone": "(401) 491-9789", "distance": 7527.73793252475}, {"id": "9UUs9kALiSi7lqbDzm9iCg", "alias": "kingston-pizza-charleston", "name": "Kingston Pizza", "image_url": "https://s3-media3.fl.yelpcdn.com/bphoto/o0IIW5YI1X3DC-yGhPn42w/o.jpg", "is_closed": false, "url": "https://www.yelp.com/biz/kingston-pizza-charleston?adjust_creative=1woF1Kwn15wJJxNZkMIAgw&utm_campaign=yelp_api_v3&utm_medium=api_v3_business_search&utm_source=1woF1Kwn15wJJxNZkMIAgw", "review_count": 27, "categories": [{"alias": "pizza", "title": "Pizza"}], "rating": 2.0, "coordinates": {"latitude": 41.3835411, "longitude": -71.6318817}, "transactions": [], "price": "$$", "location": {"address1": "4159 Old Post Rd", "address2": "", "address3": "", "city": "Charleston", "zip_code": "02813", "country": "US", "state": "RI", "display_address": ["4159 Old Post Rd", "Charleston, RI 02813"]}, "phone": "+14013647300", "display_phone": "(401) 364-7300", "distance": 9155.914257786011}]