[{"id": "5GAnvuVaAtvKO1W9Jkl2Iw", "alias": "alainas-ale-house-richmond", "name": "Alaina's Ale House", "image_url": "https://s3-media1.fl.yelpcdn.com/bphoto/Wpp0231Mj90RNBXIvJWVuA/o.jpg", "is_closed": false, "url": "https://www.yelp.com/biz/alainas-ale-house-richmond?adjust_creative=9VzDKP4DqSuZkRYYaMKPjA&utm_campaign=yelp_api_v3&utm_medium=api_v3_business_search&utm_source=9VzDKP4DqSuZkRYYaMKPjA", "review_count": 36, "categories": [{"alias": "irish_pubs", "title": "Irish Pub"}, {"alias": "comfortfood", "title": "Comfort Food"}], "rating": 4.5, "coordinates": {"latitude": 41.496851, "longitude": -71.636585}, "transactions": [], "price": "$$", "location": {"address1": "343 Kingstown Rd", "address2": "", "address3": null, "city": "Richmond", "zip_code": "02892", "country": "US", "state": "RI", "display_address": ["343 Kingstown Rd", "Richmond, RI 02892"]}, "phone": "+14015397300", "display_phone": "(401) 539-7300", "distance": 4922.4603705240925}, {"id": "m7YxP9jWLnTUwsS72sbxfA", "alias": "the-charlestown-rathskeller-charlestown", "name": "The Charlestown Rathskeller", "image_url": "https://s3-media1.fl.yelpcdn.com/bphoto/JedVP1NgtnoOeZH_r1yItQ/o.jpg", "is_closed": false, "url": "https://www.yelp.com/biz/the-charlestown-rathskeller-charlestown?adjust_creative=9VzDKP4DqSuZkRYYaMKPjA&utm_campaign=yelp_api_v3&utm_medium=api_v3_business_search&utm_source=9VzDKP4DqSuZkRYYaMKPjA", "review_count": 215, "categories": [{"alias": "pubs", "title": "Pubs"}, {"alias": "burgers", "title": "Burgers"}, {"alias": "tradamerican", "title": "American (Traditional)"}], "rating": 3.5, "coordinates": {"latitude": 41.424044, "longitude": -71.61319}, "transactions": [], "price": "$$", "location": {"address1": "489A Old Coach Rd", "address2": "", "address3": "", "city": "Charlestown", "zip_code": "02813", "country": "US", "state": "RI", "display_address": ["489A Old Coach Rd", "Charlestown, RI 02813"]}, "phone": "+14017921000", "display_phone": "(401) 792-1000", "distance": 3407.5674927024}, {"id": "L_dNp1b0WXg52Mw2df0T4A", "alias": "matunuck-oyster-bar-south-kingstown", "name": "Matunuck Oyster Bar", "image_url": "https://s3-media1.fl.yelpcdn.com/bphoto/HIk9Yw67X3csCp9rhcQ7Zw/o.jpg", "is_closed": false, "url": "https://www.yelp.com/biz/matunuck-oyster-bar-south-kingstown?adjust_creative=9VzDKP4DqSuZkRYYaMKPjA&utm_campaign=yelp_api_v3&utm_medium=api_v3_business_search&utm_source=9VzDKP4DqSuZkRYYaMKPjA", "review_count": 1154, "categories": [{"alias": "seafood", "title": "Seafood"}], "rating": 4.5, "coordinates": {"latitude": 41.3862344652463, "longitude": -71.5262129826584}, "transactions": [], "price": "$$", "location": {"address1": "629 Succotash Rd", "address2": "", "address3": "", "city": "South Kingstown", "zip_code": "02879", "country": "US", "state": "RI", "display_address": ["629 Succotash Rd", "South Kingstown, RI 02879"]}, "phone": "+14017834202", "display_phone": "(401) 783-4202", "distance": 10954.120350399658}, {"id": "rCR2-CbyuxntsRAAGtfGwg", "alias": "tillys-cheesesteaks-west-kingston", "name": "Tilly's Cheesesteaks", "image_url": "https://s3-media3.fl.yelpcdn.com/bphoto/kBdwxxiuskUi3pOhVL9J0w/o.jpg", "is_closed": false, "url": "https://www.yelp.com/biz/tillys-cheesesteaks-west-kingston?adjust_creative=9VzDKP4DqSuZkRYYaMKPjA&utm_campaign=yelp_api_v3&utm_medium=api_v3_business_search&utm_source=9VzDKP4DqSuZkRYYaMKPjA", "review_count": 261, "categories": [{"alias": "cheesesteaks", "title": "Cheesesteaks"}, {"alias": "newamerican", "title": "American (New)"}, {"alias": "sandwiches", "title": "Sandwiches"}], "rating": 4.0, "coordinates": {"latitude": 41.485976, "longitude": -71.563709}, "transactions": [], "price": "$$", "location": {"address1": "3711 Kingstown Rd", "address2": "", "address3": null, "city": "West Kingston", "zip_code": "02892", "country": "US", "state": "RI", "display_address": ["3711 Kingstown Rd", "West Kingston, RI 02892"]}, "phone": "+14017837711", "display_phone": "(401) 783-7711", "distance": 5982.605741769508}, {"id": "JLoH-YkReFoUoEN3VCLL4w", "alias": "bouchers-wood-river-inn-wyoming", "name": "Boucher's Wood River Inn", "image_url": "https://s3-media3.fl.yelpcdn.com/bphoto/1XgE3dIGSPlgxbvLOjTJoQ/o.jpg", "is_closed": false, "url": "https://www.yelp.com/biz/bouchers-wood-river-inn-wyoming?adjust_creative=9VzDKP4DqSuZkRYYaMKPjA&utm_campaign=yelp_api_v3&utm_medium=api_v3_business_search&utm_source=9VzDKP4DqSuZkRYYaMKPjA", "review_count": 60, "categories": [{"alias": "tradamerican", "title": "American (Traditional)"}, {"alias": "breakfast_brunch", "title": "Breakfast & Brunch"}, {"alias": "burgers", "title": "Burgers"}], "rating": 4.0, "coordinates": {"latitude": 41.514980218318, "longitude": -71.702437510575}, "transactions": [], "price": "$$", "location": {"address1": "1139 Main St", "address2": "", "address3": "", "city": "Wyoming", "zip_code": "02898", "country": "US", "state": "RI", "display_address": ["1139 Main St", "Wyoming, RI 02898"]}, "phone": "+14015399800", "display_phone": "(401) 539-9800", "distance": 9558.02773455188}, {"id": "V9TwViQcxLHbk1nb1gtF0A", "alias": "the-cove-restaurant-charlestown", "name": "The Cove Restaurant", "image_url": "https://s3-media2.fl.yelpcdn.com/bphoto/6wSeVU9P5tAyLYBIFvS3Zw/o.jpg", "is_closed": false, "url": "https://www.yelp.com/biz/the-cove-restaurant-charlestown?adjust_creative=9VzDKP4DqSuZkRYYaMKPjA&utm_campaign=yelp_api_v3&utm_medium=api_v3_business_search&utm_source=9VzDKP4DqSuZkRYYaMKPjA", "review_count": 105, "categories": [{"alias": "seafood", "title": "Seafood"}, {"alias": "burgers", "title": "Burgers"}, {"alias": "tradamerican", "title": "American (Traditional)"}], "rating": 3.5, "coordinates": {"latitude": 41.38801, "longitude": -71.62355}, "transactions": [], "price": "$$", "location": {"address1": "3963 Old Post Rd", "address2": "", "address3": "", "city": "Charlestown", "zip_code": "02813", "country": "US", "state": "RI", "display_address": ["3963 Old Post Rd", "Charlestown, RI 02813"]}, "phone": "+14013649222", "display_phone": "(401) 364-9222", "distance": 7338.831878597564}, {"id": "aJpADNlc7HsFLelDyU5sCw", "alias": "11th-green-restaurant-and-pub-hope-valley", "name": "11th Green Restaurant & Pub", "image_url": "https://s3-media1.fl.yelpcdn.com/bphoto/qEAM1gVez4sxGMZNc2c32w/o.jpg", "is_closed": false, "url": "https://www.yelp.com/biz/11th-green-restaurant-and-pub-hope-valley?adjust_creative=9VzDKP4DqSuZkRYYaMKPjA&utm_campaign=yelp_api_v3&utm_medium=api_v3_business_search&utm_source=9VzDKP4DqSuZkRYYaMKPjA", "review_count": 17, "categories": [{"alias": "pubs", "title": "Pubs"}, {"alias": "newamerican", "title": "American (New)"}], "rating": 4.5, "coordinates": {"latitude": 41.4482724, "longitude": -71.7235942}, "transactions": [], "price": "$$", "location": {"address1": "78 Woodville Alton Rd", "address2": null, "address3": null, "city": "Hope Valley", "zip_code": "02832", "country": "US", "state": "RI", "display_address": ["78 Woodville Alton Rd", "Hope Valley, RI 02832"]}, "phone": "+14013640700", "display_phone": "(401) 364-0700", "distance": 8402.726570696912}, {"id": "qwoF-Ul8hal3aV74aPKu0A", "alias": "the-breachway-grill-charlestown", "name": "The Breachway Grill", "image_url": "https://s3-media4.fl.yelpcdn.com/bphoto/a8J2mLBFsW9BK83zypwUvQ/o.jpg", "is_closed": false, "url": "https://www.yelp.com/biz/the-breachway-grill-charlestown?adjust_creative=9VzDKP4DqSuZkRYYaMKPjA&utm_campaign=yelp_api_v3&utm_medium=api_v3_business_search&utm_source=9VzDKP4DqSuZkRYYaMKPjA", "review_count": 127, "categories": [{"alias": "pizza", "title": "Pizza"}, {"alias": "seafood", "title": "Seafood"}, {"alias": "burgers", "title": "Burgers"}], "rating": 3.5, "coordinates": {"latitude": 41.38112, "longitude": -71.62438}, "transactions": [], "price": "$$", "location": {"address1": "1 Charlestown Beach Rd", "address2": "", "address3": "", "city": "Charlestown", "zip_code": "02813", "country": "US", "state": "RI", "display_address": ["1 Charlestown Beach Rd", "Charlestown, RI 02813"]}, "phone": "+14012136615", "display_phone": "(401) 213-6615", "distance": 8110.270907972651}, {"id": "7gUf70LOzjZ9SG9r7-25qA", "alias": "k-and-s-pizza-charlestown", "name": "K & S Pizza", "image_url": "https://s3-media2.fl.yelpcdn.com/bphoto/VRNgydNfbBKHDnjy7nNf3g/o.jpg", "is_closed": false, "url": "https://www.yelp.com/biz/k-and-s-pizza-charlestown?adjust_creative=9VzDKP4DqSuZkRYYaMKPjA&utm_campaign=yelp_api_v3&utm_medium=api_v3_business_search&utm_source=9VzDKP4DqSuZkRYYaMKPjA", "review_count": 26, "categories": [{"alias": "pizza", "title": "Pizza"}], "rating": 3.5, "coordinates": {"latitude": 41.4546752868335, "longitude": -71.6611065036563}, "transactions": [], "price": "$$", "location": {"address1": "469 Carolina Back Rd", "address2": "", "address3": "", "city": "Charlestown", "zip_code": "02813", "country": "US", "state": "RI", "display_address": ["469 Carolina Back Rd", "Charlestown, RI 02813"]}, "phone": "+14013640040", "display_phone": "(401) 364-0040", "distance": 3301.168872232255}, {"id": "7pboO5e2uHbe5ByTtUKh5A", "alias": "the-hungry-haven-charlestown", "name": "The Hungry Haven", "image_url": "https://s3-media2.fl.yelpcdn.com/bphoto/fyUT5sTLkNFZVYHeGFsLng/o.jpg", "is_closed": false, "url": "https://www.yelp.com/biz/the-hungry-haven-charlestown?adjust_creative=9VzDKP4DqSuZkRYYaMKPjA&utm_campaign=yelp_api_v3&utm_medium=api_v3_business_search&utm_source=9VzDKP4DqSuZkRYYaMKPjA", "review_count": 76, "categories": [{"alias": "newamerican", "title": "American (New)"}, {"alias": "breakfast_brunch", "title": "Breakfast & Brunch"}], "rating": 4.0, "coordinates": {"latitude": 41.386519, "longitude": -71.640512}, "transactions": [], "price": "$$", "location": {"address1": "5000 S County Trl", "address2": "", "address3": "", "city": "Charlestown", "zip_code": "02813", "country": "US", "state": "RI", "display_address": ["5000 S County Trl", "Charlestown, RI 02813"]}, "phone": "+14013643609", "display_phone": "(401) 364-3609", "distance": 7674.383239125832}, {"id": "Fi7z65ofjwuWdj5gEBVdxw", "alias": "celestial-cafe-exeter", "name": "Celestial Cafe", "image_url": "https://s3-media2.fl.yelpcdn.com/bphoto/i2hHyybC7aaaqK3ul-KWpQ/o.jpg", "is_closed": false, "url": "https://www.yelp.com/biz/celestial-cafe-exeter?adjust_creative=9VzDKP4DqSuZkRYYaMKPjA&utm_campaign=yelp_api_v3&utm_medium=api_v3_business_search&utm_source=9VzDKP4DqSuZkRYYaMKPjA", "review_count": 159, "categories": [{"alias": "newamerican", "title": "American (New)"}, {"alias": "breakfast_brunch", "title": "Breakfast & Brunch"}, {"alias": "cocktailbars", "title": "Cocktail Bars"}], "rating": 4.0, "coordinates": {"latitude": 41.526923, "longitude": -71.552297}, "transactions": [], "price": "$$", "location": {"address1": "567 S County Trail Rte 2", "address2": null, "address3": "", "city": "Exeter", "zip_code": "02822", "country": "US", "state": "RI", "display_address": ["567 S County Trail Rte 2", "Exeter, RI 02822"]}, "phone": "+14012955559", "display_phone": "(401) 295-5559", "distance": 9944.395812871522}, {"id": "1wJrMF0cAkFM2yUH9s_5Xg", "alias": "the-nordic-charlestown-2", "name": "The Nordic", "image_url": "https://s3-media4.fl.yelpcdn.com/bphoto/YFJRUSDbWbqZ_uaqyQD3Cg/o.jpg", "is_closed": false, "url": "https://www.yelp.com/biz/the-nordic-charlestown-2?adjust_creative=9VzDKP4DqSuZkRYYaMKPjA&utm_campaign=yelp_api_v3&utm_medium=api_v3_business_search&utm_source=9VzDKP4DqSuZkRYYaMKPjA", "review_count": 342, "categories": [{"alias": "buffets", "title": "Buffets"}, {"alias": "seafood", "title": "Seafood"}, {"alias": "steak", "title": "Steakhouses"}], "rating": 4.5, "coordinates": {"latitude": 41.4262084471543, "longitude": -71.6286110132933}, "transactions": [], "price": "$$$$", "location": {"address1": "178 Nordic Trl", "address2": "", "address3": "", "city": "Charlestown", "zip_code": "02813", "country": "US", "state": "RI", "display_address": ["178 Nordic Trl", "Charlestown, RI 02813"]}, "phone": "+14017834515", "display_phone": "(401) 783-4515", "distance": 3151.8530362751103}, {"id": "R8Yka3q_tHzWTbMw8nii7Q", "alias": "homestead-restaurant-exeter", "name": "Homestead Restaurant", "image_url": "https://s3-media2.fl.yelpcdn.com/bphoto/Z15ZjhjhAS1zACJO1pHP4A/o.jpg", "is_closed": false, "url": "https://www.yelp.com/biz/homestead-restaurant-exeter?adjust_creative=9VzDKP4DqSuZkRYYaMKPjA&utm_campaign=yelp_api_v3&utm_medium=api_v3_business_search&utm_source=9VzDKP4DqSuZkRYYaMKPjA", "review_count": 35, "categories": [{"alias": "newamerican", "title": "American (New)"}], "rating": 3.5, "coordinates": {"latitude": 41.51598, "longitude": -71.55529}, "transactions": [], "price": "$$", "location": {"address1": "750 S County Trl", "address2": "", "address3": "", "city": "Exeter", "zip_code": "02822", "country": "US", "state": "RI", "display_address": ["750 S County Trl", "Exeter, RI 02822"]}, "phone": "+14012947810", "display_phone": "(401) 294-7810", "distance": 8767.936431470367}, {"id": "P23oRsUl1r4RnkWRFo-M3w", "alias": "bon-bon-appetit-exeter", "name": "Bon Bon Appetit", "image_url": "https://s3-media3.fl.yelpcdn.com/bphoto/HURnDXedij26evyQCNFxTg/o.jpg", "is_closed": false, "url": "https://www.yelp.com/biz/bon-bon-appetit-exeter?adjust_creative=9VzDKP4DqSuZkRYYaMKPjA&utm_campaign=yelp_api_v3&utm_medium=api_v3_business_search&utm_source=9VzDKP4DqSuZkRYYaMKPjA", "review_count": 18, "categories": [{"alias": "foodtrucks", "title": "Food Trucks"}, {"alias": "seafood", "title": "Seafood"}], "rating": 4.5, "coordinates": {"latitude": 41.5238918325676, "longitude": -71.5528376707628}, "transactions": [], "price": "$", "location": {"address1": "622 S County Traill", "address2": "", "address3": null, "city": "Exeter", "zip_code": "02822", "country": "US", "state": "RI", "display_address": ["622 S County Traill", "Exeter, RI 02822"]}, "phone": "+14012123020", "display_phone": "(401) 212-3020", "distance": 9645.028705059556}, {"id": "2qZqMD5aSQxsDn5AMK-g9Q", "alias": "wolf-rocks-country-kitchen-slocum", "name": "Wolf Rock's Country Kitchen", "image_url": "https://s3-media3.fl.yelpcdn.com/bphoto/O2f7pE2eXJRdYoJdQ1rm5A/o.jpg", "is_closed": false, "url": "https://www.yelp.com/biz/wolf-rocks-country-kitchen-slocum?adjust_creative=9VzDKP4DqSuZkRYYaMKPjA&utm_campaign=yelp_api_v3&utm_medium=api_v3_business_search&utm_source=9VzDKP4DqSuZkRYYaMKPjA", "review_count": 7, "categories": [{"alias": "tradamerican", "title": "American (Traditional)"}], "rating": 4.5, "coordinates": {"latitude": 41.511644, "longitude": -71.556428}, "transactions": [], "price": "$", "location": {"address1": "806 S County Trail", "address2": "", "address3": "", "city": "Slocum", "zip_code": "02877", "country": "US", "state": "RI", "display_address": ["806 S County Trail", "Slocum, RI 02877"]}, "phone": "+14012944981", "display_phone": "(401) 294-4981", "distance": 8390.585939727953}, {"id": "aea8Lb74kpd7hfqrfc6ybg", "alias": "kingston-pizza-richmond-2", "name": "Kingston Pizza", "image_url": "https://s3-media2.fl.yelpcdn.com/bphoto/6QiIoaF67JMYzsJf8x5IGQ/o.jpg", "is_closed": false, "url": "https://www.yelp.com/biz/kingston-pizza-richmond-2?adjust_creative=9VzDKP4DqSuZkRYYaMKPjA&utm_campaign=yelp_api_v3&utm_medium=api_v3_business_search&utm_source=9VzDKP4DqSuZkRYYaMKPjA", "review_count": 11, "categories": [{"alias": "pizza", "title": "Pizza"}, {"alias": "italian", "title": "Italian"}, {"alias": "salad", "title": "Salad"}], "rating": 3.5, "coordinates": {"latitude": 41.49277, "longitude": -71.66015}, "transactions": [], "price": "$$", "location": {"address1": "54 Richmond Townhouse Rd", "address2": "", "address3": null, "city": "Richmond", "zip_code": "02898", "country": "US", "state": "RI", "display_address": ["54 Richmond Townhouse Rd", "Richmond, RI 02898"]}, "phone": "+14015397776", "display_phone": "(401) 539-7776", "distance": 5390.407701999303}, {"id": "PNvu2b-ECC2xvnkpaTlE3g", "alias": "eat-style-south-kingstown", "name": "Eat Style", "image_url": "https://s3-media3.fl.yelpcdn.com/bphoto/f6es0eA2Z7DT2USn4iOcAg/o.jpg", "is_closed": false, "url": "https://www.yelp.com/biz/eat-style-south-kingstown?adjust_creative=9VzDKP4DqSuZkRYYaMKPjA&utm_campaign=yelp_api_v3&utm_medium=api_v3_business_search&utm_source=9VzDKP4DqSuZkRYYaMKPjA", "review_count": 1, "categories": [{"alias": "ramen", "title": "Ramen"}, {"alias": "bubbletea", "title": "Bubble Tea"}], "rating": 2.0, "coordinates": {"latitude": 41.4860989136541, "longitude": -71.5243707638999}, "transactions": [], "location": {"address1": "99 Fortin Rd", "address2": "Ste 122", "address3": null, "city": "South Kingstown", "zip_code": "02881", "country": "US", "state": "RI", "display_address": ["99 Fortin Rd", "Ste 122", "South Kingstown, RI 02881"]}, "phone": "+14013639100", "display_phone": "(401) 363-9100", "distance": 8842.91695028445}, {"id": "WtVx5tGt8Y5A61as7UhrnQ", "alias": "dragon-palace-wyoming", "name": "Dragon Palace", "image_url": "https://s3-media3.fl.yelpcdn.com/bphoto/InYTvlF3CEshTeBKjuNcKg/o.jpg", "is_closed": false, "url": "https://www.yelp.com/biz/dragon-palace-wyoming?adjust_creative=9VzDKP4DqSuZkRYYaMKPjA&utm_campaign=yelp_api_v3&utm_medium=api_v3_business_search&utm_source=9VzDKP4DqSuZkRYYaMKPjA", "review_count": 59, "categories": [{"alias": "chinese", "title": "Chinese"}, {"alias": "japanese", "title": "Japanese"}, {"alias": "sushi", "title": "Sushi Bars"}], "rating": 3.5, "coordinates": {"latitude": 41.513876, "longitude": -71.6945421}, "transactions": [], "price": "$$", "location": {"address1": "1210 Main St", "address2": "", "address3": "", "city": "Wyoming", "zip_code": "02898", "country": "US", "state": "RI", "display_address": ["1210 Main St", "Wyoming, RI 02898"]}, "phone": "+14015391112", "display_phone": "(401) 539-1112", "distance": 9015.12225598276}, {"id": "DzH4agZSniRgPLQhHy8shQ", "alias": "the-rhode-house-cafe-kingstown-2", "name": "The Rhode House Cafe", "image_url": "https://s3-media2.fl.yelpcdn.com/bphoto/xpVeXn4_m-IzSf5DxBTa2g/o.jpg", "is_closed": false, "url": "https://www.yelp.com/biz/the-rhode-house-cafe-kingstown-2?adjust_creative=9VzDKP4DqSuZkRYYaMKPjA&utm_campaign=yelp_api_v3&utm_medium=api_v3_business_search&utm_source=9VzDKP4DqSuZkRYYaMKPjA", "review_count": 13, "categories": [{"alias": "hotdogs", "title": "Fast Food"}, {"alias": "bbq", "title": "Barbeque"}, {"alias": "tradamerican", "title": "American (Traditional)"}], "rating": 3.0, "coordinates": {"latitude": 41.4855914, "longitude": -71.5242644}, "transactions": [], "price": "$", "location": {"address1": "99 Fortin Rd", "address2": "Uri Kingston Emporium", "address3": "", "city": "Kingstown", "zip_code": "02881", "country": "US", "state": "RI", "display_address": ["99 Fortin Rd", "Uri Kingston Emporium", "Kingstown, RI 02881"]}, "phone": "+14012842844", "display_phone": "(401) 284-2844", "distance": 8828.485923124073}, {"id": "xuUJmrnyBQO6tcnlfMm3Pg", "alias": "401-deli-exeter", "name": "401 Deli", "image_url": "", "is_closed": false, "url": "https://www.yelp.com/biz/401-deli-exeter?adjust_creative=9VzDKP4DqSuZkRYYaMKPjA&utm_campaign=yelp_api_v3&utm_medium=api_v3_business_search&utm_source=9VzDKP4DqSuZkRYYaMKPjA", "review_count": 1, "categories": [{"alias": "italian", "title": "Italian"}, {"alias": "delis", "title": "Delis"}, {"alias": "tradamerican", "title": "American (Traditional)"}], "rating": 3.0, "coordinates": {"latitude": 41.527393, "longitude": -71.552181}, "transactions": [], "location": {"address1": "567 S County Trl", "address2": "Ste 206", "address3": "", "city": "Exeter", "zip_code": "02822", "country": "US", "state": "RI", "display_address": ["567 S County Trl", "Ste 206", "Exeter, RI 02822"]}, "phone": "+14016676148", "display_phone": "(401) 667-6148", "distance": 9963.385853947708}, {"id": "Eh-9kqz5c_sFf_-rkn8dYQ", "alias": "gemelli-bistro-charlestown", "name": "Gemelli Bistro", "image_url": "https://s3-media2.fl.yelpcdn.com/bphoto/aOsdX9Cui8dvwQmAuYxDKQ/o.jpg", "is_closed": false, "url": "https://www.yelp.com/biz/gemelli-bistro-charlestown?adjust_creative=9VzDKP4DqSuZkRYYaMKPjA&utm_campaign=yelp_api_v3&utm_medium=api_v3_business_search&utm_source=9VzDKP4DqSuZkRYYaMKPjA", "review_count": 18, "categories": [{"alias": "delis", "title": "Delis"}, {"alias": "sandwiches", "title": "Sandwiches"}], "rating": 4.0, "coordinates": {"latitude": 41.3853367061412, "longitude": -71.6324774175882}, "transactions": [], "price": "$$", "location": {"address1": "4680 Post Rd 2 Falcone Ln", "address2": "", "address3": null, "city": "Charlestown", "zip_code": "02813", "country": "US", "state": "RI", "display_address": ["4680 Post Rd 2 Falcone Ln", "Charlestown, RI 02813"]}, "phone": "+14013642300", "display_phone": "(401) 364-2300", "distance": 7694.9954909462585}, {"id": "qH_TLhhmiDG0r-sMb70q0A", "alias": "mama-phoenix-cafe-south-kingstown", "name": "Mama Phoenix Cafe", "image_url": "https://s3-media3.fl.yelpcdn.com/bphoto/Js7nKFdAWViFNLVBqUDRIQ/o.jpg", "is_closed": false, "url": "https://www.yelp.com/biz/mama-phoenix-cafe-south-kingstown?adjust_creative=9VzDKP4DqSuZkRYYaMKPjA&utm_campaign=yelp_api_v3&utm_medium=api_v3_business_search&utm_source=9VzDKP4DqSuZkRYYaMKPjA", "review_count": 4, "categories": [{"alias": "breakfast_brunch", "title": "Breakfast & Brunch"}], "rating": 4.5, "coordinates": {"latitude": 41.48524, "longitude": -71.52316}, "transactions": [], "location": {"address1": "99 Fortin Rd", "address2": null, "address3": "", "city": "South Kingstown", "zip_code": "02881", "country": "US", "state": "RI", "display_address": ["99 Fortin Rd", "South Kingstown, RI 02881"]}, "phone": "+14012840037", "display_phone": "(401) 284-0037", "distance": 8866.420498348287}, {"id": "8N_KX5HftuCp-HnCdc45Lw", "alias": "taste-of-china-exeter", "name": "Taste of China", "image_url": "https://s3-media2.fl.yelpcdn.com/bphoto/sU3X4hnqc-Rbyt_Lc3luUg/o.jpg", "is_closed": false, "url": "https://www.yelp.com/biz/taste-of-china-exeter?adjust_creative=9VzDKP4DqSuZkRYYaMKPjA&utm_campaign=yelp_api_v3&utm_medium=api_v3_business_search&utm_source=9VzDKP4DqSuZkRYYaMKPjA", "review_count": 24, "categories": [{"alias": "chinese", "title": "Chinese"}], "rating": 3.5, "coordinates": {"latitude": 41.5271492, "longitude": -71.5512161}, "transactions": [], "price": "$", "location": {"address1": "567 S County Trl", "address2": "Unit 109", "address3": "", "city": "Exeter", "zip_code": "02822", "country": "US", "state": "RI", "display_address": ["567 S County Trl", "Unit 109", "Exeter, RI 02822"]}, "phone": "+14012958886", "display_phone": "(401) 295-8886", "distance": 9963.385853947708}, {"id": "jKVKw6wKHeeg18WzJNLGDQ", "alias": "international-pocket-cafe-kingston-kingston", "name": "International Pocket Cafe Kingston", "image_url": "https://s3-media2.fl.yelpcdn.com/bphoto/1VXpW4AtJNJ2LM5JCt6B_Q/o.jpg", "is_closed": false, "url": "https://www.yelp.com/biz/international-pocket-cafe-kingston-kingston?adjust_creative=9VzDKP4DqSuZkRYYaMKPjA&utm_campaign=yelp_api_v3&utm_medium=api_v3_business_search&utm_source=9VzDKP4DqSuZkRYYaMKPjA", "review_count": 47, "categories": [{"alias": "mediterranean", "title": "Mediterranean"}, {"alias": "cafes", "title": "Cafes"}, {"alias": "mideastern", "title": "Middle Eastern"}], "rating": 3.5, "coordinates": {"latitude": 41.4803791, "longitude": -71.5225598}, "transactions": ["delivery", "pickup"], "price": "$", "location": {"address1": "99 Fortin Rd", "address2": "", "address3": "URI Emporium", "city": "Kingston", "zip_code": "02881", "country": "US", "state": "RI", "display_address": ["99 Fortin Rd", "URI Emporium", "Kingston, RI 02881"]}, "phone": "+14017822720", "display_phone": "(401) 782-2720", "distance": 8748.680438671076}, {"id": "1S-Cavf_tZwoerbvAz2HCg", "alias": "bali-village-restaurant-wyoming", "name": "Bali Village Restaurant", "image_url": "https://s3-media1.fl.yelpcdn.com/bphoto/_JZabeVxQZ5vJccogcgW8g/o.jpg", "is_closed": false, "url": "https://www.yelp.com/biz/bali-village-restaurant-wyoming?adjust_creative=9VzDKP4DqSuZkRYYaMKPjA&utm_campaign=yelp_api_v3&utm_medium=api_v3_business_search&utm_source=9VzDKP4DqSuZkRYYaMKPjA", "review_count": 42, "categories": [{"alias": "chinese", "title": "Chinese"}], "rating": 3.0, "coordinates": {"latitude": 41.515, "longitude": -71.69838}, "transactions": [], "price": "$$", "location": {"address1": "1172 Main St", "address2": "", "address3": "", "city": "Wyoming", "zip_code": "02898", "country": "US", "state": "RI", "display_address": ["1172 Main St", "Wyoming, RI 02898"]}, "phone": "+14015399060", "display_phone": "(401) 539-9060", "distance": 9330.159496170176}, {"id": "pm_Oz84nhpwGn-TNydB3bw", "alias": "krazy-fusion-cafe-uri-kingston", "name": "Krazy Fusion Cafe URI", "image_url": "https://s3-media3.fl.yelpcdn.com/bphoto/iiePJHE3-OhD5CwozvC9lA/o.jpg", "is_closed": false, "url": "https://www.yelp.com/biz/krazy-fusion-cafe-uri-kingston?adjust_creative=9VzDKP4DqSuZkRYYaMKPjA&utm_campaign=yelp_api_v3&utm_medium=api_v3_business_search&utm_source=9VzDKP4DqSuZkRYYaMKPjA", "review_count": 19, "categories": [{"alias": "korean", "title": "Korean"}, {"alias": "japanese", "title": "Japanese"}, {"alias": "bubbletea", "title": "Bubble Tea"}], "rating": 4.0, "coordinates": {"latitude": 41.485728, "longitude": -71.523827}, "transactions": [], "price": "$$", "location": {"address1": "99 Fortin Rd", "address2": "Unit 104", "address3": "", "city": "Kingston", "zip_code": "02881", "country": "US", "state": "RI", "display_address": ["99 Fortin Rd", "Unit 104", "Kingston, RI 02881"]}, "phone": "+14013639777", "display_phone": "(401) 363-9777", "distance": 8867.956660904787}, {"id": "Q8T_TpOc1ruHugzxACb1LA", "alias": "international-zone-kingston-2", "name": "International Zone", "image_url": "https://s3-media2.fl.yelpcdn.com/bphoto/yGcsOWDLLXHs1DdtA5yFwQ/o.jpg", "is_closed": false, "url": "https://www.yelp.com/biz/international-zone-kingston-2?adjust_creative=9VzDKP4DqSuZkRYYaMKPjA&utm_campaign=yelp_api_v3&utm_medium=api_v3_business_search&utm_source=9VzDKP4DqSuZkRYYaMKPjA", "review_count": 12, "categories": [{"alias": "italian", "title": "Italian"}, {"alias": "pizza", "title": "Pizza"}, {"alias": "desserts", "title": "Desserts"}], "rating": 3.5, "coordinates": {"latitude": 41.484783, "longitude": -71.524104}, "transactions": [], "price": "$", "location": {"address1": "100 Fortin Rd", "address2": "", "address3": "", "city": "Kingston", "zip_code": "02881", "country": "US", "state": "RI", "display_address": ["100 Fortin Rd", "Kingston, RI 02881"]}, "phone": "+14013602252", "display_phone": "(401) 360-2252", "distance": 8805.523060409727}, {"id": "eHEIUOcQNjDAfFS3zkF_kQ", "alias": "wests-bakery-hope-valley", "name": "West's Bakery", "image_url": "https://s3-media4.fl.yelpcdn.com/bphoto/eAb_XFxZqRx_TvM7z9mlCA/o.jpg", "is_closed": false, "url": "https://www.yelp.com/biz/wests-bakery-hope-valley?adjust_creative=9VzDKP4DqSuZkRYYaMKPjA&utm_campaign=yelp_api_v3&utm_medium=api_v3_business_search&utm_source=9VzDKP4DqSuZkRYYaMKPjA", "review_count": 42, "categories": [{"alias": "bakeries", "title": "Bakeries"}, {"alias": "breakfast_brunch", "title": "Breakfast & Brunch"}], "rating": 4.5, "coordinates": {"latitude": 41.507668, "longitude": -71.716579}, "transactions": [], "price": "$", "location": {"address1": "995 Main St", "address2": "", "address3": "", "city": "Hope Valley", "zip_code": "02832", "country": "US", "state": "RI", "display_address": ["995 Main St", "Hope Valley, RI 02832"]}, "phone": "+14015392451", "display_phone": "(401) 539-2451", "distance": 9913.496090025317}, {"id": "h3S-G-5syTG90ppEEQKVxQ", "alias": "small-axe-cafe-charlestown", "name": "Small Axe Cafe", "image_url": "https://s3-media4.fl.yelpcdn.com/bphoto/_jPOGKUeBYG1Hk5u-fcoUw/o.jpg", "is_closed": false, "url": "https://www.yelp.com/biz/small-axe-cafe-charlestown?adjust_creative=9VzDKP4DqSuZkRYYaMKPjA&utm_campaign=yelp_api_v3&utm_medium=api_v3_business_search&utm_source=9VzDKP4DqSuZkRYYaMKPjA", "review_count": 25, "categories": [{"alias": "cafes", "title": "Cafes"}, {"alias": "newamerican", "title": "American (New)"}], "rating": 3.5, "coordinates": {"latitude": 41.377494, "longitude": -71.661696}, "transactions": [], "price": "$$", "location": {"address1": "4820 Old Post Rd", "address2": "", "address3": "", "city": "Charlestown", "zip_code": "02813", "country": "US", "state": "RI", "display_address": ["4820 Old Post Rd", "Charlestown, RI 02813"]}, "phone": "+14013643638", "display_phone": "(401) 364-3638", "distance": 9148.497784857305}, {"id": "H4g9fbbMB9BVfbUDGSeTcA", "alias": "ma-and-pas-country-store-hope-valley", "name": "Ma & Pa's Country Store", "image_url": "https://s3-media3.fl.yelpcdn.com/bphoto/PkQJN-dOPgHRBUbGKxNJ6Q/o.jpg", "is_closed": false, "url": "https://www.yelp.com/biz/ma-and-pas-country-store-hope-valley?adjust_creative=9VzDKP4DqSuZkRYYaMKPjA&utm_campaign=yelp_api_v3&utm_medium=api_v3_business_search&utm_source=9VzDKP4DqSuZkRYYaMKPjA", "review_count": 17, "categories": [{"alias": "convenience", "title": "Convenience Stores"}, {"alias": "sandwiches", "title": "Sandwiches"}, {"alias": "delis", "title": "Delis"}], "rating": 4.0, "coordinates": {"latitude": 41.509668, "longitude": -71.713031}, "transactions": [], "price": "$$", "location": {"address1": "1044 Main St", "address2": "", "address3": "", "city": "Hope Valley", "zip_code": "02832", "country": "US", "state": "RI", "display_address": ["1044 Main St", "Hope Valley, RI 02832"]}, "phone": "+14015397053", "display_phone": "(401) 539-7053", "distance": 9814.965138220436}, {"id": "Xshe-eT-OT_Pz2zKMYDJzw", "alias": "davos-calzones-and-wraps-south-kingstown-2", "name": "Davo's Calzones and Wraps", "image_url": "https://s3-media3.fl.yelpcdn.com/bphoto/nYYF5lMwRAA5mnTXmmxPkQ/o.jpg", "is_closed": false, "url": "https://www.yelp.com/biz/davos-calzones-and-wraps-south-kingstown-2?adjust_creative=9VzDKP4DqSuZkRYYaMKPjA&utm_campaign=yelp_api_v3&utm_medium=api_v3_business_search&utm_source=9VzDKP4DqSuZkRYYaMKPjA", "review_count": 12, "categories": [{"alias": "mediterranean", "title": "Mediterranean"}, {"alias": "hotdogs", "title": "Fast Food"}], "rating": 3.0, "coordinates": {"latitude": 41.48524, "longitude": -71.52316}, "transactions": ["delivery", "pickup"], "location": {"address1": "99 Fortin Rd", "address2": null, "address3": "", "city": "South Kingstown", "zip_code": "02881", "country": "US", "state": "RI", "display_address": ["99 Fortin Rd", "South Kingstown, RI 02881"]}, "phone": "+14012843050", "display_phone": "(401) 284-3050", "distance": 8866.420498348287}, {"id": "73RtjdZtOOnIaOAw371doA", "alias": "effie-filippous-twisted-pizza-exeter", "name": "Effie Filippou's Twisted Pizza", "image_url": "https://s3-media1.fl.yelpcdn.com/bphoto/47o8X7BiLjTCuV7a7MDjvA/o.jpg", "is_closed": false, "url": "https://www.yelp.com/biz/effie-filippous-twisted-pizza-exeter?adjust_creative=9VzDKP4DqSuZkRYYaMKPjA&utm_campaign=yelp_api_v3&utm_medium=api_v3_business_search&utm_source=9VzDKP4DqSuZkRYYaMKPjA", "review_count": 60, "categories": [{"alias": "pizza", "title": "Pizza"}, {"alias": "greek", "title": "Greek"}, {"alias": "bars", "title": "Bars"}], "rating": 2.5, "coordinates": {"latitude": 41.527177, "longitude": -71.5523615}, "transactions": [], "price": "$$", "location": {"address1": "567 S County Trl", "address2": "", "address3": "Oak Harbour Plz", "city": "Exeter", "zip_code": "02822", "country": "US", "state": "RI", "display_address": ["567 S County Trl", "Oak Harbour Plz", "Exeter, RI 02822"]}, "phone": "+14012949767", "display_phone": "(401) 294-9767", "distance": 9964.311137949695}, {"id": "JNkms_qiTX8ZObYZkB_6nQ", "alias": "simply-thai-kingston", "name": "Simply Thai", "image_url": "https://s3-media4.fl.yelpcdn.com/bphoto/d3JKsCP6aB0GmA04PnSZOA/o.jpg", "is_closed": false, "url": "https://www.yelp.com/biz/simply-thai-kingston?adjust_creative=9VzDKP4DqSuZkRYYaMKPjA&utm_campaign=yelp_api_v3&utm_medium=api_v3_business_search&utm_source=9VzDKP4DqSuZkRYYaMKPjA", "review_count": 53, "categories": [{"alias": "thai", "title": "Thai"}], "rating": 4.0, "coordinates": {"latitude": 41.485233977437, "longitude": -71.5237265825272}, "transactions": [], "price": "$", "location": {"address1": "99 Fortin Rd", "address2": "", "address3": "", "city": "Kingston", "zip_code": "02881", "country": "US", "state": "RI", "display_address": ["99 Fortin Rd", "Kingston, RI 02881"]}, "phone": "+14012844594", "display_phone": "(401) 284-4594", "distance": 8872.046234755635}, {"id": "9KhIUPGpnHc5HQ_tuS-PMg", "alias": "albies-place-kingston", "name": "Albie's Place", "image_url": "https://s3-media1.fl.yelpcdn.com/bphoto/KmDh5bCMN0BAa7ADRHxQbA/o.jpg", "is_closed": false, "url": "https://www.yelp.com/biz/albies-place-kingston?adjust_creative=9VzDKP4DqSuZkRYYaMKPjA&utm_campaign=yelp_api_v3&utm_medium=api_v3_business_search&utm_source=9VzDKP4DqSuZkRYYaMKPjA", "review_count": 14, "categories": [{"alias": "breakfast_brunch", "title": "Breakfast & Brunch"}, {"alias": "tradamerican", "title": "American (Traditional)"}, {"alias": "wraps", "title": "Wraps"}], "rating": 3.0, "coordinates": {"latitude": 41.48524, "longitude": -71.52316}, "transactions": ["delivery", "pickup"], "price": "$$", "location": {"address1": "99 Fortin Rd", "address2": "", "address3": "", "city": "Kingston", "zip_code": "02881", "country": "US", "state": "RI", "display_address": ["99 Fortin Rd", "Kingston, RI 02881"]}, "phone": "+14017923860", "display_phone": "(401) 792-3860", "distance": 8866.420498348287}, {"id": "PbW_zsCIfhQj-I4y6RB-_w", "alias": "caliente-mexican-kingston", "name": "Caliente Mexican", "image_url": "https://s3-media2.fl.yelpcdn.com/bphoto/t_EjkZVtf-5aNy22xW5Vsg/o.jpg", "is_closed": false, "url": "https://www.yelp.com/biz/caliente-mexican-kingston?adjust_creative=9VzDKP4DqSuZkRYYaMKPjA&utm_campaign=yelp_api_v3&utm_medium=api_v3_business_search&utm_source=9VzDKP4DqSuZkRYYaMKPjA", "review_count": 44, "categories": [{"alias": "mexican", "title": "Mexican"}], "rating": 3.5, "coordinates": {"latitude": 41.485893, "longitude": -71.524219}, "transactions": ["pickup"], "price": "$", "location": {"address1": "99 Fortin Rd", "address2": null, "address3": "Kingston Emporium", "city": "Kingston", "zip_code": "02881", "country": "US", "state": "RI", "display_address": ["99 Fortin Rd", "Kingston Emporium", "Kingston, RI 02881"]}, "phone": "+14012842816", "display_phone": "(401) 284-2816", "distance": 8845.311823372745}, {"id": "sPbbTlBvfoSYeFhXw4kuCw", "alias": "breachway-gourmet-charlestown-3", "name": "Breachway Gourmet", "image_url": "https://s3-media4.fl.yelpcdn.com/bphoto/8sQoam0vCEWN50LJAa0Xnw/o.jpg", "is_closed": false, "url": "https://www.yelp.com/biz/breachway-gourmet-charlestown-3?adjust_creative=9VzDKP4DqSuZkRYYaMKPjA&utm_campaign=yelp_api_v3&utm_medium=api_v3_business_search&utm_source=9VzDKP4DqSuZkRYYaMKPjA", "review_count": 9, "categories": [{"alias": "salad", "title": "Salad"}, {"alias": "sandwiches", "title": "Sandwiches"}, {"alias": "delis", "title": "Delis"}], "rating": 3.5, "coordinates": {"latitude": 41.38112, "longitude": -71.62438}, "transactions": [], "location": {"address1": "1 Charlestown Beach Rd", "address2": "", "address3": null, "city": "Charlestown", "zip_code": "02813", "country": "US", "state": "RI", "display_address": ["1 Charlestown Beach Rd", "Charlestown, RI 02813"]}, "phone": "+14013649000", "display_phone": "(401) 364-9000", "distance": 8110.270907972651}, {"id": "hQO4-mgSCFu1SLC5lXx42A", "alias": "sophies-brew-house-exeter", "name": "Sophies Brew House", "image_url": "https://s3-media1.fl.yelpcdn.com/bphoto/iFSeBADxSw3xoa_aGIe8Sw/o.jpg", "is_closed": false, "url": "https://www.yelp.com/biz/sophies-brew-house-exeter?adjust_creative=9VzDKP4DqSuZkRYYaMKPjA&utm_campaign=yelp_api_v3&utm_medium=api_v3_business_search&utm_source=9VzDKP4DqSuZkRYYaMKPjA", "review_count": 24, "categories": [{"alias": "coffee", "title": "Coffee & Tea"}, {"alias": "bakeries", "title": "Bakeries"}, {"alias": "sandwiches", "title": "Sandwiches"}], "rating": 3.5, "coordinates": {"latitude": 41.518925, "longitude": -71.554805}, "transactions": [], "price": "$", "location": {"address1": "699 S County Trl", "address2": "", "address3": null, "city": "Exeter", "zip_code": "02822", "country": "US", "state": "RI", "display_address": ["699 S County Trl", "Exeter, RI 02822"]}, "phone": "+14012954273", "display_phone": "(401) 295-4273", "distance": 9016.453476614859}, {"id": "cfA04iAoXZbGwUeT_-0sdg", "alias": "the-bakery-charlestown", "name": "The Bakery", "image_url": "https://s3-media4.fl.yelpcdn.com/bphoto/C1T9rCf9kIl0tFl4McNmrg/o.jpg", "is_closed": false, "url": "https://www.yelp.com/biz/the-bakery-charlestown?adjust_creative=9VzDKP4DqSuZkRYYaMKPjA&utm_campaign=yelp_api_v3&utm_medium=api_v3_business_search&utm_source=9VzDKP4DqSuZkRYYaMKPjA", "review_count": 29, "categories": [{"alias": "bakeries", "title": "Bakeries"}, {"alias": "bagels", "title": "Bagels"}, {"alias": "breakfast_brunch", "title": "Breakfast & Brunch"}], "rating": 4.5, "coordinates": {"latitude": 41.38106, "longitude": -71.62366}, "transactions": [], "price": "$$", "location": {"address1": "2 Charlestown Beach Rd", "address2": null, "address3": null, "city": "Charlestown", "zip_code": "02813", "country": "US", "state": "RI", "display_address": ["2 Charlestown Beach Rd", "Charlestown, RI 02813"]}, "phone": "+14013640070", "display_phone": "(401) 364-0070", "distance": 8111.67302933055}, {"id": "v_bPIP7E2pHKvQpzPtv4EQ", "alias": "guac-n-roll-truck-richmond", "name": "Guac\u2018n Roll Truck", "image_url": "https://s3-media1.fl.yelpcdn.com/bphoto/Y-5vV3uck4sWTcxt310xuQ/o.jpg", "is_closed": false, "url": "https://www.yelp.com/biz/guac-n-roll-truck-richmond?adjust_creative=9VzDKP4DqSuZkRYYaMKPjA&utm_campaign=yelp_api_v3&utm_medium=api_v3_business_search&utm_source=9VzDKP4DqSuZkRYYaMKPjA", "review_count": 3, "categories": [{"alias": "mexican", "title": "Mexican"}, {"alias": "foodtrucks", "title": "Food Trucks"}, {"alias": "tex-mex", "title": "Tex-Mex"}], "rating": 4.5, "coordinates": {"latitude": 41.512776, "longitude": -71.695398}, "transactions": [], "location": {"address1": "1219 Main St", "address2": null, "address3": "", "city": "Richmond", "zip_code": "02898", "country": "US", "state": "RI", "display_address": ["1219 Main St", "Richmond, RI 02898"]}, "phone": "+14016184822", "display_phone": "(401) 618-4822", "distance": 8971.015798664377}, {"id": "Io4C5tUwnb_YzeaMXHBqBA", "alias": "shuckin-truck-narragansett-2", "name": "Shuckin Truck", "image_url": "https://s3-media2.fl.yelpcdn.com/bphoto/r7QRORfe9UYVS7GGzUm9DQ/o.jpg", "is_closed": false, "url": "https://www.yelp.com/biz/shuckin-truck-narragansett-2?adjust_creative=9VzDKP4DqSuZkRYYaMKPjA&utm_campaign=yelp_api_v3&utm_medium=api_v3_business_search&utm_source=9VzDKP4DqSuZkRYYaMKPjA", "review_count": 24, "categories": [{"alias": "foodtrucks", "title": "Food Trucks"}, {"alias": "seafood", "title": "Seafood"}], "rating": 4.5, "coordinates": {"latitude": 41.4274482727051, "longitude": -71.4597778320313}, "transactions": [], "price": "$$", "location": {"address1": "", "address2": "", "address3": "", "city": "Narragansett", "zip_code": "02882", "country": "US", "state": "RI", "display_address": ["Narragansett, RI 02882"]}, "phone": "+14017415953", "display_phone": "(401) 741-5953", "distance": 12643.728007895084}, {"id": "FO2Korx1nRBfmpnXaFNFkg", "alias": "meldgies-rivers-edge-cafe-wakefield", "name": "Meldgie's Rivers Edge Cafe ", "image_url": "https://s3-media1.fl.yelpcdn.com/bphoto/IYA63PoifxgJqHVuKrgSvw/o.jpg", "is_closed": false, "url": "https://www.yelp.com/biz/meldgies-rivers-edge-cafe-wakefield?adjust_creative=9VzDKP4DqSuZkRYYaMKPjA&utm_campaign=yelp_api_v3&utm_medium=api_v3_business_search&utm_source=9VzDKP4DqSuZkRYYaMKPjA", "review_count": 13, "categories": [{"alias": "diners", "title": "Diners"}], "rating": 4.0, "coordinates": {"latitude": 41.4475686, "longitude": -71.524667}, "transactions": [], "price": "$$", "location": {"address1": "406 Main St", "address2": "Ste B", "address3": null, "city": "Wakefield", "zip_code": "02879", "country": "US", "state": "RI", "display_address": ["406 Main St", "Ste B", "Wakefield, RI 02879"]}, "phone": "+14017895960", "display_phone": "(401) 789-5960", "distance": 8102.7922072326965}, {"id": "sAjx9M9bwQ5SyiAOnRsM9w", "alias": "spring-street-market-and-pizza-hope-valley", "name": "Spring Street Market and Pizza", "image_url": "https://s3-media4.fl.yelpcdn.com/bphoto/p-RQjUVJc3zWsGcVSYtK-A/o.jpg", "is_closed": false, "url": "https://www.yelp.com/biz/spring-street-market-and-pizza-hope-valley?adjust_creative=9VzDKP4DqSuZkRYYaMKPjA&utm_campaign=yelp_api_v3&utm_medium=api_v3_business_search&utm_source=9VzDKP4DqSuZkRYYaMKPjA", "review_count": 9, "categories": [{"alias": "seafood", "title": "Seafood"}, {"alias": "burgers", "title": "Burgers"}, {"alias": "pizza", "title": "Pizza"}], "rating": 4.5, "coordinates": {"latitude": 41.507408, "longitude": -71.716866}, "transactions": [], "price": "$", "location": {"address1": "1 Spring St", "address2": "", "address3": "", "city": "Hope Valley", "zip_code": "02832", "country": "US", "state": "RI", "display_address": ["1 Spring St", "Hope Valley, RI 02832"]}, "phone": "+14015390111", "display_phone": "(401) 539-0111", "distance": 9915.29332840654}, {"id": "_nvHgrMhlDbby-RZFD3adA", "alias": "charlestown-mini-super-charlestown", "name": "Charlestown Mini-Super", "image_url": "https://s3-media2.fl.yelpcdn.com/bphoto/S6XKQMlLWOZPkshiZXTVGg/o.jpg", "is_closed": false, "url": "https://www.yelp.com/biz/charlestown-mini-super-charlestown?adjust_creative=9VzDKP4DqSuZkRYYaMKPjA&utm_campaign=yelp_api_v3&utm_medium=api_v3_business_search&utm_source=9VzDKP4DqSuZkRYYaMKPjA", "review_count": 28, "categories": [{"alias": "bakeries", "title": "Bakeries"}, {"alias": "grocery", "title": "Grocery"}, {"alias": "seafoodmarkets", "title": "Seafood Markets"}], "rating": 3.5, "coordinates": {"latitude": 41.38687, "longitude": -71.62808}, "transactions": [], "price": "$$", "location": {"address1": "4071 Old Post Rd", "address2": "", "address3": "", "city": "Charlestown", "zip_code": "02813", "country": "US", "state": "RI", "display_address": ["4071 Old Post Rd", "Charlestown, RI 02813"]}, "phone": "+14013646600", "display_phone": "(401) 364-6600", "distance": 7495.026394278586}, {"id": "AUxLtRlI5vkBFxXqvRFoxQ", "alias": "mcdonalds-wyoming-3", "name": "McDonald's", "image_url": "https://s3-media3.fl.yelpcdn.com/bphoto/8ATmPhLg3ytOg9ObhCtS-A/o.jpg", "is_closed": false, "url": "https://www.yelp.com/biz/mcdonalds-wyoming-3?adjust_creative=9VzDKP4DqSuZkRYYaMKPjA&utm_campaign=yelp_api_v3&utm_medium=api_v3_business_search&utm_source=9VzDKP4DqSuZkRYYaMKPjA", "review_count": 22, "categories": [{"alias": "hotdogs", "title": "Fast Food"}, {"alias": "burgers", "title": "Burgers"}, {"alias": "coffee", "title": "Coffee & Tea"}], "rating": 2.0, "coordinates": {"latitude": 41.5122912216178, "longitude": -71.6882493}, "transactions": [], "price": "$", "location": {"address1": "14 Kingston Rd", "address2": "", "address3": "", "city": "Wyoming", "zip_code": "02898", "country": "US", "state": "RI", "display_address": ["14 Kingston Rd", "Wyoming, RI 02898"]}, "phone": "+14015391115", "display_phone": "(401) 539-1115", "distance": 8535.566373543694}, {"id": "XJ7SyqaiWIMwd9VzgATa5A", "alias": "peking-tokyo-kingston", "name": "Peking Tokyo", "image_url": "https://s3-media3.fl.yelpcdn.com/bphoto/yKtgZsf7uqwKvsVrdtL-zQ/o.jpg", "is_closed": false, "url": "https://www.yelp.com/biz/peking-tokyo-kingston?adjust_creative=9VzDKP4DqSuZkRYYaMKPjA&utm_campaign=yelp_api_v3&utm_medium=api_v3_business_search&utm_source=9VzDKP4DqSuZkRYYaMKPjA", "review_count": 28, "categories": [{"alias": "chinese", "title": "Chinese"}, {"alias": "japanese", "title": "Japanese"}], "rating": 3.5, "coordinates": {"latitude": 41.484975, "longitude": -71.524849}, "transactions": [], "price": "$", "location": {"address1": "120 Fortin Rd", "address2": null, "address3": null, "city": "Kingston", "zip_code": "02881", "country": "US", "state": "RI", "display_address": ["120 Fortin Rd", "Kingston, RI 02881"]}, "phone": "+14017889588", "display_phone": "(401) 788-9588", "distance": 8756.700216333382}, {"id": "oXi5uZqBHaRN-9LfbTz4iw", "alias": "solarcart-cafe-wakefield", "name": "SolarCart Cafe", "image_url": "https://s3-media3.fl.yelpcdn.com/bphoto/2jnm4N-kA74C1G385wcvjw/o.jpg", "is_closed": false, "url": "https://www.yelp.com/biz/solarcart-cafe-wakefield?adjust_creative=9VzDKP4DqSuZkRYYaMKPjA&utm_campaign=yelp_api_v3&utm_medium=api_v3_business_search&utm_source=9VzDKP4DqSuZkRYYaMKPjA", "review_count": 5, "categories": [{"alias": "foodtrucks", "title": "Food Trucks"}, {"alias": "cafes", "title": "Cafes"}], "rating": 5.0, "coordinates": {"latitude": 41.3783548485934, "longitude": -71.5497396899248}, "transactions": [], "location": {"address1": "344 Main St", "address2": "", "address3": null, "city": "Wakefield", "zip_code": "02879", "country": "US", "state": "RI", "display_address": ["344 Main St", "Wakefield, RI 02879"]}, "phone": "+14017936041", "display_phone": "(401) 793-6041", "distance": 10327.28246599097}, {"id": "WNtaMlVaNTHIzjP39njxAw", "alias": "international-steakhouse-kingston", "name": "International Steakhouse", "image_url": "", "is_closed": false, "url": "https://www.yelp.com/biz/international-steakhouse-kingston?adjust_creative=9VzDKP4DqSuZkRYYaMKPjA&utm_campaign=yelp_api_v3&utm_medium=api_v3_business_search&utm_source=9VzDKP4DqSuZkRYYaMKPjA", "review_count": 3, "categories": [{"alias": "sandwiches", "title": "Sandwiches"}], "rating": 4.0, "coordinates": {"latitude": 41.485233977437, "longitude": -71.5237265825272}, "transactions": [], "price": "$", "location": {"address1": "99 Fortin Rd", "address2": "", "address3": "", "city": "Kingston", "zip_code": "02881", "country": "US", "state": "RI", "display_address": ["99 Fortin Rd", "Kingston, RI 02881"]}, "phone": "+14017920190", "display_phone": "(401) 792-0190", "distance": 8866.420498348287}, {"id": "S8uFL_-o2THu69sMHvvUCg", "alias": "taylors-landing-country-store-south-kingstown", "name": "Taylor's Landing Country Store", "image_url": "https://s3-media3.fl.yelpcdn.com/bphoto/fF18pFzehbfkxCEo4gQaHQ/o.jpg", "is_closed": false, "url": "https://www.yelp.com/biz/taylors-landing-country-store-south-kingstown?adjust_creative=9VzDKP4DqSuZkRYYaMKPjA&utm_campaign=yelp_api_v3&utm_medium=api_v3_business_search&utm_source=9VzDKP4DqSuZkRYYaMKPjA", "review_count": 38, "categories": [{"alias": "sandwiches", "title": "Sandwiches"}, {"alias": "coffee", "title": "Coffee & Tea"}], "rating": 4.0, "coordinates": {"latitude": 41.4829507470131, "longitude": -71.5518287569284}, "transactions": [], "price": "$", "location": {"address1": "3362 Kingstown Rd", "address2": "", "address3": "", "city": "South Kingstown", "zip_code": "02892", "country": "US", "state": "RI", "display_address": ["3362 Kingstown Rd", "South Kingstown, RI 02892"]}, "phone": "+14012840501", "display_phone": "(401) 284-0501", "distance": 6625.84416616087}, {"id": "e9hwPsqZAbr1kMz9YpFGZw", "alias": "capn-jacks-restaurant-wakefield", "name": "Cap'n Jack's Restaurant", "image_url": "https://s3-media1.fl.yelpcdn.com/bphoto/viGJTVlrHTdvUhjiN20tGQ/o.jpg", "is_closed": false, "url": "https://www.yelp.com/biz/capn-jacks-restaurant-wakefield?adjust_creative=9VzDKP4DqSuZkRYYaMKPjA&utm_campaign=yelp_api_v3&utm_medium=api_v3_business_search&utm_source=9VzDKP4DqSuZkRYYaMKPjA", "review_count": 158, "categories": [{"alias": "seafood", "title": "Seafood"}, {"alias": "bars", "title": "Bars"}], "rating": 3.0, "coordinates": {"latitude": 41.384218, "longitude": -71.525498}, "transactions": [], "price": "$$", "location": {"address1": "706 Succotash Rd", "address2": "", "address3": "", "city": "Wakefield", "zip_code": "02879", "country": "US", "state": "RI", "display_address": ["706 Succotash Rd", "Wakefield, RI 02879"]}, "phone": "+14017894556", "display_phone": "(401) 789-4556", "distance": 11152.464225758196}, {"id": "AdseOKvyVERhOwOhyRTmsw", "alias": "charlestown-famous-pizza-charlestown", "name": "Charlestown Famous Pizza", "image_url": "https://s3-media3.fl.yelpcdn.com/bphoto/BznQVmgaLPXJaaflQbdXbg/o.jpg", "is_closed": false, "url": "https://www.yelp.com/biz/charlestown-famous-pizza-charlestown?adjust_creative=9VzDKP4DqSuZkRYYaMKPjA&utm_campaign=yelp_api_v3&utm_medium=api_v3_business_search&utm_source=9VzDKP4DqSuZkRYYaMKPjA", "review_count": 25, "categories": [{"alias": "pizza", "title": "Pizza"}, {"alias": "sandwiches", "title": "Sandwiches"}], "rating": 3.0, "coordinates": {"latitude": 41.38745, "longitude": -71.62442}, "transactions": [], "price": "$$", "location": {"address1": "3986 Old Post Rd", "address2": "Rte 1A", "address3": null, "city": "Charlestown", "zip_code": "02813", "country": "US", "state": "RI", "display_address": ["3986 Old Post Rd", "Rte 1A", "Charlestown, RI 02813"]}, "phone": "+14013640020", "display_phone": "(401) 364-0020", "distance": 7429.584187547188}, {"id": "08dYTCV14B7CnoWF04pgyw", "alias": "kingston-pizza-kingston", "name": "Kingston Pizza", "image_url": "https://s3-media1.fl.yelpcdn.com/bphoto/LiyJgas3kUUNHzWVKZSn9g/o.jpg", "is_closed": false, "url": "https://www.yelp.com/biz/kingston-pizza-kingston?adjust_creative=9VzDKP4DqSuZkRYYaMKPjA&utm_campaign=yelp_api_v3&utm_medium=api_v3_business_search&utm_source=9VzDKP4DqSuZkRYYaMKPjA", "review_count": 33, "categories": [{"alias": "pizza", "title": "Pizza"}], "rating": 2.5, "coordinates": {"latitude": 41.48308, "longitude": -71.5238}, "transactions": ["delivery", "pickup"], "price": "$$", "location": {"address1": "63 Briar Ln", "address2": "", "address3": "", "city": "Kingston", "zip_code": "02881", "country": "US", "state": "RI", "display_address": ["63 Briar Ln", "Kingston, RI 02881"]}, "phone": "+14017839130", "display_phone": "(401) 783-9130", "distance": 8758.163423006512}, {"id": "n8Jmpkuq3D7EdpnAhcgq2g", "alias": "providence-bagel-south-kingstown", "name": "Providence Bagel", "image_url": "https://s3-media2.fl.yelpcdn.com/bphoto/t0Pb0LbTaoKESmOL-bBjbg/o.jpg", "is_closed": false, "url": "https://www.yelp.com/biz/providence-bagel-south-kingstown?adjust_creative=9VzDKP4DqSuZkRYYaMKPjA&utm_campaign=yelp_api_v3&utm_medium=api_v3_business_search&utm_source=9VzDKP4DqSuZkRYYaMKPjA", "review_count": 4, "categories": [{"alias": "bagels", "title": "Bagels"}, {"alias": "coffee", "title": "Coffee & Tea"}, {"alias": "breakfast_brunch", "title": "Breakfast & Brunch"}], "rating": 4.0, "coordinates": {"latitude": 41.485771, "longitude": -71.523684}, "transactions": [], "location": {"address1": "99 Fortin Rd", "address2": null, "address3": "", "city": "South Kingstown", "zip_code": "02881", "country": "US", "state": "RI", "display_address": ["99 Fortin Rd", "South Kingstown, RI 02881"]}, "phone": "+14014212222", "display_phone": "(401) 421-2222", "distance": 8866.420498348287}, {"id": "9UUs9kALiSi7lqbDzm9iCg", "alias": "kingston-pizza-charleston", "name": "Kingston Pizza", "image_url": "https://s3-media3.fl.yelpcdn.com/bphoto/o0IIW5YI1X3DC-yGhPn42w/o.jpg", "is_closed": false, "url": "https://www.yelp.com/biz/kingston-pizza-charleston?adjust_creative=9VzDKP4DqSuZkRYYaMKPjA&utm_campaign=yelp_api_v3&utm_medium=api_v3_business_search&utm_source=9VzDKP4DqSuZkRYYaMKPjA", "review_count": 27, "categories": [{"alias": "pizza", "title": "Pizza"}], "rating": 2.0, "coordinates": {"latitude": 41.3835411, "longitude": -71.6318817}, "transactions": [], "price": "$$", "location": {"address1": "4159 Old Post Rd", "address2": "", "address3": "", "city": "Charleston", "zip_code": "02813", "country": "US", "state": "RI", "display_address": ["4159 Old Post Rd", "Charleston, RI 02813"]}, "phone": "+14013647300", "display_phone": "(401) 364-7300", "distance": 7785.007158428118}, {"id": "xgPjlQQ4ZYiqHPHKiomVXw", "alias": "the-cone-zone-exeter", "name": "The Cone Zone", "image_url": "", "is_closed": false, "url": "https://www.yelp.com/biz/the-cone-zone-exeter?adjust_creative=9VzDKP4DqSuZkRYYaMKPjA&utm_campaign=yelp_api_v3&utm_medium=api_v3_business_search&utm_source=9VzDKP4DqSuZkRYYaMKPjA", "review_count": 2, "categories": [{"alias": "hotdogs", "title": "Fast Food"}], "rating": 5.0, "coordinates": {"latitude": 41.52592, "longitude": -71.55203}, "transactions": [], "location": {"address1": "567 S County Trl", "address2": "", "address3": "", "city": "Exeter", "zip_code": "02822", "country": "US", "state": "RI", "display_address": ["567 S County Trl", "Exeter, RI 02822"]}, "phone": "+14016677644", "display_phone": "(401) 667-7644", "distance": 9963.385853947708}, {"id": "3IEBIKSrUvIwPy9qBwUQEA", "alias": "kingston-coffee-charlestown", "name": "Kingston Coffee", "image_url": "https://s3-media1.fl.yelpcdn.com/bphoto/n3LnZ-PL8gzk0-HnMiD-vg/o.jpg", "is_closed": false, "url": "https://www.yelp.com/biz/kingston-coffee-charlestown?adjust_creative=9VzDKP4DqSuZkRYYaMKPjA&utm_campaign=yelp_api_v3&utm_medium=api_v3_business_search&utm_source=9VzDKP4DqSuZkRYYaMKPjA", "review_count": 7, "categories": [{"alias": "donuts", "title": "Donuts"}, {"alias": "coffee", "title": "Coffee & Tea"}, {"alias": "breakfast_brunch", "title": "Breakfast & Brunch"}], "rating": 3.5, "coordinates": {"latitude": 41.3844711131492, "longitude": -71.6313636302948}, "transactions": [], "location": {"address1": "4159 Old Post Rd", "address2": "", "address3": null, "city": "Charlestown", "zip_code": "02813", "country": "US", "state": "RI", "display_address": ["4159 Old Post Rd", "Charlestown, RI 02813"]}, "phone": "", "display_phone": "", "distance": 7780.209869720998}, {"id": "ZlpZpHXjDNk7asg4jQ06SQ", "alias": "subway-richmond-157", "name": "Subway", "image_url": "https://s3-media2.fl.yelpcdn.com/bphoto/UaawUmwID5d3PeJxubLkvA/o.jpg", "is_closed": false, "url": "https://www.yelp.com/biz/subway-richmond-157?adjust_creative=9VzDKP4DqSuZkRYYaMKPjA&utm_campaign=yelp_api_v3&utm_medium=api_v3_business_search&utm_source=9VzDKP4DqSuZkRYYaMKPjA", "review_count": 4, "categories": [{"alias": "sandwiches", "title": "Sandwiches"}], "rating": 3.0, "coordinates": {"latitude": 41.514932, "longitude": -71.6970314926564}, "transactions": [], "price": "$", "location": {"address1": "1190 Main St", "address2": "Unit 302", "address3": null, "city": "Richmond", "zip_code": "02898", "country": "US", "state": "RI", "display_address": ["1190 Main St", "Unit 302", "Richmond, RI 02898"]}, "phone": "+14014919789", "display_phone": "(401) 491-9789", "distance": 9241.97899987034}, {"id": "qmt8pjP5aOSByAZ-bf9b4A", "alias": "the-corner-deli-charlestown", "name": "The Corner Deli", "image_url": "https://s3-media3.fl.yelpcdn.com/bphoto/qRtyx61FMQXD-_1MnP8VMQ/o.jpg", "is_closed": false, "url": "https://www.yelp.com/biz/the-corner-deli-charlestown?adjust_creative=9VzDKP4DqSuZkRYYaMKPjA&utm_campaign=yelp_api_v3&utm_medium=api_v3_business_search&utm_source=9VzDKP4DqSuZkRYYaMKPjA", "review_count": 12, "categories": [{"alias": "delis", "title": "Delis"}, {"alias": "sandwiches", "title": "Sandwiches"}], "rating": 3.5, "coordinates": {"latitude": 41.3812755793333, "longitude": -71.6238138824701}, "transactions": [], "price": "$", "location": {"address1": "2 Charlestown Beach Rd", "address2": null, "address3": null, "city": "Charlestown", "zip_code": "02813", "country": "US", "state": "RI", "display_address": ["2 Charlestown Beach Rd", "Charlestown, RI 02813"]}, "phone": "", "display_phone": "", "distance": 8111.67302933055}, {"id": "HSTjKSfiJNbc4SBFH6ELOA", "alias": "wendys-richmond-39", "name": "Wendy's", "image_url": "https://s3-media3.fl.yelpcdn.com/bphoto/EJFLSIoLG0VOAIgMLni6Cw/o.jpg", "is_closed": false, "url": "https://www.yelp.com/biz/wendys-richmond-39?adjust_creative=9VzDKP4DqSuZkRYYaMKPjA&utm_campaign=yelp_api_v3&utm_medium=api_v3_business_search&utm_source=9VzDKP4DqSuZkRYYaMKPjA", "review_count": 26, "categories": [{"alias": "burgers", "title": "Burgers"}, {"alias": "hotdogs", "title": "Fast Food"}], "rating": 1.5, "coordinates": {"latitude": 41.5105143122983, "longitude": -71.6839398225724}, "transactions": [], "price": "$", "location": {"address1": "1 Stilson Rd", "address2": "", "address3": "", "city": "Richmond", "zip_code": "02898", "country": "US", "state": "RI", "display_address": ["1 Stilson Rd", "Richmond, RI 02898"]}, "phone": "+14015390630", "display_phone": "(401) 539-0630", "distance": 8153.1224574872695}, {"id": "S9xVEfTwXbZSs8hx0pPeig", "alias": "international-slice-pizza-and-wings-kingston", "name": "International Slice Pizza and Wings", "image_url": "https://s3-media4.fl.yelpcdn.com/bphoto/VeEiHFVZhH4u1lGPvKt8QQ/o.jpg", "is_closed": false, "url": "https://www.yelp.com/biz/international-slice-pizza-and-wings-kingston?adjust_creative=9VzDKP4DqSuZkRYYaMKPjA&utm_campaign=yelp_api_v3&utm_medium=api_v3_business_search&utm_source=9VzDKP4DqSuZkRYYaMKPjA", "review_count": 1, "categories": [{"alias": "pizza", "title": "Pizza"}, {"alias": "italian", "title": "Italian"}, {"alias": "chicken_wings", "title": "Chicken Wings"}], "rating": 1.0, "coordinates": {"latitude": 41.485233977437, "longitude": -71.5237265825272}, "transactions": ["delivery", "pickup"], "location": {"address1": "99 Fortin Rd", "address2": "Ste 3A", "address3": null, "city": "Kingston", "zip_code": "02881", "country": "US", "state": "RI", "display_address": ["99 Fortin Rd", "Ste 3A", "Kingston, RI 02881"]}, "phone": "+14012841386", "display_phone": "(401) 284-1386", "distance": 8866.420498348287}, {"id": "Eg1u7qJMkApQo6COSf-cyg", "alias": "town-pizza-two-wyoming-2", "name": "Town Pizza Two", "image_url": "https://s3-media3.fl.yelpcdn.com/bphoto/E_G8gHIHsdG7hSut3SnFNw/o.jpg", "is_closed": false, "url": "https://www.yelp.com/biz/town-pizza-two-wyoming-2?adjust_creative=9VzDKP4DqSuZkRYYaMKPjA&utm_campaign=yelp_api_v3&utm_medium=api_v3_business_search&utm_source=9VzDKP4DqSuZkRYYaMKPjA", "review_count": 35, "categories": [{"alias": "pizza", "title": "Pizza"}, {"alias": "seafood", "title": "Seafood"}, {"alias": "sandwiches", "title": "Sandwiches"}], "rating": 3.5, "coordinates": {"latitude": 41.5118099, "longitude": -71.68795}, "transactions": [], "price": "$$", "location": {"address1": "18 Kingstown Rd", "address2": null, "address3": "", "city": "Wyoming", "zip_code": "02898", "country": "US", "state": "RI", "display_address": ["18 Kingstown Rd", "Wyoming, RI 02898"]}, "phone": "+14015390005", "display_phone": "(401) 539-0005", "distance": 8434.535124961527}, {"id": "JIhRVJ4BAWPH9NZ0u-7Wzw", "alias": "flip-n-roll-fall-river", "name": "Flip N Roll", "image_url": "https://s3-media1.fl.yelpcdn.com/bphoto/A3l1k85peGnmCC17j-Bmhg/o.jpg", "is_closed": false, "url": "https://www.yelp.com/biz/flip-n-roll-fall-river?adjust_creative=9VzDKP4DqSuZkRYYaMKPjA&utm_campaign=yelp_api_v3&utm_medium=api_v3_business_search&utm_source=9VzDKP4DqSuZkRYYaMKPjA", "review_count": 1, "categories": [{"alias": "foodtrucks", "title": "Food Trucks"}, {"alias": "tradamerican", "title": "American (Traditional)"}, {"alias": "portuguese", "title": "Portuguese"}], "rating": 1.0, "coordinates": {"latitude": 41.68687, "longitude": -71.17062}, "transactions": [], "price": "$$", "location": {"address1": "", "address2": "", "address3": "", "city": "Fall River", "zip_code": "02724", "country": "US", "state": "MA", "display_address": ["Fall River, MA 02724"]}, "phone": "", "display_phone": "", "distance": 45397.43407778761}, {"id": "3YOzgk2UPbFQISWzqS9bHQ", "alias": "subway-kingston-36", "name": "Subway", "image_url": "https://s3-media3.fl.yelpcdn.com/bphoto/JztiFYNk_3e56oRhMcY3Dw/o.jpg", "is_closed": false, "url": "https://www.yelp.com/biz/subway-kingston-36?adjust_creative=9VzDKP4DqSuZkRYYaMKPjA&utm_campaign=yelp_api_v3&utm_medium=api_v3_business_search&utm_source=9VzDKP4DqSuZkRYYaMKPjA", "review_count": 4, "categories": [{"alias": "sandwiches", "title": "Sandwiches"}], "rating": 3.5, "coordinates": {"latitude": 41.48603, "longitude": -71.5240404483066}, "transactions": [], "price": "$", "location": {"address1": "99 Fortin Rd", "address2": "Ste 118 & 119", "address3": "", "city": "Kingston", "zip_code": "02881", "country": "US", "state": "RI", "display_address": ["99 Fortin Rd", "Ste 118 & 119", "Kingston, RI 02881"]}, "phone": "+14017894490", "display_phone": "(401) 789-4490", "distance": 8865.038523771213}]