[{"id": "5GAnvuVaAtvKO1W9Jkl2Iw", "alias": "alainas-ale-house-richmond", "name": "Alaina's Ale House", "image_url": "https://s3-media1.fl.yelpcdn.com/bphoto/Wpp0231Mj90RNBXIvJWVuA/o.jpg", "is_closed": false, "url": "https://www.yelp.com/biz/alainas-ale-house-richmond?adjust_creative=pzvBKuEUl0Vl1jtHQqJaog&utm_campaign=yelp_api_v3&utm_medium=api_v3_business_search&utm_source=pzvBKuEUl0Vl1jtHQqJaog", "review_count": 36, "categories": [{"alias": "irish_pubs", "title": "Irish Pub"}, {"alias": "comfortfood", "title": "Comfort Food"}], "rating": 4.5, "coordinates": {"latitude": 41.496851, "longitude": -71.636585}, "transactions": [], "price": "$$", "location": {"address1": "343 Kingstown Rd", "address2": "", "address3": null, "city": "Richmond", "zip_code": "02892", "country": "US", "state": "RI", "display_address": ["343 Kingstown Rd", "Richmond, RI 02892"]}, "phone": "+14015397300", "display_phone": "(401) 539-7300", "distance": 2727.868352438756}, {"id": "m7YxP9jWLnTUwsS72sbxfA", "alias": "the-charlestown-rathskeller-charlestown", "name": "The Charlestown Rathskeller", "image_url": "https://s3-media1.fl.yelpcdn.com/bphoto/JedVP1NgtnoOeZH_r1yItQ/o.jpg", "is_closed": false, "url": "https://www.yelp.com/biz/the-charlestown-rathskeller-charlestown?adjust_creative=pzvBKuEUl0Vl1jtHQqJaog&utm_campaign=yelp_api_v3&utm_medium=api_v3_business_search&utm_source=pzvBKuEUl0Vl1jtHQqJaog", "review_count": 215, "categories": [{"alias": "pubs", "title": "Pubs"}, {"alias": "burgers", "title": "Burgers"}, {"alias": "tradamerican", "title": "American (Traditional)"}], "rating": 3.5, "coordinates": {"latitude": 41.424044, "longitude": -71.61319}, "transactions": [], "price": "$$", "location": {"address1": "489A Old Coach Rd", "address2": "", "address3": "", "city": "Charlestown", "zip_code": "02813", "country": "US", "state": "RI", "display_address": ["489A Old Coach Rd", "Charlestown, RI 02813"]}, "phone": "+14017921000", "display_phone": "(401) 792-1000", "distance": 7165.872792525727}, {"id": "JLoH-YkReFoUoEN3VCLL4w", "alias": "bouchers-wood-river-inn-wyoming", "name": "Boucher's Wood River Inn", "image_url": "https://s3-media3.fl.yelpcdn.com/bphoto/1XgE3dIGSPlgxbvLOjTJoQ/o.jpg", "is_closed": false, "url": "https://www.yelp.com/biz/bouchers-wood-river-inn-wyoming?adjust_creative=pzvBKuEUl0Vl1jtHQqJaog&utm_campaign=yelp_api_v3&utm_medium=api_v3_business_search&utm_source=pzvBKuEUl0Vl1jtHQqJaog", "review_count": 60, "categories": [{"alias": "tradamerican", "title": "American (Traditional)"}, {"alias": "breakfast_brunch", "title": "Breakfast & Brunch"}, {"alias": "burgers", "title": "Burgers"}], "rating": 4.0, "coordinates": {"latitude": 41.514980218318, "longitude": -71.702437510575}, "transactions": [], "price": "$$", "location": {"address1": "1139 Main St", "address2": "", "address3": "", "city": "Wyoming", "zip_code": "02898", "country": "US", "state": "RI", "display_address": ["1139 Main St", "Wyoming, RI 02898"]}, "phone": "+14015399800", "display_phone": "(401) 539-9800", "distance": 5434.215409818671}, {"id": "7gUf70LOzjZ9SG9r7-25qA", "alias": "k-and-s-pizza-charlestown", "name": "K & S Pizza", "image_url": "https://s3-media2.fl.yelpcdn.com/bphoto/VRNgydNfbBKHDnjy7nNf3g/o.jpg", "is_closed": false, "url": "https://www.yelp.com/biz/k-and-s-pizza-charlestown?adjust_creative=pzvBKuEUl0Vl1jtHQqJaog&utm_campaign=yelp_api_v3&utm_medium=api_v3_business_search&utm_source=pzvBKuEUl0Vl1jtHQqJaog", "review_count": 26, "categories": [{"alias": "pizza", "title": "Pizza"}], "rating": 3.5, "coordinates": {"latitude": 41.4546752868335, "longitude": -71.6611065036563}, "transactions": [], "price": "$$", "location": {"address1": "469 Carolina Back Rd", "address2": "", "address3": "", "city": "Charlestown", "zip_code": "02813", "country": "US", "state": "RI", "display_address": ["469 Carolina Back Rd", "Charlestown, RI 02813"]}, "phone": "+14013640040", "display_phone": "(401) 364-0040", "distance": 2683.0611080339445}, {"id": "rCR2-CbyuxntsRAAGtfGwg", "alias": "tillys-cheesesteaks-west-kingston", "name": "Tilly's Cheesesteaks", "image_url": "https://s3-media3.fl.yelpcdn.com/bphoto/kBdwxxiuskUi3pOhVL9J0w/o.jpg", "is_closed": false, "url": "https://www.yelp.com/biz/tillys-cheesesteaks-west-kingston?adjust_creative=pzvBKuEUl0Vl1jtHQqJaog&utm_campaign=yelp_api_v3&utm_medium=api_v3_business_search&utm_source=pzvBKuEUl0Vl1jtHQqJaog", "review_count": 261, "categories": [{"alias": "cheesesteaks", "title": "Cheesesteaks"}, {"alias": "newamerican", "title": "American (New)"}, {"alias": "sandwiches", "title": "Sandwiches"}], "rating": 4.0, "coordinates": {"latitude": 41.485976, "longitude": -71.563709}, "transactions": [], "price": "$$", "location": {"address1": "3711 Kingstown Rd", "address2": "", "address3": null, "city": "West Kingston", "zip_code": "02892", "country": "US", "state": "RI", "display_address": ["3711 Kingstown Rd", "West Kingston, RI 02892"]}, "phone": "+14017837711", "display_phone": "(401) 783-7711", "distance": 7951.24769909573}, {"id": "aJpADNlc7HsFLelDyU5sCw", "alias": "11th-green-restaurant-and-pub-hope-valley", "name": "11th Green Restaurant & Pub", "image_url": "https://s3-media1.fl.yelpcdn.com/bphoto/qEAM1gVez4sxGMZNc2c32w/o.jpg", "is_closed": false, "url": "https://www.yelp.com/biz/11th-green-restaurant-and-pub-hope-valley?adjust_creative=pzvBKuEUl0Vl1jtHQqJaog&utm_campaign=yelp_api_v3&utm_medium=api_v3_business_search&utm_source=pzvBKuEUl0Vl1jtHQqJaog", "review_count": 17, "categories": [{"alias": "pubs", "title": "Pubs"}, {"alias": "newamerican", "title": "American (New)"}], "rating": 4.5, "coordinates": {"latitude": 41.4482724, "longitude": -71.7235942}, "transactions": [], "price": "$$", "location": {"address1": "78 Woodville Alton Rd", "address2": null, "address3": null, "city": "Hope Valley", "zip_code": "02832", "country": "US", "state": "RI", "display_address": ["78 Woodville Alton Rd", "Hope Valley, RI 02832"]}, "phone": "+14013640700", "display_phone": "(401) 364-0700", "distance": 6219.196631393625}, {"id": "aea8Lb74kpd7hfqrfc6ybg", "alias": "kingston-pizza-richmond-2", "name": "Kingston Pizza", "image_url": "https://s3-media2.fl.yelpcdn.com/bphoto/6QiIoaF67JMYzsJf8x5IGQ/o.jpg", "is_closed": false, "url": "https://www.yelp.com/biz/kingston-pizza-richmond-2?adjust_creative=pzvBKuEUl0Vl1jtHQqJaog&utm_campaign=yelp_api_v3&utm_medium=api_v3_business_search&utm_source=pzvBKuEUl0Vl1jtHQqJaog", "review_count": 11, "categories": [{"alias": "pizza", "title": "Pizza"}, {"alias": "italian", "title": "Italian"}, {"alias": "salad", "title": "Salad"}], "rating": 3.5, "coordinates": {"latitude": 41.49277, "longitude": -71.66015}, "transactions": [], "price": "$$", "location": {"address1": "54 Richmond Townhouse Rd", "address2": "", "address3": null, "city": "Richmond", "zip_code": "02898", "country": "US", "state": "RI", "display_address": ["54 Richmond Townhouse Rd", "Richmond, RI 02898"]}, "phone": "+14015397776", "display_phone": "(401) 539-7776", "distance": 1571.369234107291}, {"id": "v_bPIP7E2pHKvQpzPtv4EQ", "alias": "guac-n-roll-truck-richmond", "name": "Guac\u2018n Roll Truck", "image_url": "https://s3-media1.fl.yelpcdn.com/bphoto/Y-5vV3uck4sWTcxt310xuQ/o.jpg", "is_closed": false, "url": "https://www.yelp.com/biz/guac-n-roll-truck-richmond?adjust_creative=pzvBKuEUl0Vl1jtHQqJaog&utm_campaign=yelp_api_v3&utm_medium=api_v3_business_search&utm_source=pzvBKuEUl0Vl1jtHQqJaog", "review_count": 3, "categories": [{"alias": "mexican", "title": "Mexican"}, {"alias": "foodtrucks", "title": "Food Trucks"}, {"alias": "tex-mex", "title": "Tex-Mex"}], "rating": 4.5, "coordinates": {"latitude": 41.512776, "longitude": -71.695398}, "transactions": [], "location": {"address1": "1219 Main St", "address2": null, "address3": "", "city": "Richmond", "zip_code": "02898", "country": "US", "state": "RI", "display_address": ["1219 Main St", "Richmond, RI 02898"]}, "phone": "+14016184822", "display_phone": "(401) 618-4822", "distance": 4863.883010977819}, {"id": "WtVx5tGt8Y5A61as7UhrnQ", "alias": "dragon-palace-wyoming", "name": "Dragon Palace", "image_url": "https://s3-media3.fl.yelpcdn.com/bphoto/InYTvlF3CEshTeBKjuNcKg/o.jpg", "is_closed": false, "url": "https://www.yelp.com/biz/dragon-palace-wyoming?adjust_creative=pzvBKuEUl0Vl1jtHQqJaog&utm_campaign=yelp_api_v3&utm_medium=api_v3_business_search&utm_source=pzvBKuEUl0Vl1jtHQqJaog", "review_count": 59, "categories": [{"alias": "chinese", "title": "Chinese"}, {"alias": "japanese", "title": "Japanese"}, {"alias": "sushi", "title": "Sushi Bars"}], "rating": 3.5, "coordinates": {"latitude": 41.513876, "longitude": -71.6945421}, "transactions": [], "price": "$$", "location": {"address1": "1210 Main St", "address2": "", "address3": "", "city": "Wyoming", "zip_code": "02898", "country": "US", "state": "RI", "display_address": ["1210 Main St", "Wyoming, RI 02898"]}, "phone": "+14015391112", "display_phone": "(401) 539-1112", "distance": 4918.806624587569}, {"id": "sAjx9M9bwQ5SyiAOnRsM9w", "alias": "spring-street-market-and-pizza-hope-valley", "name": "Spring Street Market and Pizza", "image_url": "https://s3-media4.fl.yelpcdn.com/bphoto/p-RQjUVJc3zWsGcVSYtK-A/o.jpg", "is_closed": false, "url": "https://www.yelp.com/biz/spring-street-market-and-pizza-hope-valley?adjust_creative=pzvBKuEUl0Vl1jtHQqJaog&utm_campaign=yelp_api_v3&utm_medium=api_v3_business_search&utm_source=pzvBKuEUl0Vl1jtHQqJaog", "review_count": 9, "categories": [{"alias": "seafood", "title": "Seafood"}, {"alias": "burgers", "title": "Burgers"}, {"alias": "pizza", "title": "Pizza"}], "rating": 4.5, "coordinates": {"latitude": 41.507408, "longitude": -71.716866}, "transactions": [], "price": "$", "location": {"address1": "1 Spring St", "address2": "", "address3": "", "city": "Hope Valley", "zip_code": "02832", "country": "US", "state": "RI", "display_address": ["1 Spring St", "Hope Valley, RI 02832"]}, "phone": "+14015390111", "display_phone": "(401) 539-0111", "distance": 5801.7480323028985}, {"id": "H4g9fbbMB9BVfbUDGSeTcA", "alias": "ma-and-pas-country-store-hope-valley", "name": "Ma & Pa's Country Store", "image_url": "https://s3-media3.fl.yelpcdn.com/bphoto/PkQJN-dOPgHRBUbGKxNJ6Q/o.jpg", "is_closed": false, "url": "https://www.yelp.com/biz/ma-and-pas-country-store-hope-valley?adjust_creative=pzvBKuEUl0Vl1jtHQqJaog&utm_campaign=yelp_api_v3&utm_medium=api_v3_business_search&utm_source=pzvBKuEUl0Vl1jtHQqJaog", "review_count": 17, "categories": [{"alias": "convenience", "title": "Convenience Stores"}, {"alias": "sandwiches", "title": "Sandwiches"}, {"alias": "delis", "title": "Delis"}], "rating": 4.0, "coordinates": {"latitude": 41.509668, "longitude": -71.713031}, "transactions": [], "price": "$$", "location": {"address1": "1044 Main St", "address2": "", "address3": "", "city": "Hope Valley", "zip_code": "02832", "country": "US", "state": "RI", "display_address": ["1044 Main St", "Hope Valley, RI 02832"]}, "phone": "+14015397053", "display_phone": "(401) 539-7053", "distance": 5683.477896345166}, {"id": "2qZqMD5aSQxsDn5AMK-g9Q", "alias": "wolf-rocks-country-kitchen-slocum", "name": "Wolf Rock's Country Kitchen", "image_url": "https://s3-media3.fl.yelpcdn.com/bphoto/O2f7pE2eXJRdYoJdQ1rm5A/o.jpg", "is_closed": false, "url": "https://www.yelp.com/biz/wolf-rocks-country-kitchen-slocum?adjust_creative=pzvBKuEUl0Vl1jtHQqJaog&utm_campaign=yelp_api_v3&utm_medium=api_v3_business_search&utm_source=pzvBKuEUl0Vl1jtHQqJaog", "review_count": 7, "categories": [{"alias": "tradamerican", "title": "American (Traditional)"}], "rating": 4.5, "coordinates": {"latitude": 41.511644, "longitude": -71.556428}, "transactions": [], "price": "$", "location": {"address1": "806 S County Trail", "address2": "", "address3": "", "city": "Slocum", "zip_code": "02877", "country": "US", "state": "RI", "display_address": ["806 S County Trail", "Slocum, RI 02877"]}, "phone": "+14012944981", "display_phone": "(401) 294-4981", "distance": 9268.181860765226}, {"id": "eHEIUOcQNjDAfFS3zkF_kQ", "alias": "wests-bakery-hope-valley", "name": "West's Bakery", "image_url": "https://s3-media4.fl.yelpcdn.com/bphoto/eAb_XFxZqRx_TvM7z9mlCA/o.jpg", "is_closed": false, "url": "https://www.yelp.com/biz/wests-bakery-hope-valley?adjust_creative=pzvBKuEUl0Vl1jtHQqJaog&utm_campaign=yelp_api_v3&utm_medium=api_v3_business_search&utm_source=pzvBKuEUl0Vl1jtHQqJaog", "review_count": 42, "categories": [{"alias": "bakeries", "title": "Bakeries"}, {"alias": "breakfast_brunch", "title": "Breakfast & Brunch"}], "rating": 4.5, "coordinates": {"latitude": 41.507668, "longitude": -71.716579}, "transactions": [], "price": "$", "location": {"address1": "995 Main St", "address2": "", "address3": "", "city": "Hope Valley", "zip_code": "02832", "country": "US", "state": "RI", "display_address": ["995 Main St", "Hope Valley, RI 02832"]}, "phone": "+14015392451", "display_phone": "(401) 539-2451", "distance": 5797.7761421679725}, {"id": "1S-Cavf_tZwoerbvAz2HCg", "alias": "bali-village-restaurant-wyoming", "name": "Bali Village Restaurant", "image_url": "https://s3-media1.fl.yelpcdn.com/bphoto/_JZabeVxQZ5vJccogcgW8g/o.jpg", "is_closed": false, "url": "https://www.yelp.com/biz/bali-village-restaurant-wyoming?adjust_creative=pzvBKuEUl0Vl1jtHQqJaog&utm_campaign=yelp_api_v3&utm_medium=api_v3_business_search&utm_source=pzvBKuEUl0Vl1jtHQqJaog", "review_count": 42, "categories": [{"alias": "chinese", "title": "Chinese"}], "rating": 3.0, "coordinates": {"latitude": 41.515, "longitude": -71.69838}, "transactions": [], "price": "$$", "location": {"address1": "1172 Main St", "address2": "", "address3": "", "city": "Wyoming", "zip_code": "02898", "country": "US", "state": "RI", "display_address": ["1172 Main St", "Wyoming, RI 02898"]}, "phone": "+14015399060", "display_phone": "(401) 539-9060", "distance": 5221.04972612197}, {"id": "1wJrMF0cAkFM2yUH9s_5Xg", "alias": "the-nordic-charlestown-2", "name": "The Nordic", "image_url": "https://s3-media4.fl.yelpcdn.com/bphoto/YFJRUSDbWbqZ_uaqyQD3Cg/o.jpg", "is_closed": false, "url": "https://www.yelp.com/biz/the-nordic-charlestown-2?adjust_creative=pzvBKuEUl0Vl1jtHQqJaog&utm_campaign=yelp_api_v3&utm_medium=api_v3_business_search&utm_source=pzvBKuEUl0Vl1jtHQqJaog", "review_count": 342, "categories": [{"alias": "buffets", "title": "Buffets"}, {"alias": "seafood", "title": "Seafood"}, {"alias": "steak", "title": "Steakhouses"}], "rating": 4.5, "coordinates": {"latitude": 41.4262084471543, "longitude": -71.6286110132933}, "transactions": [], "price": "$$$$", "location": {"address1": "178 Nordic Trl", "address2": "", "address3": "", "city": "Charlestown", "zip_code": "02813", "country": "US", "state": "RI", "display_address": ["178 Nordic Trl", "Charlestown, RI 02813"]}, "phone": "+14017834515", "display_phone": "(401) 783-4515", "distance": 6355.250726561624}, {"id": "lwPzsh8ZjmiDUrU9jSM6VQ", "alias": "petes-grocery-bradford", "name": "Pete's Grocery", "image_url": "https://s3-media2.fl.yelpcdn.com/bphoto/QAZKJiPkeBcROBPbrkO54w/o.jpg", "is_closed": false, "url": "https://www.yelp.com/biz/petes-grocery-bradford?adjust_creative=pzvBKuEUl0Vl1jtHQqJaog&utm_campaign=yelp_api_v3&utm_medium=api_v3_business_search&utm_source=pzvBKuEUl0Vl1jtHQqJaog", "review_count": 6, "categories": [{"alias": "grocery", "title": "Grocery"}, {"alias": "delis", "title": "Delis"}], "rating": 5.0, "coordinates": {"latitude": 41.4116829, "longitude": -71.748908}, "transactions": [], "price": "$$", "location": {"address1": "244 Ashaway Rd", "address2": "", "address3": "", "city": "Bradford", "zip_code": "02808", "country": "US", "state": "RI", "display_address": ["244 Ashaway Rd", "Bradford, RI 02808"]}, "phone": "+14013778109", "display_phone": "(401) 377-8109", "distance": 10590.712497280894}, {"id": "Eg1u7qJMkApQo6COSf-cyg", "alias": "town-pizza-two-wyoming-2", "name": "Town Pizza Two", "image_url": "https://s3-media3.fl.yelpcdn.com/bphoto/E_G8gHIHsdG7hSut3SnFNw/o.jpg", "is_closed": false, "url": "https://www.yelp.com/biz/town-pizza-two-wyoming-2?adjust_creative=pzvBKuEUl0Vl1jtHQqJaog&utm_campaign=yelp_api_v3&utm_medium=api_v3_business_search&utm_source=pzvBKuEUl0Vl1jtHQqJaog", "review_count": 35, "categories": [{"alias": "pizza", "title": "Pizza"}, {"alias": "seafood", "title": "Seafood"}, {"alias": "sandwiches", "title": "Sandwiches"}], "rating": 3.5, "coordinates": {"latitude": 41.5118099, "longitude": -71.68795}, "transactions": [], "price": "$$", "location": {"address1": "18 Kingstown Rd", "address2": null, "address3": "", "city": "Wyoming", "zip_code": "02898", "country": "US", "state": "RI", "display_address": ["18 Kingstown Rd", "Wyoming, RI 02898"]}, "phone": "+14015390005", "display_phone": "(401) 539-0005", "distance": 4374.077307411183}, {"id": "Io4C5tUwnb_YzeaMXHBqBA", "alias": "shuckin-truck-narragansett-2", "name": "Shuckin Truck", "image_url": "https://s3-media2.fl.yelpcdn.com/bphoto/r7QRORfe9UYVS7GGzUm9DQ/o.jpg", "is_closed": false, "url": "https://www.yelp.com/biz/shuckin-truck-narragansett-2?adjust_creative=pzvBKuEUl0Vl1jtHQqJaog&utm_campaign=yelp_api_v3&utm_medium=api_v3_business_search&utm_source=pzvBKuEUl0Vl1jtHQqJaog", "review_count": 24, "categories": [{"alias": "foodtrucks", "title": "Food Trucks"}, {"alias": "seafood", "title": "Seafood"}], "rating": 4.5, "coordinates": {"latitude": 41.4274482727051, "longitude": -71.4597778320313}, "transactions": [], "price": "$$", "location": {"address1": "", "address2": "", "address3": "", "city": "Narragansett", "zip_code": "02882", "country": "US", "state": "RI", "display_address": ["Narragansett, RI 02882"]}, "phone": "+14017415953", "display_phone": "(401) 741-5953", "distance": 16710.49265979475}, {"id": "AUxLtRlI5vkBFxXqvRFoxQ", "alias": "mcdonalds-wyoming-3", "name": "McDonald's", "image_url": "https://s3-media3.fl.yelpcdn.com/bphoto/8ATmPhLg3ytOg9ObhCtS-A/o.jpg", "is_closed": false, "url": "https://www.yelp.com/biz/mcdonalds-wyoming-3?adjust_creative=pzvBKuEUl0Vl1jtHQqJaog&utm_campaign=yelp_api_v3&utm_medium=api_v3_business_search&utm_source=pzvBKuEUl0Vl1jtHQqJaog", "review_count": 22, "categories": [{"alias": "hotdogs", "title": "Fast Food"}, {"alias": "burgers", "title": "Burgers"}, {"alias": "coffee", "title": "Coffee & Tea"}], "rating": 2.0, "coordinates": {"latitude": 41.5122912216178, "longitude": -71.6882493}, "transactions": [], "price": "$", "location": {"address1": "14 Kingston Rd", "address2": "", "address3": "", "city": "Wyoming", "zip_code": "02898", "country": "US", "state": "RI", "display_address": ["14 Kingston Rd", "Wyoming, RI 02898"]}, "phone": "+14015391115", "display_phone": "(401) 539-1115", "distance": 4471.208437451574}, {"id": "HSTjKSfiJNbc4SBFH6ELOA", "alias": "wendys-richmond-39", "name": "Wendy's", "image_url": "https://s3-media3.fl.yelpcdn.com/bphoto/EJFLSIoLG0VOAIgMLni6Cw/o.jpg", "is_closed": false, "url": "https://www.yelp.com/biz/wendys-richmond-39?adjust_creative=pzvBKuEUl0Vl1jtHQqJaog&utm_campaign=yelp_api_v3&utm_medium=api_v3_business_search&utm_source=pzvBKuEUl0Vl1jtHQqJaog", "review_count": 26, "categories": [{"alias": "burgers", "title": "Burgers"}, {"alias": "hotdogs", "title": "Fast Food"}], "rating": 1.5, "coordinates": {"latitude": 41.5105143122983, "longitude": -71.6839398225724}, "transactions": [], "price": "$", "location": {"address1": "1 Stilson Rd", "address2": "", "address3": "", "city": "Richmond", "zip_code": "02898", "country": "US", "state": "RI", "display_address": ["1 Stilson Rd", "Richmond, RI 02898"]}, "phone": "+14015390630", "display_phone": "(401) 539-0630", "distance": 4112.995075612303}, {"id": "ZlpZpHXjDNk7asg4jQ06SQ", "alias": "subway-richmond-157", "name": "Subway", "image_url": "https://s3-media2.fl.yelpcdn.com/bphoto/UaawUmwID5d3PeJxubLkvA/o.jpg", "is_closed": false, "url": "https://www.yelp.com/biz/subway-richmond-157?adjust_creative=pzvBKuEUl0Vl1jtHQqJaog&utm_campaign=yelp_api_v3&utm_medium=api_v3_business_search&utm_source=pzvBKuEUl0Vl1jtHQqJaog", "review_count": 4, "categories": [{"alias": "sandwiches", "title": "Sandwiches"}], "rating": 3.0, "coordinates": {"latitude": 41.514932, "longitude": -71.6970314926564}, "transactions": [], "price": "$", "location": {"address1": "1190 Main St", "address2": "Unit 302", "address3": null, "city": "Richmond", "zip_code": "02898", "country": "US", "state": "RI", "display_address": ["1190 Main St", "Unit 302", "Richmond, RI 02898"]}, "phone": "+14014919789", "display_phone": "(401) 491-9789", "distance": 5138.850393701014}]