[{"id": "m5RLHsmP10ndwlHViypFtQ", "alias": "lucky-dog-tavern-north-smithfield", "name": "Lucky Dog Tavern", "image_url": "https://s3-media1.fl.yelpcdn.com/bphoto/B1GtVbmAsSqv7LIKsziFkQ/o.jpg", "is_closed": false, "url": "https://www.yelp.com/biz/lucky-dog-tavern-north-smithfield?adjust_creative=HbGs3gi3xS-SfqfxZRDuCw&utm_campaign=yelp_api_v3&utm_medium=api_v3_business_search&utm_source=HbGs3gi3xS-SfqfxZRDuCw", "review_count": 124, "categories": [{"alias": "tradamerican", "title": "American (Traditional)"}, {"alias": "seafood", "title": "Seafood"}, {"alias": "burgers", "title": "Burgers"}], "rating": 4.5, "coordinates": {"latitude": 42.0001733244128, "longitude": -71.570336091304}, "transactions": [], "price": "$$", "location": {"address1": "82 School St", "address2": "", "address3": null, "city": "North Smithfield", "zip_code": "02896", "country": "US", "state": "RI", "display_address": ["82 School St", "North Smithfield, RI 02896"]}, "phone": "+14014884777", "display_phone": "(401) 488-4777", "distance": 863.0336288936692}, {"id": "TSUFpu2DVh1D5l-9bU0TFw", "alias": "lindys-tavern-forestdale", "name": "Lindy's Tavern", "image_url": "https://s3-media4.fl.yelpcdn.com/bphoto/UTfKQo-bEPIzETtyKio33g/o.jpg", "is_closed": false, "url": "https://www.yelp.com/biz/lindys-tavern-forestdale?adjust_creative=HbGs3gi3xS-SfqfxZRDuCw&utm_campaign=yelp_api_v3&utm_medium=api_v3_business_search&utm_source=HbGs3gi3xS-SfqfxZRDuCw", "review_count": 252, "categories": [{"alias": "seafood", "title": "Seafood"}, {"alias": "bars", "title": "Bars"}, {"alias": "salad", "title": "Salad"}], "rating": 4.0, "coordinates": {"latitude": 41.99935667, "longitude": -71.56814667}, "transactions": [], "price": "$$", "location": {"address1": "98 School St", "address2": null, "address3": null, "city": "Forestdale", "zip_code": "02824", "country": "US", "state": "RI", "display_address": ["98 School St", "Forestdale, RI 02824"]}, "phone": "+14013561966", "display_phone": "(401) 356-1966", "distance": 995.7670275231785}, {"id": "ESV1L-ai5ruQ-3ncZsxKdA", "alias": "goodstuff-smokehouse-blackstone", "name": "Goodstuff Smokehouse", "image_url": "https://s3-media3.fl.yelpcdn.com/bphoto/pyHBn0p5vs0PfwxFKKrOpA/o.jpg", "is_closed": false, "url": "https://www.yelp.com/biz/goodstuff-smokehouse-blackstone?adjust_creative=HbGs3gi3xS-SfqfxZRDuCw&utm_campaign=yelp_api_v3&utm_medium=api_v3_business_search&utm_source=HbGs3gi3xS-SfqfxZRDuCw", "review_count": 272, "categories": [{"alias": "bbq", "title": "Barbeque"}, {"alias": "southern", "title": "Southern"}], "rating": 4.5, "coordinates": {"latitude": 42.01865, "longitude": -71.5363}, "transactions": ["delivery"], "price": "$$", "location": {"address1": "97 Main St", "address2": null, "address3": "", "city": "Blackstone", "zip_code": "01504", "country": "US", "state": "MA", "display_address": ["97 Main St", "Blackstone, MA 01504"]}, "phone": "+15089281815", "display_phone": "(508) 928-1815", "distance": 4333.484803704858}, {"id": "lcP4rb76-ymxAdtLJGVRqw", "alias": "the-village-haven-forestdale", "name": "The Village Haven", "image_url": "https://s3-media3.fl.yelpcdn.com/bphoto/L0ide9UMs7XtAWWNnKaCjw/o.jpg", "is_closed": false, "url": "https://www.yelp.com/biz/the-village-haven-forestdale?adjust_creative=HbGs3gi3xS-SfqfxZRDuCw&utm_campaign=yelp_api_v3&utm_medium=api_v3_business_search&utm_source=HbGs3gi3xS-SfqfxZRDuCw", "review_count": 73, "categories": [{"alias": "tradamerican", "title": "American (Traditional)"}], "rating": 4.0, "coordinates": {"latitude": 41.999786, "longitude": -71.569072}, "transactions": [], "price": "$$", "location": {"address1": "90 School St", "address2": "", "address3": "", "city": "Forestdale", "zip_code": "02824", "country": "US", "state": "RI", "display_address": ["90 School St", "Forestdale, RI 02824"]}, "phone": "+14017624242", "display_phone": "(401) 762-4242", "distance": 938.6901941125375}, {"id": "dEdKXuVRx8FMoi1MlXIvMw", "alias": "tavern-6-two-1-north-smithfield", "name": "Tavern 6 Two 1", "image_url": "https://s3-media4.fl.yelpcdn.com/bphoto/N1b7itR_OkZJFWh_DIdXsw/o.jpg", "is_closed": false, "url": "https://www.yelp.com/biz/tavern-6-two-1-north-smithfield?adjust_creative=HbGs3gi3xS-SfqfxZRDuCw&utm_campaign=yelp_api_v3&utm_medium=api_v3_business_search&utm_source=HbGs3gi3xS-SfqfxZRDuCw", "review_count": 47, "categories": [{"alias": "pizza", "title": "Pizza"}, {"alias": "tradamerican", "title": "American (Traditional)"}, {"alias": "sportsbars", "title": "Sports Bars"}], "rating": 4.5, "coordinates": {"latitude": 41.989519164815, "longitude": -71.5571130786062}, "transactions": [], "price": "$$", "location": {"address1": "621 Pound Hill Rd", "address2": "", "address3": null, "city": "North Smithfield", "zip_code": "02896", "country": "US", "state": "RI", "display_address": ["621 Pound Hill Rd", "North Smithfield, RI 02896"]}, "phone": "+14012499333", "display_phone": "(401) 249-9333", "distance": 2008.636550902748}, {"id": "xSuPdhkcXrSOGW0baJH6WQ", "alias": "quik-stop-deli-north-smithfield", "name": "Quik Stop Deli", "image_url": "https://s3-media3.fl.yelpcdn.com/bphoto/sXXpgxFE1R4mf0Ef2-Q_BQ/o.jpg", "is_closed": false, "url": "https://www.yelp.com/biz/quik-stop-deli-north-smithfield?adjust_creative=HbGs3gi3xS-SfqfxZRDuCw&utm_campaign=yelp_api_v3&utm_medium=api_v3_business_search&utm_source=HbGs3gi3xS-SfqfxZRDuCw", "review_count": 16, "categories": [{"alias": "delis", "title": "Delis"}], "rating": 4.5, "coordinates": {"latitude": 42.0006, "longitude": -71.57955}, "transactions": [], "price": "$", "location": {"address1": "11 Main St", "address2": "", "address3": "", "city": "North Smithfield", "zip_code": "02896", "country": "US", "state": "RI", "display_address": ["11 Main St", "North Smithfield, RI 02896"]}, "phone": "+14017653227", "display_phone": "(401) 765-3227", "distance": 383.88408217994584}, {"id": "a-Bj8NJQ_yvMG7vPe4HX1A", "alias": "coffee-and-cream-north-smithfield-3", "name": "Coffee & Cream", "image_url": "https://s3-media1.fl.yelpcdn.com/bphoto/VvoVaUe4zoI6y3wKtLkqXw/o.jpg", "is_closed": false, "url": "https://www.yelp.com/biz/coffee-and-cream-north-smithfield-3?adjust_creative=HbGs3gi3xS-SfqfxZRDuCw&utm_campaign=yelp_api_v3&utm_medium=api_v3_business_search&utm_source=HbGs3gi3xS-SfqfxZRDuCw", "review_count": 8, "categories": [{"alias": "breakfast_brunch", "title": "Breakfast & Brunch"}, {"alias": "coffee", "title": "Coffee & Tea"}], "rating": 3.5, "coordinates": {"latitude": 42.0051, "longitude": -71.5856228}, "transactions": [], "location": {"address1": "900 Victory Hwy", "address2": "", "address3": null, "city": "North Smithfield", "zip_code": "02876", "country": "US", "state": "RI", "display_address": ["900 Victory Hwy", "North Smithfield, RI 02876"]}, "phone": "+14014884448", "display_phone": "(401) 488-4448", "distance": 1081.0940038483534}, {"id": "Y28Jxm3fl0O__uK90Jzj4A", "alias": "hercules-beef-wings-and-pizza-north-smithfield", "name": "Hercules Beef, Wings & Pizza", "image_url": "https://s3-media1.fl.yelpcdn.com/bphoto/KGlnJkfJ_eysQgKjf6JVKg/o.jpg", "is_closed": false, "url": "https://www.yelp.com/biz/hercules-beef-wings-and-pizza-north-smithfield?adjust_creative=HbGs3gi3xS-SfqfxZRDuCw&utm_campaign=yelp_api_v3&utm_medium=api_v3_business_search&utm_source=HbGs3gi3xS-SfqfxZRDuCw", "review_count": 4, "categories": [{"alias": "pizza", "title": "Pizza"}, {"alias": "chicken_wings", "title": "Chicken Wings"}, {"alias": "sandwiches", "title": "Sandwiches"}], "rating": 3.5, "coordinates": {"latitude": 42.000133, "longitude": -71.579853}, "transactions": [], "location": {"address1": "7 Main St", "address2": null, "address3": "", "city": "North Smithfield", "zip_code": "02896", "country": "US", "state": "RI", "display_address": ["7 Main St", "North Smithfield, RI 02896"]}, "phone": "+14017661111", "display_phone": "(401) 766-1111", "distance": 405.3812505607541}, {"id": "tj8x4F_EdL-27LahB6-0lQ", "alias": "the-table-family-diner-uxbridge", "name": "The Table Family Diner", "image_url": "https://s3-media2.fl.yelpcdn.com/bphoto/sbEmdN-r7aC3mpLLne-TAw/o.jpg", "is_closed": false, "url": "https://www.yelp.com/biz/the-table-family-diner-uxbridge?adjust_creative=HbGs3gi3xS-SfqfxZRDuCw&utm_campaign=yelp_api_v3&utm_medium=api_v3_business_search&utm_source=HbGs3gi3xS-SfqfxZRDuCw", "review_count": 3, "categories": [{"alias": "diners", "title": "Diners"}, {"alias": "coffee", "title": "Coffee & Tea"}, {"alias": "breakfast_brunch", "title": "Breakfast & Brunch"}], "rating": 5.0, "coordinates": {"latitude": 42.02799, "longitude": -71.60707}, "transactions": [], "location": {"address1": "775 Quaker Hwy", "address2": null, "address3": "", "city": "Uxbridge", "zip_code": "01569", "country": "US", "state": "MA", "display_address": ["775 Quaker Hwy", "Uxbridge, MA 01569"]}, "phone": "+15082787327", "display_phone": "(508) 278-7327", "distance": 4181.130515225352}, {"id": "rpaUYCqcAQ041wpNsocuFw", "alias": "yama-fuji-north-smithfield-2", "name": "Yama Fuji", "image_url": "https://s3-media1.fl.yelpcdn.com/bphoto/hosPRo6JNWhK5ZqmdYREgg/o.jpg", "is_closed": false, "url": "https://www.yelp.com/biz/yama-fuji-north-smithfield-2?adjust_creative=HbGs3gi3xS-SfqfxZRDuCw&utm_campaign=yelp_api_v3&utm_medium=api_v3_business_search&utm_source=HbGs3gi3xS-SfqfxZRDuCw", "review_count": 74, "categories": [{"alias": "japanese", "title": "Japanese"}, {"alias": "sushi", "title": "Sushi Bars"}], "rating": 3.5, "coordinates": {"latitude": 42.0050400107292, "longitude": -71.5855900175255}, "transactions": [], "price": "$$", "location": {"address1": "900 Victory Hwy", "address2": "Ste 3", "address3": "", "city": "North Smithfield", "zip_code": "02896", "country": "US", "state": "RI", "display_address": ["900 Victory Hwy", "Ste 3", "North Smithfield, RI 02896"]}, "phone": "+14015970885", "display_phone": "(401) 597-0885", "distance": 1073.9296420770909}, {"id": "4rR-Nq2f9EHFxEqm-QpQqQ", "alias": "johnny-s-victory-diner-burrillville", "name": "Johnny\u2019s Victory Diner", "image_url": "https://s3-media3.fl.yelpcdn.com/bphoto/h5kREUFeypGTvhyQljYnkA/o.jpg", "is_closed": false, "url": "https://www.yelp.com/biz/johnny-s-victory-diner-burrillville?adjust_creative=HbGs3gi3xS-SfqfxZRDuCw&utm_campaign=yelp_api_v3&utm_medium=api_v3_business_search&utm_source=HbGs3gi3xS-SfqfxZRDuCw", "review_count": 55, "categories": [{"alias": "breakfast_brunch", "title": "Breakfast & Brunch"}, {"alias": "diners", "title": "Diners"}, {"alias": "tradamerican", "title": "American (Traditional)"}], "rating": 4.0, "coordinates": {"latitude": 41.9809227620163, "longitude": -71.6078001701749}, "transactions": [], "price": "$", "location": {"address1": "2731 Victory Hwy", "address2": "", "address3": "", "city": "Burrillville", "zip_code": "02830", "country": "US", "state": "RI", "display_address": ["2731 Victory Hwy", "Burrillville, RI 02830"]}, "phone": "+14017652661", "display_phone": "(401) 765-2661", "distance": 2908.0008980491457}, {"id": "W80UywxEeUHOjFfXikio8g", "alias": "casa-burrito-blackstone", "name": "Casa Burrito", "image_url": "https://s3-media3.fl.yelpcdn.com/bphoto/p6Zv5TIKKX6ZAq11TTyhsw/o.jpg", "is_closed": false, "url": "https://www.yelp.com/biz/casa-burrito-blackstone?adjust_creative=HbGs3gi3xS-SfqfxZRDuCw&utm_campaign=yelp_api_v3&utm_medium=api_v3_business_search&utm_source=HbGs3gi3xS-SfqfxZRDuCw", "review_count": 39, "categories": [{"alias": "mexican", "title": "Mexican"}], "rating": 4.5, "coordinates": {"latitude": 42.0189204003048, "longitude": -71.536976159632}, "transactions": ["delivery"], "price": "$$", "location": {"address1": "114 Main St", "address2": "", "address3": null, "city": "Blackstone", "zip_code": "01504", "country": "US", "state": "MA", "display_address": ["114 Main St", "Blackstone, MA 01504"]}, "phone": "+15089280904", "display_phone": "(508) 928-0904", "distance": 4310.618825308881}, {"id": "vRhbY_qUxTlEYO1Jii015Q", "alias": "bella-restaurant-glendale-2", "name": "Bella Restaurant", "image_url": "https://s3-media1.fl.yelpcdn.com/bphoto/ZfHT8BZFvf7BUcvZYen59Q/o.jpg", "is_closed": false, "url": "https://www.yelp.com/biz/bella-restaurant-glendale-2?adjust_creative=HbGs3gi3xS-SfqfxZRDuCw&utm_campaign=yelp_api_v3&utm_medium=api_v3_business_search&utm_source=HbGs3gi3xS-SfqfxZRDuCw", "review_count": 68, "categories": [{"alias": "italian", "title": "Italian"}, {"alias": "venues", "title": "Venues & Event Spaces"}, {"alias": "bars", "title": "Bars"}], "rating": 4.0, "coordinates": {"latitude": 41.9741, "longitude": -71.63016}, "transactions": [], "price": "$$", "location": {"address1": "1992 Victory Hwy", "address2": "", "address3": "", "city": "Glendale", "zip_code": "02826", "country": "US", "state": "RI", "display_address": ["1992 Victory Hwy", "Glendale, RI 02826"]}, "phone": "+14015686996", "display_phone": "(401) 568-6996", "distance": 4862.067631996667}, {"id": "fmz5pAgHqTV5LK5GOr8dLg", "alias": "wrights-farm-restaurant-harrisville-3", "name": "Wright's Farm Restaurant", "image_url": "https://s3-media2.fl.yelpcdn.com/bphoto/EhBVekzGzby0EfW0Q6ZO5Q/o.jpg", "is_closed": false, "url": "https://www.yelp.com/biz/wrights-farm-restaurant-harrisville-3?adjust_creative=HbGs3gi3xS-SfqfxZRDuCw&utm_campaign=yelp_api_v3&utm_medium=api_v3_business_search&utm_source=HbGs3gi3xS-SfqfxZRDuCw", "review_count": 325, "categories": [{"alias": "tradamerican", "title": "American (Traditional)"}], "rating": 3.5, "coordinates": {"latitude": 41.9857805, "longitude": -71.6054916}, "transactions": [], "price": "$$", "location": {"address1": "84 Inman Rd", "address2": "", "address3": "", "city": "Harrisville", "zip_code": "02830", "country": "US", "state": "RI", "display_address": ["84 Inman Rd", "Harrisville, RI 02830"]}, "phone": "+14017692856", "display_phone": "(401) 769-2856", "distance": 2454.005852118968}, {"id": "ZnRluJwcFUXwf1tDubF0TQ", "alias": "uncle-ronnies-red-tavern-burrillville-2", "name": "Uncle Ronnie's Red Tavern", "image_url": "https://s3-media2.fl.yelpcdn.com/bphoto/7KGtRqTIM2FJD4Ysbx_fRQ/o.jpg", "is_closed": false, "url": "https://www.yelp.com/biz/uncle-ronnies-red-tavern-burrillville-2?adjust_creative=HbGs3gi3xS-SfqfxZRDuCw&utm_campaign=yelp_api_v3&utm_medium=api_v3_business_search&utm_source=HbGs3gi3xS-SfqfxZRDuCw", "review_count": 54, "categories": [{"alias": "bars", "title": "Bars"}, {"alias": "newamerican", "title": "American (New)"}], "rating": 3.5, "coordinates": {"latitude": 41.980982, "longitude": -71.609991}, "transactions": [], "price": "$$", "location": {"address1": "2692 Victory Hwy", "address2": "", "address3": "", "city": "Burrillville", "zip_code": "02830", "country": "US", "state": "RI", "display_address": ["2692 Victory Hwy", "Burrillville, RI 02830"]}, "phone": "+14015686243", "display_phone": "(401) 568-6243", "distance": 3028.993902245902}, {"id": "DXDb1JTWJuKjzQ0MPtne9g", "alias": "hannas-place-uxbridge", "name": "Hanna's Place", "image_url": "https://s3-media1.fl.yelpcdn.com/bphoto/SHK9qZj8YsoRKFD7QAvhZg/o.jpg", "is_closed": false, "url": "https://www.yelp.com/biz/hannas-place-uxbridge?adjust_creative=HbGs3gi3xS-SfqfxZRDuCw&utm_campaign=yelp_api_v3&utm_medium=api_v3_business_search&utm_source=HbGs3gi3xS-SfqfxZRDuCw", "review_count": 24, "categories": [{"alias": "newamerican", "title": "American (New)"}], "rating": 3.0, "coordinates": {"latitude": 42.027839, "longitude": -71.606959}, "transactions": [], "price": "$$", "location": {"address1": "775 Quaker Hwy", "address2": "", "address3": "", "city": "Uxbridge", "zip_code": "01569", "country": "US", "state": "MA", "display_address": ["775 Quaker Hwy", "Uxbridge, MA 01569"]}, "phone": "+15082785099", "display_phone": "(508) 278-5099", "distance": 4157.10639285625}, {"id": "6FP5M04d6si-lfXG95KIUQ", "alias": "lumberjacks-pizza-north-smithfield", "name": "Lumberjack's Pizza", "image_url": "https://s3-media1.fl.yelpcdn.com/bphoto/U5d9b52Y1oASmxbJsNO-2A/o.jpg", "is_closed": false, "url": "https://www.yelp.com/biz/lumberjacks-pizza-north-smithfield?adjust_creative=HbGs3gi3xS-SfqfxZRDuCw&utm_campaign=yelp_api_v3&utm_medium=api_v3_business_search&utm_source=HbGs3gi3xS-SfqfxZRDuCw", "review_count": 31, "categories": [{"alias": "pizza", "title": "Pizza"}], "rating": 3.0, "coordinates": {"latitude": 41.9949264526367, "longitude": -71.5978164672852}, "transactions": [], "price": "$$", "location": {"address1": "1402 Victory Hwy", "address2": null, "address3": null, "city": "North Smithfield", "zip_code": "02896", "country": "US", "state": "RI", "display_address": ["1402 Victory Hwy", "North Smithfield, RI 02896"]}, "phone": "+14017697437", "display_phone": "(401) 769-7437", "distance": 1517.7613017139738}, {"id": "TDPPoreNhWESN4vDz90ZzQ", "alias": "gia-ristorante-italiano-uxbridge-2", "name": "Gia Ristorante Italiano", "image_url": "https://s3-media3.fl.yelpcdn.com/bphoto/FQeTRg7cwV77K0j7DRy3Tw/o.jpg", "is_closed": false, "url": "https://www.yelp.com/biz/gia-ristorante-italiano-uxbridge-2?adjust_creative=HbGs3gi3xS-SfqfxZRDuCw&utm_campaign=yelp_api_v3&utm_medium=api_v3_business_search&utm_source=HbGs3gi3xS-SfqfxZRDuCw", "review_count": 93, "categories": [{"alias": "italian", "title": "Italian"}, {"alias": "seafood", "title": "Seafood"}], "rating": 3.0, "coordinates": {"latitude": 42.02737, "longitude": -71.60652}, "transactions": [], "price": "$$", "location": {"address1": "785 Quaker Hwy", "address2": "", "address3": "", "city": "Uxbridge", "zip_code": "01569", "country": "US", "state": "MA", "display_address": ["785 Quaker Hwy", "Uxbridge, MA 01569"]}, "phone": "+15082787500", "display_phone": "(508) 278-7500", "distance": 4086.5984697644626}, {"id": "5rGouNNMCXi2lvBpLIeZvA", "alias": "martys-liquors-millville", "name": "Marty's Liquors", "image_url": "", "is_closed": false, "url": "https://www.yelp.com/biz/martys-liquors-millville?adjust_creative=HbGs3gi3xS-SfqfxZRDuCw&utm_campaign=yelp_api_v3&utm_medium=api_v3_business_search&utm_source=HbGs3gi3xS-SfqfxZRDuCw", "review_count": 6, "categories": [{"alias": "beer_and_wine", "title": "Beer, Wine & Spirits"}, {"alias": "delis", "title": "Delis"}, {"alias": "sandwiches", "title": "Sandwiches"}], "rating": 4.0, "coordinates": {"latitude": 42.0139304, "longitude": -71.5943051}, "transactions": [], "price": "$$", "location": {"address1": "1 Buxton St", "address2": "", "address3": null, "city": "Millville", "zip_code": "01529", "country": "US", "state": "MA", "display_address": ["1 Buxton St", "Millville, MA 01529"]}, "phone": "+15088831880", "display_phone": "(508) 883-1880", "distance": 2165.589693366691}, {"id": "reApOpm5y34rl_ycGtwckA", "alias": "firehouse-pizza-shop-ii-north-smithfield", "name": "Firehouse Pizza Shop II", "image_url": "https://s3-media2.fl.yelpcdn.com/bphoto/dUwegvBm80C-cKfRvTmtEw/o.jpg", "is_closed": false, "url": "https://www.yelp.com/biz/firehouse-pizza-shop-ii-north-smithfield?adjust_creative=HbGs3gi3xS-SfqfxZRDuCw&utm_campaign=yelp_api_v3&utm_medium=api_v3_business_search&utm_source=HbGs3gi3xS-SfqfxZRDuCw", "review_count": 15, "categories": [{"alias": "pizza", "title": "Pizza"}, {"alias": "sandwiches", "title": "Sandwiches"}], "rating": 3.0, "coordinates": {"latitude": 41.99982, "longitude": -71.55062}, "transactions": ["delivery"], "price": "$", "location": {"address1": "639 Great Rd", "address2": "", "address3": "", "city": "North Smithfield", "zip_code": "02896", "country": "US", "state": "RI", "display_address": ["639 Great Rd", "North Smithfield, RI 02896"]}, "phone": "+14017667171", "display_phone": "(401) 766-7171", "distance": 2428.1670945180203}, {"id": "EeGiDYnY0MKAdrkYKteCTg", "alias": "mill-tavern-pizza-millville", "name": "Mill Tavern Pizza", "image_url": "https://s3-media1.fl.yelpcdn.com/bphoto/MPYWO_2hNrwuXrxpgzhNdQ/o.jpg", "is_closed": false, "url": "https://www.yelp.com/biz/mill-tavern-pizza-millville?adjust_creative=HbGs3gi3xS-SfqfxZRDuCw&utm_campaign=yelp_api_v3&utm_medium=api_v3_business_search&utm_source=HbGs3gi3xS-SfqfxZRDuCw", "review_count": 13, "categories": [{"alias": "pizza", "title": "Pizza"}, {"alias": "salad", "title": "Salad"}, {"alias": "sandwiches", "title": "Sandwiches"}], "rating": 4.0, "coordinates": {"latitude": 42.026018, "longitude": -71.575881}, "transactions": [], "price": "$", "location": {"address1": "187 Main St", "address2": "", "address3": "", "city": "Millville", "zip_code": "01529", "country": "US", "state": "MA", "display_address": ["187 Main St", "Millville, MA 01529"]}, "phone": "+15088831650", "display_phone": "(508) 883-1650", "distance": 3296.6272650677633}, {"id": "tbAvoK7WPaivrHbiXxbDIQ", "alias": "stewarts-diner-blackstone", "name": "Stewart's Diner", "image_url": "https://s3-media2.fl.yelpcdn.com/bphoto/dIXhurw5OzixwIlxbNUHmw/o.jpg", "is_closed": false, "url": "https://www.yelp.com/biz/stewarts-diner-blackstone?adjust_creative=HbGs3gi3xS-SfqfxZRDuCw&utm_campaign=yelp_api_v3&utm_medium=api_v3_business_search&utm_source=HbGs3gi3xS-SfqfxZRDuCw", "review_count": 14, "categories": [{"alias": "diners", "title": "Diners"}, {"alias": "catering", "title": "Caterers"}], "rating": 4.0, "coordinates": {"latitude": 42.018219, "longitude": -71.539957}, "transactions": [], "price": "$", "location": {"address1": "148 Main St", "address2": "", "address3": "", "city": "Blackstone", "zip_code": "01504", "country": "US", "state": "MA", "display_address": ["148 Main St", "Blackstone, MA 01504"]}, "phone": "+15088834855", "display_phone": "(508) 883-4855", "distance": 4065.3839712514614}, {"id": "YOB6sad0NztJdjK9mfSPSQ", "alias": "subway-north-smithfield-5", "name": "Subway", "image_url": "https://s3-media2.fl.yelpcdn.com/bphoto/_x6M3LTScaNbFBUf7idiiw/o.jpg", "is_closed": false, "url": "https://www.yelp.com/biz/subway-north-smithfield-5?adjust_creative=HbGs3gi3xS-SfqfxZRDuCw&utm_campaign=yelp_api_v3&utm_medium=api_v3_business_search&utm_source=HbGs3gi3xS-SfqfxZRDuCw", "review_count": 5, "categories": [{"alias": "sandwiches", "title": "Sandwiches"}], "rating": 4.5, "coordinates": {"latitude": 42.0050210413264, "longitude": -71.585678046627}, "transactions": [], "price": "$", "location": {"address1": "900 Victory Hwy", "address2": null, "address3": null, "city": "North Smithfield", "zip_code": "02896", "country": "US", "state": "RI", "display_address": ["900 Victory Hwy", "North Smithfield, RI 02896"]}, "phone": "+14017656400", "display_phone": "(401) 765-6400", "distance": 1075.479409940621}, {"id": "od8s4h84SJgPcNm1oHiGTA", "alias": "western-hotel-pizza-and-tavern-harrisville", "name": "Western Hotel Pizza & Tavern", "image_url": "https://s3-media4.fl.yelpcdn.com/bphoto/xQGmPMWGwXaGoLyKeN8HPA/o.jpg", "is_closed": false, "url": "https://www.yelp.com/biz/western-hotel-pizza-and-tavern-harrisville?adjust_creative=HbGs3gi3xS-SfqfxZRDuCw&utm_campaign=yelp_api_v3&utm_medium=api_v3_business_search&utm_source=HbGs3gi3xS-SfqfxZRDuCw", "review_count": 22, "categories": [{"alias": "pizza", "title": "Pizza"}, {"alias": "bars", "title": "Bars"}, {"alias": "tradamerican", "title": "American (Traditional)"}], "rating": 3.5, "coordinates": {"latitude": 41.9777336120605, "longitude": -71.6151733398438}, "transactions": [], "price": "$$", "location": {"address1": "610 Douglas Tpke", "address2": "", "address3": "", "city": "Harrisville", "zip_code": "02830", "country": "US", "state": "RI", "display_address": ["610 Douglas Tpke", "Harrisville, RI 02830"]}, "phone": "+14015686253", "display_phone": "(401) 568-6253", "distance": 3610.248528236037}, {"id": "toeLljzoJKxkkMabOD3Dlw", "alias": "tko-pizza-blackstone", "name": "TKO Pizza", "image_url": "https://s3-media3.fl.yelpcdn.com/bphoto/HlbaNDC5TNoprHDM1-soCQ/o.jpg", "is_closed": false, "url": "https://www.yelp.com/biz/tko-pizza-blackstone?adjust_creative=HbGs3gi3xS-SfqfxZRDuCw&utm_campaign=yelp_api_v3&utm_medium=api_v3_business_search&utm_source=HbGs3gi3xS-SfqfxZRDuCw", "review_count": 30, "categories": [{"alias": "pizza", "title": "Pizza"}], "rating": 2.5, "coordinates": {"latitude": 42.01897, "longitude": -71.53404}, "transactions": ["delivery"], "price": "$", "location": {"address1": "63 Main St", "address2": "", "address3": "", "city": "Blackstone", "zip_code": "01504", "country": "US", "state": "MA", "display_address": ["63 Main St", "Blackstone, MA 01504"]}, "phone": "+15088837607", "display_phone": "(508) 883-7607", "distance": 4529.670472909}, {"id": "uvRX-9ZVB0QDz_geOtG1jw", "alias": "mcdonalds-uxbridge", "name": "McDonald's", "image_url": "https://s3-media2.fl.yelpcdn.com/bphoto/HB1umlj_wluZbTwRy1zgzw/o.jpg", "is_closed": false, "url": "https://www.yelp.com/biz/mcdonalds-uxbridge?adjust_creative=HbGs3gi3xS-SfqfxZRDuCw&utm_campaign=yelp_api_v3&utm_medium=api_v3_business_search&utm_source=HbGs3gi3xS-SfqfxZRDuCw", "review_count": 16, "categories": [{"alias": "hotdogs", "title": "Fast Food"}, {"alias": "burgers", "title": "Burgers"}, {"alias": "coffee", "title": "Coffee & Tea"}], "rating": 2.5, "coordinates": {"latitude": 42.0245784448752, "longitude": -71.6028525}, "transactions": [], "price": "$", "location": {"address1": "200 Quaker Hwy", "address2": "", "address3": "", "city": "Uxbridge", "zip_code": "01569", "country": "US", "state": "MA", "display_address": ["200 Quaker Hwy", "Uxbridge, MA 01569"]}, "phone": "+15082789431", "display_phone": "(508) 278-9431", "distance": 3669.269098942825}, {"id": "Io4C5tUwnb_YzeaMXHBqBA", "alias": "shuckin-truck-narragansett-2", "name": "Shuckin Truck", "image_url": "https://s3-media2.fl.yelpcdn.com/bphoto/r7QRORfe9UYVS7GGzUm9DQ/o.jpg", "is_closed": false, "url": "https://www.yelp.com/biz/shuckin-truck-narragansett-2?adjust_creative=HbGs3gi3xS-SfqfxZRDuCw&utm_campaign=yelp_api_v3&utm_medium=api_v3_business_search&utm_source=HbGs3gi3xS-SfqfxZRDuCw", "review_count": 24, "categories": [{"alias": "foodtrucks", "title": "Food Trucks"}, {"alias": "seafood", "title": "Seafood"}], "rating": 4.5, "coordinates": {"latitude": 41.4274482727051, "longitude": -71.4597778320313}, "transactions": [], "price": "$$", "location": {"address1": "", "address2": "", "address3": "", "city": "Narragansett", "zip_code": "02882", "country": "US", "state": "RI", "display_address": ["Narragansett, RI 02882"]}, "phone": "+14017415953", "display_phone": "(401) 741-5953", "distance": 66932.26374905604}, {"id": "usP9czUkDGcyC7CSseiMdw", "alias": "shuck-food-truck-boston-2", "name": "Shuck Food Truck", "image_url": "https://s3-media2.fl.yelpcdn.com/bphoto/vh62vEgAkPe1IC7D00fF2A/o.jpg", "is_closed": false, "url": "https://www.yelp.com/biz/shuck-food-truck-boston-2?adjust_creative=HbGs3gi3xS-SfqfxZRDuCw&utm_campaign=yelp_api_v3&utm_medium=api_v3_business_search&utm_source=HbGs3gi3xS-SfqfxZRDuCw", "review_count": 27, "categories": [{"alias": "foodtrucks", "title": "Food Trucks"}, {"alias": "seafood", "title": "Seafood"}, {"alias": "tradamerican", "title": "American (Traditional)"}], "rating": 4.5, "coordinates": {"latitude": 42.64758, "longitude": -71.32212}, "transactions": [], "location": {"address1": "", "address2": "", "address3": null, "city": "Boston", "zip_code": "01854", "country": "US", "state": "MA", "display_address": ["Boston, MA 01854"]}, "phone": "+19789446618", "display_phone": "(978) 944-6618", "distance": 74354.47776728132}, {"id": "JIhRVJ4BAWPH9NZ0u-7Wzw", "alias": "flip-n-roll-fall-river", "name": "Flip N Roll", "image_url": "https://s3-media1.fl.yelpcdn.com/bphoto/A3l1k85peGnmCC17j-Bmhg/o.jpg", "is_closed": false, "url": "https://www.yelp.com/biz/flip-n-roll-fall-river?adjust_creative=HbGs3gi3xS-SfqfxZRDuCw&utm_campaign=yelp_api_v3&utm_medium=api_v3_business_search&utm_source=HbGs3gi3xS-SfqfxZRDuCw", "review_count": 1, "categories": [{"alias": "foodtrucks", "title": "Food Trucks"}, {"alias": "tradamerican", "title": "American (Traditional)"}, {"alias": "portuguese", "title": "Portuguese"}], "rating": 1.0, "coordinates": {"latitude": 41.68687, "longitude": -71.17062}, "transactions": [], "price": "$$", "location": {"address1": "", "address2": "", "address3": "", "city": "Fall River", "zip_code": "02724", "country": "US", "state": "MA", "display_address": ["Fall River, MA 02724"]}, "phone": "", "display_phone": "", "distance": 47955.729208434816}, {"id": "324pp6avrBFbzw059DoHsA", "alias": "roadies-raleigh", "name": "Roadies", "image_url": "https://s3-media2.fl.yelpcdn.com/bphoto/3zJZmmgIOYrfKoAOp9Du1w/o.jpg", "is_closed": false, "url": "https://www.yelp.com/biz/roadies-raleigh?adjust_creative=HbGs3gi3xS-SfqfxZRDuCw&utm_campaign=yelp_api_v3&utm_medium=api_v3_business_search&utm_source=HbGs3gi3xS-SfqfxZRDuCw", "review_count": 10, "categories": [{"alias": "foodtrucks", "title": "Food Trucks"}, {"alias": "seafood", "title": "Seafood"}], "rating": 4.5, "coordinates": {"latitude": 35.67575, "longitude": -78.66424}, "transactions": [], "price": "$", "location": {"address1": "", "address2": null, "address3": "", "city": "Raleigh", "zip_code": "27603", "country": "US", "state": "NC", "display_address": ["Raleigh, NC 27603"]}, "phone": "+13476136489", "display_phone": "(347) 613-6489", "distance": 934279.8893777896}]