[{"id": "tamjyRigaiw_jy3yWsTVsw", "alias": "the-taco-shop-burrillville", "name": "The Taco Shop", "image_url": "https://s3-media3.fl.yelpcdn.com/bphoto/3ZWtRs3jKoLeajt_aGdkRw/o.jpg", "is_closed": false, "url": "https://www.yelp.com/biz/the-taco-shop-burrillville?adjust_creative=Fku6y3z1NBmCHCgoYNFuDg&utm_campaign=yelp_api_v3&utm_medium=api_v3_business_search&utm_source=Fku6y3z1NBmCHCgoYNFuDg", "review_count": 119, "categories": [{"alias": "mexican", "title": "Mexican"}], "rating": 4.5, "coordinates": {"latitude": 41.9661896, "longitude": -71.6787516}, "transactions": [], "price": "$", "location": {"address1": "459 Chapel St", "address2": "", "address3": "", "city": "Burrillville", "zip_code": "02830", "country": "US", "state": "RI", "display_address": ["459 Chapel St", "Burrillville, RI 02830"]}, "phone": "+14015688226", "display_phone": "(401) 568-8226", "distance": 2610.2662866233245}, {"id": "qXNFw435OzZqebwOsA8upA", "alias": "waterfall-cafe-harrisville", "name": "Waterfall Cafe", "image_url": "https://s3-media1.fl.yelpcdn.com/bphoto/GkQf4RwgVNZfr2oteiwgfg/o.jpg", "is_closed": false, "url": "https://www.yelp.com/biz/waterfall-cafe-harrisville?adjust_creative=Fku6y3z1NBmCHCgoYNFuDg&utm_campaign=yelp_api_v3&utm_medium=api_v3_business_search&utm_source=Fku6y3z1NBmCHCgoYNFuDg", "review_count": 36, "categories": [{"alias": "newamerican", "title": "American (New)"}], "rating": 3.5, "coordinates": {"latitude": 41.96514, "longitude": -71.6755699}, "transactions": [], "price": "$$", "location": {"address1": "35 East Ave", "address2": "Ste B", "address3": "", "city": "Harrisville", "zip_code": "02830", "country": "US", "state": "RI", "display_address": ["35 East Ave", "Ste B", "Harrisville, RI 02830"]}, "phone": "+14015677000", "display_phone": "(401) 567-7000", "distance": 2306.129380826095}, {"id": "vRhbY_qUxTlEYO1Jii015Q", "alias": "bella-restaurant-glendale-2", "name": "Bella Restaurant", "image_url": "https://s3-media1.fl.yelpcdn.com/bphoto/ZfHT8BZFvf7BUcvZYen59Q/o.jpg", "is_closed": false, "url": "https://www.yelp.com/biz/bella-restaurant-glendale-2?adjust_creative=Fku6y3z1NBmCHCgoYNFuDg&utm_campaign=yelp_api_v3&utm_medium=api_v3_business_search&utm_source=Fku6y3z1NBmCHCgoYNFuDg", "review_count": 68, "categories": [{"alias": "italian", "title": "Italian"}, {"alias": "venues", "title": "Venues & Event Spaces"}, {"alias": "bars", "title": "Bars"}], "rating": 4.0, "coordinates": {"latitude": 41.9741, "longitude": -71.63016}, "transactions": [], "price": "$$", "location": {"address1": "1992 Victory Hwy", "address2": "", "address3": "", "city": "Glendale", "zip_code": "02826", "country": "US", "state": "RI", "display_address": ["1992 Victory Hwy", "Glendale, RI 02826"]}, "phone": "+14015686996", "display_phone": "(401) 568-6996", "distance": 1919.119690801746}, {"id": "yCJye4XcXyBvZcS9IO9t9A", "alias": "elite-pizza-il-harrisville", "name": "Elite Pizza Il", "image_url": "https://s3-media3.fl.yelpcdn.com/bphoto/1JtMYHaz0ExIc_IWBXfKvA/o.jpg", "is_closed": false, "url": "https://www.yelp.com/biz/elite-pizza-il-harrisville?adjust_creative=Fku6y3z1NBmCHCgoYNFuDg&utm_campaign=yelp_api_v3&utm_medium=api_v3_business_search&utm_source=Fku6y3z1NBmCHCgoYNFuDg", "review_count": 22, "categories": [{"alias": "pizza", "title": "Pizza"}], "rating": 4.0, "coordinates": {"latitude": 41.9676132202148, "longitude": -71.6445770263672}, "transactions": [], "price": "$$", "location": {"address1": "1452 Broncos Hwy", "address2": "Unit 5", "address3": null, "city": "Harrisville", "zip_code": "02830", "country": "US", "state": "RI", "display_address": ["1452 Broncos Hwy", "Unit 5", "Harrisville, RI 02830"]}, "phone": "+14015677767", "display_phone": "(401) 567-7767", "distance": 588.7321091972108}, {"id": "CbN8duLb4BspKHgVbyas6A", "alias": "excellent-breakfast-burrillville", "name": "Excellent Breakfast", "image_url": "https://s3-media3.fl.yelpcdn.com/bphoto/b6C_YsZXWHk5GULw2cL0-Q/o.jpg", "is_closed": false, "url": "https://www.yelp.com/biz/excellent-breakfast-burrillville?adjust_creative=Fku6y3z1NBmCHCgoYNFuDg&utm_campaign=yelp_api_v3&utm_medium=api_v3_business_search&utm_source=Fku6y3z1NBmCHCgoYNFuDg", "review_count": 63, "categories": [{"alias": "breakfast_brunch", "title": "Breakfast & Brunch"}], "rating": 4.5, "coordinates": {"latitude": 41.9636448, "longitude": -71.6750609}, "transactions": [], "location": {"address1": "218 Harrisville Main St", "address2": "", "address3": null, "city": "Burrillville", "zip_code": "02830", "country": "US", "state": "RI", "display_address": ["218 Harrisville Main St", "Burrillville, RI 02830"]}, "phone": "", "display_phone": "", "distance": 2267.5993594554775}, {"id": "fmz5pAgHqTV5LK5GOr8dLg", "alias": "wrights-farm-restaurant-harrisville-3", "name": "Wright's Farm Restaurant", "image_url": "https://s3-media2.fl.yelpcdn.com/bphoto/EhBVekzGzby0EfW0Q6ZO5Q/o.jpg", "is_closed": false, "url": "https://www.yelp.com/biz/wrights-farm-restaurant-harrisville-3?adjust_creative=Fku6y3z1NBmCHCgoYNFuDg&utm_campaign=yelp_api_v3&utm_medium=api_v3_business_search&utm_source=Fku6y3z1NBmCHCgoYNFuDg", "review_count": 325, "categories": [{"alias": "tradamerican", "title": "American (Traditional)"}], "rating": 3.5, "coordinates": {"latitude": 41.9857805, "longitude": -71.6054916}, "transactions": [], "price": "$$", "location": {"address1": "84 Inman Rd", "address2": "", "address3": "", "city": "Harrisville", "zip_code": "02830", "country": "US", "state": "RI", "display_address": ["84 Inman Rd", "Harrisville, RI 02830"]}, "phone": "+14017692856", "display_phone": "(401) 769-2856", "distance": 4311.843715311271}, {"id": "lCgGE_reDU9D_SzF85sDnA", "alias": "nikos-pizza-house-harrisville", "name": "Nikos Pizza House", "image_url": "https://s3-media3.fl.yelpcdn.com/bphoto/EiF_aJHeEl80gpbil7AxMA/o.jpg", "is_closed": false, "url": "https://www.yelp.com/biz/nikos-pizza-house-harrisville?adjust_creative=Fku6y3z1NBmCHCgoYNFuDg&utm_campaign=yelp_api_v3&utm_medium=api_v3_business_search&utm_source=Fku6y3z1NBmCHCgoYNFuDg", "review_count": 29, "categories": [{"alias": "pizza", "title": "Pizza"}], "rating": 4.5, "coordinates": {"latitude": 41.96363, "longitude": -71.67505}, "transactions": [], "price": "$", "location": {"address1": "216 Harrisville Main St", "address2": "", "address3": "", "city": "Harrisville", "zip_code": "02830", "country": "US", "state": "RI", "display_address": ["216 Harrisville Main St", "Harrisville, RI 02830"]}, "phone": "+14015688666", "display_phone": "(401) 568-8666", "distance": 2283.44276001249}, {"id": "ZnRluJwcFUXwf1tDubF0TQ", "alias": "uncle-ronnies-red-tavern-burrillville-2", "name": "Uncle Ronnie's Red Tavern", "image_url": "https://s3-media2.fl.yelpcdn.com/bphoto/7KGtRqTIM2FJD4Ysbx_fRQ/o.jpg", "is_closed": false, "url": "https://www.yelp.com/biz/uncle-ronnies-red-tavern-burrillville-2?adjust_creative=Fku6y3z1NBmCHCgoYNFuDg&utm_campaign=yelp_api_v3&utm_medium=api_v3_business_search&utm_source=Fku6y3z1NBmCHCgoYNFuDg", "review_count": 54, "categories": [{"alias": "bars", "title": "Bars"}, {"alias": "newamerican", "title": "American (New)"}], "rating": 3.5, "coordinates": {"latitude": 41.980982, "longitude": -71.609991}, "transactions": [], "price": "$$", "location": {"address1": "2692 Victory Hwy", "address2": "", "address3": "", "city": "Burrillville", "zip_code": "02830", "country": "US", "state": "RI", "display_address": ["2692 Victory Hwy", "Burrillville, RI 02830"]}, "phone": "+14015686243", "display_phone": "(401) 568-6243", "distance": 3727.07252408054}, {"id": "4rR-Nq2f9EHFxEqm-QpQqQ", "alias": "johnny-s-victory-diner-burrillville", "name": "Johnny\u2019s Victory Diner", "image_url": "https://s3-media3.fl.yelpcdn.com/bphoto/h5kREUFeypGTvhyQljYnkA/o.jpg", "is_closed": false, "url": "https://www.yelp.com/biz/johnny-s-victory-diner-burrillville?adjust_creative=Fku6y3z1NBmCHCgoYNFuDg&utm_campaign=yelp_api_v3&utm_medium=api_v3_business_search&utm_source=Fku6y3z1NBmCHCgoYNFuDg", "review_count": 55, "categories": [{"alias": "breakfast_brunch", "title": "Breakfast & Brunch"}, {"alias": "diners", "title": "Diners"}, {"alias": "tradamerican", "title": "American (Traditional)"}], "rating": 4.0, "coordinates": {"latitude": 41.9809227620163, "longitude": -71.6078001701749}, "transactions": [], "price": "$", "location": {"address1": "2731 Victory Hwy", "address2": "", "address3": "", "city": "Burrillville", "zip_code": "02830", "country": "US", "state": "RI", "display_address": ["2731 Victory Hwy", "Burrillville, RI 02830"]}, "phone": "+14017652661", "display_phone": "(401) 765-2661", "distance": 3851.6727314600716}, {"id": "od8s4h84SJgPcNm1oHiGTA", "alias": "western-hotel-pizza-and-tavern-harrisville", "name": "Western Hotel Pizza & Tavern", "image_url": "https://s3-media4.fl.yelpcdn.com/bphoto/xQGmPMWGwXaGoLyKeN8HPA/o.jpg", "is_closed": false, "url": "https://www.yelp.com/biz/western-hotel-pizza-and-tavern-harrisville?adjust_creative=Fku6y3z1NBmCHCgoYNFuDg&utm_campaign=yelp_api_v3&utm_medium=api_v3_business_search&utm_source=Fku6y3z1NBmCHCgoYNFuDg", "review_count": 22, "categories": [{"alias": "pizza", "title": "Pizza"}, {"alias": "bars", "title": "Bars"}, {"alias": "tradamerican", "title": "American (Traditional)"}], "rating": 3.5, "coordinates": {"latitude": 41.9777336120605, "longitude": -71.6151733398438}, "transactions": [], "price": "$$", "location": {"address1": "610 Douglas Tpke", "address2": "", "address3": "", "city": "Harrisville", "zip_code": "02830", "country": "US", "state": "RI", "display_address": ["610 Douglas Tpke", "Harrisville, RI 02830"]}, "phone": "+14015686253", "display_phone": "(401) 568-6253", "distance": 3146.659520115187}, {"id": "4ZCcTX58BljqNPiKwV47xg", "alias": "crystal-lake-golf-club-mapleville", "name": "Crystal Lake Golf Club", "image_url": "https://s3-media2.fl.yelpcdn.com/bphoto/mqZOr4KcCv1_uTzrTbyznA/o.jpg", "is_closed": false, "url": "https://www.yelp.com/biz/crystal-lake-golf-club-mapleville?adjust_creative=Fku6y3z1NBmCHCgoYNFuDg&utm_campaign=yelp_api_v3&utm_medium=api_v3_business_search&utm_source=Fku6y3z1NBmCHCgoYNFuDg", "review_count": 29, "categories": [{"alias": "golf", "title": "Golf"}, {"alias": "venues", "title": "Venues & Event Spaces"}, {"alias": "tradamerican", "title": "American (Traditional)"}], "rating": 3.5, "coordinates": {"latitude": 41.933115, "longitude": -71.667117}, "transactions": [], "location": {"address1": "100 Broncos Hwy", "address2": "", "address3": "", "city": "Mapleville", "zip_code": "02839", "country": "US", "state": "RI", "display_address": ["100 Broncos Hwy", "Mapleville, RI 02839"]}, "phone": "+14015674500", "display_phone": "(401) 567-4500", "distance": 3678.184633988334}, {"id": "6FP5M04d6si-lfXG95KIUQ", "alias": "lumberjacks-pizza-north-smithfield", "name": "Lumberjack's Pizza", "image_url": "https://s3-media1.fl.yelpcdn.com/bphoto/U5d9b52Y1oASmxbJsNO-2A/o.jpg", "is_closed": false, "url": "https://www.yelp.com/biz/lumberjacks-pizza-north-smithfield?adjust_creative=Fku6y3z1NBmCHCgoYNFuDg&utm_campaign=yelp_api_v3&utm_medium=api_v3_business_search&utm_source=Fku6y3z1NBmCHCgoYNFuDg", "review_count": 31, "categories": [{"alias": "pizza", "title": "Pizza"}], "rating": 3.0, "coordinates": {"latitude": 41.9949264526367, "longitude": -71.5978164672852}, "transactions": [], "price": "$$", "location": {"address1": "1402 Victory Hwy", "address2": null, "address3": null, "city": "North Smithfield", "zip_code": "02896", "country": "US", "state": "RI", "display_address": ["1402 Victory Hwy", "North Smithfield, RI 02896"]}, "phone": "+14017697437", "display_phone": "(401) 769-7437", "distance": 5446.481445561362}, {"id": "Io4C5tUwnb_YzeaMXHBqBA", "alias": "shuckin-truck-narragansett-2", "name": "Shuckin Truck", "image_url": "https://s3-media2.fl.yelpcdn.com/bphoto/r7QRORfe9UYVS7GGzUm9DQ/o.jpg", "is_closed": false, "url": "https://www.yelp.com/biz/shuckin-truck-narragansett-2?adjust_creative=Fku6y3z1NBmCHCgoYNFuDg&utm_campaign=yelp_api_v3&utm_medium=api_v3_business_search&utm_source=Fku6y3z1NBmCHCgoYNFuDg", "review_count": 24, "categories": [{"alias": "foodtrucks", "title": "Food Trucks"}, {"alias": "seafood", "title": "Seafood"}], "rating": 4.5, "coordinates": {"latitude": 41.4274482727051, "longitude": -71.4597778320313}, "transactions": [], "price": "$$", "location": {"address1": "", "address2": "", "address3": "", "city": "Narragansett", "zip_code": "02882", "country": "US", "state": "RI", "display_address": ["Narragansett, RI 02882"]}, "phone": "+14017415953", "display_phone": "(401) 741-5953", "distance": 64126.068362602826}, {"id": "usP9czUkDGcyC7CSseiMdw", "alias": "shuck-food-truck-boston-2", "name": "Shuck Food Truck", "image_url": "https://s3-media2.fl.yelpcdn.com/bphoto/vh62vEgAkPe1IC7D00fF2A/o.jpg", "is_closed": false, "url": "https://www.yelp.com/biz/shuck-food-truck-boston-2?adjust_creative=Fku6y3z1NBmCHCgoYNFuDg&utm_campaign=yelp_api_v3&utm_medium=api_v3_business_search&utm_source=Fku6y3z1NBmCHCgoYNFuDg", "review_count": 27, "categories": [{"alias": "foodtrucks", "title": "Food Trucks"}, {"alias": "seafood", "title": "Seafood"}, {"alias": "tradamerican", "title": "American (Traditional)"}], "rating": 4.5, "coordinates": {"latitude": 42.64758, "longitude": -71.32212}, "transactions": [], "location": {"address1": "", "address2": "", "address3": null, "city": "Boston", "zip_code": "01854", "country": "US", "state": "MA", "display_address": ["Boston, MA 01854"]}, "phone": "+19789446618", "display_phone": "(978) 944-6618", "distance": 79452.78734731513}, {"id": "324pp6avrBFbzw059DoHsA", "alias": "roadies-raleigh", "name": "Roadies", "image_url": "https://s3-media2.fl.yelpcdn.com/bphoto/3zJZmmgIOYrfKoAOp9Du1w/o.jpg", "is_closed": false, "url": "https://www.yelp.com/biz/roadies-raleigh?adjust_creative=Fku6y3z1NBmCHCgoYNFuDg&utm_campaign=yelp_api_v3&utm_medium=api_v3_business_search&utm_source=Fku6y3z1NBmCHCgoYNFuDg", "review_count": 10, "categories": [{"alias": "foodtrucks", "title": "Food Trucks"}, {"alias": "seafood", "title": "Seafood"}], "rating": 4.5, "coordinates": {"latitude": 35.67575, "longitude": -78.66424}, "transactions": [], "price": "$", "location": {"address1": "", "address2": null, "address3": "", "city": "Raleigh", "zip_code": "27603", "country": "US", "state": "NC", "display_address": ["Raleigh, NC 27603"]}, "phone": "+13476136489", "display_phone": "(347) 613-6489", "distance": 927698.789776763}]