[{"id": "CkbpW3xiESLR_Di0AeL5wA", "alias": "the-shanty-warwick", "name": "The Shanty", "image_url": "https://s3-media3.fl.yelpcdn.com/bphoto/AP-usj80HY3OsowM0BMSQg/o.jpg", "is_closed": false, "url": "https://www.yelp.com/biz/the-shanty-warwick?adjust_creative=1woF1Kwn15wJJxNZkMIAgw&utm_campaign=yelp_api_v3&utm_medium=api_v3_business_search&utm_source=1woF1Kwn15wJJxNZkMIAgw", "review_count": 477, "categories": [{"alias": "newamerican", "title": "American (New)"}, {"alias": "cocktailbars", "title": "Cocktail Bars"}, {"alias": "breakfast_brunch", "title": "Breakfast & Brunch"}], "rating": 4.5, "coordinates": {"latitude": 41.6853851079941, "longitude": -71.4533454179764}, "transactions": ["delivery"], "price": "$$", "location": {"address1": "3854 Post Rd", "address2": "", "address3": "", "city": "Warwick", "zip_code": "02886", "country": "US", "state": "RI", "display_address": ["3854 Post Rd", "Warwick, RI 02886"]}, "phone": "+14018847008", "display_phone": "(401) 884-7008", "distance": 3629.459442475115}, {"id": "m7hlJtb-ajCbzQw0NitPtQ", "alias": "iron-works-warwick", "name": "Iron Works", "image_url": "https://s3-media4.fl.yelpcdn.com/bphoto/w9JnIfoug_9E9xshjZFebg/o.jpg", "is_closed": false, "url": "https://www.yelp.com/biz/iron-works-warwick?adjust_creative=1woF1Kwn15wJJxNZkMIAgw&utm_campaign=yelp_api_v3&utm_medium=api_v3_business_search&utm_source=1woF1Kwn15wJJxNZkMIAgw", "review_count": 368, "categories": [{"alias": "tradamerican", "title": "American (Traditional)"}, {"alias": "bars", "title": "Bars"}, {"alias": "diners", "title": "Diners"}], "rating": 3.5, "coordinates": {"latitude": 41.7291820207715, "longitude": -71.4431609510252}, "transactions": ["delivery"], "price": "$$", "location": {"address1": "697 Jefferson Blvd", "address2": "", "address3": "", "city": "Warwick", "zip_code": "02886", "country": "US", "state": "RI", "display_address": ["697 Jefferson Blvd", "Warwick, RI 02886"]}, "phone": "+14017395111", "display_phone": "(401) 739-5111", "distance": 2412.169157666392}, {"id": "orTt3GUOYErRbutMTHj0Pg", "alias": "tavern-12-warwick", "name": "Tavern 12", "image_url": "https://s3-media2.fl.yelpcdn.com/bphoto/kePvyz7W4l8rQsGqYJyPaA/o.jpg", "is_closed": false, "url": "https://www.yelp.com/biz/tavern-12-warwick?adjust_creative=1woF1Kwn15wJJxNZkMIAgw&utm_campaign=yelp_api_v3&utm_medium=api_v3_business_search&utm_source=1woF1Kwn15wJJxNZkMIAgw", "review_count": 91, "categories": [{"alias": "tradamerican", "title": "American (Traditional)"}, {"alias": "pubs", "title": "Pubs"}], "rating": 4.0, "coordinates": {"latitude": 41.7198252, "longitude": -71.4427815}, "transactions": ["delivery"], "price": "$$", "location": {"address1": "2299 Post Rd", "address2": null, "address3": null, "city": "Warwick", "zip_code": "02886", "country": "US", "state": "RI", "display_address": ["2299 Post Rd", "Warwick, RI 02886"]}, "phone": "+14014902620", "display_phone": "(401) 490-2620", "distance": 1641.0273553117963}, {"id": "WDKbiw0am-GJq67FBdqPpg", "alias": "divine-italian-home-cooking-warwick", "name": "Divine Italian Home Cooking", "image_url": "https://s3-media2.fl.yelpcdn.com/bphoto/4FUFiV5xE1ZFzfjLJjTZlQ/o.jpg", "is_closed": false, "url": "https://www.yelp.com/biz/divine-italian-home-cooking-warwick?adjust_creative=1woF1Kwn15wJJxNZkMIAgw&utm_campaign=yelp_api_v3&utm_medium=api_v3_business_search&utm_source=1woF1Kwn15wJJxNZkMIAgw", "review_count": 90, "categories": [{"alias": "italian", "title": "Italian"}, {"alias": "seafood", "title": "Seafood"}], "rating": 4.0, "coordinates": {"latitude": 41.70259, "longitude": -71.40624}, "transactions": ["delivery", "restaurant_reservation"], "price": "$$", "location": {"address1": "2317 W Shore Rd", "address2": "", "address3": "", "city": "Warwick", "zip_code": "02889", "country": "US", "state": "RI", "display_address": ["2317 W Shore Rd", "Warwick, RI 02889"]}, "phone": "+14019213300", "display_phone": "(401) 921-3300", "distance": 1886.2215599034034}, {"id": "8or2GtPLrwyuFVQoTqRsqg", "alias": "iggys-doughboys-and-chowder-house-warwick", "name": "Iggy's Doughboys & Chowder House", "image_url": "https://s3-media2.fl.yelpcdn.com/bphoto/TnyCr_erAGBD7zuJIXyBcw/o.jpg", "is_closed": false, "url": "https://www.yelp.com/biz/iggys-doughboys-and-chowder-house-warwick?adjust_creative=1woF1Kwn15wJJxNZkMIAgw&utm_campaign=yelp_api_v3&utm_medium=api_v3_business_search&utm_source=1woF1Kwn15wJJxNZkMIAgw", "review_count": 572, "categories": [{"alias": "seafood", "title": "Seafood"}, {"alias": "sandwiches", "title": "Sandwiches"}, {"alias": "burgers", "title": "Burgers"}], "rating": 4.0, "coordinates": {"latitude": 41.6845128, "longitude": -71.3980167}, "transactions": ["delivery"], "price": "$$", "location": {"address1": "889 Oakland Beach Ave", "address2": "", "address3": "", "city": "Warwick", "zip_code": "02889", "country": "US", "state": "RI", "display_address": ["889 Oakland Beach Ave", "Warwick, RI 02889"]}, "phone": "+14017379459", "display_phone": "(401) 737-9459", "distance": 3813.066504240387}, {"id": "Z2M0W-t13wC4h5gvj5heXg", "alias": "cork-and-rye-gastropub-warwick", "name": "Cork and Rye Gastropub", "image_url": "https://s3-media2.fl.yelpcdn.com/bphoto/nHtGr_rRj-LuTmG55KI7uQ/o.jpg", "is_closed": false, "url": "https://www.yelp.com/biz/cork-and-rye-gastropub-warwick?adjust_creative=1woF1Kwn15wJJxNZkMIAgw&utm_campaign=yelp_api_v3&utm_medium=api_v3_business_search&utm_source=1woF1Kwn15wJJxNZkMIAgw", "review_count": 89, "categories": [{"alias": "tradamerican", "title": "American (Traditional)"}, {"alias": "wine_bars", "title": "Wine Bars"}, {"alias": "gastropubs", "title": "Gastropubs"}], "rating": 4.0, "coordinates": {"latitude": 41.725818, "longitude": -71.4732419}, "transactions": ["pickup", "delivery"], "price": "$$", "location": {"address1": "255 Lambert Lind Hwy", "address2": null, "address3": "", "city": "Warwick", "zip_code": "02886", "country": "US", "state": "RI", "display_address": ["255 Lambert Lind Hwy", "Warwick, RI 02886"]}, "phone": "+14019218324", "display_phone": "(401) 921-8324", "distance": 4175.428012507056}, {"id": "xC_wQN8uq8a4V4nBTKtFUQ", "alias": "sophias-tuscan-grille-warwick", "name": "Sophia's Tuscan Grille", "image_url": "https://s3-media1.fl.yelpcdn.com/bphoto/2wOzPhmfJ3BX_iKRoF6kmQ/o.jpg", "is_closed": false, "url": "https://www.yelp.com/biz/sophias-tuscan-grille-warwick?adjust_creative=1woF1Kwn15wJJxNZkMIAgw&utm_campaign=yelp_api_v3&utm_medium=api_v3_business_search&utm_source=1woF1Kwn15wJJxNZkMIAgw", "review_count": 167, "categories": [{"alias": "italian", "title": "Italian"}, {"alias": "breakfast_brunch", "title": "Breakfast & Brunch"}, {"alias": "cookingclasses", "title": "Cooking Classes"}], "rating": 4.5, "coordinates": {"latitude": 41.72915, "longitude": -71.40628}, "transactions": ["delivery"], "price": "$$", "location": {"address1": "1729 Warwick Ave", "address2": "", "address3": "", "city": "Warwick", "zip_code": "02889", "country": "US", "state": "RI", "display_address": ["1729 Warwick Ave", "Warwick, RI 02889"]}, "phone": "+14017326656", "display_phone": "(401) 732-6656", "distance": 2592.7592313190257}, {"id": "vVANpqc6SEhJF0oTO73kSw", "alias": "tavolo-wine-bar-and-tuscan-grille-warwick-warwick", "name": "Tavolo Wine Bar & Tuscan Grille - Warwick", "image_url": "https://s3-media4.fl.yelpcdn.com/bphoto/CCsqEW2jAM2Xl0WBjPXw-w/o.jpg", "is_closed": false, "url": "https://www.yelp.com/biz/tavolo-wine-bar-and-tuscan-grille-warwick-warwick?adjust_creative=1woF1Kwn15wJJxNZkMIAgw&utm_campaign=yelp_api_v3&utm_medium=api_v3_business_search&utm_source=1woF1Kwn15wJJxNZkMIAgw", "review_count": 49, "categories": [{"alias": "italian", "title": "Italian"}, {"alias": "wine_bars", "title": "Wine Bars"}], "rating": 3.5, "coordinates": {"latitude": 41.724668, "longitude": -71.440726}, "transactions": ["pickup", "delivery"], "location": {"address1": "2099 Post Rd", "address2": "", "address3": null, "city": "Warwick", "zip_code": "02886", "country": "US", "state": "RI", "display_address": ["2099 Post Rd", "Warwick, RI 02886"]}, "phone": "+14013847573", "display_phone": "(401) 384-7573", "distance": 1900.350205802895}, {"id": "-aTh4SaKme7TOjKGAOYhUA", "alias": "pacos-tacos-mexi-cali-cranston", "name": "Paco's Tacos Mexi-Cali", "image_url": "https://s3-media3.fl.yelpcdn.com/bphoto/QG-84LAvTFO1EnKLlYhVDA/o.jpg", "is_closed": false, "url": "https://www.yelp.com/biz/pacos-tacos-mexi-cali-cranston?adjust_creative=1woF1Kwn15wJJxNZkMIAgw&utm_campaign=yelp_api_v3&utm_medium=api_v3_business_search&utm_source=1woF1Kwn15wJJxNZkMIAgw", "review_count": 166, "categories": [{"alias": "mexican", "title": "Mexican"}, {"alias": "tex-mex", "title": "Tex-Mex"}], "rating": 4.0, "coordinates": {"latitude": 41.7374099, "longitude": -71.46454}, "transactions": ["delivery"], "price": "$", "location": {"address1": "100 East St", "address2": null, "address3": "", "city": "Cranston", "zip_code": "02920", "country": "US", "state": "RI", "display_address": ["100 East St", "Cranston, RI 02920"]}, "phone": "+14014637226", "display_phone": "(401) 463-7226", "distance": 4281.744851105009}, {"id": "kN_Eqcz8yKrbnXB4dQOnQA", "alias": "antonios-bakery-and-charlies-deli-warwick", "name": "Antonio's Bakery & Charlie's Deli", "image_url": "https://s3-media1.fl.yelpcdn.com/bphoto/0t5ao0x3hKf-WTk9PPvdxQ/o.jpg", "is_closed": false, "url": "https://www.yelp.com/biz/antonios-bakery-and-charlies-deli-warwick?adjust_creative=1woF1Kwn15wJJxNZkMIAgw&utm_campaign=yelp_api_v3&utm_medium=api_v3_business_search&utm_source=1woF1Kwn15wJJxNZkMIAgw", "review_count": 65, "categories": [{"alias": "bakeries", "title": "Bakeries"}, {"alias": "delis", "title": "Delis"}, {"alias": "customcakes", "title": "Custom Cakes"}], "rating": 4.5, "coordinates": {"latitude": 41.7040205, "longitude": -71.4116355}, "transactions": ["delivery"], "price": "$$", "location": {"address1": "2448 W Shore Rd", "address2": "", "address3": "", "city": "Warwick", "zip_code": "02889", "country": "US", "state": "RI", "display_address": ["2448 W Shore Rd", "Warwick, RI 02889"]}, "phone": "+14017323373", "display_phone": "(401) 732-3373", "distance": 1501.6473871686403}, {"id": "0JoKIWWhMnqyy9tmKRSfgA", "alias": "vanda-warwick", "name": "Vanda", "image_url": "https://s3-media1.fl.yelpcdn.com/bphoto/PWensShrSJfvESYj3uxTrQ/o.jpg", "is_closed": false, "url": "https://www.yelp.com/biz/vanda-warwick?adjust_creative=1woF1Kwn15wJJxNZkMIAgw&utm_campaign=yelp_api_v3&utm_medium=api_v3_business_search&utm_source=1woF1Kwn15wJJxNZkMIAgw", "review_count": 68, "categories": [{"alias": "italian", "title": "Italian"}, {"alias": "salad", "title": "Salad"}, {"alias": "bars", "title": "Bars"}], "rating": 4.0, "coordinates": {"latitude": 41.6989252938344, "longitude": -71.4603721350431}, "transactions": ["delivery"], "location": {"address1": "1 Centerville Rd", "address2": "", "address3": null, "city": "Warwick", "zip_code": "02886", "country": "US", "state": "RI", "display_address": ["1 Centerville Rd", "Warwick, RI 02886"]}, "phone": "+14019213144", "display_phone": "(401) 921-3144", "distance": 3127.5555258246313}, {"id": "NtWtAPNvMM9RsA7SJfvegg", "alias": "gels-kitchen-2-warwick", "name": "Gel's Kitchen 2", "image_url": "https://s3-media2.fl.yelpcdn.com/bphoto/bh45m4R3C6Zr42yYvu8zCw/o.jpg", "is_closed": false, "url": "https://www.yelp.com/biz/gels-kitchen-2-warwick?adjust_creative=1woF1Kwn15wJJxNZkMIAgw&utm_campaign=yelp_api_v3&utm_medium=api_v3_business_search&utm_source=1woF1Kwn15wJJxNZkMIAgw", "review_count": 7, "categories": [{"alias": "diners", "title": "Diners"}], "rating": 4.0, "coordinates": {"latitude": 41.702572, "longitude": -71.430343}, "transactions": [], "location": {"address1": "3003 West Shore Rd", "address2": null, "address3": "", "city": "Warwick", "zip_code": "02886", "country": "US", "state": "RI", "display_address": ["3003 West Shore Rd", "Warwick, RI 02886"]}, "phone": "+14017737113", "display_phone": "(401) 773-7113", "distance": 1031.5867614702527}, {"id": "EujnLFnsJbHmbf69iONI_Q", "alias": "crows-nest-warwick-2", "name": "Crow's Nest", "image_url": "https://s3-media2.fl.yelpcdn.com/bphoto/r5EzGI2rahGycfbe_i-9qg/o.jpg", "is_closed": false, "url": "https://www.yelp.com/biz/crows-nest-warwick-2?adjust_creative=1woF1Kwn15wJJxNZkMIAgw&utm_campaign=yelp_api_v3&utm_medium=api_v3_business_search&utm_source=1woF1Kwn15wJJxNZkMIAgw", "review_count": 235, "categories": [{"alias": "seafood", "title": "Seafood"}, {"alias": "tradamerican", "title": "American (Traditional)"}], "rating": 3.5, "coordinates": {"latitude": 41.6955241, "longitude": -71.4531153}, "transactions": ["delivery"], "price": "$$", "location": {"address1": "288 Arnolds Neck Dr", "address2": "", "address3": "", "city": "Warwick", "zip_code": "02886", "country": "US", "state": "RI", "display_address": ["288 Arnolds Neck Dr", "Warwick, RI 02886"]}, "phone": "+14017326575", "display_phone": "(401) 732-6575", "distance": 2830.149347063668}, {"id": "i7vcq_rTeNOjJZgpZ-vUkQ", "alias": "mizu-japanese-sushi-and-steakhouse-warwick", "name": "Mizu Japanese Sushi and Steakhouse", "image_url": "https://s3-media1.fl.yelpcdn.com/bphoto/_pIctMpROsiGs8VrsmPGTg/o.jpg", "is_closed": false, "url": "https://www.yelp.com/biz/mizu-japanese-sushi-and-steakhouse-warwick?adjust_creative=1woF1Kwn15wJJxNZkMIAgw&utm_campaign=yelp_api_v3&utm_medium=api_v3_business_search&utm_source=1woF1Kwn15wJJxNZkMIAgw", "review_count": 141, "categories": [{"alias": "japanese", "title": "Japanese"}, {"alias": "steak", "title": "Steakhouses"}], "rating": 4.0, "coordinates": {"latitude": 41.71466, "longitude": -71.39912}, "transactions": ["pickup", "delivery"], "price": "$$", "location": {"address1": "2276 Warwick Ave", "address2": "", "address3": "", "city": "Warwick", "zip_code": "02889", "country": "US", "state": "RI", "display_address": ["2276 Warwick Ave", "Warwick, RI 02889"]}, "phone": "+14016814805", "display_phone": "(401) 681-4805", "distance": 2323.4439203858838}, {"id": "rv9T7zDMRGjYb-FZwiZBOQ", "alias": "axelrod-s-fry-shack-warwick", "name": "Axelrod\u2019s Fry Shack", "image_url": "https://s3-media3.fl.yelpcdn.com/bphoto/Ejq8Pm7DhP_QGAEi-ULOzw/o.jpg", "is_closed": false, "url": "https://www.yelp.com/biz/axelrod-s-fry-shack-warwick?adjust_creative=1woF1Kwn15wJJxNZkMIAgw&utm_campaign=yelp_api_v3&utm_medium=api_v3_business_search&utm_source=1woF1Kwn15wJJxNZkMIAgw", "review_count": 30, "categories": [{"alias": "desserts", "title": "Desserts"}, {"alias": "newamerican", "title": "American (New)"}, {"alias": "burgers", "title": "Burgers"}], "rating": 4.0, "coordinates": {"latitude": 41.7064181473, "longitude": -71.4157645556}, "transactions": ["pickup", "delivery"], "price": "$", "location": {"address1": "1000 Sandy Ln", "address2": null, "address3": "", "city": "Warwick", "zip_code": "02889", "country": "US", "state": "RI", "display_address": ["1000 Sandy Ln", "Warwick, RI 02889"]}, "phone": "+14017322935", "display_phone": "(401) 732-2935", "distance": 1053.0332709153756}, {"id": "TqgNDlmPuy_10x76Wdj3pQ", "alias": "cantina-del-rio-warwick", "name": "Cantina del Rio", "image_url": "https://s3-media1.fl.yelpcdn.com/bphoto/RXXSrsNaU0xTEnO19RAtuA/o.jpg", "is_closed": false, "url": "https://www.yelp.com/biz/cantina-del-rio-warwick?adjust_creative=1woF1Kwn15wJJxNZkMIAgw&utm_campaign=yelp_api_v3&utm_medium=api_v3_business_search&utm_source=1woF1Kwn15wJJxNZkMIAgw", "review_count": 93, "categories": [{"alias": "mexican", "title": "Mexican"}], "rating": 4.0, "coordinates": {"latitude": 41.70227, "longitude": -71.38618}, "transactions": ["pickup", "delivery"], "price": "$$", "location": {"address1": "1705 W Shore Rd", "address2": "", "address3": null, "city": "Warwick", "zip_code": "02889", "country": "US", "state": "RI", "display_address": ["1705 W Shore Rd", "Warwick, RI 02889"]}, "phone": "+14019210071", "display_phone": "(401) 921-0071", "distance": 3503.5981525887714}, {"id": "bD4cdLptJKY2B5MjSvKcbQ", "alias": "shannon-view-inn-warwick", "name": "Shannon View Inn", "image_url": "https://s3-media3.fl.yelpcdn.com/bphoto/jV5mllXkaZVcME_vXUqmaQ/o.jpg", "is_closed": false, "url": "https://www.yelp.com/biz/shannon-view-inn-warwick?adjust_creative=1woF1Kwn15wJJxNZkMIAgw&utm_campaign=yelp_api_v3&utm_medium=api_v3_business_search&utm_source=1woF1Kwn15wJJxNZkMIAgw", "review_count": 148, "categories": [{"alias": "irish_pubs", "title": "Irish Pub"}, {"alias": "breakfast_brunch", "title": "Breakfast & Brunch"}, {"alias": "irish", "title": "Irish"}], "rating": 4.0, "coordinates": {"latitude": 41.7299, "longitude": -71.43771}, "transactions": ["pickup", "delivery"], "price": "$$", "location": {"address1": "1901 Post Rd", "address2": "", "address3": "", "city": "Warwick", "zip_code": "02886", "country": "US", "state": "RI", "display_address": ["1901 Post Rd", "Warwick, RI 02886"]}, "phone": "+14017320999", "display_phone": "(401) 732-0999", "distance": 2254.9489925710313}, {"id": "A9MLTEOoEVRHWgwOShQvrQ", "alias": "the-crossings-warwick", "name": "The Crossings", "image_url": "https://s3-media3.fl.yelpcdn.com/bphoto/DFQYIKcVuQa479_byp1hQQ/o.jpg", "is_closed": false, "url": "https://www.yelp.com/biz/the-crossings-warwick?adjust_creative=1woF1Kwn15wJJxNZkMIAgw&utm_campaign=yelp_api_v3&utm_medium=api_v3_business_search&utm_source=1woF1Kwn15wJJxNZkMIAgw", "review_count": 6, "categories": [{"alias": "newamerican", "title": "American (New)"}, {"alias": "sportsbars", "title": "Sports Bars"}], "rating": 4.5, "coordinates": {"latitude": 41.715422, "longitude": -71.463596}, "transactions": [], "location": {"address1": "801 Greenwich Ave", "address2": "", "address3": null, "city": "Warwick", "zip_code": "02886", "country": "US", "state": "RI", "display_address": ["801 Greenwich Ave", "Warwick, RI 02886"]}, "phone": "+14017326000", "display_phone": "(401) 732-6000", "distance": 3105.272559965327}, {"id": "MH35gQYuWXuGaS9pmdgwSQ", "alias": "iggys-boardwalk-warwick", "name": "Iggy's Boardwalk", "image_url": "https://s3-media3.fl.yelpcdn.com/bphoto/KnX-9RfFWp2W_nQr5ohIAA/o.jpg", "is_closed": false, "url": "https://www.yelp.com/biz/iggys-boardwalk-warwick?adjust_creative=1woF1Kwn15wJJxNZkMIAgw&utm_campaign=yelp_api_v3&utm_medium=api_v3_business_search&utm_source=1woF1Kwn15wJJxNZkMIAgw", "review_count": 149, "categories": [{"alias": "seafood", "title": "Seafood"}, {"alias": "salad", "title": "Salad"}, {"alias": "sandwiches", "title": "Sandwiches"}], "rating": 4.0, "coordinates": {"latitude": 41.6847511, "longitude": -71.398237}, "transactions": ["delivery"], "price": "$$", "location": {"address1": "885 Oakland Beach Ave", "address2": "", "address3": "", "city": "Warwick", "zip_code": "02889", "country": "US", "state": "RI", "display_address": ["885 Oakland Beach Ave", "Warwick, RI 02889"]}, "phone": "+14017372895", "display_phone": "(401) 737-2895", "distance": 3780.9395606654784}, {"id": "I_X2X3lD87Qu4ETRWEIkmw", "alias": "rocky-point-clam-shack-warwick", "name": "Rocky Point Clam Shack", "image_url": "https://s3-media1.fl.yelpcdn.com/bphoto/nLxGaCoDGFPRgdUNDz4toA/o.jpg", "is_closed": false, "url": "https://www.yelp.com/biz/rocky-point-clam-shack-warwick?adjust_creative=1woF1Kwn15wJJxNZkMIAgw&utm_campaign=yelp_api_v3&utm_medium=api_v3_business_search&utm_source=1woF1Kwn15wJJxNZkMIAgw", "review_count": 182, "categories": [{"alias": "seafood", "title": "Seafood"}], "rating": 3.0, "coordinates": {"latitude": 41.7349017, "longitude": -71.4355624}, "transactions": ["delivery"], "price": "$$", "location": {"address1": "1689 Post Rd", "address2": "", "address3": "", "city": "Warwick", "zip_code": "02888", "country": "US", "state": "RI", "display_address": ["1689 Post Rd", "Warwick, RI 02888"]}, "phone": "+14017389830", "display_phone": "(401) 738-9830", "distance": 2667.4206635912597}, {"id": "O-b_E6sc0Py7uCpEOB2K4g", "alias": "kim-and-steves-masthead-grill-warwick", "name": "Kim & Steve's Masthead Grill", "image_url": "https://s3-media1.fl.yelpcdn.com/bphoto/VZ74ZIIRLrq24FASdlKHRw/o.jpg", "is_closed": false, "url": "https://www.yelp.com/biz/kim-and-steves-masthead-grill-warwick?adjust_creative=1woF1Kwn15wJJxNZkMIAgw&utm_campaign=yelp_api_v3&utm_medium=api_v3_business_search&utm_source=1woF1Kwn15wJJxNZkMIAgw", "review_count": 60, "categories": [{"alias": "breakfast_brunch", "title": "Breakfast & Brunch"}, {"alias": "italian", "title": "Italian"}, {"alias": "seafood", "title": "Seafood"}], "rating": 4.5, "coordinates": {"latitude": 41.68509, "longitude": -71.45289}, "transactions": ["delivery"], "location": {"address1": "3880 Post Rd", "address2": null, "address3": "", "city": "Warwick", "zip_code": "02886", "country": "US", "state": "RI", "display_address": ["3880 Post Rd", "Warwick, RI 02886"]}, "phone": "+14018840025", "display_phone": "(401) 884-0025", "distance": 3648.804445558702}, {"id": "D29NlFrZapOgpsJkXU8v0g", "alias": "thai-excursion-warwick", "name": "Thai Excursion", "image_url": "https://s3-media2.fl.yelpcdn.com/bphoto/a6ylsh97NoxWjJmBG6Kfrg/o.jpg", "is_closed": false, "url": "https://www.yelp.com/biz/thai-excursion-warwick?adjust_creative=1woF1Kwn15wJJxNZkMIAgw&utm_campaign=yelp_api_v3&utm_medium=api_v3_business_search&utm_source=1woF1Kwn15wJJxNZkMIAgw", "review_count": 129, "categories": [{"alias": "thai", "title": "Thai"}], "rating": 4.0, "coordinates": {"latitude": 41.73843, "longitude": -71.43373}, "transactions": ["delivery"], "price": "$$", "location": {"address1": "1565 Post Rd", "address2": "", "address3": "", "city": "Warwick", "zip_code": "02888", "country": "US", "state": "RI", "display_address": ["1565 Post Rd", "Warwick, RI 02888"]}, "phone": "+14019215582", "display_phone": "(401) 921-5582", "distance": 3102.576203014023}, {"id": "OdxVZs-AiILPDj6uoFVpVQ", "alias": "chelos-hometown-bar-and-grille-warwick-5", "name": "Chelo's Hometown Bar & Grille", "image_url": "https://s3-media2.fl.yelpcdn.com/bphoto/EAB1FpG--GtsO3HBveutoA/o.jpg", "is_closed": false, "url": "https://www.yelp.com/biz/chelos-hometown-bar-and-grille-warwick-5?adjust_creative=1woF1Kwn15wJJxNZkMIAgw&utm_campaign=yelp_api_v3&utm_medium=api_v3_business_search&utm_source=1woF1Kwn15wJJxNZkMIAgw", "review_count": 123, "categories": [{"alias": "tradamerican", "title": "American (Traditional)"}, {"alias": "bars", "title": "Bars"}], "rating": 3.5, "coordinates": {"latitude": 41.7220533, "longitude": -71.4415744}, "transactions": ["delivery"], "price": "$$", "location": {"address1": "2225 Post Rd", "address2": "", "address3": "", "city": "Warwick", "zip_code": "02886", "country": "US", "state": "RI", "display_address": ["2225 Post Rd", "Warwick, RI 02886"]}, "phone": "+14017377299", "display_phone": "(401) 737-7299", "distance": 1737.8173720391676}, {"id": "l0KFsZaQUI_J6GCvyg-Eag", "alias": "top-of-the-bay-warwick", "name": "Top of the Bay", "image_url": "https://s3-media1.fl.yelpcdn.com/bphoto/0S6sH_Zs5LKiZZOUWqa14Q/o.jpg", "is_closed": false, "url": "https://www.yelp.com/biz/top-of-the-bay-warwick?adjust_creative=1woF1Kwn15wJJxNZkMIAgw&utm_campaign=yelp_api_v3&utm_medium=api_v3_business_search&utm_source=1woF1Kwn15wJJxNZkMIAgw", "review_count": 191, "categories": [{"alias": "tradamerican", "title": "American (Traditional)"}, {"alias": "seafood", "title": "Seafood"}], "rating": 3.5, "coordinates": {"latitude": 41.6845271625672, "longitude": -71.3974129540883}, "transactions": ["pickup", "delivery"], "price": "$$", "location": {"address1": "898 Oakland Beach Ave", "address2": "", "address3": "", "city": "Warwick", "zip_code": "02889", "country": "US", "state": "RI", "display_address": ["898 Oakland Beach Ave", "Warwick, RI 02889"]}, "phone": "+14019213663", "display_phone": "(401) 921-3663", "distance": 3843.203980039001}, {"id": "_TUSWDc6GIQoiejzRs2h6w", "alias": "athenian-deli-and-restaurant-cranston", "name": "Athenian Deli & Restaurant", "image_url": "https://s3-media3.fl.yelpcdn.com/bphoto/lyPv1zP3E5oIlrpSrM6s0g/o.jpg", "is_closed": false, "url": "https://www.yelp.com/biz/athenian-deli-and-restaurant-cranston?adjust_creative=1woF1Kwn15wJJxNZkMIAgw&utm_campaign=yelp_api_v3&utm_medium=api_v3_business_search&utm_source=1woF1Kwn15wJJxNZkMIAgw", "review_count": 58, "categories": [{"alias": "greek", "title": "Greek"}, {"alias": "delis", "title": "Delis"}, {"alias": "mediterranean", "title": "Mediterranean"}], "rating": 4.5, "coordinates": {"latitude": 41.7358401, "longitude": -71.4776729}, "transactions": [], "price": "$", "location": {"address1": "1242 Oaklawn Ave", "address2": "", "address3": "", "city": "Cranston", "zip_code": "02920", "country": "US", "state": "RI", "display_address": ["1242 Oaklawn Ave", "Cranston, RI 02920"]}, "phone": "+14014636025", "display_phone": "(401) 463-6025", "distance": 5021.914981001757}, {"id": "KIYqjH-BS4I7M78lfiXipw", "alias": "new-island-restaurant-and-bar-warwick", "name": "New Island Restaurant & Bar", "image_url": "https://s3-media2.fl.yelpcdn.com/bphoto/0X4Qbagp5-_o0RRtgGbQjQ/o.jpg", "is_closed": false, "url": "https://www.yelp.com/biz/new-island-restaurant-and-bar-warwick?adjust_creative=1woF1Kwn15wJJxNZkMIAgw&utm_campaign=yelp_api_v3&utm_medium=api_v3_business_search&utm_source=1woF1Kwn15wJJxNZkMIAgw", "review_count": 30, "categories": [{"alias": "chinese", "title": "Chinese"}], "rating": 4.5, "coordinates": {"latitude": 41.6988246775272, "longitude": -71.4594320966695}, "transactions": ["pickup", "delivery"], "location": {"address1": "3301 Post Rd", "address2": "", "address3": null, "city": "Warwick", "zip_code": "02886", "country": "US", "state": "RI", "display_address": ["3301 Post Rd", "Warwick, RI 02886"]}, "phone": "+14017386162", "display_phone": "(401) 738-6162", "distance": 3062.8376514261076}, {"id": "0BlUcKeK-92g2syEb-AdMQ", "alias": "the-metro-cafe-warwick", "name": "The Metro Cafe", "image_url": "https://s3-media2.fl.yelpcdn.com/bphoto/ySHrI7InoGzwj72JcUAH5g/o.jpg", "is_closed": false, "url": "https://www.yelp.com/biz/the-metro-cafe-warwick?adjust_creative=1woF1Kwn15wJJxNZkMIAgw&utm_campaign=yelp_api_v3&utm_medium=api_v3_business_search&utm_source=1woF1Kwn15wJJxNZkMIAgw", "review_count": 4, "categories": [{"alias": "newamerican", "title": "American (New)"}], "rating": 4.5, "coordinates": {"latitude": 41.7310066197626, "longitude": -71.452739238739}, "transactions": [], "price": "$", "location": {"address1": "475 Kilvert St", "address2": "", "address3": "", "city": "Warwick", "zip_code": "02886", "country": "US", "state": "RI", "display_address": ["475 Kilvert St", "Warwick, RI 02886"]}, "phone": "", "display_phone": "", "distance": 3079.472250720402}, {"id": "ygueTznQqt2Wf6bYqENjXQ", "alias": "greenwood-inn-warwick", "name": "Greenwood Inn", "image_url": "https://s3-media4.fl.yelpcdn.com/bphoto/pteIZaZ4xtPS-6Ddjy0ESA/o.jpg", "is_closed": false, "url": "https://www.yelp.com/biz/greenwood-inn-warwick?adjust_creative=1woF1Kwn15wJJxNZkMIAgw&utm_campaign=yelp_api_v3&utm_medium=api_v3_business_search&utm_source=1woF1Kwn15wJJxNZkMIAgw", "review_count": 87, "categories": [{"alias": "tradamerican", "title": "American (Traditional)"}, {"alias": "bars", "title": "Bars"}, {"alias": "seafood", "title": "Seafood"}], "rating": 3.0, "coordinates": {"latitude": 41.71204, "longitude": -71.44854}, "transactions": ["delivery"], "price": "$$", "location": {"address1": "1350 Jefferson Blvd", "address2": "", "address3": "", "city": "Warwick", "zip_code": "02886", "country": "US", "state": "RI", "display_address": ["1350 Jefferson Blvd", "Warwick, RI 02886"]}, "phone": "+14017383334", "display_phone": "(401) 738-3334", "distance": 1801.478623773964}, {"id": "d-_5KFU_H1kBtsiiJznhtw", "alias": "sams-new-york-system-warwick", "name": "Sam's New York System", "image_url": "https://s3-media4.fl.yelpcdn.com/bphoto/EW28dFUp8XzLLtkS4K5L-w/o.jpg", "is_closed": false, "url": "https://www.yelp.com/biz/sams-new-york-system-warwick?adjust_creative=1woF1Kwn15wJJxNZkMIAgw&utm_campaign=yelp_api_v3&utm_medium=api_v3_business_search&utm_source=1woF1Kwn15wJJxNZkMIAgw", "review_count": 34, "categories": [{"alias": "fishnchips", "title": "Fish & Chips"}, {"alias": "burgers", "title": "Burgers"}, {"alias": "hotdogs", "title": "Fast Food"}], "rating": 4.0, "coordinates": {"latitude": 41.7058549, "longitude": -71.4159233}, "transactions": ["pickup", "delivery"], "price": "$", "location": {"address1": "6 Freeborne St", "address2": "", "address3": "", "city": "Warwick", "zip_code": "02889", "country": "US", "state": "RI", "display_address": ["6 Freeborne St", "Warwick, RI 02889"]}, "phone": "+14017422105", "display_phone": "(401) 742-2105", "distance": 1076.2004265239168}, {"id": "Evp17dvtv-sGTxQVMNCHSw", "alias": "chelos-waterfront-bar-and-grille-warwick", "name": "Chelo's Waterfront Bar & Grille", "image_url": "https://s3-media3.fl.yelpcdn.com/bphoto/f4AWihjXL7IOBz710kYT-A/o.jpg", "is_closed": false, "url": "https://www.yelp.com/biz/chelos-waterfront-bar-and-grille-warwick?adjust_creative=1woF1Kwn15wJJxNZkMIAgw&utm_campaign=yelp_api_v3&utm_medium=api_v3_business_search&utm_source=1woF1Kwn15wJJxNZkMIAgw", "review_count": 215, "categories": [{"alias": "seafood", "title": "Seafood"}, {"alias": "tradamerican", "title": "American (Traditional)"}, {"alias": "sportsbars", "title": "Sports Bars"}], "rating": 3.5, "coordinates": {"latitude": 41.684815, "longitude": -71.449931}, "transactions": ["delivery"], "price": "$$", "location": {"address1": "1 Masthead Dr", "address2": "", "address3": "", "city": "Warwick", "zip_code": "02886", "country": "US", "state": "RI", "display_address": ["1 Masthead Dr", "Warwick, RI 02886"]}, "phone": "+14018843000", "display_phone": "(401) 884-3000", "distance": 3531.7162422477}, {"id": "p_7OGFBk3Avn4Bm3ifhHYQ", "alias": "nick-and-joans-place-warwick", "name": "Nick & Joan's Place", "image_url": "https://s3-media2.fl.yelpcdn.com/bphoto/ZGY69Qk_eZBZFLJj3iuW8g/o.jpg", "is_closed": false, "url": "https://www.yelp.com/biz/nick-and-joans-place-warwick?adjust_creative=1woF1Kwn15wJJxNZkMIAgw&utm_campaign=yelp_api_v3&utm_medium=api_v3_business_search&utm_source=1woF1Kwn15wJJxNZkMIAgw", "review_count": 37, "categories": [{"alias": "tradamerican", "title": "American (Traditional)"}], "rating": 4.5, "coordinates": {"latitude": 41.7316473, "longitude": -71.4068256}, "transactions": ["delivery"], "price": "$", "location": {"address1": "1633 Warwick Ave", "address2": "", "address3": "", "city": "Warwick", "zip_code": "02889", "country": "US", "state": "RI", "display_address": ["1633 Warwick Ave", "Warwick, RI 02889"]}, "phone": "+14017386470", "display_phone": "(401) 738-6470", "distance": 2793.5582714762}, {"id": "EWj2-rDEX9Nv-pWGdAo4tg", "alias": "pier-pizza-warwick", "name": "Pier Pizza", "image_url": "https://s3-media1.fl.yelpcdn.com/bphoto/VoOmUhZX8GYD6TrIqWBOkA/o.jpg", "is_closed": false, "url": "https://www.yelp.com/biz/pier-pizza-warwick?adjust_creative=1woF1Kwn15wJJxNZkMIAgw&utm_campaign=yelp_api_v3&utm_medium=api_v3_business_search&utm_source=1woF1Kwn15wJJxNZkMIAgw", "review_count": 39, "categories": [{"alias": "pizza", "title": "Pizza"}], "rating": 4.5, "coordinates": {"latitude": 41.7092238, "longitude": -71.4505908}, "transactions": ["delivery"], "price": "$$", "location": {"address1": "2763 Post Rd", "address2": null, "address3": null, "city": "Warwick", "zip_code": "02886", "country": "US", "state": "RI", "display_address": ["2763 Post Rd", "Warwick, RI 02886"]}, "phone": "+14017388008", "display_phone": "(401) 738-8008", "distance": 2023.961775975849}, {"id": "dbcdUcvoqwqYDL2q6MnkCw", "alias": "grid-iron-ale-house-and-grill-warwick", "name": "Grid Iron Ale House and Grill", "image_url": "https://s3-media3.fl.yelpcdn.com/bphoto/ST9L5l9EDoj__1hgNzK9yw/o.jpg", "is_closed": false, "url": "https://www.yelp.com/biz/grid-iron-ale-house-and-grill-warwick?adjust_creative=1woF1Kwn15wJJxNZkMIAgw&utm_campaign=yelp_api_v3&utm_medium=api_v3_business_search&utm_source=1woF1Kwn15wJJxNZkMIAgw", "review_count": 45, "categories": [{"alias": "tradamerican", "title": "American (Traditional)"}, {"alias": "sportsbars", "title": "Sports Bars"}], "rating": 3.5, "coordinates": {"latitude": 41.7374267578125, "longitude": -71.4343032836914}, "transactions": ["pickup"], "price": "$", "location": {"address1": "1599 Post Rd", "address2": "", "address3": "", "city": "Warwick", "zip_code": "02888", "country": "US", "state": "RI", "display_address": ["1599 Post Rd", "Warwick, RI 02888"]}, "phone": "+14013846969", "display_phone": "(401) 384-6969", "distance": 2968.0006842914404}, {"id": "DudMK-rfgIYx55ncaSWWqw", "alias": "daves-bar-and-grille-warwick", "name": "Daves Bar and Grille", "image_url": "https://s3-media2.fl.yelpcdn.com/bphoto/Ja4UshUrKDHGVXcU_YksyQ/o.jpg", "is_closed": false, "url": "https://www.yelp.com/biz/daves-bar-and-grille-warwick?adjust_creative=1woF1Kwn15wJJxNZkMIAgw&utm_campaign=yelp_api_v3&utm_medium=api_v3_business_search&utm_source=1woF1Kwn15wJJxNZkMIAgw", "review_count": 100, "categories": [{"alias": "sportsbars", "title": "Sports Bars"}, {"alias": "tradamerican", "title": "American (Traditional)"}], "rating": 3.5, "coordinates": {"latitude": 41.71897, "longitude": -71.44342}, "transactions": ["delivery"], "price": "$$", "location": {"address1": "2339 Post Rd", "address2": "", "address3": "", "city": "Warwick", "zip_code": "02886", "country": "US", "state": "RI", "display_address": ["2339 Post Rd", "Warwick, RI 02886"]}, "phone": "+14017397444", "display_phone": "(401) 739-7444", "distance": 1649.2080341943588}, {"id": "YjhxxfTiHSOLOVvT0CHuIg", "alias": "sunshine-express-warwick", "name": "Sunshine Express", "image_url": "https://s3-media3.fl.yelpcdn.com/bphoto/GBbjjmcjtHmHs6RvitIwfA/o.jpg", "is_closed": false, "url": "https://www.yelp.com/biz/sunshine-express-warwick?adjust_creative=1woF1Kwn15wJJxNZkMIAgw&utm_campaign=yelp_api_v3&utm_medium=api_v3_business_search&utm_source=1woF1Kwn15wJJxNZkMIAgw", "review_count": 8, "categories": [{"alias": "chinese", "title": "Chinese"}, {"alias": "japanese", "title": "Japanese"}, {"alias": "bubbletea", "title": "Bubble Tea"}], "rating": 3.5, "coordinates": {"latitude": 41.70673, "longitude": -71.41576}, "transactions": ["pickup", "delivery"], "location": {"address1": "997 Sandy Ln", "address2": null, "address3": "", "city": "Warwick", "zip_code": "02889", "country": "US", "state": "RI", "display_address": ["997 Sandy Ln", "Warwick, RI 02889"]}, "phone": "+14016814225", "display_phone": "(401) 681-4225", "distance": 1007.904191028827}, {"id": "l4slP1Knu9n7wdsoTUy6Ag", "alias": "california-taco-shop-warwick", "name": "California Taco Shop", "image_url": "https://s3-media2.fl.yelpcdn.com/bphoto/Y123eV_4O3LSVFYa87s58A/o.jpg", "is_closed": false, "url": "https://www.yelp.com/biz/california-taco-shop-warwick?adjust_creative=1woF1Kwn15wJJxNZkMIAgw&utm_campaign=yelp_api_v3&utm_medium=api_v3_business_search&utm_source=1woF1Kwn15wJJxNZkMIAgw", "review_count": 113, "categories": [{"alias": "mexican", "title": "Mexican"}], "rating": 4.0, "coordinates": {"latitude": 41.7480965, "longitude": -71.4217682}, "transactions": ["pickup", "delivery"], "price": "$", "location": {"address1": "2168 Elmwood Ave", "address2": null, "address3": "", "city": "Warwick", "zip_code": "02888", "country": "US", "state": "RI", "display_address": ["2168 Elmwood Ave", "Warwick, RI 02888"]}, "phone": "+14013830075", "display_phone": "(401) 383-0075", "distance": 4151.3298734331265}, {"id": "KVxxEPqzb1_ut8CDe9D4Mg", "alias": "sunnyside-restaurant-warwick", "name": "Sunnyside Restaurant", "image_url": "https://s3-media2.fl.yelpcdn.com/bphoto/_IfVX5qD0eABsZj3Zb-5XQ/o.jpg", "is_closed": false, "url": "https://www.yelp.com/biz/sunnyside-restaurant-warwick?adjust_creative=1woF1Kwn15wJJxNZkMIAgw&utm_campaign=yelp_api_v3&utm_medium=api_v3_business_search&utm_source=1woF1Kwn15wJJxNZkMIAgw", "review_count": 58, "categories": [{"alias": "breakfast_brunch", "title": "Breakfast & Brunch"}, {"alias": "tradamerican", "title": "American (Traditional)"}, {"alias": "coffee", "title": "Coffee & Tea"}], "rating": 4.0, "coordinates": {"latitude": 41.7038527876139, "longitude": -71.4105896651745}, "transactions": ["delivery"], "price": "$", "location": {"address1": "2428 W Shore Rd", "address2": "", "address3": "", "city": "Warwick", "zip_code": "02889", "country": "US", "state": "RI", "display_address": ["2428 W Shore Rd", "Warwick, RI 02889"]}, "phone": "+14017390199", "display_phone": "(401) 739-0199", "distance": 1575.7851428275667}, {"id": "R5EzRHxySGtAdfoBBxahAg", "alias": "mousies-deli-warwick-2", "name": "Mousies Deli", "image_url": "https://s3-media2.fl.yelpcdn.com/bphoto/zILu1yC4b1_V2HCl7GePLw/o.jpg", "is_closed": false, "url": "https://www.yelp.com/biz/mousies-deli-warwick-2?adjust_creative=1woF1Kwn15wJJxNZkMIAgw&utm_campaign=yelp_api_v3&utm_medium=api_v3_business_search&utm_source=1woF1Kwn15wJJxNZkMIAgw", "review_count": 59, "categories": [{"alias": "delis", "title": "Delis"}, {"alias": "sandwiches", "title": "Sandwiches"}], "rating": 4.0, "coordinates": {"latitude": 41.7321872, "longitude": -71.4069414}, "transactions": ["delivery"], "price": "$", "location": {"address1": "1619 Warwick Ave", "address2": "", "address3": "", "city": "Warwick", "zip_code": "02889", "country": "US", "state": "RI", "display_address": ["1619 Warwick Ave", "Warwick, RI 02889"]}, "phone": "+14017391893", "display_phone": "(401) 739-1893", "distance": 2834.3355650589965}, {"id": "m1QGt5oJo9bZWrVKy2Py_Q", "alias": "not-your-average-joes-warwick", "name": "Not Your Average Joe's", "image_url": "https://s3-media4.fl.yelpcdn.com/bphoto/C68MvhpXEmlpMSX470CGZg/o.jpg", "is_closed": false, "url": "https://www.yelp.com/biz/not-your-average-joes-warwick?adjust_creative=1woF1Kwn15wJJxNZkMIAgw&utm_campaign=yelp_api_v3&utm_medium=api_v3_business_search&utm_source=1woF1Kwn15wJJxNZkMIAgw", "review_count": 373, "categories": [{"alias": "newamerican", "title": "American (New)"}, {"alias": "pizza", "title": "Pizza"}, {"alias": "bars", "title": "Bars"}], "rating": 3.5, "coordinates": {"latitude": 41.7249555181191, "longitude": -71.4736899434848}, "transactions": ["delivery"], "price": "$$", "location": {"address1": "400 Bald Hill Rd", "address2": "Ste 475", "address3": "", "city": "Warwick", "zip_code": "02886", "country": "US", "state": "RI", "display_address": ["400 Bald Hill Rd", "Ste 475", "Warwick, RI 02886"]}, "phone": "+14017395637", "display_phone": "(401) 739-5637", "distance": 4191.786194528704}, {"id": "CyDoW6vP1vfBOhouDwvTZQ", "alias": "providence-oyster-bar-warwick", "name": "Providence Oyster Bar", "image_url": "https://s3-media2.fl.yelpcdn.com/bphoto/lURmzpBlBByCvMwAWdvHag/o.jpg", "is_closed": false, "url": "https://www.yelp.com/biz/providence-oyster-bar-warwick?adjust_creative=1woF1Kwn15wJJxNZkMIAgw&utm_campaign=yelp_api_v3&utm_medium=api_v3_business_search&utm_source=1woF1Kwn15wJJxNZkMIAgw", "review_count": 82, "categories": [{"alias": "seafood", "title": "Seafood"}], "rating": 2.5, "coordinates": {"latitude": 41.726491, "longitude": -71.434696}, "transactions": [], "price": "$$", "location": {"address1": "2000 Post Rd", "address2": "", "address3": "TF Green International Airport", "city": "Warwick", "zip_code": "02886", "country": "US", "state": "RI", "display_address": ["2000 Post Rd", "TF Green International Airport", "Warwick, RI 02886"]}, "phone": "+14017325140", "display_phone": "(401) 732-5140", "distance": 1811.8056377771682}, {"id": "-_WevaLMBZ3pSTSis2kxfg", "alias": "greggs-restaurants-warwick", "name": "Gregg's Restaurants", "image_url": "https://s3-media3.fl.yelpcdn.com/bphoto/3VutMlSvFpm2-j5Wd2D_4A/o.jpg", "is_closed": false, "url": "https://www.yelp.com/biz/greggs-restaurants-warwick?adjust_creative=1woF1Kwn15wJJxNZkMIAgw&utm_campaign=yelp_api_v3&utm_medium=api_v3_business_search&utm_source=1woF1Kwn15wJJxNZkMIAgw", "review_count": 151, "categories": [{"alias": "tradamerican", "title": "American (Traditional)"}, {"alias": "desserts", "title": "Desserts"}], "rating": 3.5, "coordinates": {"latitude": 41.7435199, "longitude": -71.42986}, "transactions": ["delivery"], "price": "$$", "location": {"address1": "1359 Post Rd", "address2": "", "address3": "", "city": "Warwick", "zip_code": "02888", "country": "US", "state": "RI", "display_address": ["1359 Post Rd", "Warwick, RI 02888"]}, "phone": "+14014675700", "display_phone": "(401) 467-5700", "distance": 3584.6650026160833}, {"id": "kZPOWu2eruLRVjZ-oRfrgQ", "alias": "han-palace-warwick", "name": "Han Palace", "image_url": "https://s3-media1.fl.yelpcdn.com/bphoto/ioY0Gy-xeqnfqEahLWGJaA/o.jpg", "is_closed": false, "url": "https://www.yelp.com/biz/han-palace-warwick?adjust_creative=1woF1Kwn15wJJxNZkMIAgw&utm_campaign=yelp_api_v3&utm_medium=api_v3_business_search&utm_source=1woF1Kwn15wJJxNZkMIAgw", "review_count": 55, "categories": [{"alias": "chinese", "title": "Chinese"}], "rating": 3.5, "coordinates": {"latitude": 41.7042987048626, "longitude": -71.4123230427504}, "transactions": ["delivery"], "price": "$", "location": {"address1": "2470 W Shore Rd", "address2": "", "address3": "", "city": "Warwick", "zip_code": "02889", "country": "US", "state": "RI", "display_address": ["2470 W Shore Rd", "Warwick, RI 02889"]}, "phone": "+14017382238", "display_phone": "(401) 738-2238", "distance": 1441.5867509297946}, {"id": "skUdeATNAURaOAVnty27Ng", "alias": "bertuccis-italian-restaurant-warwick", "name": "Bertucci's Italian Restaurant", "image_url": "https://s3-media4.fl.yelpcdn.com/bphoto/Jv4lIZYe_Q60cW_Frxg3zA/o.jpg", "is_closed": false, "url": "https://www.yelp.com/biz/bertuccis-italian-restaurant-warwick?adjust_creative=1woF1Kwn15wJJxNZkMIAgw&utm_campaign=yelp_api_v3&utm_medium=api_v3_business_search&utm_source=1woF1Kwn15wJJxNZkMIAgw", "review_count": 135, "categories": [{"alias": "pizza", "title": "Pizza"}, {"alias": "italian", "title": "Italian"}], "rating": 3.0, "coordinates": {"latitude": 41.728527, "longitude": -71.437571}, "transactions": ["pickup", "delivery"], "price": "$$", "location": {"address1": "1946 Post Rd", "address2": "", "address3": "", "city": "Warwick", "zip_code": "02886", "country": "US", "state": "RI", "display_address": ["1946 Post Rd", "Warwick, RI 02886"]}, "phone": "+14017324343", "display_phone": "(401) 732-4343", "distance": 2115.12974119257}, {"id": "rYyFJtLFrOFPgYc3My6Fog", "alias": "sweet-dee-s-cafe-and-cupcakery-warwick", "name": "Sweet Dee\u2019s Cafe & Cupcakery", "image_url": "https://s3-media1.fl.yelpcdn.com/bphoto/nWBhY-_attK1jt8lW2SJrQ/o.jpg", "is_closed": false, "url": "https://www.yelp.com/biz/sweet-dee-s-cafe-and-cupcakery-warwick?adjust_creative=1woF1Kwn15wJJxNZkMIAgw&utm_campaign=yelp_api_v3&utm_medium=api_v3_business_search&utm_source=1woF1Kwn15wJJxNZkMIAgw", "review_count": 13, "categories": [{"alias": "desserts", "title": "Desserts"}, {"alias": "breakfast_brunch", "title": "Breakfast & Brunch"}, {"alias": "cupcakes", "title": "Cupcakes"}], "rating": 5.0, "coordinates": {"latitude": 41.69847, "longitude": -71.45899}, "transactions": ["delivery"], "location": {"address1": "10 Music Ln", "address2": null, "address3": "", "city": "Warwick", "zip_code": "02886", "country": "US", "state": "RI", "display_address": ["10 Music Ln", "Warwick, RI 02886"]}, "phone": "+14017734075", "display_phone": "(401) 773-4075", "distance": 3056.045083003158}, {"id": "LqeKY5TznmbqJgDA1hQang", "alias": "billy-ds-roast-beef-warwick", "name": "Billy D's Roast Beef", "image_url": "https://s3-media1.fl.yelpcdn.com/bphoto/qCKzd0Q6Rf5ynDATBnvO1A/o.jpg", "is_closed": false, "url": "https://www.yelp.com/biz/billy-ds-roast-beef-warwick?adjust_creative=1woF1Kwn15wJJxNZkMIAgw&utm_campaign=yelp_api_v3&utm_medium=api_v3_business_search&utm_source=1woF1Kwn15wJJxNZkMIAgw", "review_count": 5, "categories": [{"alias": "sandwiches", "title": "Sandwiches"}], "rating": 3.5, "coordinates": {"latitude": 41.706463414319, "longitude": -71.4155155420303}, "transactions": [], "price": "$", "location": {"address1": "1000 Sandy Ln", "address2": "", "address3": "", "city": "Warwick", "zip_code": "02889", "country": "US", "state": "RI", "display_address": ["1000 Sandy Ln", "Warwick, RI 02889"]}, "phone": "", "display_phone": "", "distance": 1068.1380458056226}, {"id": "cpUYGCGzYB1rDtaSpNjzgg", "alias": "china-inn-warwick", "name": "China Inn", "image_url": "https://s3-media3.fl.yelpcdn.com/bphoto/ps3jcr-LCRM06TllLEgdHA/o.jpg", "is_closed": false, "url": "https://www.yelp.com/biz/china-inn-warwick?adjust_creative=1woF1Kwn15wJJxNZkMIAgw&utm_campaign=yelp_api_v3&utm_medium=api_v3_business_search&utm_source=1woF1Kwn15wJJxNZkMIAgw", "review_count": 59, "categories": [{"alias": "chinese", "title": "Chinese"}], "rating": 4.0, "coordinates": {"latitude": 41.70843, "longitude": -71.45074}, "transactions": ["pickup", "delivery"], "price": "$", "location": {"address1": "2788 Post Rd", "address2": null, "address3": null, "city": "Warwick", "zip_code": "02886", "country": "US", "state": "RI", "display_address": ["2788 Post Rd", "Warwick, RI 02886"]}, "phone": "+14017388887", "display_phone": "(401) 738-8887", "distance": 1969.9604409033534}, {"id": "7V_Ygy0s_UChOqR_6ACgjA", "alias": "the-bait-house-warwick", "name": "The Bait House", "image_url": "https://s3-media1.fl.yelpcdn.com/bphoto/QeasXf235RKi0zV7jXQfNg/o.jpg", "is_closed": false, "url": "https://www.yelp.com/biz/the-bait-house-warwick?adjust_creative=1woF1Kwn15wJJxNZkMIAgw&utm_campaign=yelp_api_v3&utm_medium=api_v3_business_search&utm_source=1woF1Kwn15wJJxNZkMIAgw", "review_count": 1, "categories": [{"alias": "cafes", "title": "Cafes"}], "rating": 5.0, "coordinates": {"latitude": 41.6857691480502, "longitude": -71.3937205441806}, "transactions": [], "price": "$", "location": {"address1": "42 Bay Ave", "address2": "", "address3": "", "city": "Warwick", "zip_code": "02889", "country": "US", "state": "RI", "display_address": ["42 Bay Ave", "Warwick, RI 02889"]}, "phone": "+14015699500", "display_phone": "(401) 569-9500", "distance": 3942.5555554227726}, {"id": "6L9sJZ27Mot8Wzl-kO2MKQ", "alias": "governor-francis-inn-restaurant-warwick", "name": "Governor Francis Inn Restaurant", "image_url": "https://s3-media3.fl.yelpcdn.com/bphoto/NhK61SXsVGi882DnfH_PQA/o.jpg", "is_closed": false, "url": "https://www.yelp.com/biz/governor-francis-inn-restaurant-warwick?adjust_creative=1woF1Kwn15wJJxNZkMIAgw&utm_campaign=yelp_api_v3&utm_medium=api_v3_business_search&utm_source=1woF1Kwn15wJJxNZkMIAgw", "review_count": 106, "categories": [{"alias": "italian", "title": "Italian"}, {"alias": "tradamerican", "title": "American (Traditional)"}, {"alias": "seafood", "title": "Seafood"}], "rating": 3.5, "coordinates": {"latitude": 41.742281, "longitude": -71.4081331}, "transactions": ["delivery"], "price": "$$", "location": {"address1": "1251 Warwick Ave", "address2": "", "address3": "", "city": "Warwick", "zip_code": "02888", "country": "US", "state": "RI", "display_address": ["1251 Warwick Ave", "Warwick, RI 02888"]}, "phone": "+14014638227", "display_phone": "(401) 463-8227", "distance": 3763.300150133825}, {"id": "mSQ6BLQp4yJf0slL8ggvEA", "alias": "buttonwoods-fish-and-chips-warwick", "name": "Buttonwoods Fish & Chips", "image_url": "https://s3-media2.fl.yelpcdn.com/bphoto/tNXU5gMQTVOVDHpCF2wyYA/o.jpg", "is_closed": false, "url": "https://www.yelp.com/biz/buttonwoods-fish-and-chips-warwick?adjust_creative=1woF1Kwn15wJJxNZkMIAgw&utm_campaign=yelp_api_v3&utm_medium=api_v3_business_search&utm_source=1woF1Kwn15wJJxNZkMIAgw", "review_count": 42, "categories": [{"alias": "seafood", "title": "Seafood"}, {"alias": "fishnchips", "title": "Fish & Chips"}, {"alias": "sandwiches", "title": "Sandwiches"}, {"alias": "breakfast_brunch", "title": "Breakfast & Brunch"}], "rating": 4.0, "coordinates": {"latitude": 41.69587, "longitude": -71.42759}, "transactions": ["pickup", "delivery"], "price": "$$", "location": {"address1": "416 Buttonwoods Ave", "address2": "", "address3": "", "city": "Warwick", "zip_code": "02886", "country": "US", "state": "RI", "display_address": ["416 Buttonwoods Ave", "Warwick, RI 02886"]}, "phone": "+14017387571", "display_phone": "(401) 738-7571", "distance": 1733.6252522559114}, {"id": "g8oocgBnSfhAp0lrKs-tIw", "alias": "libations-restaurant-and-lounge-warwick", "name": "Libations Restaurant and Lounge", "image_url": "https://s3-media1.fl.yelpcdn.com/bphoto/Dq-NWhmkkj1uBGP0a8BRlA/o.jpg", "is_closed": false, "url": "https://www.yelp.com/biz/libations-restaurant-and-lounge-warwick?adjust_creative=1woF1Kwn15wJJxNZkMIAgw&utm_campaign=yelp_api_v3&utm_medium=api_v3_business_search&utm_source=1woF1Kwn15wJJxNZkMIAgw", "review_count": 25, "categories": [{"alias": "newamerican", "title": "American (New)"}], "rating": 3.5, "coordinates": {"latitude": 41.725249, "longitude": -71.439682}, "transactions": ["delivery"], "price": "$$", "location": {"address1": "2081 Post Rd", "address2": "", "address3": "Radisson Providence Airport", "city": "Warwick", "zip_code": "02886", "country": "US", "state": "RI", "display_address": ["2081 Post Rd", "Radisson Providence Airport", "Warwick, RI 02886"]}, "phone": "+14015982121", "display_phone": "(401) 598-2121", "distance": 1925.1634427978981}, {"id": "33VZ2uXTX8EbjWbtsHoqZQ", "alias": "quahog-jamboree-warwick", "name": "Quahog Jamboree", "image_url": "https://s3-media1.fl.yelpcdn.com/bphoto/iVdgNDZz8tYG1Fe_bdRCug/o.jpg", "is_closed": false, "url": "https://www.yelp.com/biz/quahog-jamboree-warwick?adjust_creative=1woF1Kwn15wJJxNZkMIAgw&utm_campaign=yelp_api_v3&utm_medium=api_v3_business_search&utm_source=1woF1Kwn15wJJxNZkMIAgw", "review_count": 1, "categories": [{"alias": "newamerican", "title": "American (New)"}], "rating": 4.0, "coordinates": {"latitude": 41.7112395, "longitude": -71.4026668}, "transactions": [], "location": {"address1": "600 Sandy Ln", "address2": "", "address3": "", "city": "Warwick", "zip_code": "02889", "country": "US", "state": "RI", "display_address": ["600 Sandy Ln", "Warwick, RI 02889"]}, "phone": "", "display_phone": "", "distance": 1985.2220255572445}, {"id": "XLIvn-rzhqifW4JQihYfkA", "alias": "napolitanos-brooklyn-pizza-cranston-4", "name": "Napolitano's Brooklyn Pizza", "image_url": "https://s3-media4.fl.yelpcdn.com/bphoto/5yqp8HFM0tLI-nK3z6b-5A/o.jpg", "is_closed": false, "url": "https://www.yelp.com/biz/napolitanos-brooklyn-pizza-cranston-4?adjust_creative=1woF1Kwn15wJJxNZkMIAgw&utm_campaign=yelp_api_v3&utm_medium=api_v3_business_search&utm_source=1woF1Kwn15wJJxNZkMIAgw", "review_count": 262, "categories": [{"alias": "italian", "title": "Italian"}, {"alias": "pizza", "title": "Pizza"}], "rating": 4.0, "coordinates": {"latitude": 41.73741, "longitude": -71.46454}, "transactions": ["pickup", "delivery"], "price": "$$", "location": {"address1": "100 East St", "address2": null, "address3": "", "city": "Cranston", "zip_code": "02920", "country": "US", "state": "RI", "display_address": ["100 East St", "Cranston, RI 02920"]}, "phone": "+14013837722", "display_phone": "(401) 383-7722", "distance": 4281.744851105009}, {"id": "leLlpN8L-B-ZGcRAwxEdkQ", "alias": "jefferson-boulevard-diner-warwick", "name": "Jefferson Boulevard Diner", "image_url": "https://s3-media1.fl.yelpcdn.com/bphoto/HTwQB4pnhrvvFSfImQO8Aw/o.jpg", "is_closed": false, "url": "https://www.yelp.com/biz/jefferson-boulevard-diner-warwick?adjust_creative=1woF1Kwn15wJJxNZkMIAgw&utm_campaign=yelp_api_v3&utm_medium=api_v3_business_search&utm_source=1woF1Kwn15wJJxNZkMIAgw", "review_count": 81, "categories": [{"alias": "breakfast_brunch", "title": "Breakfast & Brunch"}], "rating": 4.0, "coordinates": {"latitude": 41.7431603, "longitude": -71.4379418}, "transactions": ["delivery"], "price": "$", "location": {"address1": "175 Jefferson Blvd", "address2": "", "address3": "", "city": "Warwick", "zip_code": "02888", "country": "US", "state": "RI", "display_address": ["175 Jefferson Blvd", "Warwick, RI 02888"]}, "phone": "+14017394125", "display_phone": "(401) 739-4125", "distance": 3715.7357308716296}, {"id": "VNz8wScQCdmrnf7An-E9eQ", "alias": "oakland-beach-carousel-foundation-warwick", "name": "Oakland Beach Carousel Foundation", "image_url": "https://s3-media2.fl.yelpcdn.com/bphoto/DLPb8XxP4_GvZeIGBFYtkQ/o.jpg", "is_closed": false, "url": "https://www.yelp.com/biz/oakland-beach-carousel-foundation-warwick?adjust_creative=1woF1Kwn15wJJxNZkMIAgw&utm_campaign=yelp_api_v3&utm_medium=api_v3_business_search&utm_source=1woF1Kwn15wJJxNZkMIAgw", "review_count": 3, "categories": [{"alias": "restaurants", "title": "Restaurants"}, {"alias": "beaches", "title": "Beaches"}, {"alias": "localflavor", "title": "Local Flavor"}], "rating": 4.5, "coordinates": {"latitude": 41.7039814, "longitude": -71.4114791}, "transactions": [], "price": "$$", "location": {"address1": "2438 W Shore Rd", "address2": "", "address3": "", "city": "Warwick", "zip_code": "02889", "country": "US", "state": "RI", "display_address": ["2438 W Shore Rd", "Warwick, RI 02889"]}, "phone": "+14017322727", "display_phone": "(401) 732-2727", "distance": 1530.3060358295008}, {"id": "ifo7vM0dPSlZKhBvcvP9hg", "alias": "islander-restaurant-warwick", "name": "Islander Restaurant", "image_url": "https://s3-media1.fl.yelpcdn.com/bphoto/vLZUednytDw26GyfaFzC7g/o.jpg", "is_closed": false, "url": "https://www.yelp.com/biz/islander-restaurant-warwick?adjust_creative=1woF1Kwn15wJJxNZkMIAgw&utm_campaign=yelp_api_v3&utm_medium=api_v3_business_search&utm_source=1woF1Kwn15wJJxNZkMIAgw", "review_count": 100, "categories": [{"alias": "chinese", "title": "Chinese"}], "rating": 3.0, "coordinates": {"latitude": 41.70291, "longitude": -71.40609}, "transactions": ["delivery"], "price": "$$", "location": {"address1": "2318 W Shore Rd", "address2": "", "address3": "", "city": "Warwick", "zip_code": "02889", "country": "US", "state": "RI", "display_address": ["2318 W Shore Rd", "Warwick, RI 02889"]}, "phone": "+14017389861", "display_phone": "(401) 738-9861", "distance": 1915.0017727814998}, {"id": "EJDCVAa46zM7_eIbzPT_Fg", "alias": "aroogas-warwick", "name": "Arooga's", "image_url": "https://s3-media1.fl.yelpcdn.com/bphoto/KlHlWoYuZfSsAP9S1NUUyQ/o.jpg", "is_closed": false, "url": "https://www.yelp.com/biz/aroogas-warwick?adjust_creative=1woF1Kwn15wJJxNZkMIAgw&utm_campaign=yelp_api_v3&utm_medium=api_v3_business_search&utm_source=1woF1Kwn15wJJxNZkMIAgw", "review_count": 254, "categories": [{"alias": "chicken_wings", "title": "Chicken Wings"}, {"alias": "sportsbars", "title": "Sports Bars"}, {"alias": "tradamerican", "title": "American (Traditional)"}], "rating": 2.5, "coordinates": {"latitude": 41.71755, "longitude": -71.4648718}, "transactions": ["pickup", "delivery"], "price": "$$", "location": {"address1": "615 Greenwich Ave", "address2": null, "address3": "", "city": "Warwick", "zip_code": "02886", "country": "US", "state": "RI", "display_address": ["615 Greenwich Ave", "Warwick, RI 02886"]}, "phone": "+14017321230", "display_phone": "(401) 732-1230", "distance": 3251.740425040679}, {"id": "DFVOopS1-QVE__yCNigOzA", "alias": "shogun-warwick-2", "name": "Shogun", "image_url": "https://s3-media3.fl.yelpcdn.com/bphoto/hBo_0dzJ12yWBX-2P-MYjg/o.jpg", "is_closed": false, "url": "https://www.yelp.com/biz/shogun-warwick-2?adjust_creative=1woF1Kwn15wJJxNZkMIAgw&utm_campaign=yelp_api_v3&utm_medium=api_v3_business_search&utm_source=1woF1Kwn15wJJxNZkMIAgw", "review_count": 128, "categories": [{"alias": "sushi", "title": "Sushi Bars"}, {"alias": "seafood", "title": "Seafood"}, {"alias": "steak", "title": "Steakhouses"}], "rating": 3.5, "coordinates": {"latitude": 41.749256, "longitude": -71.4357957}, "transactions": ["delivery"], "price": "$$", "location": {"address1": "75 Jefferson Blvd", "address2": "", "address3": "", "city": "Warwick", "zip_code": "02888", "country": "US", "state": "RI", "display_address": ["75 Jefferson Blvd", "Warwick, RI 02888"]}, "phone": "+14012703608", "display_phone": "(401) 270-3608", "distance": 4288.537218130186}, {"id": "HwifOiaWDIxbZXl5JaVF5A", "alias": "rebar-and-grill-warwick", "name": "Rebar & Grill", "image_url": "", "is_closed": false, "url": "https://www.yelp.com/biz/rebar-and-grill-warwick?adjust_creative=1woF1Kwn15wJJxNZkMIAgw&utm_campaign=yelp_api_v3&utm_medium=api_v3_business_search&utm_source=1woF1Kwn15wJJxNZkMIAgw", "review_count": 1, "categories": [{"alias": "restaurants", "title": "Restaurants"}], "rating": 4.0, "coordinates": {"latitude": 41.71981, "longitude": -71.44291}, "transactions": [], "location": {"address1": "2299 Post Rd", "address2": "", "address3": "", "city": "Warwick", "zip_code": "02886", "country": "US", "state": "RI", "display_address": ["2299 Post Rd", "Warwick, RI 02886"]}, "phone": "+14017329533", "display_phone": "(401) 732-9533", "distance": 1662.5971582318784}, {"id": "j2sS8iuwiIcd4g31LuXoSA", "alias": "georges-pizza-warwick", "name": "George's Pizza", "image_url": "https://s3-media2.fl.yelpcdn.com/bphoto/wZF7zyj6v6kQA-Kc5X8v_A/o.jpg", "is_closed": false, "url": "https://www.yelp.com/biz/georges-pizza-warwick?adjust_creative=1woF1Kwn15wJJxNZkMIAgw&utm_campaign=yelp_api_v3&utm_medium=api_v3_business_search&utm_source=1woF1Kwn15wJJxNZkMIAgw", "review_count": 25, "categories": [{"alias": "pizza", "title": "Pizza"}], "rating": 4.5, "coordinates": {"latitude": 41.7024503916964, "longitude": -71.3867874958995}, "transactions": ["delivery"], "price": "$", "location": {"address1": "2910 Warwick Ave", "address2": "", "address3": "", "city": "Warwick", "zip_code": "02889", "country": "US", "state": "RI", "display_address": ["2910 Warwick Ave", "Warwick, RI 02889"]}, "phone": "+14017385776", "display_phone": "(401) 738-5776", "distance": 3448.9970213864244}, {"id": "FfkWwDoRM7o3pL9497xgTw", "alias": "alfreds-lounge-warwick", "name": "Alfred's Lounge", "image_url": "https://s3-media2.fl.yelpcdn.com/bphoto/jHwOR0hXDGEvellBCIW7wg/o.jpg", "is_closed": false, "url": "https://www.yelp.com/biz/alfreds-lounge-warwick?adjust_creative=1woF1Kwn15wJJxNZkMIAgw&utm_campaign=yelp_api_v3&utm_medium=api_v3_business_search&utm_source=1woF1Kwn15wJJxNZkMIAgw", "review_count": 15, "categories": [{"alias": "bars", "title": "Bars"}, {"alias": "tradamerican", "title": "American (Traditional)"}], "rating": 4.5, "coordinates": {"latitude": 41.7142799, "longitude": -71.4638321}, "transactions": [], "price": "$$", "location": {"address1": "801 Greenwich Ave", "address2": "", "address3": "", "city": "Warwick", "zip_code": "02886", "country": "US", "state": "RI", "display_address": ["801 Greenwich Ave", "Warwick, RI 02886"]}, "phone": "+14017326000", "display_phone": "(401) 732-6000", "distance": 3436.576757673506}, {"id": "rr6xqHxMHLxkOsJosXqaiQ", "alias": "sams-inn-warwick", "name": "Sam's Inn", "image_url": "https://s3-media1.fl.yelpcdn.com/bphoto/OQhQOMUpoO3EQ4jTExauDg/o.jpg", "is_closed": false, "url": "https://www.yelp.com/biz/sams-inn-warwick?adjust_creative=1woF1Kwn15wJJxNZkMIAgw&utm_campaign=yelp_api_v3&utm_medium=api_v3_business_search&utm_source=1woF1Kwn15wJJxNZkMIAgw", "review_count": 46, "categories": [{"alias": "tradamerican", "title": "American (Traditional)"}], "rating": 3.5, "coordinates": {"latitude": 41.702314, "longitude": -71.403656}, "transactions": ["delivery"], "price": "$$", "location": {"address1": "2227 W Shore Rd", "address2": "", "address3": "", "city": "Warwick", "zip_code": "02889", "country": "US", "state": "RI", "display_address": ["2227 W Shore Rd", "Warwick, RI 02889"]}, "phone": "+14017376073", "display_phone": "(401) 737-6073", "distance": 2152.8788725123327}, {"id": "oQ1PMw7WxpWD0cMKb8soVA", "alias": "lemongrass-warwick", "name": "Lemongrass", "image_url": "https://s3-media2.fl.yelpcdn.com/bphoto/PH2sQeX5N9bF1bur9CJ75w/o.jpg", "is_closed": false, "url": "https://www.yelp.com/biz/lemongrass-warwick?adjust_creative=1woF1Kwn15wJJxNZkMIAgw&utm_campaign=yelp_api_v3&utm_medium=api_v3_business_search&utm_source=1woF1Kwn15wJJxNZkMIAgw", "review_count": 260, "categories": [{"alias": "thai", "title": "Thai"}, {"alias": "sushi", "title": "Sushi Bars"}], "rating": 3.5, "coordinates": {"latitude": 41.74749, "longitude": -71.42415}, "transactions": ["delivery"], "price": "$$", "location": {"address1": "1138 Post Rd", "address2": "", "address3": "", "city": "Warwick", "zip_code": "02888", "country": "US", "state": "RI", "display_address": ["1138 Post Rd", "Warwick, RI 02888"]}, "phone": "+14019411388", "display_phone": "(401) 941-1388", "distance": 4000.037856545534}, {"id": "u2AK-qOJ03LhFlX5fSjpUw", "alias": "walts-roast-beef-warwick-3", "name": "Walt's Roast Beef", "image_url": "https://s3-media2.fl.yelpcdn.com/bphoto/LhIMjexl9bM0uPvqAH88pA/o.jpg", "is_closed": false, "url": "https://www.yelp.com/biz/walts-roast-beef-warwick-3?adjust_creative=1woF1Kwn15wJJxNZkMIAgw&utm_campaign=yelp_api_v3&utm_medium=api_v3_business_search&utm_source=1woF1Kwn15wJJxNZkMIAgw", "review_count": 37, "categories": [{"alias": "burgers", "title": "Burgers"}], "rating": 3.5, "coordinates": {"latitude": 41.7335229246185, "longitude": -71.4365557953715}, "transactions": [], "price": "$", "location": {"address1": "1759 Post Rd", "address2": "", "address3": "", "city": "Warwick", "zip_code": "02886", "country": "US", "state": "RI", "display_address": ["1759 Post Rd", "Warwick, RI 02886"]}, "phone": "+14017370030", "display_phone": "(401) 737-0030", "distance": 2599.2392735933}, {"id": "RtHFjENvLz88L18rJFzU2w", "alias": "budweiser-bowtie-warwick", "name": "Budweiser Bowtie", "image_url": "https://s3-media3.fl.yelpcdn.com/bphoto/1iN6Tilj4B-lDWpnGsWdww/o.jpg", "is_closed": false, "url": "https://www.yelp.com/biz/budweiser-bowtie-warwick?adjust_creative=1woF1Kwn15wJJxNZkMIAgw&utm_campaign=yelp_api_v3&utm_medium=api_v3_business_search&utm_source=1woF1Kwn15wJJxNZkMIAgw", "review_count": 50, "categories": [{"alias": "bars", "title": "Bars"}, {"alias": "newamerican", "title": "American (New)"}], "rating": 2.0, "coordinates": {"latitude": 41.7268089727248, "longitude": -71.4344499260187}, "transactions": [], "price": "$$", "location": {"address1": "Tf Green Airport Connector Rd", "address2": "", "address3": "T. F. Green Airport (PVD)", "city": "Warwick", "zip_code": "02886", "country": "US", "state": "RI", "display_address": ["Tf Green Airport Connector Rd", "T. F. Green Airport (PVD)", "Warwick, RI 02886"]}, "phone": "", "display_phone": "", "distance": 1837.3183722815854}, {"id": "4nmUTnkl-k0LZEe7VTuLsQ", "alias": "mirabellas-italian-cucina-warwick", "name": "Mirabella's Italian Cucina", "image_url": "https://s3-media3.fl.yelpcdn.com/bphoto/1PDGQxkg_3DDGf0ghDBInQ/o.jpg", "is_closed": false, "url": "https://www.yelp.com/biz/mirabellas-italian-cucina-warwick?adjust_creative=1woF1Kwn15wJJxNZkMIAgw&utm_campaign=yelp_api_v3&utm_medium=api_v3_business_search&utm_source=1woF1Kwn15wJJxNZkMIAgw", "review_count": 57, "categories": [{"alias": "italian", "title": "Italian"}, {"alias": "pizza", "title": "Pizza"}, {"alias": "sandwiches", "title": "Sandwiches"}], "rating": 4.0, "coordinates": {"latitude": 41.742002, "longitude": -71.407152}, "transactions": ["delivery"], "price": "$", "location": {"address1": "963 Namquid Dr", "address2": "", "address3": "", "city": "Warwick", "zip_code": "02888", "country": "US", "state": "RI", "display_address": ["963 Namquid Dr", "Warwick, RI 02888"]}, "phone": "+14012705060", "display_phone": "(401) 270-5060", "distance": 3769.090528733018}, {"id": "TLTA2vXFbl92A2zVhKFXQA", "alias": "coast-line-diner-warwick", "name": "Coast Line Diner", "image_url": "https://s3-media3.fl.yelpcdn.com/bphoto/BQ1HHpGiI8fitzgjXM7K3g/o.jpg", "is_closed": false, "url": "https://www.yelp.com/biz/coast-line-diner-warwick?adjust_creative=1woF1Kwn15wJJxNZkMIAgw&utm_campaign=yelp_api_v3&utm_medium=api_v3_business_search&utm_source=1woF1Kwn15wJJxNZkMIAgw", "review_count": 128, "categories": [{"alias": "diners", "title": "Diners"}, {"alias": "breakfast_brunch", "title": "Breakfast & Brunch"}], "rating": 3.5, "coordinates": {"latitude": 41.729978, "longitude": -71.443056}, "transactions": ["delivery"], "price": "$", "location": {"address1": "137 Kilvert St", "address2": "", "address3": "", "city": "Warwick", "zip_code": "02886", "country": "US", "state": "RI", "display_address": ["137 Kilvert St", "Warwick, RI 02886"]}, "phone": "+14017737807", "display_phone": "(401) 773-7807", "distance": 2480.562273510337}, {"id": "fxavSamsqKxVJ7YNvrholw", "alias": "dons-pizza-restaurant-warwick", "name": "Don's Pizza Restaurant", "image_url": "https://s3-media4.fl.yelpcdn.com/bphoto/Ad_rRaRSEyN5QTznf0p69Q/o.jpg", "is_closed": false, "url": "https://www.yelp.com/biz/dons-pizza-restaurant-warwick?adjust_creative=1woF1Kwn15wJJxNZkMIAgw&utm_campaign=yelp_api_v3&utm_medium=api_v3_business_search&utm_source=1woF1Kwn15wJJxNZkMIAgw", "review_count": 30, "categories": [{"alias": "pizza", "title": "Pizza"}], "rating": 4.5, "coordinates": {"latitude": 41.7188610881567, "longitude": -71.402448490262}, "transactions": [], "price": "$", "location": {"address1": "2105 Warwick Ave", "address2": "", "address3": "", "city": "Warwick", "zip_code": "02889", "country": "US", "state": "RI", "display_address": ["2105 Warwick Ave", "Warwick, RI 02889"]}, "phone": "+14017323838", "display_phone": "(401) 732-3838", "distance": 2132.3520029107676}, {"id": "0yEykiLXfO6Gag1keltPnw", "alias": "the-loft-restaurant-and-lounge-warwick", "name": "The Loft Restaurant and Lounge", "image_url": "https://s3-media2.fl.yelpcdn.com/bphoto/kF9BiosGPzrPBpRFBJoPCg/o.jpg", "is_closed": false, "url": "https://www.yelp.com/biz/the-loft-restaurant-and-lounge-warwick?adjust_creative=1woF1Kwn15wJJxNZkMIAgw&utm_campaign=yelp_api_v3&utm_medium=api_v3_business_search&utm_source=1woF1Kwn15wJJxNZkMIAgw", "review_count": 53, "categories": [{"alias": "lounges", "title": "Lounges"}, {"alias": "newamerican", "title": "American (New)"}, {"alias": "mediterranean", "title": "Mediterranean"}], "rating": 3.0, "coordinates": {"latitude": 41.7263128, "longitude": -71.4723105}, "transactions": ["delivery"], "price": "$$", "location": {"address1": "400 Knight St", "address2": null, "address3": "Nylo Hotel", "city": "Warwick", "zip_code": "02886", "country": "US", "state": "RI", "display_address": ["400 Knight St", "Nylo Hotel", "Warwick, RI 02886"]}, "phone": "+14017344460", "display_phone": "(401) 734-4460", "distance": 4144.098778494602}, {"id": "2HFSQSaohqHrc9jV0ITlEQ", "alias": "poppys-gourmet-kettle-corn-and-waffles-warwick", "name": "Poppy's Gourmet Kettle Corn and Waffles", "image_url": "https://s3-media1.fl.yelpcdn.com/bphoto/tkXvxtQMyryrK6AMufRSKw/o.jpg", "is_closed": false, "url": "https://www.yelp.com/biz/poppys-gourmet-kettle-corn-and-waffles-warwick?adjust_creative=1woF1Kwn15wJJxNZkMIAgw&utm_campaign=yelp_api_v3&utm_medium=api_v3_business_search&utm_source=1woF1Kwn15wJJxNZkMIAgw", "review_count": 1, "categories": [{"alias": "waffles", "title": "Waffles"}, {"alias": "foodtrucks", "title": "Food Trucks"}, {"alias": "popcorn", "title": "Popcorn Shops"}], "rating": 5.0, "coordinates": {"latitude": 41.6935531049967, "longitude": -71.3872108608484}, "transactions": [], "location": {"address1": "72 Sayles Ave", "address2": "", "address3": "", "city": "Warwick", "zip_code": "02889", "country": "US", "state": "RI", "display_address": ["72 Sayles Ave", "Warwick, RI 02889"]}, "phone": "+14012652066", "display_phone": "(401) 265-2066", "distance": 3820.5380430201394}, {"id": "1JPI6i8gnnYCvuBUrTC5VQ", "alias": "tommys-clam-shack-warwick-7", "name": "Tommy's Clam Shack", "image_url": "https://s3-media2.fl.yelpcdn.com/bphoto/v_D8441maHiRQEyejN3CKg/o.jpg", "is_closed": false, "url": "https://www.yelp.com/biz/tommys-clam-shack-warwick-7?adjust_creative=1woF1Kwn15wJJxNZkMIAgw&utm_campaign=yelp_api_v3&utm_medium=api_v3_business_search&utm_source=1woF1Kwn15wJJxNZkMIAgw", "review_count": 162, "categories": [{"alias": "seafood", "title": "Seafood"}], "rating": 4.0, "coordinates": {"latitude": 41.7152602, "longitude": -71.3998351}, "transactions": ["delivery"], "price": "$$", "location": {"address1": "2275 Warwick Ave", "address2": "", "address3": "", "city": "Warwick", "zip_code": "02889", "country": "US", "state": "RI", "display_address": ["2275 Warwick Ave", "Warwick, RI 02889"]}, "phone": "+14019215005", "display_phone": "(401) 921-5005", "distance": 2262.02564835876}, {"id": "CGfSp0I2EEATOrk_743o5A", "alias": "alices-restaurant-warwick", "name": "Alice's Restaurant", "image_url": "https://s3-media2.fl.yelpcdn.com/bphoto/503sr-qwYuIQIGLifxRKqA/o.jpg", "is_closed": false, "url": "https://www.yelp.com/biz/alices-restaurant-warwick?adjust_creative=1woF1Kwn15wJJxNZkMIAgw&utm_campaign=yelp_api_v3&utm_medium=api_v3_business_search&utm_source=1woF1Kwn15wJJxNZkMIAgw", "review_count": 10, "categories": [{"alias": "breakfast_brunch", "title": "Breakfast & Brunch"}], "rating": 4.0, "coordinates": {"latitude": 41.7285659909248, "longitude": -71.3916948437691}, "transactions": ["delivery"], "location": {"address1": "449 W Shore Rd", "address2": "", "address3": "", "city": "Warwick", "zip_code": "02889", "country": "US", "state": "RI", "display_address": ["449 W Shore Rd", "Warwick, RI 02889"]}, "phone": "+14017374045", "display_phone": "(401) 737-4045", "distance": 3411.6037853752246}, {"id": "EqW9pRUckTxZdnNH_WgWVw", "alias": "reds-street-kitchen-warren", "name": "Red's Street Kitchen", "image_url": "https://s3-media1.fl.yelpcdn.com/bphoto/PVyAJAT1dJLgxcBwfoBn0g/o.jpg", "is_closed": false, "url": "https://www.yelp.com/biz/reds-street-kitchen-warren?adjust_creative=1woF1Kwn15wJJxNZkMIAgw&utm_campaign=yelp_api_v3&utm_medium=api_v3_business_search&utm_source=1woF1Kwn15wJJxNZkMIAgw", "review_count": 14, "categories": [{"alias": "foodtrucks", "title": "Food Trucks"}, {"alias": "portuguese", "title": "Portuguese"}, {"alias": "cheesesteaks", "title": "Cheesesteaks"}], "rating": 4.0, "coordinates": {"latitude": 41.725138, "longitude": -71.282295}, "transactions": [], "location": {"address1": "691 Main St", "address2": "", "address3": null, "city": "Warren", "zip_code": "02885", "country": "US", "state": "RI", "display_address": ["691 Main St", "Warren, RI 02885"]}, "phone": "+14012126933", "display_phone": "(401) 212-6933", "distance": 12073.200641480656}, {"id": "zl_xWYYPurJ0DcQQRxOAiA", "alias": "empire-one-warwick-2", "name": "Empire One", "image_url": "https://s3-media3.fl.yelpcdn.com/bphoto/N9jgPZThXDZAz6p7bciX0g/o.jpg", "is_closed": false, "url": "https://www.yelp.com/biz/empire-one-warwick-2?adjust_creative=1woF1Kwn15wJJxNZkMIAgw&utm_campaign=yelp_api_v3&utm_medium=api_v3_business_search&utm_source=1woF1Kwn15wJJxNZkMIAgw", "review_count": 11, "categories": [{"alias": "chinese", "title": "Chinese"}], "rating": 2.5, "coordinates": {"latitude": 41.706700452524, "longitude": -71.4161629602313}, "transactions": ["pickup", "delivery"], "location": {"address1": "997 Sandy Ln", "address2": "", "address3": null, "city": "Warwick", "zip_code": "02889", "country": "US", "state": "RI", "display_address": ["997 Sandy Ln", "Warwick, RI 02889"]}, "phone": "+14016814225", "display_phone": "(401) 681-4225", "distance": 1008.4785592399531}, {"id": "ubls52Pc93WPn4U4aA0j3g", "alias": "papis-tacos-warwick", "name": "Papi's Tacos", "image_url": "https://s3-media4.fl.yelpcdn.com/bphoto/yaaeItpxycmYJjtG0DexEQ/o.jpg", "is_closed": false, "url": "https://www.yelp.com/biz/papis-tacos-warwick?adjust_creative=1woF1Kwn15wJJxNZkMIAgw&utm_campaign=yelp_api_v3&utm_medium=api_v3_business_search&utm_source=1woF1Kwn15wJJxNZkMIAgw", "review_count": 96, "categories": [{"alias": "mexican", "title": "Mexican"}], "rating": 3.5, "coordinates": {"latitude": 41.7241733487883, "longitude": -71.382650977193}, "transactions": ["delivery"], "price": "$", "location": {"address1": "750 W Shore Rd", "address2": "", "address3": null, "city": "Warwick", "zip_code": "02889", "country": "US", "state": "RI", "display_address": ["750 W Shore Rd", "Warwick, RI 02889"]}, "phone": "+14016814336", "display_phone": "(401) 681-4336", "distance": 3914.5797390565926}, {"id": "qZxAHpVFMborZGkK_1Sv7A", "alias": "demos-pizza-factory-warwick", "name": "Demo's Pizza Factory", "image_url": "https://s3-media2.fl.yelpcdn.com/bphoto/xvDzE9LRAyP8Crw_59j-WA/o.jpg", "is_closed": false, "url": "https://www.yelp.com/biz/demos-pizza-factory-warwick?adjust_creative=1woF1Kwn15wJJxNZkMIAgw&utm_campaign=yelp_api_v3&utm_medium=api_v3_business_search&utm_source=1woF1Kwn15wJJxNZkMIAgw", "review_count": 54, "categories": [{"alias": "pizza", "title": "Pizza"}], "rating": 4.0, "coordinates": {"latitude": 41.730454, "longitude": -71.406069}, "transactions": ["delivery"], "price": "$", "location": {"address1": "1686 Warwick Ave", "address2": "", "address3": "", "city": "Warwick", "zip_code": "02889", "country": "US", "state": "RI", "display_address": ["1686 Warwick Ave", "Warwick, RI 02889"]}, "phone": "+14017321800", "display_phone": "(401) 732-1800", "distance": 2721.080706240957}, {"id": "o2InMpp1YGKh6VIuPlf0Ag", "alias": "beach-cafe-and-pub-warwick-2", "name": "Beach Cafe and Pub", "image_url": "https://s3-media4.fl.yelpcdn.com/bphoto/yvw5K81wyup6Sf1hYR3PtA/o.jpg", "is_closed": false, "url": "https://www.yelp.com/biz/beach-cafe-and-pub-warwick-2?adjust_creative=1woF1Kwn15wJJxNZkMIAgw&utm_campaign=yelp_api_v3&utm_medium=api_v3_business_search&utm_source=1woF1Kwn15wJJxNZkMIAgw", "review_count": 9, "categories": [{"alias": "breakfast_brunch", "title": "Breakfast & Brunch"}, {"alias": "tradamerican", "title": "American (Traditional)"}, {"alias": "bars", "title": "Bars"}], "rating": 4.0, "coordinates": {"latitude": 41.6870179027319, "longitude": -71.3982246816158}, "transactions": ["delivery"], "location": {"address1": "805 Oakland Beach Ave", "address2": "", "address3": null, "city": "Warwick", "zip_code": "02889", "country": "US", "state": "RI", "display_address": ["805 Oakland Beach Ave", "Warwick, RI 02889"]}, "phone": "+14017323213", "display_phone": "(401) 732-3213", "distance": 3570.1834148070043}, {"id": "_nHsOGjnQhMta-E9mDytTA", "alias": "jade-dragon-restaurant-warwick", "name": "Jade Dragon Restaurant", "image_url": "https://s3-media3.fl.yelpcdn.com/bphoto/j8RZicxj-5TbGiRBE6-uZw/o.jpg", "is_closed": false, "url": "https://www.yelp.com/biz/jade-dragon-restaurant-warwick?adjust_creative=1woF1Kwn15wJJxNZkMIAgw&utm_campaign=yelp_api_v3&utm_medium=api_v3_business_search&utm_source=1woF1Kwn15wJJxNZkMIAgw", "review_count": 47, "categories": [{"alias": "chinese", "title": "Chinese"}], "rating": 3.5, "coordinates": {"latitude": 41.7226046, "longitude": -71.4042451}, "transactions": ["delivery"], "price": "$$", "location": {"address1": "1982 Warwick Ave", "address2": "", "address3": "", "city": "Warwick", "zip_code": "02889", "country": "US", "state": "RI", "display_address": ["1982 Warwick Ave", "Warwick, RI 02889"]}, "phone": "+14017329595", "display_phone": "(401) 732-9595", "distance": 2266.3747392889672}, {"id": "tmclgY9qhVp1AvF5y8TDMQ", "alias": "spikes-junkyard-dogs-warwick-warwick", "name": "Spike's Junkyard Dogs - Warwick", "image_url": "https://s3-media4.fl.yelpcdn.com/bphoto/KKy7ML_mjVIA9BNqN5UNAw/o.jpg", "is_closed": false, "url": "https://www.yelp.com/biz/spikes-junkyard-dogs-warwick-warwick?adjust_creative=1woF1Kwn15wJJxNZkMIAgw&utm_campaign=yelp_api_v3&utm_medium=api_v3_business_search&utm_source=1woF1Kwn15wJJxNZkMIAgw", "review_count": 30, "categories": [{"alias": "hotdog", "title": "Hot Dogs"}, {"alias": "burgers", "title": "Burgers"}], "rating": 3.5, "coordinates": {"latitude": 41.7321072, "longitude": -71.4069214}, "transactions": ["pickup", "delivery"], "price": "$", "location": {"address1": "1623 Warwick Ave", "address2": "", "address3": "", "city": "Warwick", "zip_code": "02889", "country": "US", "state": "RI", "display_address": ["1623 Warwick Ave", "Warwick, RI 02889"]}, "phone": "+14017325858", "display_phone": "(401) 732-5858", "distance": 2822.9016925161854}, {"id": "xIiJoPHc_f97WpRSpotFiQ", "alias": "the-federal-tavern-warwick", "name": "The Federal Tavern", "image_url": "https://s3-media3.fl.yelpcdn.com/bphoto/3KmPPRADicrwPcjooZojJA/o.jpg", "is_closed": false, "url": "https://www.yelp.com/biz/the-federal-tavern-warwick?adjust_creative=1woF1Kwn15wJJxNZkMIAgw&utm_campaign=yelp_api_v3&utm_medium=api_v3_business_search&utm_source=1woF1Kwn15wJJxNZkMIAgw", "review_count": 9, "categories": [{"alias": "sportsbars", "title": "Sports Bars"}, {"alias": "newamerican", "title": "American (New)"}], "rating": 2.5, "coordinates": {"latitude": 41.726301, "longitude": -71.435124}, "transactions": [], "price": "$$", "location": {"address1": "2000 Post Rd", "address2": "", "address3": "TF Green Airport", "city": "Warwick", "zip_code": "02887", "country": "US", "state": "RI", "display_address": ["2000 Post Rd", "TF Green Airport", "Warwick, RI 02887"]}, "phone": "", "display_phone": "", "distance": 1805.8575413997546}, {"id": "aT8PHlNbLgCWeMUbPrLGLw", "alias": "pams-pizza-warwick", "name": "Pam's Pizza", "image_url": "https://s3-media3.fl.yelpcdn.com/bphoto/3_4Q4PpEuTLJ3dr_H5M3uQ/o.jpg", "is_closed": false, "url": "https://www.yelp.com/biz/pams-pizza-warwick?adjust_creative=1woF1Kwn15wJJxNZkMIAgw&utm_campaign=yelp_api_v3&utm_medium=api_v3_business_search&utm_source=1woF1Kwn15wJJxNZkMIAgw", "review_count": 23, "categories": [{"alias": "sandwiches", "title": "Sandwiches"}, {"alias": "pizza", "title": "Pizza"}, {"alias": "italian", "title": "Italian"}], "rating": 4.0, "coordinates": {"latitude": 41.70984, "longitude": -71.45018}, "transactions": ["delivery"], "price": "$", "location": {"address1": "2739 Post Rd", "address2": "", "address3": "", "city": "Warwick", "zip_code": "02886", "country": "US", "state": "RI", "display_address": ["2739 Post Rd", "Warwick, RI 02886"]}, "phone": "+14017323193", "display_phone": "(401) 732-3193", "distance": 1993.4682004526887}, {"id": "tuIetj0FygV7V16dX7GABg", "alias": "retro-tobacco-bar-warwick", "name": "Retro Tobacco Bar", "image_url": "", "is_closed": false, "url": "https://www.yelp.com/biz/retro-tobacco-bar-warwick?adjust_creative=1woF1Kwn15wJJxNZkMIAgw&utm_campaign=yelp_api_v3&utm_medium=api_v3_business_search&utm_source=1woF1Kwn15wJJxNZkMIAgw", "review_count": 1, "categories": [{"alias": "hookah_bars", "title": "Hookah Bars"}, {"alias": "tradamerican", "title": "American (Traditional)"}], "rating": 4.0, "coordinates": {"latitude": 41.71324, "longitude": -71.39933}, "transactions": ["delivery"], "location": {"address1": "2323 Warwick Ave", "address2": "Unit F", "address3": "", "city": "Warwick", "zip_code": "02889", "country": "US", "state": "RI", "display_address": ["2323 Warwick Ave", "Unit F", "Warwick, RI 02889"]}, "phone": "+14016814995", "display_phone": "(401) 681-4995", "distance": 2261.7748100391914}, {"id": "GpfmxQmC4z6dazmaGSbGtA", "alias": "pizza-plus-warwick", "name": "Pizza Plus", "image_url": "https://s3-media4.fl.yelpcdn.com/bphoto/TM-hDZB6oWWUvTrk_Xo2lg/o.jpg", "is_closed": false, "url": "https://www.yelp.com/biz/pizza-plus-warwick?adjust_creative=1woF1Kwn15wJJxNZkMIAgw&utm_campaign=yelp_api_v3&utm_medium=api_v3_business_search&utm_source=1woF1Kwn15wJJxNZkMIAgw", "review_count": 14, "categories": [{"alias": "pizza", "title": "Pizza"}], "rating": 4.0, "coordinates": {"latitude": 41.6957569, "longitude": -71.4275118}, "transactions": ["delivery"], "price": "$", "location": {"address1": "420 Buttonwoods Ave", "address2": "", "address3": "", "city": "Warwick", "zip_code": "02886", "country": "US", "state": "RI", "display_address": ["420 Buttonwoods Ave", "Warwick, RI 02886"]}, "phone": "+14017393166", "display_phone": "(401) 739-3166", "distance": 1744.0130271387386}, {"id": "-tGEwO-s6dJXHnCjhD76DQ", "alias": "haruki-cranston", "name": "Haruki", "image_url": "https://s3-media1.fl.yelpcdn.com/bphoto/Wz9UGx73h_dctTyMu9chVg/o.jpg", "is_closed": false, "url": "https://www.yelp.com/biz/haruki-cranston?adjust_creative=1woF1Kwn15wJJxNZkMIAgw&utm_campaign=yelp_api_v3&utm_medium=api_v3_business_search&utm_source=1woF1Kwn15wJJxNZkMIAgw", "review_count": 141, "categories": [{"alias": "japanese", "title": "Japanese"}, {"alias": "sushi", "title": "Sushi Bars"}, {"alias": "salad", "title": "Salad"}], "rating": 3.5, "coordinates": {"latitude": 41.7367, "longitude": -71.47779}, "transactions": ["delivery"], "price": "$$", "location": {"address1": "1210 Oaklawn Ave", "address2": "", "address3": "", "city": "Cranston", "zip_code": "02920", "country": "US", "state": "RI", "display_address": ["1210 Oaklawn Ave", "Cranston, RI 02920"]}, "phone": "+14014638338", "display_phone": "(401) 463-8338", "distance": 5083.447013773787}, {"id": "yP8sudOs_NMdmzn2H_Bl3w", "alias": "all-stars-bar-and-grill-warwick", "name": "All Stars Bar & Grill", "image_url": "https://s3-media1.fl.yelpcdn.com/bphoto/FCSJi64a98qeGWV4_oevcg/o.jpg", "is_closed": false, "url": "https://www.yelp.com/biz/all-stars-bar-and-grill-warwick?adjust_creative=1woF1Kwn15wJJxNZkMIAgw&utm_campaign=yelp_api_v3&utm_medium=api_v3_business_search&utm_source=1woF1Kwn15wJJxNZkMIAgw", "review_count": 49, "categories": [{"alias": "tradamerican", "title": "American (Traditional)"}], "rating": 3.0, "coordinates": {"latitude": 41.7329732, "longitude": -71.4324144}, "transactions": ["delivery"], "price": "$$", "location": {"address1": "685 Airport Rd", "address2": "", "address3": "", "city": "Warwick", "zip_code": "02886", "country": "US", "state": "RI", "display_address": ["685 Airport Rd", "Warwick, RI 02886"]}, "phone": "+14013846004", "display_phone": "(401) 384-6004", "distance": 2451.061294563279}, {"id": "EYtH--vjpZFLArnni3Nvmg", "alias": "bluefire-grille-and-lounge-warwick", "name": "BlueFire Grille & Lounge", "image_url": "https://s3-media2.fl.yelpcdn.com/bphoto/qnYXDHhR_M8ey7oiBiizNA/o.jpg", "is_closed": false, "url": "https://www.yelp.com/biz/bluefire-grille-and-lounge-warwick?adjust_creative=1woF1Kwn15wJJxNZkMIAgw&utm_campaign=yelp_api_v3&utm_medium=api_v3_business_search&utm_source=1woF1Kwn15wJJxNZkMIAgw", "review_count": 6, "categories": [{"alias": "tradamerican", "title": "American (Traditional)"}], "rating": 2.0, "coordinates": {"latitude": 41.73115, "longitude": -71.43671}, "transactions": ["delivery"], "price": "$$", "location": {"address1": "1850 Post Rd", "address2": null, "address3": null, "city": "Warwick", "zip_code": "02886", "country": "US", "state": "RI", "display_address": ["1850 Post Rd", "Warwick, RI 02886"]}, "phone": "+14017384000", "display_phone": "(401) 738-4000", "distance": 2310.0015652071415}, {"id": "jvhbO9ml9l4T4iDmUOGxEA", "alias": "bassetts-inn-warwick", "name": "Bassett's Inn", "image_url": "https://s3-media3.fl.yelpcdn.com/bphoto/Zx5EQ6QGixMJPilOpX2JkQ/o.jpg", "is_closed": false, "url": "https://www.yelp.com/biz/bassetts-inn-warwick?adjust_creative=1woF1Kwn15wJJxNZkMIAgw&utm_campaign=yelp_api_v3&utm_medium=api_v3_business_search&utm_source=1woF1Kwn15wJJxNZkMIAgw", "review_count": 22, "categories": [{"alias": "tradamerican", "title": "American (Traditional)"}], "rating": 3.0, "coordinates": {"latitude": 41.7020094394684, "longitude": -71.4037111401558}, "transactions": [], "price": "$$", "location": {"address1": "2227 W Shore Rd", "address2": "", "address3": "", "city": "Warwick", "zip_code": "02889", "country": "US", "state": "RI", "display_address": ["2227 W Shore Rd", "Warwick, RI 02889"]}, "phone": "+14017376073", "display_phone": "(401) 737-6073", "distance": 2152.8788725123327}, {"id": "Q-FrrUAuUeNOcfdi7obC0A", "alias": "maceras-italian-restaurant-cranston", "name": "Macera's Italian Restaurant", "image_url": "https://s3-media4.fl.yelpcdn.com/bphoto/MQCRhu5Spbhq0rLJii6bKg/o.jpg", "is_closed": false, "url": "https://www.yelp.com/biz/maceras-italian-restaurant-cranston?adjust_creative=1woF1Kwn15wJJxNZkMIAgw&utm_campaign=yelp_api_v3&utm_medium=api_v3_business_search&utm_source=1woF1Kwn15wJJxNZkMIAgw", "review_count": 93, "categories": [{"alias": "italian", "title": "Italian"}], "rating": 3.5, "coordinates": {"latitude": 41.73237, "longitude": -71.47691}, "transactions": ["delivery"], "price": "$$", "location": {"address1": "1500 Oaklawn Ave", "address2": "", "address3": "", "city": "Cranston", "zip_code": "02920", "country": "US", "state": "RI", "display_address": ["1500 Oaklawn Ave", "Cranston, RI 02920"]}, "phone": "+14014635303", "display_phone": "(401) 463-5303", "distance": 4732.273896757447}, {"id": "lUO-k7gQvYn26Ikm1DS9Xw", "alias": "pizza-king-warwick-2", "name": "Pizza King", "image_url": "https://s3-media2.fl.yelpcdn.com/bphoto/ydAqcDh8vOVS_HNco1f68g/o.jpg", "is_closed": false, "url": "https://www.yelp.com/biz/pizza-king-warwick-2?adjust_creative=1woF1Kwn15wJJxNZkMIAgw&utm_campaign=yelp_api_v3&utm_medium=api_v3_business_search&utm_source=1woF1Kwn15wJJxNZkMIAgw", "review_count": 88, "categories": [{"alias": "pizza", "title": "Pizza"}, {"alias": "sandwiches", "title": "Sandwiches"}], "rating": 3.5, "coordinates": {"latitude": 41.731357, "longitude": -71.435807}, "transactions": [], "price": "$", "location": {"address1": "1800 Post Rd", "address2": "", "address3": "", "city": "Warwick", "zip_code": "02886", "country": "US", "state": "RI", "display_address": ["1800 Post Rd", "Warwick, RI 02886"]}, "phone": "+14017321338", "display_phone": "(401) 732-1338", "distance": 2351.219318783404}, {"id": "Ed9EvwdGkWwLSwWP-0vmuQ", "alias": "cafe-tempo-coffee-house-warwick", "name": "Cafe Tempo Coffee House", "image_url": "https://s3-media2.fl.yelpcdn.com/bphoto/QtxxCpoftVhsJFSXSsm4aw/o.jpg", "is_closed": false, "url": "https://www.yelp.com/biz/cafe-tempo-coffee-house-warwick?adjust_creative=1woF1Kwn15wJJxNZkMIAgw&utm_campaign=yelp_api_v3&utm_medium=api_v3_business_search&utm_source=1woF1Kwn15wJJxNZkMIAgw", "review_count": 132, "categories": [{"alias": "coffee", "title": "Coffee & Tea"}, {"alias": "breakfast_brunch", "title": "Breakfast & Brunch"}, {"alias": "newamerican", "title": "American (New)"}], "rating": 4.0, "coordinates": {"latitude": 41.69813, "longitude": -71.46456}, "transactions": ["delivery"], "price": "$", "location": {"address1": "32 Toll Gate Rd", "address2": "", "address3": "", "city": "Warwick", "zip_code": "02886", "country": "US", "state": "RI", "display_address": ["32 Toll Gate Rd", "Warwick, RI 02886"]}, "phone": "+14017370109", "display_phone": "(401) 737-0109", "distance": 3499.270618667581}, {"id": "x6vJ2_WpMhlbhIvOvYCrXg", "alias": "taco-bell-warwick-5", "name": "Taco Bell", "image_url": "https://s3-media4.fl.yelpcdn.com/bphoto/43S7vXw1b4G5VbGWELrVzA/o.jpg", "is_closed": false, "url": "https://www.yelp.com/biz/taco-bell-warwick-5?adjust_creative=1woF1Kwn15wJJxNZkMIAgw&utm_campaign=yelp_api_v3&utm_medium=api_v3_business_search&utm_source=1woF1Kwn15wJJxNZkMIAgw", "review_count": 6, "categories": [{"alias": "tacos", "title": "Tacos"}, {"alias": "hotdogs", "title": "Fast Food"}], "rating": 2.5, "coordinates": {"latitude": 41.704893, "longitude": -71.416017}, "transactions": ["delivery"], "price": "$", "location": {"address1": "2574 West Shore Road", "address2": "", "address3": null, "city": "Warwick", "zip_code": "02889", "country": "US", "state": "RI", "display_address": ["2574 West Shore Road", "Warwick, RI 02889"]}, "phone": "+14019216811", "display_phone": "(401) 921-6811", "distance": 1134.4621525076657}, {"id": "U85Cwc88Xw9_XnA2zxT1lw", "alias": "china-sea-warwick", "name": "China Sea", "image_url": "https://s3-media3.fl.yelpcdn.com/bphoto/xlZCPasJ4q0Ns43diIPt8g/o.jpg", "is_closed": false, "url": "https://www.yelp.com/biz/china-sea-warwick?adjust_creative=1woF1Kwn15wJJxNZkMIAgw&utm_campaign=yelp_api_v3&utm_medium=api_v3_business_search&utm_source=1woF1Kwn15wJJxNZkMIAgw", "review_count": 24, "categories": [{"alias": "chinese", "title": "Chinese"}], "rating": 4.0, "coordinates": {"latitude": 41.74498, "longitude": -71.42774}, "transactions": ["delivery"], "price": "$$", "location": {"address1": "1278 Post Rd", "address2": "", "address3": "", "city": "Warwick", "zip_code": "02888", "country": "US", "state": "RI", "display_address": ["1278 Post Rd", "Warwick, RI 02888"]}, "phone": "+14014677440", "display_phone": "(401) 467-7440", "distance": 3725.396428281932}, {"id": "dR_r5k2quiaXvZ4BlTqhsg", "alias": "cosmic-pizza-warwick-3", "name": "Cosmic Pizza", "image_url": "https://s3-media3.fl.yelpcdn.com/bphoto/tazEQ-EWUsHCV3d5t72NCg/o.jpg", "is_closed": false, "url": "https://www.yelp.com/biz/cosmic-pizza-warwick-3?adjust_creative=1woF1Kwn15wJJxNZkMIAgw&utm_campaign=yelp_api_v3&utm_medium=api_v3_business_search&utm_source=1woF1Kwn15wJJxNZkMIAgw", "review_count": 85, "categories": [{"alias": "pizza", "title": "Pizza"}, {"alias": "tradamerican", "title": "American (Traditional)"}], "rating": 3.5, "coordinates": {"latitude": 41.74774, "longitude": -71.4245}, "transactions": ["delivery"], "price": "$", "location": {"address1": "1141 Post Rd", "address2": "", "address3": "", "city": "Warwick", "zip_code": "02888", "country": "US", "state": "RI", "display_address": ["1141 Post Rd", "Warwick, RI 02888"]}, "phone": "+14017815410", "display_phone": "(401) 781-5410", "distance": 4062.7881398571553}, {"id": "qxkpLSAIBDz5uyC4mzSeqA", "alias": "chipotle-mexican-grill-warwick-2", "name": "Chipotle Mexican Grill", "image_url": "https://s3-media1.fl.yelpcdn.com/bphoto/wuQLXSCjBFZZopyEAKbZFg/o.jpg", "is_closed": false, "url": "https://www.yelp.com/biz/chipotle-mexican-grill-warwick-2?adjust_creative=1woF1Kwn15wJJxNZkMIAgw&utm_campaign=yelp_api_v3&utm_medium=api_v3_business_search&utm_source=1woF1Kwn15wJJxNZkMIAgw", "review_count": 48, "categories": [{"alias": "mexican", "title": "Mexican"}, {"alias": "hotdogs", "title": "Fast Food"}], "rating": 3.5, "coordinates": {"latitude": 41.731555, "longitude": -71.436529}, "transactions": ["delivery"], "price": "$", "location": {"address1": "1800 Post Rd", "address2": "", "address3": "", "city": "Warwick", "zip_code": "02886", "country": "US", "state": "RI", "display_address": ["1800 Post Rd", "Warwick, RI 02886"]}, "phone": "+14017329233", "display_phone": "(401) 732-9233", "distance": 2392.0592521214044}, {"id": "YZuZmKszd_bpu7OI3WPruQ", "alias": "picassos-pizza-and-pub-warwick", "name": "Picasso's Pizza & Pub", "image_url": "https://s3-media4.fl.yelpcdn.com/bphoto/Iv-Mkw10opuTi7IQ329TLw/o.jpg", "is_closed": false, "url": "https://www.yelp.com/biz/picassos-pizza-and-pub-warwick?adjust_creative=1woF1Kwn15wJJxNZkMIAgw&utm_campaign=yelp_api_v3&utm_medium=api_v3_business_search&utm_source=1woF1Kwn15wJJxNZkMIAgw", "review_count": 82, "categories": [{"alias": "pizza", "title": "Pizza"}, {"alias": "pubs", "title": "Pubs"}, {"alias": "sportsbars", "title": "Sports Bars"}], "rating": 3.0, "coordinates": {"latitude": 41.71324, "longitude": -71.39933}, "transactions": ["delivery"], "price": "$$", "location": {"address1": "2323 Warwick Ave", "address2": "", "address3": "", "city": "Warwick", "zip_code": "02889", "country": "US", "state": "RI", "display_address": ["2323 Warwick Ave", "Warwick, RI 02889"]}, "phone": "+14017395030", "display_phone": "(401) 739-5030", "distance": 2261.7748100391914}, {"id": "R0HZ59PalPaQDuRv16gedQ", "alias": "buffalo-wild-wings-warwick", "name": "Buffalo Wild Wings", "image_url": "https://s3-media2.fl.yelpcdn.com/bphoto/ivk6cE-g1n_9HNAUp0tR7Q/o.jpg", "is_closed": false, "url": "https://www.yelp.com/biz/buffalo-wild-wings-warwick?adjust_creative=1woF1Kwn15wJJxNZkMIAgw&utm_campaign=yelp_api_v3&utm_medium=api_v3_business_search&utm_source=1woF1Kwn15wJJxNZkMIAgw", "review_count": 206, "categories": [{"alias": "chicken_wings", "title": "Chicken Wings"}, {"alias": "tradamerican", "title": "American (Traditional)"}, {"alias": "sportsbars", "title": "Sports Bars"}], "rating": 2.0, "coordinates": {"latitude": 41.725281577684, "longitude": -71.4755755662918}, "transactions": ["pickup", "delivery"], "price": "$$", "location": {"address1": "400 Bald Hill Rd", "address2": "Ste E107", "address3": "", "city": "Warwick", "zip_code": "02886", "country": "US", "state": "RI", "display_address": ["400 Bald Hill Rd", "Ste E107", "Warwick, RI 02886"]}, "phone": "+14017391392", "display_phone": "(401) 739-1392", "distance": 4350.88586816687}, {"id": "f0-FaaOrMMAUjuM2b1pX0g", "alias": "ronzio-pizza-and-subs-warwick", "name": "Ronzio Pizza & Subs", "image_url": "https://s3-media1.fl.yelpcdn.com/bphoto/ta5JFn6O_HE0_K1Mg72m3g/o.jpg", "is_closed": false, "url": "https://www.yelp.com/biz/ronzio-pizza-and-subs-warwick?adjust_creative=1woF1Kwn15wJJxNZkMIAgw&utm_campaign=yelp_api_v3&utm_medium=api_v3_business_search&utm_source=1woF1Kwn15wJJxNZkMIAgw", "review_count": 16, "categories": [{"alias": "pizza", "title": "Pizza"}], "rating": 3.0, "coordinates": {"latitude": 41.70356, "longitude": -71.410517}, "transactions": ["pickup", "delivery"], "price": "$$", "location": {"address1": "2424 W Shore Rd", "address2": "Ste A", "address3": "", "city": "Warwick", "zip_code": "02889", "country": "US", "state": "RI", "display_address": ["2424 W Shore Rd", "Ste A", "Warwick, RI 02889"]}, "phone": "+14017378800", "display_phone": "(401) 737-8800", "distance": 1591.1116362301009}, {"id": "fZrDOgK049KA7uqCjyYrDg", "alias": "depetrillos-pizza-and-bakery-warwick", "name": "Depetrillo's Pizza & Bakery", "image_url": "https://s3-media2.fl.yelpcdn.com/bphoto/iZwY0yHqy4zHvRAfk7_kLg/o.jpg", "is_closed": false, "url": "https://www.yelp.com/biz/depetrillos-pizza-and-bakery-warwick?adjust_creative=1woF1Kwn15wJJxNZkMIAgw&utm_campaign=yelp_api_v3&utm_medium=api_v3_business_search&utm_source=1woF1Kwn15wJJxNZkMIAgw", "review_count": 12, "categories": [{"alias": "pizza", "title": "Pizza"}], "rating": 4.0, "coordinates": {"latitude": 41.72915, "longitude": -71.40628}, "transactions": ["pickup", "delivery"], "price": "$", "location": {"address1": "1729 Warwick Ave", "address2": "", "address3": "", "city": "Warwick", "zip_code": "02889", "country": "US", "state": "RI", "display_address": ["1729 Warwick Ave", "Warwick, RI 02889"]}, "phone": "+14017323331", "display_phone": "(401) 732-3331", "distance": 2592.7592313190257}, {"id": "3clx7mkR6lQjPJ742leyDg", "alias": "rigatonis-family-restaurant-warwick", "name": "Rigatonis Family Restaurant", "image_url": "https://s3-media2.fl.yelpcdn.com/bphoto/ovkEJ7-xXobYpXHqKfVL3w/o.jpg", "is_closed": false, "url": "https://www.yelp.com/biz/rigatonis-family-restaurant-warwick?adjust_creative=1woF1Kwn15wJJxNZkMIAgw&utm_campaign=yelp_api_v3&utm_medium=api_v3_business_search&utm_source=1woF1Kwn15wJJxNZkMIAgw", "review_count": 59, "categories": [{"alias": "italian", "title": "Italian"}, {"alias": "pizza", "title": "Pizza"}], "rating": 3.5, "coordinates": {"latitude": 41.7425172, "longitude": -71.4079148}, "transactions": ["delivery"], "price": "$$", "location": {"address1": "1229 Warwick Ave", "address2": "", "address3": "", "city": "Warwick", "zip_code": "02888", "country": "US", "state": "RI", "display_address": ["1229 Warwick Ave", "Warwick, RI 02888"]}, "phone": "+14014635580", "display_phone": "(401) 463-5580", "distance": 3836.0425763637713}, {"id": "c5Bj6W2cQJk6uq5p4IcLZQ", "alias": "crustys-pizza-warwick", "name": "Crusty's Pizza", "image_url": "https://s3-media2.fl.yelpcdn.com/bphoto/62CZ19ZQ2fFESfwLQ-VYTA/o.jpg", "is_closed": false, "url": "https://www.yelp.com/biz/crustys-pizza-warwick?adjust_creative=1woF1Kwn15wJJxNZkMIAgw&utm_campaign=yelp_api_v3&utm_medium=api_v3_business_search&utm_source=1woF1Kwn15wJJxNZkMIAgw", "review_count": 47, "categories": [{"alias": "pizza", "title": "Pizza"}, {"alias": "salad", "title": "Salad"}], "rating": 4.0, "coordinates": {"latitude": 41.7401808, "longitude": -71.4081938}, "transactions": ["delivery"], "price": "$", "location": {"address1": "1331 Warwick Ave", "address2": "", "address3": "", "city": "Warwick", "zip_code": "02888", "country": "US", "state": "RI", "display_address": ["1331 Warwick Ave", "Warwick, RI 02888"]}, "phone": "+14014635123", "display_phone": "(401) 463-5123", "distance": 3531.3100310050568}, {"id": "040YfntcXAW4PF3z7KQ6xQ", "alias": "sunrise-cafe-warwick", "name": "Sunrise Cafe", "image_url": "https://s3-media3.fl.yelpcdn.com/bphoto/iWJchOAtlvijX8ZEYIziiw/o.jpg", "is_closed": false, "url": "https://www.yelp.com/biz/sunrise-cafe-warwick?adjust_creative=1woF1Kwn15wJJxNZkMIAgw&utm_campaign=yelp_api_v3&utm_medium=api_v3_business_search&utm_source=1woF1Kwn15wJJxNZkMIAgw", "review_count": 38, "categories": [{"alias": "breakfast_brunch", "title": "Breakfast & Brunch"}], "rating": 4.0, "coordinates": {"latitude": 41.7151039838791, "longitude": -71.3765101879835}, "transactions": ["delivery"], "price": "$", "location": {"address1": "1155 W Shore Rd", "address2": "", "address3": "", "city": "Warwick", "zip_code": "02889", "country": "US", "state": "RI", "display_address": ["1155 W Shore Rd", "Warwick, RI 02889"]}, "phone": "+14017378111", "display_phone": "(401) 737-8111", "distance": 4159.82120817462}, {"id": "x8vBXsDvGAlMng0XlX9BHw", "alias": "shoreline-pizza-warwick", "name": "Shoreline Pizza", "image_url": "https://s3-media1.fl.yelpcdn.com/bphoto/7YtGCLNVPuNnmM9B7zqGsQ/o.jpg", "is_closed": false, "url": "https://www.yelp.com/biz/shoreline-pizza-warwick?adjust_creative=1woF1Kwn15wJJxNZkMIAgw&utm_campaign=yelp_api_v3&utm_medium=api_v3_business_search&utm_source=1woF1Kwn15wJJxNZkMIAgw", "review_count": 27, "categories": [{"alias": "pizza", "title": "Pizza"}], "rating": 4.0, "coordinates": {"latitude": 41.7239903, "longitude": -71.3829692}, "transactions": ["delivery", "pickup"], "price": "$", "location": {"address1": "745 W Shore Rd", "address2": "", "address3": "", "city": "Warwick", "zip_code": "02889", "country": "US", "state": "RI", "display_address": ["745 W Shore Rd", "Warwick, RI 02889"]}, "phone": "+14017374992", "display_phone": "(401) 737-4992", "distance": 3882.588110949551}, {"id": "HCkpddXOO0wY1QV-ak99eA", "alias": "kwong-dynasty-warwick", "name": "Kwong Dynasty", "image_url": "https://s3-media2.fl.yelpcdn.com/bphoto/EJgYiOFTcNvOs0ao7pUb-w/o.jpg", "is_closed": false, "url": "https://www.yelp.com/biz/kwong-dynasty-warwick?adjust_creative=1woF1Kwn15wJJxNZkMIAgw&utm_campaign=yelp_api_v3&utm_medium=api_v3_business_search&utm_source=1woF1Kwn15wJJxNZkMIAgw", "review_count": 29, "categories": [{"alias": "chinese", "title": "Chinese"}], "rating": 3.5, "coordinates": {"latitude": 41.7291995, "longitude": -71.4766831}, "transactions": ["delivery", "pickup"], "price": "$$", "location": {"address1": "80 Lambert Lind Hwy", "address2": "", "address3": "", "city": "Warwick", "zip_code": "02886", "country": "US", "state": "RI", "display_address": ["80 Lambert Lind Hwy", "Warwick, RI 02886"]}, "phone": "+14017388280", "display_phone": "(401) 738-8280", "distance": 4606.155189950401}, {"id": "LhTmWrBKsBGWz8TjevY8FQ", "alias": "dominos-pizza-warwick-4", "name": "Domino's Pizza", "image_url": "https://s3-media4.fl.yelpcdn.com/bphoto/1kR9DJzoE_eiaKojUOP81g/o.jpg", "is_closed": false, "url": "https://www.yelp.com/biz/dominos-pizza-warwick-4?adjust_creative=1woF1Kwn15wJJxNZkMIAgw&utm_campaign=yelp_api_v3&utm_medium=api_v3_business_search&utm_source=1woF1Kwn15wJJxNZkMIAgw", "review_count": 3, "categories": [{"alias": "pizza", "title": "Pizza"}, {"alias": "sandwiches", "title": "Sandwiches"}], "rating": 4.5, "coordinates": {"latitude": 41.7159045, "longitude": -71.3998976}, "transactions": [], "price": "$", "location": {"address1": "2247 Warwick Ave", "address2": "", "address3": "", "city": "Warwick", "zip_code": "02889", "country": "US", "state": "RI", "display_address": ["2247 Warwick Ave", "Warwick, RI 02889"]}, "phone": "+14017322940", "display_phone": "(401) 732-2940", "distance": 2260.603844138747}, {"id": "haRIdCPCzpMHV4m-UUpYxg", "alias": "jersey-mikes-subs-warwick-5", "name": "Jersey Mike's Subs", "image_url": "https://s3-media1.fl.yelpcdn.com/bphoto/UqNpp6kNSaAG3bKz8QnnjQ/o.jpg", "is_closed": false, "url": "https://www.yelp.com/biz/jersey-mikes-subs-warwick-5?adjust_creative=1woF1Kwn15wJJxNZkMIAgw&utm_campaign=yelp_api_v3&utm_medium=api_v3_business_search&utm_source=1woF1Kwn15wJJxNZkMIAgw", "review_count": 21, "categories": [{"alias": "sandwiches", "title": "Sandwiches"}, {"alias": "hotdogs", "title": "Fast Food"}, {"alias": "delis", "title": "Delis"}], "rating": 3.0, "coordinates": {"latitude": 41.699819, "longitude": -71.459555}, "transactions": ["delivery", "pickup"], "price": "$", "location": {"address1": "1350 Greenwich Ave", "address2": "", "address3": null, "city": "Warwick", "zip_code": "02886", "country": "US", "state": "RI", "display_address": ["1350 Greenwich Ave", "Warwick, RI 02886"]}, "phone": "+14019214488", "display_phone": "(401) 921-4488", "distance": 3023.3272404370327}, {"id": "f9lQ-zQG48nJG0cd-cMCWA", "alias": "d-angelo-warwick-2", "name": "D'Angelo", "image_url": "https://s3-media1.fl.yelpcdn.com/bphoto/SPzcotC6kuxi4W3krdtySg/o.jpg", "is_closed": false, "url": "https://www.yelp.com/biz/d-angelo-warwick-2?adjust_creative=1woF1Kwn15wJJxNZkMIAgw&utm_campaign=yelp_api_v3&utm_medium=api_v3_business_search&utm_source=1woF1Kwn15wJJxNZkMIAgw", "review_count": 25, "categories": [{"alias": "sandwiches", "title": "Sandwiches"}], "rating": 2.0, "coordinates": {"latitude": 41.73721, "longitude": -71.4401199}, "transactions": ["delivery"], "price": "$$", "location": {"address1": "385 Jefferson Blvd", "address2": null, "address3": null, "city": "Warwick", "zip_code": "02886", "country": "US", "state": "RI", "display_address": ["385 Jefferson Blvd", "Warwick, RI 02886"]}, "phone": "+14017376660", "display_phone": "(401) 737-6660", "distance": 3087.7474280189404}, {"id": "O-g6FtDkLgSuhOWQ6GDCiw", "alias": "filippou-s-twisted-pizzeria-warwick", "name": "Filippou\"s Twisted Pizzeria", "image_url": "https://s3-media2.fl.yelpcdn.com/bphoto/DwWSi1MdcoLjHtS6akciGA/o.jpg", "is_closed": false, "url": "https://www.yelp.com/biz/filippou-s-twisted-pizzeria-warwick?adjust_creative=1woF1Kwn15wJJxNZkMIAgw&utm_campaign=yelp_api_v3&utm_medium=api_v3_business_search&utm_source=1woF1Kwn15wJJxNZkMIAgw", "review_count": 20, "categories": [{"alias": "pizza", "title": "Pizza"}], "rating": 3.0, "coordinates": {"latitude": 41.702444, "longitude": -71.385473}, "transactions": ["delivery"], "location": {"address1": "1690 W Shore Rd", "address2": "", "address3": null, "city": "Warwick", "zip_code": "02889", "country": "US", "state": "RI", "display_address": ["1690 W Shore Rd", "Warwick, RI 02889"]}, "phone": "+14017737810", "display_phone": "(401) 773-7810", "distance": 3572.6838013965985}, {"id": "ERO0wKdk4Q6UjMxzuCgRbw", "alias": "uncle-tonys-pizza-and-pasta-cranston-2", "name": "Uncle Tony's Pizza & Pasta", "image_url": "https://s3-media2.fl.yelpcdn.com/bphoto/sDA0GX8yDKuBkavAh83AUg/o.jpg", "is_closed": false, "url": "https://www.yelp.com/biz/uncle-tonys-pizza-and-pasta-cranston-2?adjust_creative=1woF1Kwn15wJJxNZkMIAgw&utm_campaign=yelp_api_v3&utm_medium=api_v3_business_search&utm_source=1woF1Kwn15wJJxNZkMIAgw", "review_count": 104, "categories": [{"alias": "pizza", "title": "Pizza"}, {"alias": "italian", "title": "Italian"}], "rating": 3.5, "coordinates": {"latitude": 41.7318202764066, "longitude": -71.4773255362434}, "transactions": ["delivery"], "price": "$$", "location": {"address1": "1455 Oaklawn Ave", "address2": "", "address3": "", "city": "Cranston", "zip_code": "02920", "country": "US", "state": "RI", "display_address": ["1455 Oaklawn Ave", "Cranston, RI 02920"]}, "phone": "+14014637785", "display_phone": "(401) 463-7785", "distance": 4786.406492244573}, {"id": "XvEGpsc0HTmo62SOXA3NWg", "alias": "johnny-rockets-warwick", "name": "Johnny Rockets", "image_url": "https://s3-media3.fl.yelpcdn.com/bphoto/UpaH8RZsmLab911-uyjBIQ/o.jpg", "is_closed": false, "url": "https://www.yelp.com/biz/johnny-rockets-warwick?adjust_creative=1woF1Kwn15wJJxNZkMIAgw&utm_campaign=yelp_api_v3&utm_medium=api_v3_business_search&utm_source=1woF1Kwn15wJJxNZkMIAgw", "review_count": 54, "categories": [{"alias": "burgers", "title": "Burgers"}, {"alias": "sandwiches", "title": "Sandwiches"}, {"alias": "diners", "title": "Diners"}], "rating": 1.5, "coordinates": {"latitude": 41.7259439385837, "longitude": -71.4356338117943}, "transactions": [], "price": "$$", "location": {"address1": "2000 Post Rd", "address2": "", "address3": "Providence Airport", "city": "Warwick", "zip_code": "02886", "country": "US", "state": "RI", "display_address": ["2000 Post Rd", "Providence Airport", "Warwick, RI 02886"]}, "phone": "+14017325140", "display_phone": "(401) 732-5140", "distance": 1786.7852541385398}, {"id": "tvPvzIMzts4YIkWhT_Osyw", "alias": "wolfgang-puck-express-warwick", "name": "Wolfgang Puck Express", "image_url": "https://s3-media2.fl.yelpcdn.com/bphoto/y8z6-ajO0gyVUpoFFkGNfQ/o.jpg", "is_closed": false, "url": "https://www.yelp.com/biz/wolfgang-puck-express-warwick?adjust_creative=1woF1Kwn15wJJxNZkMIAgw&utm_campaign=yelp_api_v3&utm_medium=api_v3_business_search&utm_source=1woF1Kwn15wJJxNZkMIAgw", "review_count": 69, "categories": [{"alias": "newamerican", "title": "American (New)"}, {"alias": "pizza", "title": "Pizza"}], "rating": 2.5, "coordinates": {"latitude": 41.725904, "longitude": -71.435973}, "transactions": [], "price": "$$", "location": {"address1": "2000 Post Rd South Concourse", "address2": "Gate 6", "address3": "T.F. Green Airport", "city": "Warwick", "zip_code": "02886", "country": "US", "state": "RI", "display_address": ["2000 Post Rd South Concourse", "Gate 6", "T.F. Green Airport", "Warwick, RI 02886"]}, "phone": "+14017325140", "display_phone": "(401) 732-5140", "distance": 1794.8018675652565}, {"id": "Mw4iD4Xl110TfMWPEqr0qQ", "alias": "subway-warwick-24", "name": "Subway", "image_url": "https://s3-media1.fl.yelpcdn.com/bphoto/FIKe4R6jTEk6ZeBgaVKPJA/o.jpg", "is_closed": false, "url": "https://www.yelp.com/biz/subway-warwick-24?adjust_creative=1woF1Kwn15wJJxNZkMIAgw&utm_campaign=yelp_api_v3&utm_medium=api_v3_business_search&utm_source=1woF1Kwn15wJJxNZkMIAgw", "review_count": 1, "categories": [{"alias": "sandwiches", "title": "Sandwiches"}], "rating": 4.0, "coordinates": {"latitude": 41.7062954076452, "longitude": -71.4155703787951}, "transactions": ["delivery", "pickup"], "price": "$", "location": {"address1": "2 Freeborne St", "address2": "Unit \u00a01 2", "address3": "", "city": "Warwick", "zip_code": "02889", "country": "US", "state": "RI", "display_address": ["2 Freeborne St", "Unit \u00a01 2", "Warwick, RI 02889"]}, "phone": "+14019215705", "display_phone": "(401) 921-5705", "distance": 1073.9126354779028}, {"id": "2f6al4XYxwujOrJ05_YmTA", "alias": "burger-king-warwick-5", "name": "Burger King", "image_url": "https://s3-media1.fl.yelpcdn.com/bphoto/Kxg5Ub_a2DhBRJi9WZIK4w/o.jpg", "is_closed": false, "url": "https://www.yelp.com/biz/burger-king-warwick-5?adjust_creative=1woF1Kwn15wJJxNZkMIAgw&utm_campaign=yelp_api_v3&utm_medium=api_v3_business_search&utm_source=1woF1Kwn15wJJxNZkMIAgw", "review_count": 11, "categories": [{"alias": "burgers", "title": "Burgers"}, {"alias": "hotdogs", "title": "Fast Food"}], "rating": 2.0, "coordinates": {"latitude": 41.705811, "longitude": -71.416375}, "transactions": ["delivery"], "price": "$", "location": {"address1": "2615 West Shore Rd", "address2": "", "address3": "", "city": "Warwick", "zip_code": "02889", "country": "US", "state": "RI", "display_address": ["2615 West Shore Rd", "Warwick, RI 02889"]}, "phone": "+14017392212", "display_phone": "(401) 739-2212", "distance": 1047.8070364569494}, {"id": "qtY0buXyO-z3pD7CXqgNMg", "alias": "d-angelo-warwick-3", "name": "D'Angelo", "image_url": "https://s3-media1.fl.yelpcdn.com/bphoto/2KRpXbj27G-dsGX4NSobhw/o.jpg", "is_closed": false, "url": "https://www.yelp.com/biz/d-angelo-warwick-3?adjust_creative=1woF1Kwn15wJJxNZkMIAgw&utm_campaign=yelp_api_v3&utm_medium=api_v3_business_search&utm_source=1woF1Kwn15wJJxNZkMIAgw", "review_count": 19, "categories": [{"alias": "sandwiches", "title": "Sandwiches"}], "rating": 2.0, "coordinates": {"latitude": 41.7339511960745, "longitude": -71.4073146879673}, "transactions": ["delivery"], "price": "$$", "location": {"address1": "1565 Warwick Ave", "address2": "", "address3": "", "city": "Warwick", "zip_code": "02889", "country": "US", "state": "RI", "display_address": ["1565 Warwick Ave", "Warwick, RI 02889"]}, "phone": "+14017320478", "display_phone": "(401) 732-0478", "distance": 2951.408902418348}, {"id": "ivbIeE0VmJgVlWVLn8fTdQ", "alias": "my-favorite-muffin-warwick", "name": "My Favorite Muffin", "image_url": "https://s3-media1.fl.yelpcdn.com/bphoto/CMdIt_5wCEA3x4NDrc3kYQ/o.jpg", "is_closed": false, "url": "https://www.yelp.com/biz/my-favorite-muffin-warwick?adjust_creative=1woF1Kwn15wJJxNZkMIAgw&utm_campaign=yelp_api_v3&utm_medium=api_v3_business_search&utm_source=1woF1Kwn15wJJxNZkMIAgw", "review_count": 86, "categories": [{"alias": "bagels", "title": "Bagels"}, {"alias": "breakfast_brunch", "title": "Breakfast & Brunch"}, {"alias": "sandwiches", "title": "Sandwiches"}], "rating": 3.5, "coordinates": {"latitude": 41.739214, "longitude": -71.433414}, "transactions": ["delivery"], "price": "$", "location": {"address1": "1535 Post Rd.", "address2": "", "address3": "", "city": "Warwick", "zip_code": "02888", "country": "US", "state": "RI", "display_address": ["1535 Post Rd.", "Warwick, RI 02888"]}, "phone": "+14017390778", "display_phone": "(401) 739-0778", "distance": 3154.716475882413}, {"id": "QhSgahuHxg_yl-VY4R717w", "alias": "dominos-pizza-warwick-2", "name": "Domino's Pizza", "image_url": "https://s3-media3.fl.yelpcdn.com/bphoto/YFmKBT5VhbaUjWSb9AeFdA/o.jpg", "is_closed": false, "url": "https://www.yelp.com/biz/dominos-pizza-warwick-2?adjust_creative=1woF1Kwn15wJJxNZkMIAgw&utm_campaign=yelp_api_v3&utm_medium=api_v3_business_search&utm_source=1woF1Kwn15wJJxNZkMIAgw", "review_count": 18, "categories": [{"alias": "pizza", "title": "Pizza"}, {"alias": "chicken_wings", "title": "Chicken Wings"}, {"alias": "sandwiches", "title": "Sandwiches"}], "rating": 3.5, "coordinates": {"latitude": 41.70946, "longitude": -71.45044}, "transactions": [], "price": "$", "location": {"address1": "2757 Post Rd", "address2": "", "address3": "", "city": "Warwick", "zip_code": "02886", "country": "US", "state": "RI", "display_address": ["2757 Post Rd", "Warwick, RI 02886"]}, "phone": "+14017325770", "display_phone": "(401) 732-5770", "distance": 2014.8336984432972}, {"id": "EIvSPS3x8Sv4d8wTUgtPCw", "alias": "panda-express-warwick", "name": "Panda Express", "image_url": "https://s3-media1.fl.yelpcdn.com/bphoto/aKCJUaoBKf778SmBWM0a3Q/o.jpg", "is_closed": false, "url": "https://www.yelp.com/biz/panda-express-warwick?adjust_creative=1woF1Kwn15wJJxNZkMIAgw&utm_campaign=yelp_api_v3&utm_medium=api_v3_business_search&utm_source=1woF1Kwn15wJJxNZkMIAgw", "review_count": 10, "categories": [{"alias": "chinese", "title": "Chinese"}, {"alias": "hotdogs", "title": "Fast Food"}], "rating": 3.5, "coordinates": {"latitude": 41.725572, "longitude": -71.475919}, "transactions": [], "price": "$$", "location": {"address1": "400 Bald Hill Rd", "address2": "Ste F10", "address3": "", "city": "Warwick", "zip_code": "02886", "country": "US", "state": "RI", "display_address": ["400 Bald Hill Rd", "Ste F10", "Warwick, RI 02886"]}, "phone": "+14017380152", "display_phone": "(401) 738-0152", "distance": 4389.049700973509}, {"id": "LoDApgB3C_G6J-fofDAO2g", "alias": "piezonis-pizza-warwick-4", "name": "Piezoni's Pizza", "image_url": "https://s3-media2.fl.yelpcdn.com/bphoto/s7UPL-tAEkUulnfD7sw3Kg/o.jpg", "is_closed": false, "url": "https://www.yelp.com/biz/piezonis-pizza-warwick-4?adjust_creative=1woF1Kwn15wJJxNZkMIAgw&utm_campaign=yelp_api_v3&utm_medium=api_v3_business_search&utm_source=1woF1Kwn15wJJxNZkMIAgw", "review_count": 29, "categories": [{"alias": "pizza", "title": "Pizza"}, {"alias": "sandwiches", "title": "Sandwiches"}, {"alias": "burgers", "title": "Burgers"}], "rating": 3.5, "coordinates": {"latitude": 41.69748, "longitude": -71.45967}, "transactions": ["delivery"], "price": "$", "location": {"address1": "3377 Post Rd", "address2": "", "address3": "", "city": "Warwick", "zip_code": "02886", "country": "US", "state": "RI", "display_address": ["3377 Post Rd", "Warwick, RI 02886"]}, "phone": "+14019212323", "display_phone": "(401) 921-2323", "distance": 3176.7481730552686}, {"id": "iWbtv0kf-vXiGTI_TUvgBw", "alias": "pacos-tacos-mobile-mex-cranston-2", "name": "Paco's Tacos Mobile Mex", "image_url": "https://s3-media1.fl.yelpcdn.com/bphoto/OxKpPx3iJ8QnlHQwuo-ReA/o.jpg", "is_closed": false, "url": "https://www.yelp.com/biz/pacos-tacos-mobile-mex-cranston-2?adjust_creative=1woF1Kwn15wJJxNZkMIAgw&utm_campaign=yelp_api_v3&utm_medium=api_v3_business_search&utm_source=1woF1Kwn15wJJxNZkMIAgw", "review_count": 18, "categories": [{"alias": "mexican", "title": "Mexican"}, {"alias": "foodtrucks", "title": "Food Trucks"}], "rating": 4.0, "coordinates": {"latitude": 41.737324, "longitude": -71.464589}, "transactions": [], "price": "$", "location": {"address1": "100 East St", "address2": null, "address3": null, "city": "Cranston", "zip_code": "02910", "country": "US", "state": "RI", "display_address": ["100 East St", "Cranston, RI 02910"]}, "phone": "+14014637226", "display_phone": "(401) 463-7226", "distance": 4275.670704555002}, {"id": "PHU-qAkRmjbHWpfuPF10zA", "alias": "warwick-mall-food-court-warwick", "name": "Warwick Mall Food Court", "image_url": "", "is_closed": false, "url": "https://www.yelp.com/biz/warwick-mall-food-court-warwick?adjust_creative=1woF1Kwn15wJJxNZkMIAgw&utm_campaign=yelp_api_v3&utm_medium=api_v3_business_search&utm_source=1woF1Kwn15wJJxNZkMIAgw", "review_count": 1, "categories": [{"alias": "food_court", "title": "Food Court"}], "rating": 4.0, "coordinates": {"latitude": 41.725444, "longitude": -71.475973}, "transactions": [], "price": "$", "location": {"address1": "100 Warwick Mall", "address2": "", "address3": "", "city": "Warwick", "zip_code": "02886", "country": "US", "state": "RI", "display_address": ["100 Warwick Mall", "Warwick, RI 02886"]}, "phone": "+14017322160", "display_phone": "(401) 732-2160", "distance": 4388.1372088284525}, {"id": "vLsrc0mQ8xsBAxTqh-7t3w", "alias": "pioneer-pizza-house-warwick", "name": "Pioneer Pizza House", "image_url": "https://s3-media4.fl.yelpcdn.com/bphoto/0DL_omfi_AdhsKjGYXlVSA/o.jpg", "is_closed": false, "url": "https://www.yelp.com/biz/pioneer-pizza-house-warwick?adjust_creative=1woF1Kwn15wJJxNZkMIAgw&utm_campaign=yelp_api_v3&utm_medium=api_v3_business_search&utm_source=1woF1Kwn15wJJxNZkMIAgw", "review_count": 12, "categories": [{"alias": "pizza", "title": "Pizza"}], "rating": 3.5, "coordinates": {"latitude": 41.7450187, "longitude": -71.4282004}, "transactions": ["delivery"], "price": "$", "location": {"address1": "1279 Post Rd", "address2": "", "address3": "", "city": "Warwick", "zip_code": "02888", "country": "US", "state": "RI", "display_address": ["1279 Post Rd", "Warwick, RI 02888"]}, "phone": "+14017813377", "display_phone": "(401) 781-3377", "distance": 3757.314507259349}, {"id": "-L0X6rSFaFo6KQTlFAo1kg", "alias": "ihop-warwick-2", "name": "IHOP", "image_url": "https://s3-media4.fl.yelpcdn.com/bphoto/UK0lFH0R-XkCwhB28DdEng/o.jpg", "is_closed": false, "url": "https://www.yelp.com/biz/ihop-warwick-2?adjust_creative=1woF1Kwn15wJJxNZkMIAgw&utm_campaign=yelp_api_v3&utm_medium=api_v3_business_search&utm_source=1woF1Kwn15wJJxNZkMIAgw", "review_count": 65, "categories": [{"alias": "tradamerican", "title": "American (Traditional)"}, {"alias": "breakfast_brunch", "title": "Breakfast & Brunch"}, {"alias": "burgers", "title": "Burgers"}], "rating": 3.0, "coordinates": {"latitude": 41.73231, "longitude": -71.43609}, "transactions": [], "price": "$$", "location": {"address1": "1802 Post Rd", "address2": "", "address3": "", "city": "Warwick", "zip_code": "02886", "country": "US", "state": "RI", "display_address": ["1802 Post Rd", "Warwick, RI 02886"]}, "phone": "+14017380003", "display_phone": "(401) 738-0003", "distance": 2459.0896561939367}, {"id": "DEWZ8dKN6BTHKhxpGtzXQA", "alias": "good-morning-restaurant-warwick", "name": "Good Morning Restaurant", "image_url": "https://s3-media2.fl.yelpcdn.com/bphoto/H4z8DmsZ5kx5YqdlO6JnAA/o.jpg", "is_closed": false, "url": "https://www.yelp.com/biz/good-morning-restaurant-warwick?adjust_creative=1woF1Kwn15wJJxNZkMIAgw&utm_campaign=yelp_api_v3&utm_medium=api_v3_business_search&utm_source=1woF1Kwn15wJJxNZkMIAgw", "review_count": 5, "categories": [{"alias": "breakfast_brunch", "title": "Breakfast & Brunch"}], "rating": 2.0, "coordinates": {"latitude": 41.73008, "longitude": -71.40648}, "transactions": [], "location": {"address1": "1707 Warwick Ave", "address2": "", "address3": "", "city": "Warwick", "zip_code": "02889", "country": "US", "state": "RI", "display_address": ["1707 Warwick Ave", "Warwick, RI 02889"]}, "phone": "+14017396464", "display_phone": "(401) 739-6464", "distance": 2664.0123569312345}, {"id": "1Aql1GvtBaGit1aBzN9m3g", "alias": "newport-creamery-warwick-2", "name": "Newport Creamery", "image_url": "https://s3-media3.fl.yelpcdn.com/bphoto/GWtzJatcBWgsyseMkQiYug/o.jpg", "is_closed": false, "url": "https://www.yelp.com/biz/newport-creamery-warwick-2?adjust_creative=1woF1Kwn15wJJxNZkMIAgw&utm_campaign=yelp_api_v3&utm_medium=api_v3_business_search&utm_source=1woF1Kwn15wJJxNZkMIAgw", "review_count": 30, "categories": [{"alias": "desserts", "title": "Desserts"}, {"alias": "newamerican", "title": "American (New)"}, {"alias": "breakfast_brunch", "title": "Breakfast & Brunch"}], "rating": 3.5, "coordinates": {"latitude": 41.742095, "longitude": -71.407183}, "transactions": ["delivery"], "price": "$", "location": {"address1": "1256 Warwick Ave", "address2": "", "address3": "", "city": "Warwick", "zip_code": "02888", "country": "US", "state": "RI", "display_address": ["1256 Warwick Ave", "Warwick, RI 02888"]}, "phone": "+14014638317", "display_phone": "(401) 463-8317", "distance": 3777.342426894339}, {"id": "GEItnXXDe0GtoGIEgO9p0g", "alias": "delizioso-cranston", "name": "Delizioso", "image_url": "https://s3-media2.fl.yelpcdn.com/bphoto/3hvzJSeom9sKYX-ubsjwCg/o.jpg", "is_closed": false, "url": "https://www.yelp.com/biz/delizioso-cranston?adjust_creative=1woF1Kwn15wJJxNZkMIAgw&utm_campaign=yelp_api_v3&utm_medium=api_v3_business_search&utm_source=1woF1Kwn15wJJxNZkMIAgw", "review_count": 26, "categories": [{"alias": "delis", "title": "Delis"}, {"alias": "sandwiches", "title": "Sandwiches"}], "rating": 3.5, "coordinates": {"latitude": 41.7344665527344, "longitude": -71.4771347045898}, "transactions": ["delivery"], "price": "$", "location": {"address1": "1288 Oaklawn Ave", "address2": null, "address3": null, "city": "Cranston", "zip_code": "02920", "country": "US", "state": "RI", "display_address": ["1288 Oaklawn Ave", "Cranston, RI 02920"]}, "phone": "+14014635545", "display_phone": "(401) 463-5545", "distance": 4917.320477626196}, {"id": "n4mgHAmvMtXyX4D-j80B-g", "alias": "wendys-warwick-3", "name": "Wendy's", "image_url": "https://s3-media1.fl.yelpcdn.com/bphoto/i9Cg5EHnLM3sDGei4-EctA/o.jpg", "is_closed": false, "url": "https://www.yelp.com/biz/wendys-warwick-3?adjust_creative=1woF1Kwn15wJJxNZkMIAgw&utm_campaign=yelp_api_v3&utm_medium=api_v3_business_search&utm_source=1woF1Kwn15wJJxNZkMIAgw", "review_count": 28, "categories": [{"alias": "burgers", "title": "Burgers"}, {"alias": "hotdogs", "title": "Fast Food"}], "rating": 2.0, "coordinates": {"latitude": 41.728448, "longitude": -71.438554}, "transactions": ["delivery"], "price": "$", "location": {"address1": "1951 Post Road", "address2": "", "address3": "", "city": "Warwick", "zip_code": "02886", "country": "US", "state": "RI", "display_address": ["1951 Post Road", "Warwick, RI 02886"]}, "phone": "+14019215226", "display_phone": "(401) 921-5226", "distance": 2139.85912569602}, {"id": "7EgCioA2L7FbEDpcdMgJOA", "alias": "subway-warwick-28", "name": "Subway", "image_url": "https://s3-media3.fl.yelpcdn.com/bphoto/f0NGKZNzl94pGzwIhcH4Dw/o.jpg", "is_closed": false, "url": "https://www.yelp.com/biz/subway-warwick-28?adjust_creative=1woF1Kwn15wJJxNZkMIAgw&utm_campaign=yelp_api_v3&utm_medium=api_v3_business_search&utm_source=1woF1Kwn15wJJxNZkMIAgw", "review_count": 1, "categories": [{"alias": "sandwiches", "title": "Sandwiches"}], "rating": 4.0, "coordinates": {"latitude": 41.7328434527745, "longitude": -71.4088191829793}, "transactions": ["delivery", "pickup"], "price": "$", "location": {"address1": "44 Airport Rd", "address2": "", "address3": "", "city": "Warwick", "zip_code": "02889", "country": "US", "state": "RI", "display_address": ["44 Airport Rd", "Warwick, RI 02889"]}, "phone": "+14019210290", "display_phone": "(401) 921-0290", "distance": 2806.715976019709}, {"id": "NyzYkD_MGW0UMzoE5HQybQ", "alias": "johnny-rockets-warwick-3", "name": "Johnny Rockets", "image_url": "https://s3-media4.fl.yelpcdn.com/bphoto/fC5eTBZaeQxscg1Y8ZhkYA/o.jpg", "is_closed": false, "url": "https://www.yelp.com/biz/johnny-rockets-warwick-3?adjust_creative=1woF1Kwn15wJJxNZkMIAgw&utm_campaign=yelp_api_v3&utm_medium=api_v3_business_search&utm_source=1woF1Kwn15wJJxNZkMIAgw", "review_count": 7, "categories": [{"alias": "burgers", "title": "Burgers"}, {"alias": "diners", "title": "Diners"}], "rating": 2.5, "coordinates": {"latitude": 41.723193, "longitude": -71.475822}, "transactions": [], "location": {"address1": "400 Bald Hill Rd", "address2": "Ste 100, Space F-5", "address3": "", "city": "Warwick", "zip_code": "02886", "country": "US", "state": "RI", "display_address": ["400 Bald Hill Rd", "Ste 100, Space F-5", "Warwick, RI 02886"]}, "phone": "+14019211313", "display_phone": "(401) 921-1313", "distance": 4293.326974134154}, {"id": "6Cumg8R2cVNzYGqfuYsQfA", "alias": "little-tokyo-restaurant-warwick", "name": "Little Tokyo Restaurant", "image_url": "https://s3-media2.fl.yelpcdn.com/bphoto/rL7S22Es-nb0n4t608n-Hw/o.jpg", "is_closed": false, "url": "https://www.yelp.com/biz/little-tokyo-restaurant-warwick?adjust_creative=1woF1Kwn15wJJxNZkMIAgw&utm_campaign=yelp_api_v3&utm_medium=api_v3_business_search&utm_source=1woF1Kwn15wJJxNZkMIAgw", "review_count": 5, "categories": [{"alias": "japanese", "title": "Japanese"}], "rating": 3.0, "coordinates": {"latitude": 41.725541, "longitude": -71.476282}, "transactions": ["delivery"], "location": {"address1": "400 Bald Hill Rd", "address2": "Ste F7", "address3": null, "city": "Warwick", "zip_code": "02886", "country": "US", "state": "RI", "display_address": ["400 Bald Hill Rd", "Ste F7", "Warwick, RI 02886"]}, "phone": "+14017383839", "display_phone": "(401) 738-3839", "distance": 4415.941289306164}, {"id": "FGqZA4j2FDTxAenrMhe7RA", "alias": "beijing-restaurant-cranston", "name": "Beijing Restaurant", "image_url": "https://s3-media3.fl.yelpcdn.com/bphoto/jtYooieCf0Wemc4YBtG4gQ/o.jpg", "is_closed": false, "url": "https://www.yelp.com/biz/beijing-restaurant-cranston?adjust_creative=1woF1Kwn15wJJxNZkMIAgw&utm_campaign=yelp_api_v3&utm_medium=api_v3_business_search&utm_source=1woF1Kwn15wJJxNZkMIAgw", "review_count": 11, "categories": [{"alias": "chinese", "title": "Chinese"}], "rating": 3.5, "coordinates": {"latitude": 41.73237, "longitude": -71.47691}, "transactions": ["delivery", "pickup"], "price": "$", "location": {"address1": "1500 Oaklawn Ave", "address2": "", "address3": "", "city": "Cranston", "zip_code": "02920", "country": "US", "state": "RI", "display_address": ["1500 Oaklawn Ave", "Cranston, RI 02920"]}, "phone": "+14014636588", "display_phone": "(401) 463-6588", "distance": 4732.273896757447}, {"id": "eBCksiefo75AjFDosxN0hA", "alias": "famous-famiglia-warwick", "name": "Famous Famiglia", "image_url": "https://s3-media2.fl.yelpcdn.com/bphoto/gbGrNcDqaoXH9LhRnsg6Hw/o.jpg", "is_closed": false, "url": "https://www.yelp.com/biz/famous-famiglia-warwick?adjust_creative=1woF1Kwn15wJJxNZkMIAgw&utm_campaign=yelp_api_v3&utm_medium=api_v3_business_search&utm_source=1woF1Kwn15wJJxNZkMIAgw", "review_count": 11, "categories": [{"alias": "pizza", "title": "Pizza"}], "rating": 2.0, "coordinates": {"latitude": 41.725624, "longitude": -71.435034}, "transactions": [], "location": {"address1": "2000 Post Rd", "address2": "", "address3": "Providence T F Green International Airport - Pre Security", "city": "Warwick", "zip_code": "02886", "country": "US", "state": "RI", "display_address": ["2000 Post Rd", "Providence T F Green International Airport - Pre Security", "Warwick, RI 02886"]}, "phone": "+14017325140", "display_phone": "(401) 732-5140", "distance": 1733.8395432149277}, {"id": "2c2K-ditT7htTF-jqN7bPg", "alias": "subway-warwick-30", "name": "Subway", "image_url": "https://s3-media2.fl.yelpcdn.com/bphoto/6ZJvfvgjJT9GdG0zt-1NZA/o.jpg", "is_closed": false, "url": "https://www.yelp.com/biz/subway-warwick-30?adjust_creative=1woF1Kwn15wJJxNZkMIAgw&utm_campaign=yelp_api_v3&utm_medium=api_v3_business_search&utm_source=1woF1Kwn15wJJxNZkMIAgw", "review_count": 5, "categories": [{"alias": "sandwiches", "title": "Sandwiches"}], "rating": 3.0, "coordinates": {"latitude": 41.7199561, "longitude": -71.4430574}, "transactions": [], "price": "$", "location": {"address1": "2283 Post Rd", "address2": "", "address3": "", "city": "Warwick", "zip_code": "02886", "country": "US", "state": "RI", "display_address": ["2283 Post Rd", "Warwick, RI 02886"]}, "phone": "+14017321085", "display_phone": "(401) 732-1085", "distance": 1668.1345069662764}, {"id": "Io4C5tUwnb_YzeaMXHBqBA", "alias": "shuckin-truck-narragansett-2", "name": "Shuckin Truck", "image_url": "https://s3-media2.fl.yelpcdn.com/bphoto/r7QRORfe9UYVS7GGzUm9DQ/o.jpg", "is_closed": false, "url": "https://www.yelp.com/biz/shuckin-truck-narragansett-2?adjust_creative=1woF1Kwn15wJJxNZkMIAgw&utm_campaign=yelp_api_v3&utm_medium=api_v3_business_search&utm_source=1woF1Kwn15wJJxNZkMIAgw", "review_count": 24, "categories": [{"alias": "foodtrucks", "title": "Food Trucks"}, {"alias": "seafood", "title": "Seafood"}], "rating": 4.5, "coordinates": {"latitude": 41.4274482727051, "longitude": -71.4597778320313}, "transactions": [], "price": "$$", "location": {"address1": "", "address2": "", "address3": "", "city": "Narragansett", "zip_code": "02882", "country": "US", "state": "RI", "display_address": ["Narragansett, RI 02882"]}, "phone": "+14017415953", "display_phone": "(401) 741-5953", "distance": 35195.71358559407}, {"id": "xRA2Nwj6M7LvsX-ElqGfUw", "alias": "remingtons-restaurant-warwick", "name": "Remingtons Restaurant", "image_url": "https://s3-media2.fl.yelpcdn.com/bphoto/NzowYql6uVzWIrE5lEFIWg/o.jpg", "is_closed": false, "url": "https://www.yelp.com/biz/remingtons-restaurant-warwick?adjust_creative=1woF1Kwn15wJJxNZkMIAgw&utm_campaign=yelp_api_v3&utm_medium=api_v3_business_search&utm_source=1woF1Kwn15wJJxNZkMIAgw", "review_count": 2, "categories": [{"alias": "tradamerican", "title": "American (Traditional)"}], "rating": 2.5, "coordinates": {"latitude": 41.7142799, "longitude": -71.4638321}, "transactions": [], "location": {"address1": "801 Greenwich Ave", "address2": "", "address3": "", "city": "Warwick", "zip_code": "02886", "country": "US", "state": "RI", "display_address": ["801 Greenwich Ave", "Warwick, RI 02886"]}, "phone": "+14017326000", "display_phone": "(401) 732-6000", "distance": 3436.576757673506}, {"id": "wIahNeTs5df0pCiYTRyGRw", "alias": "mcdonalds-warwick-3", "name": "McDonald's", "image_url": "https://s3-media1.fl.yelpcdn.com/bphoto/g_w7YTa-SIn_q38-XtImvw/o.jpg", "is_closed": false, "url": "https://www.yelp.com/biz/mcdonalds-warwick-3?adjust_creative=1woF1Kwn15wJJxNZkMIAgw&utm_campaign=yelp_api_v3&utm_medium=api_v3_business_search&utm_source=1woF1Kwn15wJJxNZkMIAgw", "review_count": 22, "categories": [{"alias": "burgers", "title": "Burgers"}, {"alias": "hotdogs", "title": "Fast Food"}, {"alias": "coffee", "title": "Coffee & Tea"}], "rating": 1.5, "coordinates": {"latitude": 41.7124444194999, "longitude": -71.3984137773514}, "transactions": ["delivery"], "price": "$", "location": {"address1": "2390 Warwick Ave", "address2": "", "address3": "", "city": "Warwick", "zip_code": "02889", "country": "US", "state": "RI", "display_address": ["2390 Warwick Ave", "Warwick, RI 02889"]}, "phone": "+14017324138", "display_phone": "(401) 732-4138", "distance": 2341.26764467426}, {"id": "REblwV6sgIcBvP1ZnqURpA", "alias": "happy-garden-warwick", "name": "Happy Garden", "image_url": "https://s3-media2.fl.yelpcdn.com/bphoto/EtxdNLlFWp-07bBx88262w/o.jpg", "is_closed": false, "url": "https://www.yelp.com/biz/happy-garden-warwick?adjust_creative=1woF1Kwn15wJJxNZkMIAgw&utm_campaign=yelp_api_v3&utm_medium=api_v3_business_search&utm_source=1woF1Kwn15wJJxNZkMIAgw", "review_count": 20, "categories": [{"alias": "chinese", "title": "Chinese"}], "rating": 2.5, "coordinates": {"latitude": 41.7417172, "longitude": -71.406531}, "transactions": ["delivery"], "price": "$$", "location": {"address1": "959 Namquid Dr", "address2": "", "address3": "", "city": "Warwick", "zip_code": "02888", "country": "US", "state": "RI", "display_address": ["959 Namquid Dr", "Warwick, RI 02888"]}, "phone": "+14014638202", "display_phone": "(401) 463-8202", "distance": 3786.5419515402205}, {"id": "UBNrC1qNieHohbbqwYElDQ", "alias": "newport-creamery-warwick", "name": "Newport Creamery", "image_url": "https://s3-media1.fl.yelpcdn.com/bphoto/0bOSAji_oDcRc4V8Uec69w/o.jpg", "is_closed": false, "url": "https://www.yelp.com/biz/newport-creamery-warwick?adjust_creative=1woF1Kwn15wJJxNZkMIAgw&utm_campaign=yelp_api_v3&utm_medium=api_v3_business_search&utm_source=1woF1Kwn15wJJxNZkMIAgw", "review_count": 18, "categories": [{"alias": "desserts", "title": "Desserts"}, {"alias": "breakfast_brunch", "title": "Breakfast & Brunch"}, {"alias": "icecream", "title": "Ice Cream & Frozen Yogurt"}], "rating": 2.5, "coordinates": {"latitude": 41.724753, "longitude": -71.476663}, "transactions": ["delivery"], "price": "$", "location": {"address1": "400 Bald Hill Rd", "address2": "", "address3": "", "city": "Warwick", "zip_code": "02886", "country": "US", "state": "RI", "display_address": ["400 Bald Hill Rd", "Warwick, RI 02886"]}, "phone": "+14017374309", "display_phone": "(401) 737-4309", "distance": 4415.208169313364}, {"id": "e62MHrJIa9LRfOLMCCQ2Ew", "alias": "subway-warwick-27", "name": "Subway", "image_url": "https://s3-media1.fl.yelpcdn.com/bphoto/5yVqu4kpeeCy46XCX35Obg/o.jpg", "is_closed": false, "url": "https://www.yelp.com/biz/subway-warwick-27?adjust_creative=1woF1Kwn15wJJxNZkMIAgw&utm_campaign=yelp_api_v3&utm_medium=api_v3_business_search&utm_source=1woF1Kwn15wJJxNZkMIAgw", "review_count": 7, "categories": [{"alias": "sandwiches", "title": "Sandwiches"}], "rating": 4.5, "coordinates": {"latitude": 41.7481589, "longitude": -71.4223775355183}, "transactions": ["delivery", "pickup"], "price": "$", "location": {"address1": "1090 Post Rd", "address2": null, "address3": null, "city": "Warwick", "zip_code": "02888", "country": "US", "state": "RI", "display_address": ["1090 Post Rd", "Warwick, RI 02888"]}, "phone": "+14012707702", "display_phone": "(401) 270-7702", "distance": 4106.217786140752}, {"id": "rSJAIarJLHR5CSuuOe66vA", "alias": "bluefire-grille-warwick", "name": "BlueFire Grille", "image_url": "", "is_closed": false, "url": "https://www.yelp.com/biz/bluefire-grille-warwick?adjust_creative=1woF1Kwn15wJJxNZkMIAgw&utm_campaign=yelp_api_v3&utm_medium=api_v3_business_search&utm_source=1woF1Kwn15wJJxNZkMIAgw", "review_count": 7, "categories": [{"alias": "tradamerican", "title": "American (Traditional)"}, {"alias": "breakfast_brunch", "title": "Breakfast & Brunch"}], "rating": 2.5, "coordinates": {"latitude": 41.731211, "longitude": -71.435748}, "transactions": [], "price": "$$", "location": {"address1": "1850 Post Rd", "address2": "", "address3": "Sheraton Providence Airport Hotel", "city": "Warwick", "zip_code": "02886", "country": "US", "state": "RI", "display_address": ["1850 Post Rd", "Sheraton Providence Airport Hotel", "Warwick, RI 02886"]}, "phone": "+14017384000", "display_phone": "(401) 738-4000", "distance": 2334.275555727525}, {"id": "JJhjk4ZG00s8Gg2GJSUwHQ", "alias": "mikey-bs-pizza-warwick", "name": "Mikey B's Pizza", "image_url": "", "is_closed": false, "url": "https://www.yelp.com/biz/mikey-bs-pizza-warwick?adjust_creative=1woF1Kwn15wJJxNZkMIAgw&utm_campaign=yelp_api_v3&utm_medium=api_v3_business_search&utm_source=1woF1Kwn15wJJxNZkMIAgw", "review_count": 2, "categories": [{"alias": "pizza", "title": "Pizza"}], "rating": 4.5, "coordinates": {"latitude": 41.7010451853275, "longitude": -71.3982843607664}, "transactions": [], "price": "$", "location": {"address1": "2077 W Shore Rd", "address2": null, "address3": null, "city": "Warwick", "zip_code": "02889", "country": "US", "state": "RI", "display_address": ["2077 W Shore Rd", "Warwick, RI 02889"]}, "phone": "", "display_phone": "", "distance": 2575.3603242150207}, {"id": "JcW1e_cvixRupAUiivDviA", "alias": "kfc-warwick-4", "name": "KFC", "image_url": "https://s3-media1.fl.yelpcdn.com/bphoto/-sB1wuUG9_pZ0usifIujKw/o.jpg", "is_closed": false, "url": "https://www.yelp.com/biz/kfc-warwick-4?adjust_creative=1woF1Kwn15wJJxNZkMIAgw&utm_campaign=yelp_api_v3&utm_medium=api_v3_business_search&utm_source=1woF1Kwn15wJJxNZkMIAgw", "review_count": 14, "categories": [{"alias": "hotdogs", "title": "Fast Food"}, {"alias": "chicken_wings", "title": "Chicken Wings"}, {"alias": "chickenshop", "title": "Chicken Shop"}], "rating": 2.0, "coordinates": {"latitude": 41.7329160670684, "longitude": -71.4348686889028}, "transactions": ["delivery", "pickup"], "price": "$", "location": {"address1": "767 Airport Rd", "address2": "", "address3": "", "city": "Warwick", "zip_code": "02886", "country": "US", "state": "RI", "display_address": ["767 Airport Rd", "Warwick, RI 02886"]}, "phone": "+14017399088", "display_phone": "(401) 739-9088", "distance": 2493.167641977296}, {"id": "prRefY0PkyxtRQdHITvfog", "alias": "pizza-hut-warwick-3", "name": "Pizza Hut", "image_url": "https://s3-media3.fl.yelpcdn.com/bphoto/_JmKpd15Oz6UMGKMf5Nd9Q/o.jpg", "is_closed": false, "url": "https://www.yelp.com/biz/pizza-hut-warwick-3?adjust_creative=1woF1Kwn15wJJxNZkMIAgw&utm_campaign=yelp_api_v3&utm_medium=api_v3_business_search&utm_source=1woF1Kwn15wJJxNZkMIAgw", "review_count": 3, "categories": [{"alias": "pizza", "title": "Pizza"}, {"alias": "italian", "title": "Italian"}, {"alias": "chicken_wings", "title": "Chicken Wings"}], "rating": 1.5, "coordinates": {"latitude": 41.732083, "longitude": -71.407231}, "transactions": [], "location": {"address1": "1627 Warwick Ave", "address2": "", "address3": null, "city": "Warwick", "zip_code": "02889", "country": "US", "state": "RI", "display_address": ["1627 Warwick Ave", "Warwick, RI 02889"]}, "phone": "+14012445422", "display_phone": "(401) 244-5422", "distance": 2808.3679079018775}, {"id": "avePR135VMP6W0Ln5yMmVA", "alias": "titos-cantina-warwick", "name": "Tito's Cantina", "image_url": "", "is_closed": false, "url": "https://www.yelp.com/biz/titos-cantina-warwick?adjust_creative=1woF1Kwn15wJJxNZkMIAgw&utm_campaign=yelp_api_v3&utm_medium=api_v3_business_search&utm_source=1woF1Kwn15wJJxNZkMIAgw", "review_count": 1, "categories": [{"alias": "mexican", "title": "Mexican"}], "rating": 1.0, "coordinates": {"latitude": 41.726013, "longitude": -71.43553}, "transactions": [], "location": {"address1": "2000 Post Rd", "address2": "", "address3": "", "city": "Warwick", "zip_code": "02886", "country": "US", "state": "RI", "display_address": ["2000 Post Rd", "Warwick, RI 02886"]}, "phone": "", "display_phone": "", "distance": 1790.1639996099268}, {"id": "H45TRkWacHDPMbyG7V3YZg", "alias": "burger-king-warwick-9", "name": "Burger King", "image_url": "https://s3-media1.fl.yelpcdn.com/bphoto/bDncVNuxVYKFSbLi4vco_A/o.jpg", "is_closed": false, "url": "https://www.yelp.com/biz/burger-king-warwick-9?adjust_creative=1woF1Kwn15wJJxNZkMIAgw&utm_campaign=yelp_api_v3&utm_medium=api_v3_business_search&utm_source=1woF1Kwn15wJJxNZkMIAgw", "review_count": 6, "categories": [{"alias": "burgers", "title": "Burgers"}, {"alias": "hotdogs", "title": "Fast Food"}], "rating": 2.5, "coordinates": {"latitude": 41.73381, "longitude": -71.43566}, "transactions": ["delivery"], "price": "$", "location": {"address1": "1748 Post Rd", "address2": "", "address3": "", "city": "Warwick", "zip_code": "02888", "country": "US", "state": "RI", "display_address": ["1748 Post Rd", "Warwick, RI 02888"]}, "phone": "+14017386166", "display_phone": "(401) 738-6166", "distance": 2590.2492255768775}, {"id": "qXOuMNYjX5ugFcloQl3g7Q", "alias": "taco-bell-warwick", "name": "Taco Bell", "image_url": "https://s3-media3.fl.yelpcdn.com/bphoto/p0T1dE01yEm6K_D4JGWHXQ/o.jpg", "is_closed": false, "url": "https://www.yelp.com/biz/taco-bell-warwick?adjust_creative=1woF1Kwn15wJJxNZkMIAgw&utm_campaign=yelp_api_v3&utm_medium=api_v3_business_search&utm_source=1woF1Kwn15wJJxNZkMIAgw", "review_count": 3, "categories": [{"alias": "hotdogs", "title": "Fast Food"}, {"alias": "mexican", "title": "Mexican"}], "rating": 3.0, "coordinates": {"latitude": 41.725514148244, "longitude": -71.475957962683}, "transactions": ["delivery"], "price": "$", "location": {"address1": "400 Bald Hill Rd", "address2": "Ste F8", "address3": "", "city": "Warwick", "zip_code": "02886", "country": "US", "state": "RI", "display_address": ["400 Bald Hill Rd", "Ste F8", "Warwick, RI 02886"]}, "phone": "+14017329212", "display_phone": "(401) 732-9212", "distance": 4389.758895418095}, {"id": "Kanby_EU3ky8EPHe158z_g", "alias": "d-angelo-sandwich-shops-warwick", "name": "D'angelo Sandwich Shops", "image_url": "https://s3-media4.fl.yelpcdn.com/bphoto/nh6JCx3x2UWnbRGN4-bQKA/o.jpg", "is_closed": false, "url": "https://www.yelp.com/biz/d-angelo-sandwich-shops-warwick?adjust_creative=1woF1Kwn15wJJxNZkMIAgw&utm_campaign=yelp_api_v3&utm_medium=api_v3_business_search&utm_source=1woF1Kwn15wJJxNZkMIAgw", "review_count": 8, "categories": [{"alias": "sandwiches", "title": "Sandwiches"}], "rating": 2.0, "coordinates": {"latitude": 41.7291995, "longitude": -71.4766831}, "transactions": ["delivery"], "price": "$$", "location": {"address1": "80 Lambert Lind Hwy", "address2": "", "address3": "", "city": "Warwick", "zip_code": "02886", "country": "US", "state": "RI", "display_address": ["80 Lambert Lind Hwy", "Warwick, RI 02886"]}, "phone": "+14017326040", "display_phone": "(401) 732-6040", "distance": 4606.155189950401}, {"id": "XGwR1ek_OjX1TuOVRoiasg", "alias": "filippous-pizza-warwick", "name": "Filippou's Pizza", "image_url": "https://s3-media2.fl.yelpcdn.com/bphoto/MQTSZyISsApCjm9-y0a_7w/o.jpg", "is_closed": false, "url": "https://www.yelp.com/biz/filippous-pizza-warwick?adjust_creative=1woF1Kwn15wJJxNZkMIAgw&utm_campaign=yelp_api_v3&utm_medium=api_v3_business_search&utm_source=1woF1Kwn15wJJxNZkMIAgw", "review_count": 9, "categories": [{"alias": "pizza", "title": "Pizza"}], "rating": 3.0, "coordinates": {"latitude": 41.68689, "longitude": -71.39836}, "transactions": [], "price": "$$", "location": {"address1": "805 Oakland Beach Ave", "address2": "", "address3": "", "city": "Warwick", "zip_code": "02889", "country": "US", "state": "RI", "display_address": ["805 Oakland Beach Ave", "Warwick, RI 02889"]}, "phone": "+14017737810", "display_phone": "(401) 773-7810", "distance": 3570.1834148070043}, {"id": "LMtAc_Yy6KshtkOSORQ78w", "alias": "subway-warwick-20", "name": "Subway", "image_url": "https://s3-media2.fl.yelpcdn.com/bphoto/K8kzjptSdHto8Ae0Dlqx5g/o.jpg", "is_closed": false, "url": "https://www.yelp.com/biz/subway-warwick-20?adjust_creative=1woF1Kwn15wJJxNZkMIAgw&utm_campaign=yelp_api_v3&utm_medium=api_v3_business_search&utm_source=1woF1Kwn15wJJxNZkMIAgw", "review_count": 10, "categories": [{"alias": "sandwiches", "title": "Sandwiches"}], "rating": 3.5, "coordinates": {"latitude": 41.7175623593835, "longitude": -71.4648718}, "transactions": ["delivery", "pickup"], "price": "$", "location": {"address1": "615 Greenwich Ave", "address2": "Unit 7", "address3": "", "city": "Warwick", "zip_code": "02886", "country": "US", "state": "RI", "display_address": ["615 Greenwich Ave", "Unit 7", "Warwick, RI 02886"]}, "phone": "+14017320205", "display_phone": "(401) 732-0205", "distance": 3252.0310984311777}, {"id": "H3K2opr-ecMOxnK0dhUYlw", "alias": "honey-dew-donuts-warwick-4", "name": "Honey Dew Donuts", "image_url": "https://s3-media1.fl.yelpcdn.com/bphoto/DK5Sqo3I1EqEkbk7Wd0EQA/o.jpg", "is_closed": false, "url": "https://www.yelp.com/biz/honey-dew-donuts-warwick-4?adjust_creative=1woF1Kwn15wJJxNZkMIAgw&utm_campaign=yelp_api_v3&utm_medium=api_v3_business_search&utm_source=1woF1Kwn15wJJxNZkMIAgw", "review_count": 13, "categories": [{"alias": "donuts", "title": "Donuts"}, {"alias": "sandwiches", "title": "Sandwiches"}], "rating": 2.5, "coordinates": {"latitude": 41.7012196, "longitude": -71.4592542}, "transactions": [], "price": "$", "location": {"address1": "141 Veterans Memorial Dr", "address2": "", "address3": "", "city": "Warwick", "zip_code": "02886", "country": "US", "state": "RI", "display_address": ["141 Veterans Memorial Dr", "Warwick, RI 02886"]}, "phone": "+14017398673", "display_phone": "(401) 739-8673", "distance": 2956.395875845982}, {"id": "gr1yaAiMwnLrhAkDE4KGng", "alias": "timmys-restaurant-warwick", "name": "Timmy's Restaurant", "image_url": "https://s3-media1.fl.yelpcdn.com/bphoto/FG1o77hTahf5BOpEk6d0FA/o.jpg", "is_closed": false, "url": "https://www.yelp.com/biz/timmys-restaurant-warwick?adjust_creative=1woF1Kwn15wJJxNZkMIAgw&utm_campaign=yelp_api_v3&utm_medium=api_v3_business_search&utm_source=1woF1Kwn15wJJxNZkMIAgw", "review_count": 22, "categories": [{"alias": "diners", "title": "Diners"}, {"alias": "breakfast_brunch", "title": "Breakfast & Brunch"}, {"alias": "sandwiches", "title": "Sandwiches"}], "rating": 3.5, "coordinates": {"latitude": 41.7259106040001, "longitude": -71.3857537508011}, "transactions": ["delivery"], "price": "$", "location": {"address1": "644 W Shore Rd", "address2": "", "address3": "", "city": "Warwick", "zip_code": "02889", "country": "US", "state": "RI", "display_address": ["644 W Shore Rd", "Warwick, RI 02889"]}, "phone": "+14017324086", "display_phone": "(401) 732-4086", "distance": 3765.0242890653108}, {"id": "-nFM72IEBQuKcBEgplQW7w", "alias": "papa-johns-pizza-warwick-2", "name": "Papa John's Pizza", "image_url": "https://s3-media3.fl.yelpcdn.com/bphoto/1CKmveW6tsB5dl48aCUdzQ/o.jpg", "is_closed": false, "url": "https://www.yelp.com/biz/papa-johns-pizza-warwick-2?adjust_creative=1woF1Kwn15wJJxNZkMIAgw&utm_campaign=yelp_api_v3&utm_medium=api_v3_business_search&utm_source=1woF1Kwn15wJJxNZkMIAgw", "review_count": 20, "categories": [{"alias": "pizza", "title": "Pizza"}], "rating": 2.5, "coordinates": {"latitude": 41.746675, "longitude": -71.424265}, "transactions": [], "price": "$", "location": {"address1": "1160 Post Rd", "address2": "Ste 10", "address3": "", "city": "Warwick", "zip_code": "02888", "country": "US", "state": "RI", "display_address": ["1160 Post Rd", "Ste 10", "Warwick, RI 02888"]}, "phone": "+14014617975", "display_phone": "(401) 461-7975", "distance": 3931.07003322771}, {"id": "YjfusvTUTK2entmpL3aAnQ", "alias": "subway-warwick-21", "name": "Subway", "image_url": "https://s3-media2.fl.yelpcdn.com/bphoto/WnBzOv4IHsq9XDa64pyBqQ/o.jpg", "is_closed": false, "url": "https://www.yelp.com/biz/subway-warwick-21?adjust_creative=1woF1Kwn15wJJxNZkMIAgw&utm_campaign=yelp_api_v3&utm_medium=api_v3_business_search&utm_source=1woF1Kwn15wJJxNZkMIAgw", "review_count": 7, "categories": [{"alias": "sandwiches", "title": "Sandwiches"}], "rating": 2.5, "coordinates": {"latitude": 41.725569, "longitude": -71.476018}, "transactions": ["delivery", "pickup"], "price": "$", "location": {"address1": "400 Bald Hill Rd", "address2": null, "address3": null, "city": "Warwick", "zip_code": "02886", "country": "US", "state": "RI", "display_address": ["400 Bald Hill Rd", "Warwick, RI 02886"]}, "phone": "+14017325187", "display_phone": "(401) 732-5187", "distance": 4396.597029855209}, {"id": "JIhRVJ4BAWPH9NZ0u-7Wzw", "alias": "flip-n-roll-fall-river", "name": "Flip N Roll", "image_url": "https://s3-media1.fl.yelpcdn.com/bphoto/A3l1k85peGnmCC17j-Bmhg/o.jpg", "is_closed": false, "url": "https://www.yelp.com/biz/flip-n-roll-fall-river?adjust_creative=1woF1Kwn15wJJxNZkMIAgw&utm_campaign=yelp_api_v3&utm_medium=api_v3_business_search&utm_source=1woF1Kwn15wJJxNZkMIAgw", "review_count": 1, "categories": [{"alias": "foodtrucks", "title": "Food Trucks"}, {"alias": "tradamerican", "title": "American (Traditional)"}, {"alias": "portuguese", "title": "Portuguese"}], "rating": 1.0, "coordinates": {"latitude": 41.68687, "longitude": -71.17062}, "transactions": [], "price": "$$", "location": {"address1": "", "address2": "", "address3": "", "city": "Fall River", "zip_code": "02724", "country": "US", "state": "MA", "display_address": ["Fall River, MA 02724"]}, "phone": "", "display_phone": "", "distance": 21080.145927931942}, {"id": "W1y5r9T5AaDU9qjOPRj6OQ", "alias": "subway-warwick-22", "name": "Subway", "image_url": "https://s3-media1.fl.yelpcdn.com/bphoto/tEA3diJ618454o2Rw7zlyw/o.jpg", "is_closed": false, "url": "https://www.yelp.com/biz/subway-warwick-22?adjust_creative=1woF1Kwn15wJJxNZkMIAgw&utm_campaign=yelp_api_v3&utm_medium=api_v3_business_search&utm_source=1woF1Kwn15wJJxNZkMIAgw", "review_count": 6, "categories": [{"alias": "sandwiches", "title": "Sandwiches"}], "rating": 3.5, "coordinates": {"latitude": 41.6917260793295, "longitude": -71.4560069648643}, "transactions": ["delivery", "pickup"], "price": "$", "location": {"address1": "3602 - 3604 Post Rd", "address2": null, "address3": null, "city": "Warwick", "zip_code": "02886", "country": "US", "state": "RI", "display_address": ["3602 - 3604 Post Rd", "Warwick, RI 02886"]}, "phone": "+14019215505", "display_phone": "(401) 921-5505", "distance": 3276.567005663202}, {"id": "oXi5uZqBHaRN-9LfbTz4iw", "alias": "solarcart-cafe-wakefield", "name": "SolarCart Cafe", "image_url": "https://s3-media3.fl.yelpcdn.com/bphoto/2jnm4N-kA74C1G385wcvjw/o.jpg", "is_closed": false, "url": "https://www.yelp.com/biz/solarcart-cafe-wakefield?adjust_creative=1woF1Kwn15wJJxNZkMIAgw&utm_campaign=yelp_api_v3&utm_medium=api_v3_business_search&utm_source=1woF1Kwn15wJJxNZkMIAgw", "review_count": 5, "categories": [{"alias": "foodtrucks", "title": "Food Trucks"}, {"alias": "cafes", "title": "Cafes"}], "rating": 5.0, "coordinates": {"latitude": 41.3783548485934, "longitude": -71.5497396899248}, "transactions": [], "location": {"address1": "344 Main St", "address2": "", "address3": null, "city": "Wakefield", "zip_code": "02879", "country": "US", "state": "RI", "display_address": ["344 Main St", "Wakefield, RI 02879"]}, "phone": "+14017936041", "display_phone": "(401) 793-6041", "distance": 38421.23183448769}, {"id": "Xah7iKGjf3wKZPz1Fn0gQA", "alias": "dels-frozen-lemonade-warwick-2", "name": "Del's Frozen Lemonade", "image_url": "", "is_closed": false, "url": "https://www.yelp.com/biz/dels-frozen-lemonade-warwick-2?adjust_creative=1woF1Kwn15wJJxNZkMIAgw&utm_campaign=yelp_api_v3&utm_medium=api_v3_business_search&utm_source=1woF1Kwn15wJJxNZkMIAgw", "review_count": 1, "categories": [{"alias": "newamerican", "title": "American (New)"}], "rating": 1.0, "coordinates": {"latitude": 41.7496605, "longitude": -71.4230576}, "transactions": [], "location": {"address1": "2121 Elmwood Ave", "address2": "", "address3": "", "city": "Warwick", "zip_code": "02888", "country": "US", "state": "RI", "display_address": ["2121 Elmwood Ave", "Warwick, RI 02888"]}, "phone": "", "display_phone": "", "distance": 4264.383986130955}, {"id": "324pp6avrBFbzw059DoHsA", "alias": "roadies-raleigh", "name": "Roadies", "image_url": "https://s3-media2.fl.yelpcdn.com/bphoto/3zJZmmgIOYrfKoAOp9Du1w/o.jpg", "is_closed": false, "url": "https://www.yelp.com/biz/roadies-raleigh?adjust_creative=1woF1Kwn15wJJxNZkMIAgw&utm_campaign=yelp_api_v3&utm_medium=api_v3_business_search&utm_source=1woF1Kwn15wJJxNZkMIAgw", "review_count": 10, "categories": [{"alias": "foodtrucks", "title": "Food Trucks"}, {"alias": "seafood", "title": "Seafood"}], "rating": 4.5, "coordinates": {"latitude": 35.67575, "longitude": -78.66424}, "transactions": [], "price": "$", "location": {"address1": "", "address2": null, "address3": "", "city": "Raleigh", "zip_code": "27603", "country": "US", "state": "NC", "display_address": ["Raleigh, NC 27603"]}, "phone": "+13476136489", "display_phone": "(347) 613-6489", "distance": 920500.9025909388}]