[{"id": "7dKR6hMlSmQLUIE18fBC9w", "alias": "the-tree-house-tavern-and-bistro-warwick", "name": "The Tree House Tavern & Bistro", "image_url": "https://s3-media4.fl.yelpcdn.com/bphoto/_KwLrirdhlRL3tUwJyzxog/o.jpg", "is_closed": false, "url": "https://www.yelp.com/biz/the-tree-house-tavern-and-bistro-warwick?adjust_creative=pzvBKuEUl0Vl1jtHQqJaog&utm_campaign=yelp_api_v3&utm_medium=api_v3_business_search&utm_source=pzvBKuEUl0Vl1jtHQqJaog", "review_count": 522, "categories": [{"alias": "newamerican", "title": "American (New)"}, {"alias": "gastropubs", "title": "Gastropubs"}], "rating": 4.0, "coordinates": {"latitude": 41.69627, "longitude": -71.49998}, "transactions": ["delivery"], "price": "$$", "location": {"address1": "1094 Centerville Rd", "address2": "", "address3": "", "city": "Warwick", "zip_code": "02886", "country": "US", "state": "RI", "display_address": ["1094 Centerville Rd", "Warwick, RI 02886"]}, "phone": "+14018211447", "display_phone": "(401) 821-1447", "distance": 5784.807921121916}, {"id": "-ywXNp1-Pw_cH4KRb9W_Bg", "alias": "rufinos-pizzeria-scituate", "name": "Rufinos Pizzeria", "image_url": "https://s3-media1.fl.yelpcdn.com/bphoto/a1LrkZE-JOUjFnMEF1LCFg/o.jpg", "is_closed": false, "url": "https://www.yelp.com/biz/rufinos-pizzeria-scituate?adjust_creative=pzvBKuEUl0Vl1jtHQqJaog&utm_campaign=yelp_api_v3&utm_medium=api_v3_business_search&utm_source=pzvBKuEUl0Vl1jtHQqJaog", "review_count": 15, "categories": [{"alias": "pizza", "title": "Pizza"}], "rating": 3.5, "coordinates": {"latitude": 41.7304469480088, "longitude": -71.5635037782368}, "transactions": ["pickup", "delivery"], "location": {"address1": "4 Hope Furnace Rd", "address2": "", "address3": null, "city": "Scituate", "zip_code": "02831", "country": "US", "state": "RI", "display_address": ["4 Hope Furnace Rd", "Scituate, RI 02831"]}, "phone": "+14018261444", "display_phone": "(401) 826-1444", "distance": 1249.4284354569315}, {"id": "xa6Ysy_MN0gMmfMzbZOz_g", "alias": "hash-ny-system-coventry", "name": "Hash Ny System", "image_url": "https://s3-media2.fl.yelpcdn.com/bphoto/TyhuQl_lu6oSuryltZ4kvw/o.jpg", "is_closed": false, "url": "https://www.yelp.com/biz/hash-ny-system-coventry?adjust_creative=pzvBKuEUl0Vl1jtHQqJaog&utm_campaign=yelp_api_v3&utm_medium=api_v3_business_search&utm_source=pzvBKuEUl0Vl1jtHQqJaog", "review_count": 3, "categories": [{"alias": "breakfast_brunch", "title": "Breakfast & Brunch"}, {"alias": "diners", "title": "Diners"}], "rating": 4.5, "coordinates": {"latitude": 41.7236, "longitude": -71.53469}, "transactions": [], "location": {"address1": "656 Main St", "address2": null, "address3": "", "city": "Coventry", "zip_code": "02816", "country": "US", "state": "RI", "display_address": ["656 Main St", "Coventry, RI 02816"]}, "phone": "+14013208476", "display_phone": "(401) 320-8476", "distance": 1529.3723475448917}, {"id": "rNyNrOfeYavjaODmG_JMgg", "alias": "sherris-come-along-inn-coventry", "name": "Sherri's Come Along Inn", "image_url": "https://s3-media4.fl.yelpcdn.com/bphoto/BFimnJMYGM9UjmXib4b6MA/o.jpg", "is_closed": false, "url": "https://www.yelp.com/biz/sherris-come-along-inn-coventry?adjust_creative=pzvBKuEUl0Vl1jtHQqJaog&utm_campaign=yelp_api_v3&utm_medium=api_v3_business_search&utm_source=pzvBKuEUl0Vl1jtHQqJaog", "review_count": 22, "categories": [{"alias": "tradamerican", "title": "American (Traditional)"}, {"alias": "italian", "title": "Italian"}, {"alias": "burgers", "title": "Burgers"}], "rating": 4.5, "coordinates": {"latitude": 41.6954474, "longitude": -71.5334644}, "transactions": ["pickup", "delivery"], "location": {"address1": "402 Washington St", "address2": "", "address3": "", "city": "Coventry", "zip_code": "02816", "country": "US", "state": "RI", "display_address": ["402 Washington St", "Coventry, RI 02816"]}, "phone": "+14018288300", "display_phone": "(401) 828-8300", "distance": 4412.973470793485}, {"id": "naEyZsIhWLJdGScpIArZVA", "alias": "pagliarinis-family-restaurant-and-pizza-coventry", "name": "Pagliarini's Family Restaurant & Pizza", "image_url": "https://s3-media2.fl.yelpcdn.com/bphoto/PwXbbp6DtCyZ21fZdZbgrA/o.jpg", "is_closed": false, "url": "https://www.yelp.com/biz/pagliarinis-family-restaurant-and-pizza-coventry?adjust_creative=pzvBKuEUl0Vl1jtHQqJaog&utm_campaign=yelp_api_v3&utm_medium=api_v3_business_search&utm_source=pzvBKuEUl0Vl1jtHQqJaog", "review_count": 32, "categories": [{"alias": "pizza", "title": "Pizza"}], "rating": 4.0, "coordinates": {"latitude": 41.6966631, "longitude": -71.5474068}, "transactions": ["delivery"], "price": "$$", "location": {"address1": "637 Washington St", "address2": "", "address3": "", "city": "Coventry", "zip_code": "02816", "country": "US", "state": "RI", "display_address": ["637 Washington St", "Coventry, RI 02816"]}, "phone": "+14018285555", "display_phone": "(401) 828-5555", "distance": 4035.7652645558996}, {"id": "c9HB4HyuXa9djtAjc76gYw", "alias": "boneheads-wing-bar-west-warwick", "name": "Boneheads Wing Bar", "image_url": "https://s3-media4.fl.yelpcdn.com/bphoto/4IOWdznDMEr4oD-vjfUg6Q/o.jpg", "is_closed": false, "url": "https://www.yelp.com/biz/boneheads-wing-bar-west-warwick?adjust_creative=pzvBKuEUl0Vl1jtHQqJaog&utm_campaign=yelp_api_v3&utm_medium=api_v3_business_search&utm_source=pzvBKuEUl0Vl1jtHQqJaog", "review_count": 750, "categories": [{"alias": "burgers", "title": "Burgers"}, {"alias": "chicken_wings", "title": "Chicken Wings"}, {"alias": "tradamerican", "title": "American (Traditional)"}], "rating": 4.0, "coordinates": {"latitude": 41.70248, "longitude": -71.52653}, "transactions": ["delivery"], "price": "$$", "location": {"address1": "131 Washington St", "address2": null, "address3": "", "city": "West Warwick", "zip_code": "02893", "country": "US", "state": "RI", "display_address": ["131 Washington St", "West Warwick, RI 02893"]}, "phone": "+14018289464", "display_phone": "(401) 828-9464", "distance": 3904.6424228249825}, {"id": "HJLmaofmJzy7bGebY1a22Q", "alias": "la-casita-west-warwick", "name": "La Casita", "image_url": "https://s3-media3.fl.yelpcdn.com/bphoto/cCl7Q3EA1zc6OTOugP8qlA/o.jpg", "is_closed": false, "url": "https://www.yelp.com/biz/la-casita-west-warwick?adjust_creative=pzvBKuEUl0Vl1jtHQqJaog&utm_campaign=yelp_api_v3&utm_medium=api_v3_business_search&utm_source=pzvBKuEUl0Vl1jtHQqJaog", "review_count": 29, "categories": [{"alias": "dominican", "title": "Dominican"}, {"alias": "latin", "title": "Latin American"}, {"alias": "hotdogs", "title": "Fast Food"}], "rating": 4.5, "coordinates": {"latitude": 41.71011, "longitude": -71.52046}, "transactions": ["pickup", "delivery"], "price": "$", "location": {"address1": "53 Providence St", "address2": null, "address3": "", "city": "West Warwick", "zip_code": "02893", "country": "US", "state": "RI", "display_address": ["53 Providence St", "West Warwick, RI 02893"]}, "phone": "+14012623524", "display_phone": "(401) 262-3524", "distance": 3507.9888158741896}, {"id": "BKZJqQX8IGDqEg2kGNHCzQ", "alias": "harris-bar-and-grill-coventry", "name": "Harris Bar & Grill", "image_url": "https://s3-media2.fl.yelpcdn.com/bphoto/Bxsh-4B0QwUiaqsi9gpwbg/o.jpg", "is_closed": false, "url": "https://www.yelp.com/biz/harris-bar-and-grill-coventry?adjust_creative=pzvBKuEUl0Vl1jtHQqJaog&utm_campaign=yelp_api_v3&utm_medium=api_v3_business_search&utm_source=pzvBKuEUl0Vl1jtHQqJaog", "review_count": 26, "categories": [{"alias": "bars", "title": "Bars"}, {"alias": "italian", "title": "Italian"}, {"alias": "newamerican", "title": "American (New)"}], "rating": 4.0, "coordinates": {"latitude": 41.7234, "longitude": -71.53452}, "transactions": ["delivery"], "price": "$$", "location": {"address1": "666 Main St", "address2": "", "address3": "", "city": "Coventry", "zip_code": "02816", "country": "US", "state": "RI", "display_address": ["666 Main St", "Coventry, RI 02816"]}, "phone": "+14018239178", "display_phone": "(401) 823-9178", "distance": 1543.3162630180511}, {"id": "KteX1CYSyHNhiambfEX1Kg", "alias": "bill-s-place-west-warwick", "name": "Bill\u2019s Place", "image_url": "https://s3-media4.fl.yelpcdn.com/bphoto/0B2lK_5AUHMGa6Hw2KnvqQ/o.jpg", "is_closed": false, "url": "https://www.yelp.com/biz/bill-s-place-west-warwick?adjust_creative=pzvBKuEUl0Vl1jtHQqJaog&utm_campaign=yelp_api_v3&utm_medium=api_v3_business_search&utm_source=pzvBKuEUl0Vl1jtHQqJaog", "review_count": 62, "categories": [{"alias": "pizza", "title": "Pizza"}, {"alias": "tradamerican", "title": "American (Traditional)"}], "rating": 4.0, "coordinates": {"latitude": 41.72237, "longitude": -71.53388}, "transactions": ["delivery"], "price": "$$", "location": {"address1": "707 Main St", "address2": "", "address3": "", "city": "West Warwick", "zip_code": "02893", "country": "US", "state": "RI", "display_address": ["707 Main St", "West Warwick, RI 02893"]}, "phone": "+14018282300", "display_phone": "(401) 828-2300", "distance": 1751.740767178088}, {"id": "mZHm6Sd-aSMaSz_LYy38eg", "alias": "masala-west-warwick-2", "name": "Masala", "image_url": "https://s3-media4.fl.yelpcdn.com/bphoto/b9-oLXBcmccvgz_2jKeEnA/o.jpg", "is_closed": false, "url": "https://www.yelp.com/biz/masala-west-warwick-2?adjust_creative=pzvBKuEUl0Vl1jtHQqJaog&utm_campaign=yelp_api_v3&utm_medium=api_v3_business_search&utm_source=pzvBKuEUl0Vl1jtHQqJaog", "review_count": 75, "categories": [{"alias": "pakistani", "title": "Pakistani"}, {"alias": "halal", "title": "Halal"}, {"alias": "indpak", "title": "Indian"}], "rating": 4.5, "coordinates": {"latitude": 41.69527, "longitude": -71.50173}, "transactions": ["pickup", "delivery"], "price": "$$", "location": {"address1": "35 Quaker Ln", "address2": null, "address3": "", "city": "West Warwick", "zip_code": "02893", "country": "US", "state": "RI", "display_address": ["35 Quaker Ln", "West Warwick, RI 02893"]}, "phone": "+14016150623", "display_phone": "(401) 615-0623", "distance": 5748.4561515031455}, {"id": "oA6pzljTtLsE7i-pJjDoww", "alias": "on-the-rochs-warwick", "name": "On The Roch's", "image_url": "https://s3-media2.fl.yelpcdn.com/bphoto/tS6u30oZDFysAgBkprDkqQ/o.jpg", "is_closed": false, "url": "https://www.yelp.com/biz/on-the-rochs-warwick?adjust_creative=pzvBKuEUl0Vl1jtHQqJaog&utm_campaign=yelp_api_v3&utm_medium=api_v3_business_search&utm_source=pzvBKuEUl0Vl1jtHQqJaog", "review_count": 29, "categories": [{"alias": "tradamerican", "title": "American (Traditional)"}, {"alias": "seafood", "title": "Seafood"}, {"alias": "steak", "title": "Steakhouses"}], "rating": 4.0, "coordinates": {"latitude": 41.6960814, "longitude": -71.5186362}, "transactions": ["delivery"], "price": "$$", "location": {"address1": "1595 Centerville Rd", "address2": "", "address3": "", "city": "Warwick", "zip_code": "02886", "country": "US", "state": "RI", "display_address": ["1595 Centerville Rd", "Warwick, RI 02886"]}, "phone": "+14018213262", "display_phone": "(401) 821-3262", "distance": 4858.940098392991}, {"id": "QfH8gfhXwfP8mQ_YRSX-CA", "alias": "phenix-square-restaurant-west-warwick", "name": "Phenix Square Restaurant", "image_url": "https://s3-media3.fl.yelpcdn.com/bphoto/xCym9lRhAfCzyesfDZx9cg/o.jpg", "is_closed": false, "url": "https://www.yelp.com/biz/phenix-square-restaurant-west-warwick?adjust_creative=pzvBKuEUl0Vl1jtHQqJaog&utm_campaign=yelp_api_v3&utm_medium=api_v3_business_search&utm_source=pzvBKuEUl0Vl1jtHQqJaog", "review_count": 10, "categories": [{"alias": "restaurants", "title": "Restaurants"}], "rating": 3.5, "coordinates": {"latitude": 41.72131, "longitude": -71.531845}, "transactions": [], "price": "$", "location": {"address1": "9 Pleasant St", "address2": "", "address3": "", "city": "West Warwick", "zip_code": "02893", "country": "US", "state": "RI", "display_address": ["9 Pleasant St", "West Warwick, RI 02893"]}, "phone": "+14018288110", "display_phone": "(401) 828-8110", "distance": 1956.801857712874}, {"id": "JzzOQvIrC6jq6rYL0eIzTA", "alias": "jws-pub-coventry", "name": "Jw's Pub", "image_url": "https://s3-media2.fl.yelpcdn.com/bphoto/zU2UuWxz9GW7i2O-GKb3pg/o.jpg", "is_closed": false, "url": "https://www.yelp.com/biz/jws-pub-coventry?adjust_creative=pzvBKuEUl0Vl1jtHQqJaog&utm_campaign=yelp_api_v3&utm_medium=api_v3_business_search&utm_source=pzvBKuEUl0Vl1jtHQqJaog", "review_count": 31, "categories": [{"alias": "chicken_wings", "title": "Chicken Wings"}, {"alias": "burgers", "title": "Burgers"}, {"alias": "cocktailbars", "title": "Cocktail Bars"}], "rating": 4.5, "coordinates": {"latitude": 41.6956, "longitude": -71.53568}, "transactions": ["delivery"], "price": "$$", "location": {"address1": "433 Washington St", "address2": null, "address3": "", "city": "Coventry", "zip_code": "02816", "country": "US", "state": "RI", "display_address": ["433 Washington St", "Coventry, RI 02816"]}, "phone": "+14012623350", "display_phone": "(401) 262-3350", "distance": 4331.835061566087}, {"id": "1I6QwzIco9yhPDGRie6vUg", "alias": "hong-kong-restaurant-west-warwick", "name": "Hong Kong Restaurant", "image_url": "https://s3-media4.fl.yelpcdn.com/bphoto/fTucSX43Oeo_DE0TiaeeeA/o.jpg", "is_closed": false, "url": "https://www.yelp.com/biz/hong-kong-restaurant-west-warwick?adjust_creative=pzvBKuEUl0Vl1jtHQqJaog&utm_campaign=yelp_api_v3&utm_medium=api_v3_business_search&utm_source=pzvBKuEUl0Vl1jtHQqJaog", "review_count": 27, "categories": [{"alias": "chinese", "title": "Chinese"}], "rating": 4.0, "coordinates": {"latitude": 41.7029743641615, "longitude": -71.5258750319481}, "transactions": ["pickup", "delivery"], "price": "$", "location": {"address1": "77 Washington St", "address2": "", "address3": "", "city": "West Warwick", "zip_code": "02893", "country": "US", "state": "RI", "display_address": ["77 Washington St", "West Warwick, RI 02893"]}, "phone": "+14018213553", "display_phone": "(401) 821-3553", "distance": 3888.9159276008622}, {"id": "nVKQURDEiZbXn8PdT0bO6Q", "alias": "ye-express-west-warwick", "name": "Ye Express", "image_url": "https://s3-media3.fl.yelpcdn.com/bphoto/5TnZAeH7HtWOiCSyNu4yvQ/o.jpg", "is_closed": false, "url": "https://www.yelp.com/biz/ye-express-west-warwick?adjust_creative=pzvBKuEUl0Vl1jtHQqJaog&utm_campaign=yelp_api_v3&utm_medium=api_v3_business_search&utm_source=pzvBKuEUl0Vl1jtHQqJaog", "review_count": 113, "categories": [{"alias": "japanese", "title": "Japanese"}, {"alias": "chinese", "title": "Chinese"}, {"alias": "asianfusion", "title": "Asian Fusion"}], "rating": 4.0, "coordinates": {"latitude": 41.7084750824928, "longitude": -71.5226218476892}, "transactions": ["delivery"], "price": "$", "location": {"address1": "1117 Main St", "address2": "", "address3": "", "city": "West Warwick", "zip_code": "02893", "country": "US", "state": "RI", "display_address": ["1117 Main St", "West Warwick, RI 02893"]}, "phone": "+14016151920", "display_phone": "(401) 615-1920", "distance": 3530.8434073577355}, {"id": "aFGWW2iPXj3OWP45_Git2A", "alias": "nacho-mamis-taco-shop-west-warwick", "name": "Nacho Mamis Taco Shop", "image_url": "https://s3-media4.fl.yelpcdn.com/bphoto/YvPBZU7w9LLLg4JZqrWcCQ/o.jpg", "is_closed": false, "url": "https://www.yelp.com/biz/nacho-mamis-taco-shop-west-warwick?adjust_creative=pzvBKuEUl0Vl1jtHQqJaog&utm_campaign=yelp_api_v3&utm_medium=api_v3_business_search&utm_source=pzvBKuEUl0Vl1jtHQqJaog", "review_count": 3, "categories": [{"alias": "tex-mex", "title": "Tex-Mex"}, {"alias": "tacos", "title": "Tacos"}, {"alias": "salad", "title": "Salad"}], "rating": 4.5, "coordinates": {"latitude": 41.7009268, "longitude": -71.5284657}, "transactions": ["pickup", "delivery"], "location": {"address1": "231 Washington St", "address2": "", "address3": null, "city": "West Warwick", "zip_code": "02893", "country": "US", "state": "RI", "display_address": ["231 Washington St", "West Warwick, RI 02893"]}, "phone": "+14018228226", "display_phone": "(401) 822-8226", "distance": 3992.2286847064097}, {"id": "A6z565n125C9LeO0V5-B1g", "alias": "harris-deli-and-catering-coventry", "name": "Harris Deli & Catering", "image_url": "https://s3-media3.fl.yelpcdn.com/bphoto/yEHhKwA6IWbnsGElp8DzFQ/o.jpg", "is_closed": false, "url": "https://www.yelp.com/biz/harris-deli-and-catering-coventry?adjust_creative=pzvBKuEUl0Vl1jtHQqJaog&utm_campaign=yelp_api_v3&utm_medium=api_v3_business_search&utm_source=pzvBKuEUl0Vl1jtHQqJaog", "review_count": 1, "categories": [{"alias": "catering", "title": "Caterers"}, {"alias": "delis", "title": "Delis"}], "rating": 4.0, "coordinates": {"latitude": 41.7241005867093, "longitude": -71.5352952447634}, "transactions": [], "location": {"address1": "656 Main St", "address2": "", "address3": "", "city": "Coventry", "zip_code": "02816", "country": "US", "state": "RI", "display_address": ["656 Main St", "Coventry, RI 02816"]}, "phone": "+14018256044", "display_phone": "(401) 825-6044", "distance": 1535.8121099945276}, {"id": "3dnHJPffQLu9Y--GRZbM8w", "alias": "house-of-wu-west-warwick", "name": "House of Wu", "image_url": "https://s3-media1.fl.yelpcdn.com/bphoto/0WYjjMKQzYqtm5WpEcu6Ww/o.jpg", "is_closed": false, "url": "https://www.yelp.com/biz/house-of-wu-west-warwick?adjust_creative=pzvBKuEUl0Vl1jtHQqJaog&utm_campaign=yelp_api_v3&utm_medium=api_v3_business_search&utm_source=pzvBKuEUl0Vl1jtHQqJaog", "review_count": 75, "categories": [{"alias": "chinese", "title": "Chinese"}], "rating": 3.5, "coordinates": {"latitude": 41.70997, "longitude": -71.52092}, "transactions": ["delivery"], "price": "$$", "location": {"address1": "52 Providence St", "address2": "", "address3": "", "city": "West Warwick", "zip_code": "02893", "country": "US", "state": "RI", "display_address": ["52 Providence St", "West Warwick, RI 02893"]}, "phone": "+14018219838", "display_phone": "(401) 821-9838", "distance": 3461.668067009448}, {"id": "XS4ciYJ2INr7g4Un0JrA6A", "alias": "donahues-pizza-west-warwick", "name": "Donahue's Pizza", "image_url": "https://s3-media3.fl.yelpcdn.com/bphoto/tXCx0foYEH2v0Fnup3XNGw/o.jpg", "is_closed": false, "url": "https://www.yelp.com/biz/donahues-pizza-west-warwick?adjust_creative=pzvBKuEUl0Vl1jtHQqJaog&utm_campaign=yelp_api_v3&utm_medium=api_v3_business_search&utm_source=pzvBKuEUl0Vl1jtHQqJaog", "review_count": 18, "categories": [{"alias": "pizza", "title": "Pizza"}, {"alias": "hotdogs", "title": "Fast Food"}, {"alias": "sandwiches", "title": "Sandwiches"}], "rating": 4.5, "coordinates": {"latitude": 41.70557, "longitude": -71.5238215}, "transactions": ["delivery"], "location": {"address1": "1207 Main St", "address2": "", "address3": null, "city": "West Warwick", "zip_code": "02893", "country": "US", "state": "RI", "display_address": ["1207 Main St", "West Warwick, RI 02893"]}, "phone": "+14018235100", "display_phone": "(401) 823-5100", "distance": 3733.153920806631}, {"id": "XBNvv5TmctLFauyOvSA5BQ", "alias": "hunan-balcony-coventry", "name": "Hunan Balcony", "image_url": "https://s3-media1.fl.yelpcdn.com/bphoto/at0dv7GAsatur6jG7DPBXg/o.jpg", "is_closed": false, "url": "https://www.yelp.com/biz/hunan-balcony-coventry?adjust_creative=pzvBKuEUl0Vl1jtHQqJaog&utm_campaign=yelp_api_v3&utm_medium=api_v3_business_search&utm_source=pzvBKuEUl0Vl1jtHQqJaog", "review_count": 22, "categories": [{"alias": "chinese", "title": "Chinese"}], "rating": 4.0, "coordinates": {"latitude": 41.69493, "longitude": -71.55028}, "transactions": ["delivery"], "price": "$", "location": {"address1": "687 Washington St", "address2": "", "address3": "", "city": "Coventry", "zip_code": "02816", "country": "US", "state": "RI", "display_address": ["687 Washington St", "Coventry, RI 02816"]}, "phone": "+14018263833", "display_phone": "(401) 826-3833", "distance": 4274.665961634544}, {"id": "Et9W7X5V7Q4LCtDlWAlZBQ", "alias": "pinoy-lane-to-go-authentic-filipino-cuisine-warwick", "name": "Pinoy Lane To Go Authentic Filipino Cuisine", "image_url": "https://s3-media1.fl.yelpcdn.com/bphoto/bQs49lxDNWSPP_MN_tsy2A/o.jpg", "is_closed": false, "url": "https://www.yelp.com/biz/pinoy-lane-to-go-authentic-filipino-cuisine-warwick?adjust_creative=pzvBKuEUl0Vl1jtHQqJaog&utm_campaign=yelp_api_v3&utm_medium=api_v3_business_search&utm_source=pzvBKuEUl0Vl1jtHQqJaog", "review_count": 5, "categories": [{"alias": "filipino", "title": "Filipino"}], "rating": 4.0, "coordinates": {"latitude": 41.69571, "longitude": -71.50141}, "transactions": [], "location": {"address1": "24 Quaker Ln", "address2": "Ste C", "address3": null, "city": "Warwick", "zip_code": "02886", "country": "US", "state": "RI", "display_address": ["24 Quaker Ln", "Ste C", "Warwick, RI 02886"]}, "phone": "+14018688625", "display_phone": "(401) 868-8625", "distance": 5775.384853063388}, {"id": "CtDY1nvgtKEboO8gB0imDg", "alias": "westcott-house-west-warwick-2", "name": "Westcott House", "image_url": "https://s3-media3.fl.yelpcdn.com/bphoto/rXRjNzpE_a4sz6eMiSeOKw/o.jpg", "is_closed": false, "url": "https://www.yelp.com/biz/westcott-house-west-warwick-2?adjust_creative=pzvBKuEUl0Vl1jtHQqJaog&utm_campaign=yelp_api_v3&utm_medium=api_v3_business_search&utm_source=pzvBKuEUl0Vl1jtHQqJaog", "review_count": 67, "categories": [{"alias": "pizza", "title": "Pizza"}], "rating": 3.5, "coordinates": {"latitude": 41.70991, "longitude": -71.52056}, "transactions": ["delivery"], "price": "$$", "location": {"address1": "49 Providence St", "address2": "", "address3": null, "city": "West Warwick", "zip_code": "02893", "country": "US", "state": "RI", "display_address": ["49 Providence St", "West Warwick, RI 02893"]}, "phone": "+14018235510", "display_phone": "(401) 823-5510", "distance": 3562.224009289141}, {"id": "7eBVeXGuK8jzNmHZ8fqV6Q", "alias": "wicked-good-pizza-west-warwick", "name": "Wicked Good Pizza", "image_url": "https://s3-media3.fl.yelpcdn.com/bphoto/fsb3_chtNGsxOKTHlemsyg/o.jpg", "is_closed": false, "url": "https://www.yelp.com/biz/wicked-good-pizza-west-warwick?adjust_creative=pzvBKuEUl0Vl1jtHQqJaog&utm_campaign=yelp_api_v3&utm_medium=api_v3_business_search&utm_source=pzvBKuEUl0Vl1jtHQqJaog", "review_count": 27, "categories": [{"alias": "pizza", "title": "Pizza"}], "rating": 4.0, "coordinates": {"latitude": 41.712476, "longitude": -71.506882}, "transactions": ["delivery"], "price": "$", "location": {"address1": "291 Providence St", "address2": "", "address3": "", "city": "West Warwick", "zip_code": "02893", "country": "US", "state": "RI", "display_address": ["291 Providence St", "West Warwick, RI 02893"]}, "phone": "+14018212106", "display_phone": "(401) 821-2106", "distance": 4197.517335448384}, {"id": "l7zge7lXNJlWDu3yablelg", "alias": "fu-ming-chinese-restaurant-west-warwick", "name": "Fu Ming Chinese Restaurant", "image_url": "https://s3-media4.fl.yelpcdn.com/bphoto/Hzgsjn4P1Q-xaY6pRbeUNg/o.jpg", "is_closed": false, "url": "https://www.yelp.com/biz/fu-ming-chinese-restaurant-west-warwick?adjust_creative=pzvBKuEUl0Vl1jtHQqJaog&utm_campaign=yelp_api_v3&utm_medium=api_v3_business_search&utm_source=pzvBKuEUl0Vl1jtHQqJaog", "review_count": 32, "categories": [{"alias": "chinese", "title": "Chinese"}], "rating": 3.5, "coordinates": {"latitude": 41.71169, "longitude": -71.50096}, "transactions": ["delivery"], "price": "$", "location": {"address1": "350 Providence St", "address2": "", "address3": "", "city": "West Warwick", "zip_code": "02893", "country": "US", "state": "RI", "display_address": ["350 Providence St", "West Warwick, RI 02893"]}, "phone": "+14018260522", "display_phone": "(401) 826-0522", "distance": 4645.036309393422}, {"id": "4GvELSO4OipezCjrM3f6HQ", "alias": "a-js-restaurant-west-warwick", "name": "A J's Restaurant", "image_url": "https://s3-media1.fl.yelpcdn.com/bphoto/rJJFXMBvqr2w0z7R6q4xWA/o.jpg", "is_closed": false, "url": "https://www.yelp.com/biz/a-js-restaurant-west-warwick?adjust_creative=pzvBKuEUl0Vl1jtHQqJaog&utm_campaign=yelp_api_v3&utm_medium=api_v3_business_search&utm_source=pzvBKuEUl0Vl1jtHQqJaog", "review_count": 50, "categories": [{"alias": "breakfast_brunch", "title": "Breakfast & Brunch"}], "rating": 4.0, "coordinates": {"latitude": 41.70074, "longitude": -71.52307}, "transactions": [], "price": "$", "location": {"address1": "1365 Main St", "address2": "", "address3": "", "city": "West Warwick", "zip_code": "02893", "country": "US", "state": "RI", "display_address": ["1365 Main St", "West Warwick, RI 02893"]}, "phone": "+14018284160", "display_phone": "(401) 828-4160", "distance": 4218.989556521703}, {"id": "sQCksNybCzGcu1C--eRxEg", "alias": "messys-cafe-west-warwick", "name": "Messy's Cafe", "image_url": "https://s3-media2.fl.yelpcdn.com/bphoto/DLz2CCA7IBZs9pkeoScv-A/o.jpg", "is_closed": false, "url": "https://www.yelp.com/biz/messys-cafe-west-warwick?adjust_creative=pzvBKuEUl0Vl1jtHQqJaog&utm_campaign=yelp_api_v3&utm_medium=api_v3_business_search&utm_source=pzvBKuEUl0Vl1jtHQqJaog", "review_count": 38, "categories": [{"alias": "coffee", "title": "Coffee & Tea"}, {"alias": "breakfast_brunch", "title": "Breakfast & Brunch"}, {"alias": "sandwiches", "title": "Sandwiches"}], "rating": 4.5, "coordinates": {"latitude": 41.71800814569, "longitude": -71.5239880979061}, "transactions": ["delivery"], "price": "$", "location": {"address1": "919 Main St", "address2": null, "address3": "", "city": "West Warwick", "zip_code": "02893", "country": "US", "state": "RI", "display_address": ["919 Main St", "West Warwick, RI 02893"]}, "phone": "+14018233331", "display_phone": "(401) 823-3331", "distance": 2667.5943061089524}, {"id": "kwf_J_u0peu0a6tt6j60LQ", "alias": "enjoy-restaurant-west-warwick", "name": "Enjoy Restaurant", "image_url": "https://s3-media2.fl.yelpcdn.com/bphoto/0U6TDLo5nw4flJ5h4CsNkg/o.jpg", "is_closed": false, "url": "https://www.yelp.com/biz/enjoy-restaurant-west-warwick?adjust_creative=pzvBKuEUl0Vl1jtHQqJaog&utm_campaign=yelp_api_v3&utm_medium=api_v3_business_search&utm_source=pzvBKuEUl0Vl1jtHQqJaog", "review_count": 1, "categories": [{"alias": "breakfast_brunch", "title": "Breakfast & Brunch"}, {"alias": "tradamerican", "title": "American (Traditional)"}], "rating": 2.0, "coordinates": {"latitude": 41.716938, "longitude": -71.523637}, "transactions": [], "location": {"address1": "943 Main St", "address2": "", "address3": null, "city": "West Warwick", "zip_code": "02893", "country": "US", "state": "RI", "display_address": ["943 Main St", "West Warwick, RI 02893"]}, "phone": "+14013208063", "display_phone": "(401) 320-8063", "distance": 2788.152375990264}, {"id": "NxdCuo4m0HOcee6FfoogHw", "alias": "ferruccis-new-york-system-west-warwick", "name": "Ferrucci's New York System", "image_url": "https://s3-media1.fl.yelpcdn.com/bphoto/DczhztRB95ZOc2ahymvt-g/o.jpg", "is_closed": false, "url": "https://www.yelp.com/biz/ferruccis-new-york-system-west-warwick?adjust_creative=pzvBKuEUl0Vl1jtHQqJaog&utm_campaign=yelp_api_v3&utm_medium=api_v3_business_search&utm_source=pzvBKuEUl0Vl1jtHQqJaog", "review_count": 37, "categories": [{"alias": "tradamerican", "title": "American (Traditional)"}], "rating": 4.5, "coordinates": {"latitude": 41.7044792, "longitude": -71.5238724}, "transactions": ["delivery"], "price": "$", "location": {"address1": "1246 Main St", "address2": "", "address3": "", "city": "West Warwick", "zip_code": "02893", "country": "US", "state": "RI", "display_address": ["1246 Main St", "West Warwick, RI 02893"]}, "phone": "+14018219849", "display_phone": "(401) 821-9849", "distance": 3829.7704821760135}, {"id": "JIhRVJ4BAWPH9NZ0u-7Wzw", "alias": "flip-n-roll-fall-river", "name": "Flip N Roll", "image_url": "https://s3-media1.fl.yelpcdn.com/bphoto/A3l1k85peGnmCC17j-Bmhg/o.jpg", "is_closed": false, "url": "https://www.yelp.com/biz/flip-n-roll-fall-river?adjust_creative=pzvBKuEUl0Vl1jtHQqJaog&utm_campaign=yelp_api_v3&utm_medium=api_v3_business_search&utm_source=pzvBKuEUl0Vl1jtHQqJaog", "review_count": 1, "categories": [{"alias": "foodtrucks", "title": "Food Trucks"}, {"alias": "tradamerican", "title": "American (Traditional)"}, {"alias": "portuguese", "title": "Portuguese"}], "rating": 1.0, "coordinates": {"latitude": 41.68687, "longitude": -71.17062}, "transactions": [], "price": "$$", "location": {"address1": "", "address2": "", "address3": "", "city": "Fall River", "zip_code": "02724", "country": "US", "state": "MA", "display_address": ["Fall River, MA 02724"]}, "phone": "", "display_phone": "", "distance": 31481.691017336158}, {"id": "_EJtxuWrjWkZ-m_lxUtI3A", "alias": "la-cafe-west-warwick", "name": "LA Cafe", "image_url": "https://s3-media2.fl.yelpcdn.com/bphoto/Iu-iJdbEUKA7sZ6wFJTjjg/o.jpg", "is_closed": false, "url": "https://www.yelp.com/biz/la-cafe-west-warwick?adjust_creative=pzvBKuEUl0Vl1jtHQqJaog&utm_campaign=yelp_api_v3&utm_medium=api_v3_business_search&utm_source=pzvBKuEUl0Vl1jtHQqJaog", "review_count": 8, "categories": [{"alias": "cafes", "title": "Cafes"}, {"alias": "bars", "title": "Bars"}], "rating": 1.5, "coordinates": {"latitude": 41.70066, "longitude": -71.52865}, "transactions": ["delivery"], "location": {"address1": "245 Washington St", "address2": "", "address3": "", "city": "West Warwick", "zip_code": "02893", "country": "US", "state": "RI", "display_address": ["245 Washington St", "West Warwick, RI 02893"]}, "phone": "+14018276338", "display_phone": "(401) 827-6338", "distance": 4012.5867525884746}, {"id": "TWAD-_YM2xQEz-Mm30iJBg", "alias": "diggys-ice-cream-west-warwick", "name": "Diggy's Ice Cream", "image_url": "https://s3-media2.fl.yelpcdn.com/bphoto/aC-eiPyDNLFlRg_Go3oUhg/o.jpg", "is_closed": false, "url": "https://www.yelp.com/biz/diggys-ice-cream-west-warwick?adjust_creative=pzvBKuEUl0Vl1jtHQqJaog&utm_campaign=yelp_api_v3&utm_medium=api_v3_business_search&utm_source=pzvBKuEUl0Vl1jtHQqJaog", "review_count": 14, "categories": [{"alias": "icecream", "title": "Ice Cream & Frozen Yogurt"}, {"alias": "hotdogs", "title": "Fast Food"}], "rating": 4.0, "coordinates": {"latitude": 41.71797, "longitude": -71.52405}, "transactions": [], "price": "$", "location": {"address1": "925 Main St", "address2": "", "address3": "", "city": "West Warwick", "zip_code": "02893", "country": "US", "state": "RI", "display_address": ["925 Main St", "West Warwick, RI 02893"]}, "phone": "+14018231991", "display_phone": "(401) 823-1991", "distance": 2730.90387439523}, {"id": "lyQtSwpdCp7ibPmtDBh0Aw", "alias": "ronzio-pizza-and-subs-west-warwick", "name": "Ronzio Pizza & Subs", "image_url": "https://s3-media4.fl.yelpcdn.com/bphoto/tL1YmSctZIKrRxksq0hsfw/o.jpg", "is_closed": false, "url": "https://www.yelp.com/biz/ronzio-pizza-and-subs-west-warwick?adjust_creative=pzvBKuEUl0Vl1jtHQqJaog&utm_campaign=yelp_api_v3&utm_medium=api_v3_business_search&utm_source=pzvBKuEUl0Vl1jtHQqJaog", "review_count": 15, "categories": [{"alias": "pizza", "title": "Pizza"}], "rating": 3.5, "coordinates": {"latitude": 41.7144495248795, "longitude": -71.5238982439041}, "transactions": ["pickup", "delivery"], "location": {"address1": "1013 Main St", "address2": null, "address3": null, "city": "West Warwick", "zip_code": "02893", "country": "US", "state": "RI", "display_address": ["1013 Main St", "West Warwick, RI 02893"]}, "phone": "+14015866020", "display_phone": "(401) 586-6020", "distance": 2957.5746129409717}, {"id": "EbArtnTfe-gV2O47ZJZoWQ", "alias": "aloha-pizza-west-warwick", "name": "Aloha Pizza", "image_url": "https://s3-media3.fl.yelpcdn.com/bphoto/2FW0DHTiv95hb6spGUM_Yg/o.jpg", "is_closed": false, "url": "https://www.yelp.com/biz/aloha-pizza-west-warwick?adjust_creative=pzvBKuEUl0Vl1jtHQqJaog&utm_campaign=yelp_api_v3&utm_medium=api_v3_business_search&utm_source=pzvBKuEUl0Vl1jtHQqJaog", "review_count": 25, "categories": [{"alias": "pizza", "title": "Pizza"}], "rating": 4.0, "coordinates": {"latitude": 41.70076, "longitude": -71.52734}, "transactions": ["delivery"], "price": "$$", "location": {"address1": "126 Roberts St", "address2": "", "address3": "", "city": "West Warwick", "zip_code": "02893", "country": "US", "state": "RI", "display_address": ["126 Roberts St", "West Warwick, RI 02893"]}, "phone": "+14018214010", "display_phone": "(401) 821-4010", "distance": 4053.58957493137}, {"id": "a2OwgMRTKgmQcKPlZk1rqA", "alias": "pizza-hut-warwick", "name": "Pizza Hut", "image_url": "https://s3-media3.fl.yelpcdn.com/bphoto/KYw397N_hgEl6ArKML7_1w/o.jpg", "is_closed": false, "url": "https://www.yelp.com/biz/pizza-hut-warwick?adjust_creative=pzvBKuEUl0Vl1jtHQqJaog&utm_campaign=yelp_api_v3&utm_medium=api_v3_business_search&utm_source=pzvBKuEUl0Vl1jtHQqJaog", "review_count": 28, "categories": [{"alias": "pizza", "title": "Pizza"}, {"alias": "italian", "title": "Italian"}, {"alias": "chicken_wings", "title": "Chicken Wings"}], "rating": 1.5, "coordinates": {"latitude": 41.6959914, "longitude": -71.5011987090111}, "transactions": [], "price": "$", "location": {"address1": "10 Quaker Ln", "address2": "", "address3": "", "city": "Warwick", "zip_code": "02886", "country": "US", "state": "RI", "display_address": ["10 Quaker Ln", "Warwick, RI 02886"]}, "phone": "+14018216726", "display_phone": "(401) 821-6726", "distance": 5747.290891888117}, {"id": "syMEjHwysLiiVyZtMp1l0A", "alias": "fens-express-west-warwick", "name": "Fen's Express", "image_url": "https://s3-media1.fl.yelpcdn.com/bphoto/w8JldkVnYUpFsErgAydjkA/o.jpg", "is_closed": false, "url": "https://www.yelp.com/biz/fens-express-west-warwick?adjust_creative=pzvBKuEUl0Vl1jtHQqJaog&utm_campaign=yelp_api_v3&utm_medium=api_v3_business_search&utm_source=pzvBKuEUl0Vl1jtHQqJaog", "review_count": 9, "categories": [{"alias": "chinese", "title": "Chinese"}, {"alias": "thai", "title": "Thai"}, {"alias": "noodles", "title": "Noodles"}], "rating": 3.5, "coordinates": {"latitude": 41.7156972, "longitude": -71.5238497}, "transactions": ["delivery"], "price": "$$", "location": {"address1": "975 Main St", "address2": null, "address3": null, "city": "West Warwick", "zip_code": "02893", "country": "US", "state": "RI", "display_address": ["975 Main St", "West Warwick, RI 02893"]}, "phone": "+14018218336", "display_phone": "(401) 821-8336", "distance": 2861.7108828845617}, {"id": "B0vbZet_tKwqgcAPZY-Sqw", "alias": "mister-taco-que-pasa-restaurant-west-warwick", "name": "Mister Taco Que Pasa Restaurant", "image_url": "", "is_closed": false, "url": "https://www.yelp.com/biz/mister-taco-que-pasa-restaurant-west-warwick?adjust_creative=pzvBKuEUl0Vl1jtHQqJaog&utm_campaign=yelp_api_v3&utm_medium=api_v3_business_search&utm_source=pzvBKuEUl0Vl1jtHQqJaog", "review_count": 1, "categories": [{"alias": "mexican", "title": "Mexican"}], "rating": 1.0, "coordinates": {"latitude": 41.70991, "longitude": -71.52018}, "transactions": [], "location": {"address1": "49 Providence St", "address2": "", "address3": "", "city": "West Warwick", "zip_code": "02893", "country": "US", "state": "RI", "display_address": ["49 Providence St", "West Warwick, RI 02893"]}, "phone": "+14018287573", "display_phone": "(401) 828-7573", "distance": 3562.0031456996126}, {"id": "NH3XUDFa65gpp1-vXRRJVQ", "alias": "dominos-pizza-west-warwick-2", "name": "Domino's Pizza", "image_url": "https://s3-media2.fl.yelpcdn.com/bphoto/542SUCySDUSrWUHdd2FCpQ/o.jpg", "is_closed": false, "url": "https://www.yelp.com/biz/dominos-pizza-west-warwick-2?adjust_creative=pzvBKuEUl0Vl1jtHQqJaog&utm_campaign=yelp_api_v3&utm_medium=api_v3_business_search&utm_source=pzvBKuEUl0Vl1jtHQqJaog", "review_count": 13, "categories": [{"alias": "pizza", "title": "Pizza"}, {"alias": "sandwiches", "title": "Sandwiches"}, {"alias": "chicken_wings", "title": "Chicken Wings"}], "rating": 3.5, "coordinates": {"latitude": 41.71641, "longitude": -71.52363}, "transactions": [], "price": "$", "location": {"address1": "957 Main St", "address2": null, "address3": null, "city": "West Warwick", "zip_code": "02893", "country": "US", "state": "RI", "display_address": ["957 Main St", "West Warwick, RI 02893"]}, "phone": "+14018263636", "display_phone": "(401) 826-3636", "distance": 2822.9307191788153}, {"id": "Io4C5tUwnb_YzeaMXHBqBA", "alias": "shuckin-truck-narragansett-2", "name": "Shuckin Truck", "image_url": "https://s3-media2.fl.yelpcdn.com/bphoto/r7QRORfe9UYVS7GGzUm9DQ/o.jpg", "is_closed": false, "url": "https://www.yelp.com/biz/shuckin-truck-narragansett-2?adjust_creative=pzvBKuEUl0Vl1jtHQqJaog&utm_campaign=yelp_api_v3&utm_medium=api_v3_business_search&utm_source=pzvBKuEUl0Vl1jtHQqJaog", "review_count": 24, "categories": [{"alias": "foodtrucks", "title": "Food Trucks"}, {"alias": "seafood", "title": "Seafood"}], "rating": 4.5, "coordinates": {"latitude": 41.4274482727051, "longitude": -71.4597778320313}, "transactions": [], "price": "$$", "location": {"address1": "", "address2": "", "address3": "", "city": "Narragansett", "zip_code": "02882", "country": "US", "state": "RI", "display_address": ["Narragansett, RI 02882"]}, "phone": "+14017415953", "display_phone": "(401) 741-5953", "distance": 37586.41770306444}, {"id": "2NvGvGAKUdM2vg8itoTxGA", "alias": "classic-deli-warwick", "name": "Classic Deli", "image_url": "", "is_closed": false, "url": "https://www.yelp.com/biz/classic-deli-warwick?adjust_creative=pzvBKuEUl0Vl1jtHQqJaog&utm_campaign=yelp_api_v3&utm_medium=api_v3_business_search&utm_source=pzvBKuEUl0Vl1jtHQqJaog", "review_count": 6, "categories": [{"alias": "delis", "title": "Delis"}, {"alias": "breakfast_brunch", "title": "Breakfast & Brunch"}, {"alias": "soup", "title": "Soup"}], "rating": 2.5, "coordinates": {"latitude": 41.6956736, "longitude": -71.5011525}, "transactions": ["delivery"], "price": "$", "location": {"address1": "24 Quaker Ln", "address2": "Ste C", "address3": "", "city": "Warwick", "zip_code": "02886", "country": "US", "state": "RI", "display_address": ["24 Quaker Ln", "Ste C", "Warwick, RI 02886"]}, "phone": "+14018235050", "display_phone": "(401) 823-5050", "distance": 5775.561706716116}, {"id": "rn-GTQh8wePnBVhKRMbdFg", "alias": "subway-west-warwick-5", "name": "Subway", "image_url": "https://s3-media2.fl.yelpcdn.com/bphoto/xn4sMtXoSQP2PdblhHKRRQ/o.jpg", "is_closed": false, "url": "https://www.yelp.com/biz/subway-west-warwick-5?adjust_creative=pzvBKuEUl0Vl1jtHQqJaog&utm_campaign=yelp_api_v3&utm_medium=api_v3_business_search&utm_source=pzvBKuEUl0Vl1jtHQqJaog", "review_count": 6, "categories": [{"alias": "sandwiches", "title": "Sandwiches"}], "rating": 3.5, "coordinates": {"latitude": 41.7175723019657, "longitude": -71.5244957110451}, "transactions": ["pickup", "delivery"], "price": "$", "location": {"address1": "927 Main St", "address2": null, "address3": null, "city": "West Warwick", "zip_code": "02893", "country": "US", "state": "RI", "display_address": ["927 Main St", "West Warwick, RI 02893"]}, "phone": "+14016158118", "display_phone": "(401) 615-8118", "distance": 2688.0915214521688}, {"id": "gZA9sXnQQ-osowiuMJkxzA", "alias": "d-angelo-west-warwick", "name": "D'Angelo", "image_url": "https://s3-media2.fl.yelpcdn.com/bphoto/MhNpnAHa1BHPDgyXUtABcg/o.jpg", "is_closed": false, "url": "https://www.yelp.com/biz/d-angelo-west-warwick?adjust_creative=pzvBKuEUl0Vl1jtHQqJaog&utm_campaign=yelp_api_v3&utm_medium=api_v3_business_search&utm_source=pzvBKuEUl0Vl1jtHQqJaog", "review_count": 17, "categories": [{"alias": "salad", "title": "Salad"}, {"alias": "sandwiches", "title": "Sandwiches"}], "rating": 2.0, "coordinates": {"latitude": 41.7058674, "longitude": -71.5236564}, "transactions": ["delivery"], "price": "$$", "location": {"address1": "1199 Main St", "address2": "", "address3": "", "city": "West Warwick", "zip_code": "02893", "country": "US", "state": "RI", "display_address": ["1199 Main St", "West Warwick, RI 02893"]}, "phone": "+14018230013", "display_phone": "(401) 823-0013", "distance": 3713.9317899577686}, {"id": "cvE78Vllpmo9WZMdJd-RZQ", "alias": "subway-warwick-23", "name": "Subway", "image_url": "https://s3-media3.fl.yelpcdn.com/bphoto/9x6SFac5PL_q-8d4CiZG3w/o.jpg", "is_closed": false, "url": "https://www.yelp.com/biz/subway-warwick-23?adjust_creative=pzvBKuEUl0Vl1jtHQqJaog&utm_campaign=yelp_api_v3&utm_medium=api_v3_business_search&utm_source=pzvBKuEUl0Vl1jtHQqJaog", "review_count": 1, "categories": [{"alias": "sandwiches", "title": "Sandwiches"}], "rating": 1.0, "coordinates": {"latitude": 41.711302, "longitude": -71.500552}, "transactions": ["pickup", "delivery"], "price": "$", "location": {"address1": "345 Providence St", "address2": "", "address3": null, "city": "Warwick", "zip_code": "02886", "country": "US", "state": "RI", "display_address": ["345 Providence St", "Warwick, RI 02886"]}, "phone": "+14018257760", "display_phone": "(401) 825-7760", "distance": 4714.267170722844}, {"id": "ziB9E3olA30WqxpnSJe4Yw", "alias": "millonzis-west-warwick-2", "name": "Millonzi's", "image_url": "https://s3-media4.fl.yelpcdn.com/bphoto/ZQCTiO3VJVuJJaLG7vCeZA/o.jpg", "is_closed": false, "url": "https://www.yelp.com/biz/millonzis-west-warwick-2?adjust_creative=pzvBKuEUl0Vl1jtHQqJaog&utm_campaign=yelp_api_v3&utm_medium=api_v3_business_search&utm_source=pzvBKuEUl0Vl1jtHQqJaog", "review_count": 25, "categories": [{"alias": "burgers", "title": "Burgers"}, {"alias": "pizza", "title": "Pizza"}, {"alias": "tradamerican", "title": "American (Traditional)"}], "rating": 3.5, "coordinates": {"latitude": 41.705435, "longitude": -71.524264}, "transactions": ["delivery"], "price": "$$", "location": {"address1": "11 Curson St", "address2": "", "address3": "", "city": "West Warwick", "zip_code": "02893", "country": "US", "state": "RI", "display_address": ["11 Curson St", "West Warwick, RI 02893"]}, "phone": "+14016157891", "display_phone": "(401) 615-7891", "distance": 3725.2620630127353}, {"id": "324pp6avrBFbzw059DoHsA", "alias": "roadies-raleigh", "name": "Roadies", "image_url": "https://s3-media2.fl.yelpcdn.com/bphoto/3zJZmmgIOYrfKoAOp9Du1w/o.jpg", "is_closed": false, "url": "https://www.yelp.com/biz/roadies-raleigh?adjust_creative=pzvBKuEUl0Vl1jtHQqJaog&utm_campaign=yelp_api_v3&utm_medium=api_v3_business_search&utm_source=pzvBKuEUl0Vl1jtHQqJaog", "review_count": 10, "categories": [{"alias": "foodtrucks", "title": "Food Trucks"}, {"alias": "seafood", "title": "Seafood"}], "rating": 4.5, "coordinates": {"latitude": 35.67575, "longitude": -78.66424}, "transactions": [], "price": "$", "location": {"address1": "", "address2": null, "address3": "", "city": "Raleigh", "zip_code": "27603", "country": "US", "state": "NC", "display_address": ["Raleigh, NC 27603"]}, "phone": "+13476136489", "display_phone": "(347) 613-6489", "distance": 915032.9749442699}]