[{"id": "J0EZi8g2UEGIUuW1_gjRyg", "alias": "back-40-north-kingstown", "name": "Back 40", "image_url": "https://s3-media4.fl.yelpcdn.com/bphoto/OWlBsJmmceQINwKXXjW7iw/o.jpg", "is_closed": false, "url": "https://www.yelp.com/biz/back-40-north-kingstown?adjust_creative=HbGs3gi3xS-SfqfxZRDuCw&utm_campaign=yelp_api_v3&utm_medium=api_v3_business_search&utm_source=HbGs3gi3xS-SfqfxZRDuCw", "review_count": 248, "categories": [{"alias": "comfortfood", "title": "Comfort Food"}, {"alias": "tradamerican", "title": "American (Traditional)"}, {"alias": "breakfast_brunch", "title": "Breakfast & Brunch"}], "rating": 3.5, "coordinates": {"latitude": 41.575163, "longitude": -71.516127}, "transactions": [], "price": "$$", "location": {"address1": "20 S County Trl", "address2": null, "address3": "", "city": "North Kingstown", "zip_code": "02852", "country": "US", "state": "RI", "display_address": ["20 S County Trl", "North Kingstown, RI 02852"]}, "phone": "+14016674869", "display_phone": "(401) 667-4869", "distance": 4552.2951085038685}, {"id": "-YCuW9srGstW2FiIroDjQw", "alias": "locanda-saunderstown", "name": "Locanda", "image_url": "https://s3-media2.fl.yelpcdn.com/bphoto/aUcMKgBs_6M7XXnk0NpXFA/o.jpg", "is_closed": false, "url": "https://www.yelp.com/biz/locanda-saunderstown?adjust_creative=HbGs3gi3xS-SfqfxZRDuCw&utm_campaign=yelp_api_v3&utm_medium=api_v3_business_search&utm_source=HbGs3gi3xS-SfqfxZRDuCw", "review_count": 9, "categories": [{"alias": "italian", "title": "Italian"}], "rating": 5.0, "coordinates": {"latitude": 41.495993, "longitude": -71.458172}, "transactions": [], "location": {"address1": "3009 Tower Hill Rd", "address2": "", "address3": null, "city": "Saunderstown", "zip_code": "02874", "country": "US", "state": "RI", "display_address": ["3009 Tower Hill Rd", "Saunderstown, RI 02874"]}, "phone": "+14016619380", "display_phone": "(401) 661-9380", "distance": 6012.74376969301}, {"id": "Fi7z65ofjwuWdj5gEBVdxw", "alias": "celestial-cafe-exeter", "name": "Celestial Cafe", "image_url": "https://s3-media2.fl.yelpcdn.com/bphoto/i2hHyybC7aaaqK3ul-KWpQ/o.jpg", "is_closed": false, "url": "https://www.yelp.com/biz/celestial-cafe-exeter?adjust_creative=HbGs3gi3xS-SfqfxZRDuCw&utm_campaign=yelp_api_v3&utm_medium=api_v3_business_search&utm_source=HbGs3gi3xS-SfqfxZRDuCw", "review_count": 159, "categories": [{"alias": "newamerican", "title": "American (New)"}, {"alias": "breakfast_brunch", "title": "Breakfast & Brunch"}, {"alias": "cocktailbars", "title": "Cocktail Bars"}], "rating": 4.0, "coordinates": {"latitude": 41.526923, "longitude": -71.552297}, "transactions": [], "price": "$$", "location": {"address1": "567 S County Trail Rte 2", "address2": null, "address3": "", "city": "Exeter", "zip_code": "02822", "country": "US", "state": "RI", "display_address": ["567 S County Trail Rte 2", "Exeter, RI 02822"]}, "phone": "+14012955559", "display_phone": "(401) 295-5559", "distance": 3748.839933808233}, {"id": "rCR2-CbyuxntsRAAGtfGwg", "alias": "tillys-cheesesteaks-west-kingston", "name": "Tilly's Cheesesteaks", "image_url": "https://s3-media3.fl.yelpcdn.com/bphoto/kBdwxxiuskUi3pOhVL9J0w/o.jpg", "is_closed": false, "url": "https://www.yelp.com/biz/tillys-cheesesteaks-west-kingston?adjust_creative=HbGs3gi3xS-SfqfxZRDuCw&utm_campaign=yelp_api_v3&utm_medium=api_v3_business_search&utm_source=HbGs3gi3xS-SfqfxZRDuCw", "review_count": 261, "categories": [{"alias": "cheesesteaks", "title": "Cheesesteaks"}, {"alias": "newamerican", "title": "American (New)"}, {"alias": "sandwiches", "title": "Sandwiches"}], "rating": 4.0, "coordinates": {"latitude": 41.485976, "longitude": -71.563709}, "transactions": [], "price": "$$", "location": {"address1": "3711 Kingstown Rd", "address2": "", "address3": null, "city": "West Kingston", "zip_code": "02892", "country": "US", "state": "RI", "display_address": ["3711 Kingstown Rd", "West Kingston, RI 02892"]}, "phone": "+14017837711", "display_phone": "(401) 783-7711", "distance": 7104.457953279499}, {"id": "bBUfLDfT_DUXwa0GPsnVmA", "alias": "plum-point-bistro-north-kingstown", "name": "Plum Point Bistro", "image_url": "https://s3-media2.fl.yelpcdn.com/bphoto/MC3AMoqfv4muMaC_JdpsrA/o.jpg", "is_closed": false, "url": "https://www.yelp.com/biz/plum-point-bistro-north-kingstown?adjust_creative=HbGs3gi3xS-SfqfxZRDuCw&utm_campaign=yelp_api_v3&utm_medium=api_v3_business_search&utm_source=HbGs3gi3xS-SfqfxZRDuCw", "review_count": 171, "categories": [{"alias": "italian", "title": "Italian"}], "rating": 4.0, "coordinates": {"latitude": 41.5258865356445, "longitude": -71.4247817993164}, "transactions": [], "price": "$$", "location": {"address1": "1814 Boston Neck Rd", "address2": "", "address3": "", "city": "North Kingstown", "zip_code": "02874", "country": "US", "state": "RI", "display_address": ["1814 Boston Neck Rd", "North Kingstown, RI 02874"]}, "phone": "+14016674999", "display_phone": "(401) 667-4999", "distance": 7033.949117572723}, {"id": "8JyDjJHt9Xzh1duQ2FMn2Q", "alias": "the-provisioner-new-york-deli-and-cafe-north-kingstown", "name": "The Provisioner New York Deli & Cafe", "image_url": "https://s3-media3.fl.yelpcdn.com/bphoto/_08WFJu_EydydRNKPgNYRg/o.jpg", "is_closed": false, "url": "https://www.yelp.com/biz/the-provisioner-new-york-deli-and-cafe-north-kingstown?adjust_creative=HbGs3gi3xS-SfqfxZRDuCw&utm_campaign=yelp_api_v3&utm_medium=api_v3_business_search&utm_source=HbGs3gi3xS-SfqfxZRDuCw", "review_count": 129, "categories": [{"alias": "bars", "title": "Bars"}, {"alias": "tradamerican", "title": "American (Traditional)"}, {"alias": "delis", "title": "Delis"}], "rating": 4.5, "coordinates": {"latitude": 41.589866, "longitude": -71.45857}, "transactions": ["delivery"], "price": "$", "location": {"address1": "7669 Post Rd", "address2": "", "address3": null, "city": "North Kingstown", "zip_code": "02852", "country": "US", "state": "RI", "display_address": ["7669 Post Rd", "North Kingstown, RI 02852"]}, "phone": "+14016670663", "display_phone": "(401) 667-0663", "distance": 7409.859546954803}, {"id": "U03Qykt6ETiLA7ZzBiROxw", "alias": "wickford-on-the-water-north-kingstown-4", "name": "Wickford on the Water", "image_url": "https://s3-media2.fl.yelpcdn.com/bphoto/XzRl9wCVpSvQdgRJC0qa5g/o.jpg", "is_closed": false, "url": "https://www.yelp.com/biz/wickford-on-the-water-north-kingstown-4?adjust_creative=HbGs3gi3xS-SfqfxZRDuCw&utm_campaign=yelp_api_v3&utm_medium=api_v3_business_search&utm_source=HbGs3gi3xS-SfqfxZRDuCw", "review_count": 110, "categories": [{"alias": "seafood", "title": "Seafood"}, {"alias": "breakfast_brunch", "title": "Breakfast & Brunch"}, {"alias": "sandwiches", "title": "Sandwiches"}], "rating": 3.5, "coordinates": {"latitude": 41.5708490675993, "longitude": -71.4522783885966}, "transactions": [], "price": "$$", "location": {"address1": "85 Brown St", "address2": "", "address3": "", "city": "North Kingstown", "zip_code": "02852", "country": "US", "state": "RI", "display_address": ["85 Brown St", "North Kingstown, RI 02852"]}, "phone": "+14012947900", "display_phone": "(401) 294-7900", "distance": 6173.8927444449855}, {"id": "zgdwftikguiV2i_MFxvbJw", "alias": "tates-italian-kitchen-north-kingstown", "name": "Tate's Italian Kitchen", "image_url": "https://s3-media4.fl.yelpcdn.com/bphoto/iJQ61-UYUGayITRqtlmyOw/o.jpg", "is_closed": false, "url": "https://www.yelp.com/biz/tates-italian-kitchen-north-kingstown?adjust_creative=HbGs3gi3xS-SfqfxZRDuCw&utm_campaign=yelp_api_v3&utm_medium=api_v3_business_search&utm_source=HbGs3gi3xS-SfqfxZRDuCw", "review_count": 97, "categories": [{"alias": "italian", "title": "Italian"}, {"alias": "wine_bars", "title": "Wine Bars"}, {"alias": "salad", "title": "Salad"}], "rating": 4.0, "coordinates": {"latitude": 41.5704464, "longitude": -71.4526042}, "transactions": ["delivery"], "price": "$$", "location": {"address1": "64 Brown St", "address2": "", "address3": "", "city": "North Kingstown", "zip_code": "02852", "country": "US", "state": "RI", "display_address": ["64 Brown St", "North Kingstown, RI 02852"]}, "phone": "+14012940000", "display_phone": "(401) 294-0000", "distance": 6111.047079897677}, {"id": "-IA5XJH2y1z9rKq1lhiwFA", "alias": "dans-carriage-inn-and-saloon-north-kingstown", "name": "Dan's Carriage Inn & Saloon", "image_url": "https://s3-media1.fl.yelpcdn.com/bphoto/UOX62gIL9yQA_DrnzJ0Dvg/o.jpg", "is_closed": false, "url": "https://www.yelp.com/biz/dans-carriage-inn-and-saloon-north-kingstown?adjust_creative=HbGs3gi3xS-SfqfxZRDuCw&utm_campaign=yelp_api_v3&utm_medium=api_v3_business_search&utm_source=HbGs3gi3xS-SfqfxZRDuCw", "review_count": 65, "categories": [{"alias": "burgers", "title": "Burgers"}, {"alias": "bbq", "title": "Barbeque"}, {"alias": "tradamerican", "title": "American (Traditional)"}], "rating": 3.5, "coordinates": {"latitude": 41.54762, "longitude": -71.46861}, "transactions": ["pickup", "delivery"], "price": "$$", "location": {"address1": "1065 Tower Hill Rd", "address2": "", "address3": null, "city": "North Kingstown", "zip_code": "02852", "country": "US", "state": "RI", "display_address": ["1065 Tower Hill Rd", "North Kingstown, RI 02852"]}, "phone": "+14012940466", "display_phone": "(401) 294-0466", "distance": 3588.081194368855}, {"id": "2qZqMD5aSQxsDn5AMK-g9Q", "alias": "wolf-rocks-country-kitchen-slocum", "name": "Wolf Rock's Country Kitchen", "image_url": "https://s3-media3.fl.yelpcdn.com/bphoto/O2f7pE2eXJRdYoJdQ1rm5A/o.jpg", "is_closed": false, "url": "https://www.yelp.com/biz/wolf-rocks-country-kitchen-slocum?adjust_creative=HbGs3gi3xS-SfqfxZRDuCw&utm_campaign=yelp_api_v3&utm_medium=api_v3_business_search&utm_source=HbGs3gi3xS-SfqfxZRDuCw", "review_count": 7, "categories": [{"alias": "tradamerican", "title": "American (Traditional)"}], "rating": 4.5, "coordinates": {"latitude": 41.511644, "longitude": -71.556428}, "transactions": [], "price": "$", "location": {"address1": "806 S County Trail", "address2": "", "address3": "", "city": "Slocum", "zip_code": "02877", "country": "US", "state": "RI", "display_address": ["806 S County Trail", "Slocum, RI 02877"]}, "phone": "+14012944981", "display_phone": "(401) 294-4981", "distance": 4743.137700821019}, {"id": "Qo3z7kbzy-lg9H_iZIEG6Q", "alias": "shaynas-place-wickford", "name": "Shayna's Place", "image_url": "https://s3-media3.fl.yelpcdn.com/bphoto/8SQf8w6pPea5uTd03TRHQg/o.jpg", "is_closed": false, "url": "https://www.yelp.com/biz/shaynas-place-wickford?adjust_creative=HbGs3gi3xS-SfqfxZRDuCw&utm_campaign=yelp_api_v3&utm_medium=api_v3_business_search&utm_source=HbGs3gi3xS-SfqfxZRDuCw", "review_count": 158, "categories": [{"alias": "cafes", "title": "Cafes"}, {"alias": "salad", "title": "Salad"}, {"alias": "sandwiches", "title": "Sandwiches"}], "rating": 4.5, "coordinates": {"latitude": 41.56994, "longitude": -71.45239}, "transactions": ["delivery"], "price": "$$", "location": {"address1": "45 Brown St", "address2": null, "address3": "", "city": "Wickford", "zip_code": "02852", "country": "US", "state": "RI", "display_address": ["45 Brown St", "Wickford, RI 02852"]}, "phone": "+14012948740", "display_phone": "(401) 294-8740", "distance": 6100.084897232093}, {"id": "JNkms_qiTX8ZObYZkB_6nQ", "alias": "simply-thai-kingston", "name": "Simply Thai", "image_url": "https://s3-media4.fl.yelpcdn.com/bphoto/d3JKsCP6aB0GmA04PnSZOA/o.jpg", "is_closed": false, "url": "https://www.yelp.com/biz/simply-thai-kingston?adjust_creative=HbGs3gi3xS-SfqfxZRDuCw&utm_campaign=yelp_api_v3&utm_medium=api_v3_business_search&utm_source=HbGs3gi3xS-SfqfxZRDuCw", "review_count": 53, "categories": [{"alias": "thai", "title": "Thai"}], "rating": 4.0, "coordinates": {"latitude": 41.485233977437, "longitude": -71.5237265825272}, "transactions": [], "price": "$", "location": {"address1": "99 Fortin Rd", "address2": "", "address3": "", "city": "Kingston", "zip_code": "02881", "country": "US", "state": "RI", "display_address": ["99 Fortin Rd", "Kingston, RI 02881"]}, "phone": "+14012844594", "display_phone": "(401) 284-4594", "distance": 5600.656948053689}, {"id": "P23oRsUl1r4RnkWRFo-M3w", "alias": "bon-bon-appetit-exeter", "name": "Bon Bon Appetit", "image_url": "https://s3-media3.fl.yelpcdn.com/bphoto/HURnDXedij26evyQCNFxTg/o.jpg", "is_closed": false, "url": "https://www.yelp.com/biz/bon-bon-appetit-exeter?adjust_creative=HbGs3gi3xS-SfqfxZRDuCw&utm_campaign=yelp_api_v3&utm_medium=api_v3_business_search&utm_source=HbGs3gi3xS-SfqfxZRDuCw", "review_count": 18, "categories": [{"alias": "foodtrucks", "title": "Food Trucks"}, {"alias": "seafood", "title": "Seafood"}], "rating": 4.5, "coordinates": {"latitude": 41.5238918325676, "longitude": -71.5528376707628}, "transactions": [], "price": "$", "location": {"address1": "622 S County Traill", "address2": "", "address3": null, "city": "Exeter", "zip_code": "02822", "country": "US", "state": "RI", "display_address": ["622 S County Traill", "Exeter, RI 02822"]}, "phone": "+14012123020", "display_phone": "(401) 212-3020", "distance": 3883.1611453152736}, {"id": "Cx-Cpse5MvnvSYBsg6dkGw", "alias": "oak-hill-tavern-and-bbq-north-kingstown", "name": "Oak Hill Tavern & Bbq", "image_url": "https://s3-media1.fl.yelpcdn.com/bphoto/pHp38vpOBjbKCoo0TElXnw/o.jpg", "is_closed": false, "url": "https://www.yelp.com/biz/oak-hill-tavern-and-bbq-north-kingstown?adjust_creative=HbGs3gi3xS-SfqfxZRDuCw&utm_campaign=yelp_api_v3&utm_medium=api_v3_business_search&utm_source=HbGs3gi3xS-SfqfxZRDuCw", "review_count": 0, "categories": [], "rating": 0.0, "coordinates": {"latitude": 41.55982, "longitude": -71.46532}, "transactions": [], "location": {"address1": "565 Tower Hill Rd Ofc", "address2": "", "address3": "", "city": "North Kingstown", "zip_code": "02852", "country": "US", "state": "RI", "display_address": ["565 Tower Hill Rd Ofc", "North Kingstown, RI 02852"]}, "phone": "+14012958884", "display_phone": "(401) 295-8884", "distance": 4564.631908933348}, {"id": "R8Yka3q_tHzWTbMw8nii7Q", "alias": "homestead-restaurant-exeter", "name": "Homestead Restaurant", "image_url": "https://s3-media2.fl.yelpcdn.com/bphoto/Z15ZjhjhAS1zACJO1pHP4A/o.jpg", "is_closed": false, "url": "https://www.yelp.com/biz/homestead-restaurant-exeter?adjust_creative=HbGs3gi3xS-SfqfxZRDuCw&utm_campaign=yelp_api_v3&utm_medium=api_v3_business_search&utm_source=HbGs3gi3xS-SfqfxZRDuCw", "review_count": 35, "categories": [{"alias": "newamerican", "title": "American (New)"}], "rating": 3.5, "coordinates": {"latitude": 41.51598, "longitude": -71.55529}, "transactions": [], "price": "$$", "location": {"address1": "750 S County Trl", "address2": "", "address3": "", "city": "Exeter", "zip_code": "02822", "country": "US", "state": "RI", "display_address": ["750 S County Trl", "Exeter, RI 02822"]}, "phone": "+14012947810", "display_phone": "(401) 294-7810", "distance": 4448.073890041398}, {"id": "d6WLz4xYCmg6-UQbCARqxQ", "alias": "rome-point-cafe-north-kingstown-2", "name": "Rome Point Cafe", "image_url": "https://s3-media2.fl.yelpcdn.com/bphoto/ZWQ2tTSPl42Eos09D4bdXA/o.jpg", "is_closed": false, "url": "https://www.yelp.com/biz/rome-point-cafe-north-kingstown-2?adjust_creative=HbGs3gi3xS-SfqfxZRDuCw&utm_campaign=yelp_api_v3&utm_medium=api_v3_business_search&utm_source=HbGs3gi3xS-SfqfxZRDuCw", "review_count": 39, "categories": [{"alias": "breakfast_brunch", "title": "Breakfast & Brunch"}, {"alias": "delis", "title": "Delis"}, {"alias": "sandwiches", "title": "Sandwiches"}], "rating": 4.5, "coordinates": {"latitude": 41.548599057028, "longitude": -71.441093339645}, "transactions": [], "price": "$", "location": {"address1": "820 Boston Neck Rd", "address2": "", "address3": null, "city": "North Kingstown", "zip_code": "02852", "country": "US", "state": "RI", "display_address": ["820 Boston Neck Rd", "North Kingstown, RI 02852"]}, "phone": "+14012942122", "display_phone": "(401) 294-2122", "distance": 5817.162868526148}, {"id": "qH_TLhhmiDG0r-sMb70q0A", "alias": "mama-phoenix-cafe-south-kingstown", "name": "Mama Phoenix Cafe", "image_url": "https://s3-media3.fl.yelpcdn.com/bphoto/Js7nKFdAWViFNLVBqUDRIQ/o.jpg", "is_closed": false, "url": "https://www.yelp.com/biz/mama-phoenix-cafe-south-kingstown?adjust_creative=HbGs3gi3xS-SfqfxZRDuCw&utm_campaign=yelp_api_v3&utm_medium=api_v3_business_search&utm_source=HbGs3gi3xS-SfqfxZRDuCw", "review_count": 4, "categories": [{"alias": "breakfast_brunch", "title": "Breakfast & Brunch"}], "rating": 4.5, "coordinates": {"latitude": 41.48524, "longitude": -71.52316}, "transactions": [], "location": {"address1": "99 Fortin Rd", "address2": null, "address3": "", "city": "South Kingstown", "zip_code": "02881", "country": "US", "state": "RI", "display_address": ["99 Fortin Rd", "South Kingstown, RI 02881"]}, "phone": "+14012840037", "display_phone": "(401) 284-0037", "distance": 5613.733906040511}, {"id": "jZpHaQxIoJYdrI9WfYF64A", "alias": "richards-pub-east-greenwich", "name": "Richard's Pub", "image_url": "https://s3-media2.fl.yelpcdn.com/bphoto/25thONDmItF_3mrt5vyoYg/o.jpg", "is_closed": false, "url": "https://www.yelp.com/biz/richards-pub-east-greenwich?adjust_creative=HbGs3gi3xS-SfqfxZRDuCw&utm_campaign=yelp_api_v3&utm_medium=api_v3_business_search&utm_source=HbGs3gi3xS-SfqfxZRDuCw", "review_count": 109, "categories": [{"alias": "pubs", "title": "Pubs"}, {"alias": "tradamerican", "title": "American (Traditional)"}, {"alias": "seafood", "title": "Seafood"}], "rating": 3.5, "coordinates": {"latitude": 41.60522, "longitude": -71.49493}, "transactions": ["delivery"], "price": "$$", "location": {"address1": "3347 S County Trl", "address2": "", "address3": "", "city": "East Greenwich", "zip_code": "02818", "country": "US", "state": "RI", "display_address": ["3347 S County Trl", "East Greenwich, RI 02818"]}, "phone": "+14018842880", "display_phone": "(401) 884-2880", "distance": 7989.199029695481}, {"id": "g2OB_sQheZybXYmP_Agnlw", "alias": "frankies-italian-pizzeria-north-kingstown", "name": "Frankie's Italian Pizzeria", "image_url": "https://s3-media2.fl.yelpcdn.com/bphoto/4eoMdNwe_Zf_cRPSzKD9pA/o.jpg", "is_closed": false, "url": "https://www.yelp.com/biz/frankies-italian-pizzeria-north-kingstown?adjust_creative=HbGs3gi3xS-SfqfxZRDuCw&utm_campaign=yelp_api_v3&utm_medium=api_v3_business_search&utm_source=HbGs3gi3xS-SfqfxZRDuCw", "review_count": 51, "categories": [{"alias": "italian", "title": "Italian"}, {"alias": "bars", "title": "Bars"}, {"alias": "pizza", "title": "Pizza"}], "rating": 3.5, "coordinates": {"latitude": 41.5826817279349, "longitude": -71.4940960547017}, "transactions": ["pickup", "delivery"], "price": "$$", "location": {"address1": "1051 Ten Rod Rd", "address2": "", "address3": null, "city": "North Kingstown", "zip_code": "02852", "country": "US", "state": "RI", "display_address": ["1051 Ten Rod Rd", "North Kingstown, RI 02852"]}, "phone": "+14012952500", "display_phone": "(401) 295-2500", "distance": 5471.217538150475}, {"id": "hQO4-mgSCFu1SLC5lXx42A", "alias": "sophies-brew-house-exeter", "name": "Sophies Brew House", "image_url": "https://s3-media1.fl.yelpcdn.com/bphoto/iFSeBADxSw3xoa_aGIe8Sw/o.jpg", "is_closed": false, "url": "https://www.yelp.com/biz/sophies-brew-house-exeter?adjust_creative=HbGs3gi3xS-SfqfxZRDuCw&utm_campaign=yelp_api_v3&utm_medium=api_v3_business_search&utm_source=HbGs3gi3xS-SfqfxZRDuCw", "review_count": 24, "categories": [{"alias": "coffee", "title": "Coffee & Tea"}, {"alias": "bakeries", "title": "Bakeries"}, {"alias": "sandwiches", "title": "Sandwiches"}], "rating": 3.5, "coordinates": {"latitude": 41.518925, "longitude": -71.554805}, "transactions": [], "price": "$", "location": {"address1": "699 S County Trl", "address2": "", "address3": null, "city": "Exeter", "zip_code": "02822", "country": "US", "state": "RI", "display_address": ["699 S County Trl", "Exeter, RI 02822"]}, "phone": "+14012954273", "display_phone": "(401) 295-4273", "distance": 4312.019930681267}, {"id": "pprk_DkLJqluaH99ZPlTVw", "alias": "hilltop-grill-south-kingstown", "name": "Hilltop Grill", "image_url": "https://s3-media1.fl.yelpcdn.com/bphoto/8w4r0pCnsr5io9KZpk7_gA/o.jpg", "is_closed": false, "url": "https://www.yelp.com/biz/hilltop-grill-south-kingstown?adjust_creative=HbGs3gi3xS-SfqfxZRDuCw&utm_campaign=yelp_api_v3&utm_medium=api_v3_business_search&utm_source=HbGs3gi3xS-SfqfxZRDuCw", "review_count": 2, "categories": [{"alias": "restaurants", "title": "Restaurants"}, {"alias": "cocktailbars", "title": "Cocktail Bars"}, {"alias": "hotelstravel", "title": "Hotels & Travel"}], "rating": 4.5, "coordinates": {"latitude": 41.4968093270609, "longitude": -71.4575735970552}, "transactions": [], "location": {"address1": "3009 Tower Hill Rd", "address2": "", "address3": null, "city": "South Kingstown", "zip_code": "02874", "country": "US", "state": "RI", "display_address": ["3009 Tower Hill Rd", "South Kingstown, RI 02874"]}, "phone": "+14017891051", "display_phone": "(401) 789-1051", "distance": 5972.79076817378}, {"id": "0-WDzzZ-FZk7k4Le6NvqUw", "alias": "maes-place-north-kingstown", "name": "Mae's Place", "image_url": "https://s3-media3.fl.yelpcdn.com/bphoto/VvUCwavYzIUwmntlFpKXcQ/o.jpg", "is_closed": false, "url": "https://www.yelp.com/biz/maes-place-north-kingstown?adjust_creative=HbGs3gi3xS-SfqfxZRDuCw&utm_campaign=yelp_api_v3&utm_medium=api_v3_business_search&utm_source=HbGs3gi3xS-SfqfxZRDuCw", "review_count": 57, "categories": [{"alias": "breakfast_brunch", "title": "Breakfast & Brunch"}], "rating": 4.5, "coordinates": {"latitude": 41.57442, "longitude": -71.46096}, "transactions": ["delivery"], "price": "$", "location": {"address1": "8230 Post Rd", "address2": null, "address3": "", "city": "North Kingstown", "zip_code": "02852", "country": "US", "state": "RI", "display_address": ["8230 Post Rd", "North Kingstown, RI 02852"]}, "phone": "+14016677272", "display_phone": "(401) 667-7272", "distance": 5930.9336729043}, {"id": "slrNKVHlPZaxYqbGQTpnYw", "alias": "mickys-pizza-north-kingstown", "name": "Micky's Pizza", "image_url": "https://s3-media3.fl.yelpcdn.com/bphoto/fKsPzJmMrKo7n9tQa8TW6w/o.jpg", "is_closed": false, "url": "https://www.yelp.com/biz/mickys-pizza-north-kingstown?adjust_creative=HbGs3gi3xS-SfqfxZRDuCw&utm_campaign=yelp_api_v3&utm_medium=api_v3_business_search&utm_source=HbGs3gi3xS-SfqfxZRDuCw", "review_count": 13, "categories": [{"alias": "pizza", "title": "Pizza"}], "rating": 4.5, "coordinates": {"latitude": 41.5703458289259, "longitude": -71.4526748657227}, "transactions": [], "location": {"address1": "60 Brown St", "address2": "", "address3": null, "city": "North Kingstown", "zip_code": "02852", "country": "US", "state": "RI", "display_address": ["60 Brown St", "North Kingstown, RI 02852"]}, "phone": "", "display_phone": "", "distance": 6106.683022100594}, {"id": "si_hN5ISMJY0ADC0lI1xRA", "alias": "the-place-north-kingstown", "name": "The Place", "image_url": "https://s3-media3.fl.yelpcdn.com/bphoto/6L-xT-yxrgpC1YFkHh7SRQ/o.jpg", "is_closed": false, "url": "https://www.yelp.com/biz/the-place-north-kingstown?adjust_creative=HbGs3gi3xS-SfqfxZRDuCw&utm_campaign=yelp_api_v3&utm_medium=api_v3_business_search&utm_source=HbGs3gi3xS-SfqfxZRDuCw", "review_count": 35, "categories": [{"alias": "pizza", "title": "Pizza"}], "rating": 4.0, "coordinates": {"latitude": 41.57133, "longitude": -71.45214}, "transactions": [], "price": "$", "location": {"address1": "95 Brown St", "address2": "", "address3": "", "city": "North Kingstown", "zip_code": "02852", "country": "US", "state": "RI", "display_address": ["95 Brown St", "North Kingstown, RI 02852"]}, "phone": "+14012940800", "display_phone": "(401) 294-0800", "distance": 6211.472521570806}, {"id": "pm_Oz84nhpwGn-TNydB3bw", "alias": "krazy-fusion-cafe-uri-kingston", "name": "Krazy Fusion Cafe URI", "image_url": "https://s3-media3.fl.yelpcdn.com/bphoto/iiePJHE3-OhD5CwozvC9lA/o.jpg", "is_closed": false, "url": "https://www.yelp.com/biz/krazy-fusion-cafe-uri-kingston?adjust_creative=HbGs3gi3xS-SfqfxZRDuCw&utm_campaign=yelp_api_v3&utm_medium=api_v3_business_search&utm_source=HbGs3gi3xS-SfqfxZRDuCw", "review_count": 19, "categories": [{"alias": "korean", "title": "Korean"}, {"alias": "japanese", "title": "Japanese"}, {"alias": "bubbletea", "title": "Bubble Tea"}], "rating": 4.0, "coordinates": {"latitude": 41.485728, "longitude": -71.523827}, "transactions": [], "price": "$$", "location": {"address1": "99 Fortin Rd", "address2": "Unit 104", "address3": "", "city": "Kingston", "zip_code": "02881", "country": "US", "state": "RI", "display_address": ["99 Fortin Rd", "Unit 104", "Kingston, RI 02881"]}, "phone": "+14013639777", "display_phone": "(401) 363-9777", "distance": 5590.0744193509845}, {"id": "lHNieRcPPpelotgf2Im1AA", "alias": "el-tapatio-north-kingstown", "name": "El Tapatio", "image_url": "https://s3-media4.fl.yelpcdn.com/bphoto/ppQCj06w388150lvxIKQVQ/o.jpg", "is_closed": false, "url": "https://www.yelp.com/biz/el-tapatio-north-kingstown?adjust_creative=HbGs3gi3xS-SfqfxZRDuCw&utm_campaign=yelp_api_v3&utm_medium=api_v3_business_search&utm_source=HbGs3gi3xS-SfqfxZRDuCw", "review_count": 126, "categories": [{"alias": "mexican", "title": "Mexican"}], "rating": 3.5, "coordinates": {"latitude": 41.57476, "longitude": -71.46088}, "transactions": ["delivery"], "price": "$$", "location": {"address1": "8220 Post Rd", "address2": "", "address3": "", "city": "North Kingstown", "zip_code": "02852", "country": "US", "state": "RI", "display_address": ["8220 Post Rd", "North Kingstown, RI 02852"]}, "phone": "+14012952280", "display_phone": "(401) 295-2280", "distance": 5954.839192629912}, {"id": "arARGzbL_5xpb5IS2J7EnA", "alias": "sonoma-bistro-and-winebar-north-kingstown-2", "name": "Sonoma Bistro and WineBar", "image_url": "https://s3-media4.fl.yelpcdn.com/bphoto/aJOCEHDU78CMJj-pMy5Q2g/o.jpg", "is_closed": false, "url": "https://www.yelp.com/biz/sonoma-bistro-and-winebar-north-kingstown-2?adjust_creative=HbGs3gi3xS-SfqfxZRDuCw&utm_campaign=yelp_api_v3&utm_medium=api_v3_business_search&utm_source=HbGs3gi3xS-SfqfxZRDuCw", "review_count": 104, "categories": [{"alias": "wine_bars", "title": "Wine Bars"}, {"alias": "newamerican", "title": "American (New)"}], "rating": 3.5, "coordinates": {"latitude": 41.5969620645046, "longitude": -71.4553637802601}, "transactions": ["delivery"], "price": "$$", "location": {"address1": "7366 Post Rd", "address2": "", "address3": "", "city": "North Kingstown", "zip_code": "02852", "country": "US", "state": "RI", "display_address": ["7366 Post Rd", "North Kingstown, RI 02852"]}, "phone": "+14012950800", "display_phone": "(401) 295-0800", "distance": 8293.98039322449}, {"id": "8N_KX5HftuCp-HnCdc45Lw", "alias": "taste-of-china-exeter", "name": "Taste of China", "image_url": "https://s3-media2.fl.yelpcdn.com/bphoto/sU3X4hnqc-Rbyt_Lc3luUg/o.jpg", "is_closed": false, "url": "https://www.yelp.com/biz/taste-of-china-exeter?adjust_creative=HbGs3gi3xS-SfqfxZRDuCw&utm_campaign=yelp_api_v3&utm_medium=api_v3_business_search&utm_source=HbGs3gi3xS-SfqfxZRDuCw", "review_count": 24, "categories": [{"alias": "chinese", "title": "Chinese"}], "rating": 3.5, "coordinates": {"latitude": 41.5271492, "longitude": -71.5512161}, "transactions": [], "price": "$", "location": {"address1": "567 S County Trl", "address2": "Unit 109", "address3": "", "city": "Exeter", "zip_code": "02822", "country": "US", "state": "RI", "display_address": ["567 S County Trl", "Unit 109", "Exeter, RI 02822"]}, "phone": "+14012958886", "display_phone": "(401) 295-8886", "distance": 3747.9336075395904}, {"id": "73RtjdZtOOnIaOAw371doA", "alias": "effie-filippous-twisted-pizza-exeter", "name": "Effie Filippou's Twisted Pizza", "image_url": "https://s3-media1.fl.yelpcdn.com/bphoto/47o8X7BiLjTCuV7a7MDjvA/o.jpg", "is_closed": false, "url": "https://www.yelp.com/biz/effie-filippous-twisted-pizza-exeter?adjust_creative=HbGs3gi3xS-SfqfxZRDuCw&utm_campaign=yelp_api_v3&utm_medium=api_v3_business_search&utm_source=HbGs3gi3xS-SfqfxZRDuCw", "review_count": 60, "categories": [{"alias": "pizza", "title": "Pizza"}, {"alias": "greek", "title": "Greek"}, {"alias": "bars", "title": "Bars"}], "rating": 2.5, "coordinates": {"latitude": 41.527177, "longitude": -71.5523615}, "transactions": [], "price": "$$", "location": {"address1": "567 S County Trl", "address2": "", "address3": "Oak Harbour Plz", "city": "Exeter", "zip_code": "02822", "country": "US", "state": "RI", "display_address": ["567 S County Trl", "Oak Harbour Plz", "Exeter, RI 02822"]}, "phone": "+14012949767", "display_phone": "(401) 294-9767", "distance": 3747.6811154078764}, {"id": "8kGO3tmYTjG0n48FX-ZpCA", "alias": "twin-willows-narragansett", "name": "Twin Willows", "image_url": "https://s3-media4.fl.yelpcdn.com/bphoto/dv-kz9X-CFkddZ4UPOYCVw/o.jpg", "is_closed": false, "url": "https://www.yelp.com/biz/twin-willows-narragansett?adjust_creative=HbGs3gi3xS-SfqfxZRDuCw&utm_campaign=yelp_api_v3&utm_medium=api_v3_business_search&utm_source=HbGs3gi3xS-SfqfxZRDuCw", "review_count": 144, "categories": [{"alias": "seafood", "title": "Seafood"}, {"alias": "sportsbars", "title": "Sports Bars"}, {"alias": "tradamerican", "title": "American (Traditional)"}], "rating": 3.0, "coordinates": {"latitude": 41.47375, "longitude": -71.43369}, "transactions": [], "price": "$$", "location": {"address1": "865 Boston Neck Rd", "address2": "", "address3": "", "city": "Narragansett", "zip_code": "02882", "country": "US", "state": "RI", "display_address": ["865 Boston Neck Rd", "Narragansett, RI 02882"]}, "phone": "+14017898153", "display_phone": "(401) 789-8153", "distance": 9240.355119064281}, {"id": "cHdjfr-0t5EZ5235VDfjgA", "alias": "oatleys-restaurant-north-kingstown", "name": "Oatley's Restaurant", "image_url": "https://s3-media3.fl.yelpcdn.com/bphoto/ZAkMOBM-wvQ3PwsXHF-WIA/o.jpg", "is_closed": false, "url": "https://www.yelp.com/biz/oatleys-restaurant-north-kingstown?adjust_creative=HbGs3gi3xS-SfqfxZRDuCw&utm_campaign=yelp_api_v3&utm_medium=api_v3_business_search&utm_source=HbGs3gi3xS-SfqfxZRDuCw", "review_count": 54, "categories": [{"alias": "breakfast_brunch", "title": "Breakfast & Brunch"}], "rating": 4.0, "coordinates": {"latitude": 41.57661, "longitude": -71.51563}, "transactions": ["delivery"], "price": "$", "location": {"address1": "1717 Ten Rod Rd", "address2": "", "address3": "", "city": "North Kingstown", "zip_code": "02852", "country": "US", "state": "RI", "display_address": ["1717 Ten Rod Rd", "North Kingstown, RI 02852"]}, "phone": "+14012955126", "display_phone": "(401) 295-5126", "distance": 4697.78909780062}, {"id": "jKVKw6wKHeeg18WzJNLGDQ", "alias": "international-pocket-cafe-kingston-kingston", "name": "International Pocket Cafe Kingston", "image_url": "https://s3-media2.fl.yelpcdn.com/bphoto/1VXpW4AtJNJ2LM5JCt6B_Q/o.jpg", "is_closed": false, "url": "https://www.yelp.com/biz/international-pocket-cafe-kingston-kingston?adjust_creative=HbGs3gi3xS-SfqfxZRDuCw&utm_campaign=yelp_api_v3&utm_medium=api_v3_business_search&utm_source=HbGs3gi3xS-SfqfxZRDuCw", "review_count": 47, "categories": [{"alias": "mediterranean", "title": "Mediterranean"}, {"alias": "cafes", "title": "Cafes"}, {"alias": "mideastern", "title": "Middle Eastern"}], "rating": 3.5, "coordinates": {"latitude": 41.4803791, "longitude": -71.5225598}, "transactions": ["pickup", "delivery"], "price": "$", "location": {"address1": "99 Fortin Rd", "address2": "", "address3": "URI Emporium", "city": "Kingston", "zip_code": "02881", "country": "US", "state": "RI", "display_address": ["99 Fortin Rd", "URI Emporium", "Kingston, RI 02881"]}, "phone": "+14017822720", "display_phone": "(401) 782-2720", "distance": 6149.566585060269}, {"id": "zq3qQvvSplN3519anaVaxw", "alias": "four-brothers-pizzaria-and-restaurant-north-kingstown", "name": "Four Brothers Pizzaria and Restaurant", "image_url": "https://s3-media3.fl.yelpcdn.com/bphoto/td8Ijyq_-TT8b5SBVBrYtw/o.jpg", "is_closed": false, "url": "https://www.yelp.com/biz/four-brothers-pizzaria-and-restaurant-north-kingstown?adjust_creative=HbGs3gi3xS-SfqfxZRDuCw&utm_campaign=yelp_api_v3&utm_medium=api_v3_business_search&utm_source=HbGs3gi3xS-SfqfxZRDuCw", "review_count": 73, "categories": [{"alias": "pizza", "title": "Pizza"}, {"alias": "sandwiches", "title": "Sandwiches"}], "rating": 4.0, "coordinates": {"latitude": 41.60939, "longitude": -71.45694}, "transactions": ["delivery"], "price": "$$", "location": {"address1": "6921 Post Rd", "address2": "", "address3": "", "city": "North Kingstown", "zip_code": "02852", "country": "US", "state": "RI", "display_address": ["6921 Post Rd", "North Kingstown, RI 02852"]}, "phone": "+14018850453", "display_phone": "(401) 885-0453", "distance": 9359.247444468348}, {"id": "PbW_zsCIfhQj-I4y6RB-_w", "alias": "caliente-mexican-kingston", "name": "Caliente Mexican", "image_url": "https://s3-media2.fl.yelpcdn.com/bphoto/t_EjkZVtf-5aNy22xW5Vsg/o.jpg", "is_closed": false, "url": "https://www.yelp.com/biz/caliente-mexican-kingston?adjust_creative=HbGs3gi3xS-SfqfxZRDuCw&utm_campaign=yelp_api_v3&utm_medium=api_v3_business_search&utm_source=HbGs3gi3xS-SfqfxZRDuCw", "review_count": 44, "categories": [{"alias": "mexican", "title": "Mexican"}], "rating": 3.5, "coordinates": {"latitude": 41.485893, "longitude": -71.524219}, "transactions": ["pickup"], "price": "$", "location": {"address1": "99 Fortin Rd", "address2": null, "address3": "Kingston Emporium", "city": "Kingston", "zip_code": "02881", "country": "US", "state": "RI", "display_address": ["99 Fortin Rd", "Kingston Emporium", "Kingston, RI 02881"]}, "phone": "+14012842816", "display_phone": "(401) 284-2816", "distance": 5579.79870635191}, {"id": "DzH4agZSniRgPLQhHy8shQ", "alias": "the-rhode-house-cafe-kingstown-2", "name": "The Rhode House Cafe", "image_url": "https://s3-media2.fl.yelpcdn.com/bphoto/xpVeXn4_m-IzSf5DxBTa2g/o.jpg", "is_closed": false, "url": "https://www.yelp.com/biz/the-rhode-house-cafe-kingstown-2?adjust_creative=HbGs3gi3xS-SfqfxZRDuCw&utm_campaign=yelp_api_v3&utm_medium=api_v3_business_search&utm_source=HbGs3gi3xS-SfqfxZRDuCw", "review_count": 13, "categories": [{"alias": "hotdogs", "title": "Fast Food"}, {"alias": "bbq", "title": "Barbeque"}, {"alias": "tradamerican", "title": "American (Traditional)"}], "rating": 3.0, "coordinates": {"latitude": 41.4855914, "longitude": -71.5242644}, "transactions": [], "price": "$", "location": {"address1": "99 Fortin Rd", "address2": "Uri Kingston Emporium", "address3": "", "city": "Kingstown", "zip_code": "02881", "country": "US", "state": "RI", "display_address": ["99 Fortin Rd", "Uri Kingston Emporium", "Kingstown, RI 02881"]}, "phone": "+14012842844", "display_phone": "(401) 284-2844", "distance": 5613.286130808174}, {"id": "Ww1DD9sAN3BZnitn46cKXg", "alias": "tavern-by-the-sea-n-kingstown-3", "name": "Tavern By The Sea", "image_url": "https://s3-media4.fl.yelpcdn.com/bphoto/Gp5QMaEXNJavnwQ0qOQG6w/o.jpg", "is_closed": false, "url": "https://www.yelp.com/biz/tavern-by-the-sea-n-kingstown-3?adjust_creative=HbGs3gi3xS-SfqfxZRDuCw&utm_campaign=yelp_api_v3&utm_medium=api_v3_business_search&utm_source=HbGs3gi3xS-SfqfxZRDuCw", "review_count": 150, "categories": [{"alias": "seafood", "title": "Seafood"}, {"alias": "sandwiches", "title": "Sandwiches"}, {"alias": "burgers", "title": "Burgers"}], "rating": 3.0, "coordinates": {"latitude": 41.570916, "longitude": -71.452844}, "transactions": ["delivery"], "price": "$$", "location": {"address1": "16 W Main St", "address2": null, "address3": "", "city": "N Kingstown", "zip_code": "02852", "country": "US", "state": "RI", "display_address": ["16 W Main St", "N Kingstown, RI 02852"]}, "phone": "+14012945771", "display_phone": "(401) 294-5771", "distance": 6137.425035717339}, {"id": "BVKJF0OYYy9uqOEmEL37bw", "alias": "duffys-tavern-north-kingstown", "name": "Duffy's Tavern", "image_url": "https://s3-media3.fl.yelpcdn.com/bphoto/PlHYgUdGiDtfdc9jfliP3A/o.jpg", "is_closed": false, "url": "https://www.yelp.com/biz/duffys-tavern-north-kingstown?adjust_creative=HbGs3gi3xS-SfqfxZRDuCw&utm_campaign=yelp_api_v3&utm_medium=api_v3_business_search&utm_source=HbGs3gi3xS-SfqfxZRDuCw", "review_count": 115, "categories": [{"alias": "seafood", "title": "Seafood"}], "rating": 2.5, "coordinates": {"latitude": 41.56844, "longitude": -71.46219}, "transactions": [], "price": "$$", "location": {"address1": "235 Tower Hill Rd", "address2": "", "address3": "", "city": "North Kingstown", "zip_code": "02852", "country": "US", "state": "RI", "display_address": ["235 Tower Hill Rd", "North Kingstown, RI 02852"]}, "phone": "+14012950073", "display_phone": "(401) 295-0073", "distance": 5335.41392604238}, {"id": "eweojgQEQl1Nok0EFMEgaA", "alias": "o-sushi-north-kingstown", "name": "O Sushi", "image_url": "https://s3-media2.fl.yelpcdn.com/bphoto/LDVcbRD8lfeRk1WWHrg7ZA/o.jpg", "is_closed": false, "url": "https://www.yelp.com/biz/o-sushi-north-kingstown?adjust_creative=HbGs3gi3xS-SfqfxZRDuCw&utm_campaign=yelp_api_v3&utm_medium=api_v3_business_search&utm_source=HbGs3gi3xS-SfqfxZRDuCw", "review_count": 105, "categories": [{"alias": "sushi", "title": "Sushi Bars"}, {"alias": "japanese", "title": "Japanese"}, {"alias": "thai", "title": "Thai"}], "rating": 4.5, "coordinates": {"latitude": 41.5899406, "longitude": -71.4575887}, "transactions": ["delivery"], "price": "$$", "location": {"address1": "7659 Post Rd", "address2": "", "address3": "", "city": "North Kingstown", "zip_code": "02852", "country": "US", "state": "RI", "display_address": ["7659 Post Rd", "North Kingstown, RI 02852"]}, "phone": "+14016673775", "display_phone": "(401) 667-3775", "distance": 7462.734678108493}, {"id": "PNvu2b-ECC2xvnkpaTlE3g", "alias": "eat-style-south-kingstown", "name": "Eat Style", "image_url": "https://s3-media3.fl.yelpcdn.com/bphoto/f6es0eA2Z7DT2USn4iOcAg/o.jpg", "is_closed": false, "url": "https://www.yelp.com/biz/eat-style-south-kingstown?adjust_creative=HbGs3gi3xS-SfqfxZRDuCw&utm_campaign=yelp_api_v3&utm_medium=api_v3_business_search&utm_source=HbGs3gi3xS-SfqfxZRDuCw", "review_count": 1, "categories": [{"alias": "ramen", "title": "Ramen"}, {"alias": "bubbletea", "title": "Bubble Tea"}], "rating": 2.0, "coordinates": {"latitude": 41.4860989136541, "longitude": -71.5243707638999}, "transactions": [], "location": {"address1": "99 Fortin Rd", "address2": "Ste 122", "address3": null, "city": "South Kingstown", "zip_code": "02881", "country": "US", "state": "RI", "display_address": ["99 Fortin Rd", "Ste 122", "South Kingstown, RI 02881"]}, "phone": "+14013639100", "display_phone": "(401) 363-9100", "distance": 5560.542398173133}, {"id": "RORcDoQLZ1l2r2cA9KovHA", "alias": "exeter-town-pizza-exeter", "name": "Exeter Town Pizza", "image_url": "https://s3-media3.fl.yelpcdn.com/bphoto/a6p5egetrd8hEAeegZzbQA/o.jpg", "is_closed": false, "url": "https://www.yelp.com/biz/exeter-town-pizza-exeter?adjust_creative=HbGs3gi3xS-SfqfxZRDuCw&utm_campaign=yelp_api_v3&utm_medium=api_v3_business_search&utm_source=HbGs3gi3xS-SfqfxZRDuCw", "review_count": 17, "categories": [{"alias": "pizza", "title": "Pizza"}], "rating": 3.5, "coordinates": {"latitude": 41.545894, "longitude": -71.533206}, "transactions": [], "price": "$$", "location": {"address1": "393 S County Trl", "address2": "", "address3": "", "city": "Exeter", "zip_code": "02822", "country": "US", "state": "RI", "display_address": ["393 S County Trl", "Exeter, RI 02822"]}, "phone": "+14012942393", "display_phone": "(401) 294-2393", "distance": 2408.0365816711833}, {"id": "_cIoHf69sU2pIXl6yjYQRQ", "alias": "walts-hot-dogs-exeter", "name": "Walt's Hot Dogs", "image_url": "https://s3-media1.fl.yelpcdn.com/bphoto/_qXV5Iype-ZFPUVIieW8ew/o.jpg", "is_closed": false, "url": "https://www.yelp.com/biz/walts-hot-dogs-exeter?adjust_creative=HbGs3gi3xS-SfqfxZRDuCw&utm_campaign=yelp_api_v3&utm_medium=api_v3_business_search&utm_source=HbGs3gi3xS-SfqfxZRDuCw", "review_count": 7, "categories": [{"alias": "hotdog", "title": "Hot Dogs"}], "rating": 4.5, "coordinates": {"latitude": 41.5791664, "longitude": -71.6018829}, "transactions": [], "price": "$", "location": {"address1": "900 10 Rod Rd", "address2": "", "address3": "", "city": "Exeter", "zip_code": "02822", "country": "US", "state": "RI", "display_address": ["900 10 Rod Rd", "Exeter, RI 02822"]}, "phone": "", "display_phone": "", "distance": 8982.87740805724}, {"id": "Io4C5tUwnb_YzeaMXHBqBA", "alias": "shuckin-truck-narragansett-2", "name": "Shuckin Truck", "image_url": "https://s3-media2.fl.yelpcdn.com/bphoto/r7QRORfe9UYVS7GGzUm9DQ/o.jpg", "is_closed": false, "url": "https://www.yelp.com/biz/shuckin-truck-narragansett-2?adjust_creative=HbGs3gi3xS-SfqfxZRDuCw&utm_campaign=yelp_api_v3&utm_medium=api_v3_business_search&utm_source=HbGs3gi3xS-SfqfxZRDuCw", "review_count": 24, "categories": [{"alias": "foodtrucks", "title": "Food Trucks"}, {"alias": "seafood", "title": "Seafood"}], "rating": 4.5, "coordinates": {"latitude": 41.4274482727051, "longitude": -71.4597778320313}, "transactions": [], "price": "$$", "location": {"address1": "", "address2": "", "address3": "", "city": "Narragansett", "zip_code": "02882", "country": "US", "state": "RI", "display_address": ["Narragansett, RI 02882"]}, "phone": "+14017415953", "display_phone": "(401) 741-5953", "distance": 15242.677232550624}, {"id": "xgPjlQQ4ZYiqHPHKiomVXw", "alias": "the-cone-zone-exeter", "name": "The Cone Zone", "image_url": "", "is_closed": false, "url": "https://www.yelp.com/biz/the-cone-zone-exeter?adjust_creative=HbGs3gi3xS-SfqfxZRDuCw&utm_campaign=yelp_api_v3&utm_medium=api_v3_business_search&utm_source=HbGs3gi3xS-SfqfxZRDuCw", "review_count": 2, "categories": [{"alias": "hotdogs", "title": "Fast Food"}], "rating": 5.0, "coordinates": {"latitude": 41.52592, "longitude": -71.55203}, "transactions": [], "location": {"address1": "567 S County Trl", "address2": "", "address3": "", "city": "Exeter", "zip_code": "02822", "country": "US", "state": "RI", "display_address": ["567 S County Trl", "Exeter, RI 02822"]}, "phone": "+14016677644", "display_phone": "(401) 667-7644", "distance": 3747.9336075395904}, {"id": "NTx6-XFb7UKet6JmB4Lskw", "alias": "oak-hill-tavern-north-kingstown", "name": "Oak Hill Tavern", "image_url": "https://s3-media4.fl.yelpcdn.com/bphoto/B3FzOg7ZhAPMWCQEXxE5OQ/o.jpg", "is_closed": false, "url": "https://www.yelp.com/biz/oak-hill-tavern-north-kingstown?adjust_creative=HbGs3gi3xS-SfqfxZRDuCw&utm_campaign=yelp_api_v3&utm_medium=api_v3_business_search&utm_source=HbGs3gi3xS-SfqfxZRDuCw", "review_count": 76, "categories": [{"alias": "tradamerican", "title": "American (Traditional)"}, {"alias": "pubs", "title": "Pubs"}], "rating": 3.0, "coordinates": {"latitude": 41.55982, "longitude": -71.46532}, "transactions": ["delivery"], "price": "$$", "location": {"address1": "565 Tower Hill Rd", "address2": "", "address3": "", "city": "North Kingstown", "zip_code": "02852", "country": "US", "state": "RI", "display_address": ["565 Tower Hill Rd", "North Kingstown, RI 02852"]}, "phone": "+14012943282", "display_phone": "(401) 294-3282", "distance": 4564.631908933348}, {"id": "oXi5uZqBHaRN-9LfbTz4iw", "alias": "solarcart-cafe-wakefield", "name": "SolarCart Cafe", "image_url": "https://s3-media3.fl.yelpcdn.com/bphoto/2jnm4N-kA74C1G385wcvjw/o.jpg", "is_closed": false, "url": "https://www.yelp.com/biz/solarcart-cafe-wakefield?adjust_creative=HbGs3gi3xS-SfqfxZRDuCw&utm_campaign=yelp_api_v3&utm_medium=api_v3_business_search&utm_source=HbGs3gi3xS-SfqfxZRDuCw", "review_count": 5, "categories": [{"alias": "foodtrucks", "title": "Food Trucks"}, {"alias": "cafes", "title": "Cafes"}], "rating": 5.0, "coordinates": {"latitude": 41.3783548485934, "longitude": -71.5497396899248}, "transactions": [], "location": {"address1": "344 Main St", "address2": "", "address3": null, "city": "Wakefield", "zip_code": "02879", "country": "US", "state": "RI", "display_address": ["344 Main St", "Wakefield, RI 02879"]}, "phone": "+14017936041", "display_phone": "(401) 793-6041", "distance": 17718.172695043973}, {"id": "HzcOyG3Y7jp5gKLvkUCa9w", "alias": "jitters-cafe-north-kingstown", "name": "Jitters Cafe", "image_url": "https://s3-media3.fl.yelpcdn.com/bphoto/N05Cp3eOvPEvAUskLvdEsQ/o.jpg", "is_closed": false, "url": "https://www.yelp.com/biz/jitters-cafe-north-kingstown?adjust_creative=HbGs3gi3xS-SfqfxZRDuCw&utm_campaign=yelp_api_v3&utm_medium=api_v3_business_search&utm_source=HbGs3gi3xS-SfqfxZRDuCw", "review_count": 64, "categories": [{"alias": "coffee", "title": "Coffee & Tea"}, {"alias": "sandwiches", "title": "Sandwiches"}, {"alias": "bakeries", "title": "Bakeries"}], "rating": 4.0, "coordinates": {"latitude": 41.56084, "longitude": -71.46452}, "transactions": ["delivery"], "price": "$", "location": {"address1": "530 Tower Hill Rd", "address2": "", "address3": "", "city": "North Kingstown", "zip_code": "02852", "country": "US", "state": "RI", "display_address": ["530 Tower Hill Rd", "North Kingstown, RI 02852"]}, "phone": "+14012959155", "display_phone": "(401) 295-9155", "distance": 4658.857046631865}, {"id": "S8uFL_-o2THu69sMHvvUCg", "alias": "taylors-landing-country-store-south-kingstown", "name": "Taylor's Landing Country Store", "image_url": "https://s3-media3.fl.yelpcdn.com/bphoto/fF18pFzehbfkxCEo4gQaHQ/o.jpg", "is_closed": false, "url": "https://www.yelp.com/biz/taylors-landing-country-store-south-kingstown?adjust_creative=HbGs3gi3xS-SfqfxZRDuCw&utm_campaign=yelp_api_v3&utm_medium=api_v3_business_search&utm_source=HbGs3gi3xS-SfqfxZRDuCw", "review_count": 38, "categories": [{"alias": "sandwiches", "title": "Sandwiches"}, {"alias": "coffee", "title": "Coffee & Tea"}], "rating": 4.0, "coordinates": {"latitude": 41.4829507470131, "longitude": -71.5518287569284}, "transactions": [], "price": "$", "location": {"address1": "3362 Kingstown Rd", "address2": "", "address3": "", "city": "South Kingstown", "zip_code": "02892", "country": "US", "state": "RI", "display_address": ["3362 Kingstown Rd", "South Kingstown, RI 02892"]}, "phone": "+14012840501", "display_phone": "(401) 284-0501", "distance": 6800.037631871314}, {"id": "xuUJmrnyBQO6tcnlfMm3Pg", "alias": "401-deli-exeter", "name": "401 Deli", "image_url": "", "is_closed": false, "url": "https://www.yelp.com/biz/401-deli-exeter?adjust_creative=HbGs3gi3xS-SfqfxZRDuCw&utm_campaign=yelp_api_v3&utm_medium=api_v3_business_search&utm_source=HbGs3gi3xS-SfqfxZRDuCw", "review_count": 1, "categories": [{"alias": "italian", "title": "Italian"}, {"alias": "delis", "title": "Delis"}, {"alias": "tradamerican", "title": "American (Traditional)"}], "rating": 3.0, "coordinates": {"latitude": 41.527393, "longitude": -71.552181}, "transactions": [], "location": {"address1": "567 S County Trl", "address2": "Ste 206", "address3": "", "city": "Exeter", "zip_code": "02822", "country": "US", "state": "RI", "display_address": ["567 S County Trl", "Ste 206", "Exeter, RI 02822"]}, "phone": "+14016676148", "display_phone": "(401) 667-6148", "distance": 3747.9336075395904}, {"id": "n8Jmpkuq3D7EdpnAhcgq2g", "alias": "providence-bagel-south-kingstown", "name": "Providence Bagel", "image_url": "https://s3-media2.fl.yelpcdn.com/bphoto/t0Pb0LbTaoKESmOL-bBjbg/o.jpg", "is_closed": false, "url": "https://www.yelp.com/biz/providence-bagel-south-kingstown?adjust_creative=HbGs3gi3xS-SfqfxZRDuCw&utm_campaign=yelp_api_v3&utm_medium=api_v3_business_search&utm_source=HbGs3gi3xS-SfqfxZRDuCw", "review_count": 4, "categories": [{"alias": "bagels", "title": "Bagels"}, {"alias": "coffee", "title": "Coffee & Tea"}, {"alias": "breakfast_brunch", "title": "Breakfast & Brunch"}], "rating": 4.0, "coordinates": {"latitude": 41.485771, "longitude": -71.523684}, "transactions": [], "location": {"address1": "99 Fortin Rd", "address2": null, "address3": "", "city": "South Kingstown", "zip_code": "02881", "country": "US", "state": "RI", "display_address": ["99 Fortin Rd", "South Kingstown, RI 02881"]}, "phone": "+14014212222", "display_phone": "(401) 421-2222", "distance": 5613.733906040511}, {"id": "MtrReaPqsuW_T-vR2Kvr6w", "alias": "greggs-restaurants-north-kingstown", "name": "Gregg's Restaurants", "image_url": "https://s3-media4.fl.yelpcdn.com/bphoto/Puvs2lCptYrEVRrrWzdjaQ/o.jpg", "is_closed": false, "url": "https://www.yelp.com/biz/greggs-restaurants-north-kingstown?adjust_creative=HbGs3gi3xS-SfqfxZRDuCw&utm_campaign=yelp_api_v3&utm_medium=api_v3_business_search&utm_source=HbGs3gi3xS-SfqfxZRDuCw", "review_count": 71, "categories": [{"alias": "tradamerican", "title": "American (Traditional)"}, {"alias": "breakfast_brunch", "title": "Breakfast & Brunch"}, {"alias": "cocktailbars", "title": "Cocktail Bars"}], "rating": 3.0, "coordinates": {"latitude": 41.586429301597, "longitude": -71.501507516201}, "transactions": ["delivery"], "price": "$$", "location": {"address1": "4120 Quaker Ln", "address2": "", "address3": "", "city": "North Kingstown", "zip_code": "02852", "country": "US", "state": "RI", "display_address": ["4120 Quaker Ln", "North Kingstown, RI 02852"]}, "phone": "+14012945700", "display_phone": "(401) 294-5700", "distance": 5784.743437127473}, {"id": "WNtaMlVaNTHIzjP39njxAw", "alias": "international-steakhouse-kingston", "name": "International Steakhouse", "image_url": "", "is_closed": false, "url": "https://www.yelp.com/biz/international-steakhouse-kingston?adjust_creative=HbGs3gi3xS-SfqfxZRDuCw&utm_campaign=yelp_api_v3&utm_medium=api_v3_business_search&utm_source=HbGs3gi3xS-SfqfxZRDuCw", "review_count": 3, "categories": [{"alias": "sandwiches", "title": "Sandwiches"}], "rating": 4.0, "coordinates": {"latitude": 41.485233977437, "longitude": -71.5237265825272}, "transactions": [], "price": "$", "location": {"address1": "99 Fortin Rd", "address2": "", "address3": "", "city": "Kingston", "zip_code": "02881", "country": "US", "state": "RI", "display_address": ["99 Fortin Rd", "Kingston, RI 02881"]}, "phone": "+14017920190", "display_phone": "(401) 792-0190", "distance": 5613.733906040511}, {"id": "9KhIUPGpnHc5HQ_tuS-PMg", "alias": "albies-place-kingston", "name": "Albie's Place", "image_url": "https://s3-media1.fl.yelpcdn.com/bphoto/KmDh5bCMN0BAa7ADRHxQbA/o.jpg", "is_closed": false, "url": "https://www.yelp.com/biz/albies-place-kingston?adjust_creative=HbGs3gi3xS-SfqfxZRDuCw&utm_campaign=yelp_api_v3&utm_medium=api_v3_business_search&utm_source=HbGs3gi3xS-SfqfxZRDuCw", "review_count": 14, "categories": [{"alias": "breakfast_brunch", "title": "Breakfast & Brunch"}, {"alias": "tradamerican", "title": "American (Traditional)"}, {"alias": "wraps", "title": "Wraps"}], "rating": 3.0, "coordinates": {"latitude": 41.48524, "longitude": -71.52316}, "transactions": ["delivery", "pickup"], "price": "$$", "location": {"address1": "99 Fortin Rd", "address2": "", "address3": "", "city": "Kingston", "zip_code": "02881", "country": "US", "state": "RI", "display_address": ["99 Fortin Rd", "Kingston, RI 02881"]}, "phone": "+14017923860", "display_phone": "(401) 792-3860", "distance": 5613.733906040511}, {"id": "XJ7SyqaiWIMwd9VzgATa5A", "alias": "peking-tokyo-kingston", "name": "Peking Tokyo", "image_url": "https://s3-media3.fl.yelpcdn.com/bphoto/yKtgZsf7uqwKvsVrdtL-zQ/o.jpg", "is_closed": false, "url": "https://www.yelp.com/biz/peking-tokyo-kingston?adjust_creative=HbGs3gi3xS-SfqfxZRDuCw&utm_campaign=yelp_api_v3&utm_medium=api_v3_business_search&utm_source=HbGs3gi3xS-SfqfxZRDuCw", "review_count": 28, "categories": [{"alias": "chinese", "title": "Chinese"}, {"alias": "japanese", "title": "Japanese"}], "rating": 3.5, "coordinates": {"latitude": 41.484975, "longitude": -71.524849}, "transactions": [], "price": "$", "location": {"address1": "120 Fortin Rd", "address2": null, "address3": null, "city": "Kingston", "zip_code": "02881", "country": "US", "state": "RI", "display_address": ["120 Fortin Rd", "Kingston, RI 02881"]}, "phone": "+14017889588", "display_phone": "(401) 788-9588", "distance": 5691.413591811226}, {"id": "gWS7JwYLeT4QVoBQaF749w", "alias": "sea-view-station-north-kingstown", "name": "Sea View Station", "image_url": "https://s3-media2.fl.yelpcdn.com/bphoto/wnjXbZBnQB6_Ci7Y9LD0kg/o.jpg", "is_closed": false, "url": "https://www.yelp.com/biz/sea-view-station-north-kingstown?adjust_creative=HbGs3gi3xS-SfqfxZRDuCw&utm_campaign=yelp_api_v3&utm_medium=api_v3_business_search&utm_source=HbGs3gi3xS-SfqfxZRDuCw", "review_count": 20, "categories": [{"alias": "tradamerican", "title": "American (Traditional)"}, {"alias": "breakfast_brunch", "title": "Breakfast & Brunch"}], "rating": 3.5, "coordinates": {"latitude": 41.5535761109508, "longitude": -71.4408076675166}, "transactions": [], "price": "$", "location": {"address1": "640 Boston Neck Rd", "address2": "", "address3": "", "city": "North Kingstown", "zip_code": "02852", "country": "US", "state": "RI", "display_address": ["640 Boston Neck Rd", "North Kingstown, RI 02852"]}, "phone": "+14012958666", "display_phone": "(401) 295-8666", "distance": 6027.881234809924}, {"id": "zqQdRwgt253GM8hIn_DG1g", "alias": "somethings-brewing-north-kingstown", "name": "Something's Brewing", "image_url": "https://s3-media2.fl.yelpcdn.com/bphoto/eKo3500yA-HJcXK_0hk7PA/o.jpg", "is_closed": false, "url": "https://www.yelp.com/biz/somethings-brewing-north-kingstown?adjust_creative=HbGs3gi3xS-SfqfxZRDuCw&utm_campaign=yelp_api_v3&utm_medium=api_v3_business_search&utm_source=HbGs3gi3xS-SfqfxZRDuCw", "review_count": 12, "categories": [{"alias": "coffee", "title": "Coffee & Tea"}, {"alias": "breakfast_brunch", "title": "Breakfast & Brunch"}], "rating": 4.5, "coordinates": {"latitude": 41.5950040519238, "longitude": -71.4559471607208}, "transactions": ["delivery"], "price": "$", "location": {"address1": "7446 Post Rd", "address2": "", "address3": null, "city": "North Kingstown", "zip_code": "02852", "country": "US", "state": "RI", "display_address": ["7446 Post Rd", "North Kingstown, RI 02852"]}, "phone": "+14012947300", "display_phone": "(401) 294-7300", "distance": 8055.314652575534}, {"id": "GEl1OgdSUha2LF1UeBRnyQ", "alias": "matteos-bakery-north-kingstown-2", "name": "Matteos Bakery", "image_url": "https://s3-media1.fl.yelpcdn.com/bphoto/q1Z0ePckxfozmRJAlQHzuQ/o.jpg", "is_closed": false, "url": "https://www.yelp.com/biz/matteos-bakery-north-kingstown-2?adjust_creative=HbGs3gi3xS-SfqfxZRDuCw&utm_campaign=yelp_api_v3&utm_medium=api_v3_business_search&utm_source=HbGs3gi3xS-SfqfxZRDuCw", "review_count": 10, "categories": [{"alias": "bakeries", "title": "Bakeries"}, {"alias": "customcakes", "title": "Custom Cakes"}, {"alias": "pizza", "title": "Pizza"}], "rating": 4.5, "coordinates": {"latitude": 41.54862, "longitude": -71.4408}, "transactions": [], "location": {"address1": "820 Boston Neck Rd", "address2": null, "address3": null, "city": "North Kingstown", "zip_code": "02852", "country": "US", "state": "RI", "display_address": ["820 Boston Neck Rd", "North Kingstown, RI 02852"]}, "phone": "+14016670002", "display_phone": "(401) 667-0002", "distance": 5821.159654192437}, {"id": "ncfwAqaE4mI20cUToxTvvg", "alias": "snoopys-diner-north-kingstown", "name": "Snoopy's Diner", "image_url": "https://s3-media4.fl.yelpcdn.com/bphoto/6HWRRsvf-vlEKfgwHyNy3Q/o.jpg", "is_closed": false, "url": "https://www.yelp.com/biz/snoopys-diner-north-kingstown?adjust_creative=HbGs3gi3xS-SfqfxZRDuCw&utm_campaign=yelp_api_v3&utm_medium=api_v3_business_search&utm_source=HbGs3gi3xS-SfqfxZRDuCw", "review_count": 37, "categories": [{"alias": "diners", "title": "Diners"}, {"alias": "breakfast_brunch", "title": "Breakfast & Brunch"}, {"alias": "burgers", "title": "Burgers"}], "rating": 3.0, "coordinates": {"latitude": 41.5896081634344, "longitude": -71.5013434162833}, "transactions": ["delivery"], "price": "$", "location": {"address1": "4001 Quaker Ln", "address2": "", "address3": "", "city": "North Kingstown", "zip_code": "02852", "country": "US", "state": "RI", "display_address": ["4001 Quaker Ln", "North Kingstown, RI 02852"]}, "phone": "+14012951533", "display_phone": "(401) 295-1533", "distance": 6137.845686094734}, {"id": "Xshe-eT-OT_Pz2zKMYDJzw", "alias": "davos-calzones-and-wraps-south-kingstown-2", "name": "Davo's Calzones and Wraps", "image_url": "https://s3-media3.fl.yelpcdn.com/bphoto/nYYF5lMwRAA5mnTXmmxPkQ/o.jpg", "is_closed": false, "url": "https://www.yelp.com/biz/davos-calzones-and-wraps-south-kingstown-2?adjust_creative=HbGs3gi3xS-SfqfxZRDuCw&utm_campaign=yelp_api_v3&utm_medium=api_v3_business_search&utm_source=HbGs3gi3xS-SfqfxZRDuCw", "review_count": 12, "categories": [{"alias": "mediterranean", "title": "Mediterranean"}, {"alias": "hotdogs", "title": "Fast Food"}], "rating": 3.0, "coordinates": {"latitude": 41.48524, "longitude": -71.52316}, "transactions": ["delivery", "pickup"], "location": {"address1": "99 Fortin Rd", "address2": null, "address3": "", "city": "South Kingstown", "zip_code": "02881", "country": "US", "state": "RI", "display_address": ["99 Fortin Rd", "South Kingstown, RI 02881"]}, "phone": "+14012843050", "display_phone": "(401) 284-3050", "distance": 5613.733906040511}, {"id": "MtOtKH1ZSwyntuircCGSmg", "alias": "pagoda-inn-north-kingstown-2", "name": "Pagoda Inn", "image_url": "https://s3-media4.fl.yelpcdn.com/bphoto/E8ROb7fqz_0lgPmf91ekPg/o.jpg", "is_closed": false, "url": "https://www.yelp.com/biz/pagoda-inn-north-kingstown-2?adjust_creative=HbGs3gi3xS-SfqfxZRDuCw&utm_campaign=yelp_api_v3&utm_medium=api_v3_business_search&utm_source=HbGs3gi3xS-SfqfxZRDuCw", "review_count": 46, "categories": [{"alias": "chinese", "title": "Chinese"}], "rating": 3.5, "coordinates": {"latitude": 41.5988616181528, "longitude": -71.4551693201065}, "transactions": [], "price": "$$", "location": {"address1": "7315 Post Rd", "address2": "", "address3": null, "city": "North Kingstown", "zip_code": "02852", "country": "US", "state": "RI", "display_address": ["7315 Post Rd", "North Kingstown, RI 02852"]}, "phone": "+14012942200", "display_phone": "(401) 294-2200", "distance": 8403.088919804497}, {"id": "fW5P0ktnY67LAKTpSv-tXw", "alias": "seven-moons-restaurant-north-kingstown", "name": "Seven Moons Restaurant", "image_url": "https://s3-media1.fl.yelpcdn.com/bphoto/pCi1EZEG2ukhdjBMSUTa4g/o.jpg", "is_closed": false, "url": "https://www.yelp.com/biz/seven-moons-restaurant-north-kingstown?adjust_creative=HbGs3gi3xS-SfqfxZRDuCw&utm_campaign=yelp_api_v3&utm_medium=api_v3_business_search&utm_source=HbGs3gi3xS-SfqfxZRDuCw", "review_count": 215, "categories": [{"alias": "asianfusion", "title": "Asian Fusion"}, {"alias": "chinese", "title": "Chinese"}, {"alias": "japanese", "title": "Japanese"}], "rating": 3.0, "coordinates": {"latitude": 41.61074, "longitude": -71.45671}, "transactions": ["delivery"], "price": "$$", "location": {"address1": "6900 Post Rd", "address2": "", "address3": "", "city": "North Kingstown", "zip_code": "02852", "country": "US", "state": "RI", "display_address": ["6900 Post Rd", "North Kingstown, RI 02852"]}, "phone": "+14018858383", "display_phone": "(401) 885-8383", "distance": 9461.685991513816}, {"id": "qixb3NXfdN2DZVNCGikATg", "alias": "filippous-pizza-north-kingstown", "name": "Filippou's Pizza", "image_url": "https://s3-media1.fl.yelpcdn.com/bphoto/OnHhB348f90qYV6VNoFDQQ/o.jpg", "is_closed": false, "url": "https://www.yelp.com/biz/filippous-pizza-north-kingstown?adjust_creative=HbGs3gi3xS-SfqfxZRDuCw&utm_campaign=yelp_api_v3&utm_medium=api_v3_business_search&utm_source=HbGs3gi3xS-SfqfxZRDuCw", "review_count": 32, "categories": [{"alias": "pizza", "title": "Pizza"}, {"alias": "italian", "title": "Italian"}, {"alias": "sandwiches", "title": "Sandwiches"}], "rating": 3.5, "coordinates": {"latitude": 41.5737499, "longitude": -71.48612}, "transactions": ["delivery"], "price": "$$", "location": {"address1": "670 Ten Rod Rd", "address2": "", "address3": "", "city": "North Kingstown", "zip_code": "02852", "country": "US", "state": "RI", "display_address": ["670 Ten Rod Rd", "North Kingstown, RI 02852"]}, "phone": "+14012944767", "display_phone": "(401) 294-4767", "distance": 4712.474235862495}, {"id": "h8KqqIKzJUOs2mf4_j60jg", "alias": "socrates-pizza-north-kingstown", "name": "Socrates Pizza", "image_url": "https://s3-media2.fl.yelpcdn.com/bphoto/zHXI6QQXu2dGAy2QQneNYQ/o.jpg", "is_closed": false, "url": "https://www.yelp.com/biz/socrates-pizza-north-kingstown?adjust_creative=HbGs3gi3xS-SfqfxZRDuCw&utm_campaign=yelp_api_v3&utm_medium=api_v3_business_search&utm_source=HbGs3gi3xS-SfqfxZRDuCw", "review_count": 28, "categories": [{"alias": "pizza", "title": "Pizza"}], "rating": 4.0, "coordinates": {"latitude": 41.59087, "longitude": -71.45671}, "transactions": ["delivery"], "price": "$$", "location": {"address1": "7610 Post Rd", "address2": "", "address3": "", "city": "North Kingstown", "zip_code": "02852", "country": "US", "state": "RI", "display_address": ["7610 Post Rd", "North Kingstown, RI 02852"]}, "phone": "+14016670250", "display_phone": "(401) 667-0250", "distance": 7596.10815934952}, {"id": "iBCUnsWtNp_VpY9lRYWL-g", "alias": "wendys-n-kingstown-3", "name": "Wendy's", "image_url": "https://s3-media1.fl.yelpcdn.com/bphoto/7scxTDIlcU3jONCYr1YhxA/o.jpg", "is_closed": false, "url": "https://www.yelp.com/biz/wendys-n-kingstown-3?adjust_creative=HbGs3gi3xS-SfqfxZRDuCw&utm_campaign=yelp_api_v3&utm_medium=api_v3_business_search&utm_source=HbGs3gi3xS-SfqfxZRDuCw", "review_count": 17, "categories": [{"alias": "hotdogs", "title": "Fast Food"}, {"alias": "burgers", "title": "Burgers"}], "rating": 2.0, "coordinates": {"latitude": 41.5807, "longitude": -71.50086}, "transactions": ["delivery"], "price": "$", "location": {"address1": "1320 Ten Rod Road", "address2": "", "address3": "", "city": "N.Kingstown", "zip_code": "02852", "country": "US", "state": "RI", "display_address": ["1320 Ten Rod Road", "N.Kingstown, RI 02852"]}, "phone": "+14016676144", "display_phone": "(401) 667-6144", "distance": 5299.155127094632}, {"id": "Lts3tXLtuT9IEg11-d6aBw", "alias": "meldgies-diner-narragansett-2", "name": "Meldgie's Diner", "image_url": "https://s3-media4.fl.yelpcdn.com/bphoto/8LFlj0HVR22dLkgw36HW8g/o.jpg", "is_closed": false, "url": "https://www.yelp.com/biz/meldgies-diner-narragansett-2?adjust_creative=HbGs3gi3xS-SfqfxZRDuCw&utm_campaign=yelp_api_v3&utm_medium=api_v3_business_search&utm_source=HbGs3gi3xS-SfqfxZRDuCw", "review_count": 36, "categories": [{"alias": "breakfast_brunch", "title": "Breakfast & Brunch"}], "rating": 3.5, "coordinates": {"latitude": 41.4758482575417, "longitude": -71.4351359009743}, "transactions": [], "price": "$", "location": {"address1": "909 Boston Neck Rd", "address2": "", "address3": "", "city": "Narragansett", "zip_code": "02882", "country": "US", "state": "RI", "display_address": ["909 Boston Neck Rd", "Narragansett, RI 02882"]}, "phone": "+14017891351", "display_phone": "(401) 789-1351", "distance": 8985.932258387515}, {"id": "Q8T_TpOc1ruHugzxACb1LA", "alias": "international-zone-kingston-2", "name": "International Zone", "image_url": "https://s3-media2.fl.yelpcdn.com/bphoto/yGcsOWDLLXHs1DdtA5yFwQ/o.jpg", "is_closed": false, "url": "https://www.yelp.com/biz/international-zone-kingston-2?adjust_creative=HbGs3gi3xS-SfqfxZRDuCw&utm_campaign=yelp_api_v3&utm_medium=api_v3_business_search&utm_source=HbGs3gi3xS-SfqfxZRDuCw", "review_count": 12, "categories": [{"alias": "italian", "title": "Italian"}, {"alias": "pizza", "title": "Pizza"}, {"alias": "desserts", "title": "Desserts"}], "rating": 3.5, "coordinates": {"latitude": 41.484783, "longitude": -71.524104}, "transactions": [], "price": "$", "location": {"address1": "100 Fortin Rd", "address2": "", "address3": "", "city": "Kingston", "zip_code": "02881", "country": "US", "state": "RI", "display_address": ["100 Fortin Rd", "Kingston, RI 02881"]}, "phone": "+14013602252", "display_phone": "(401) 360-2252", "distance": 5697.645725766193}, {"id": "L7-tU5l519VLhzoUID6dOg", "alias": "kingston-pizza-wickford", "name": "Kingston Pizza", "image_url": "https://s3-media4.fl.yelpcdn.com/bphoto/4FaRnaLZaYeaaOa-eRA7Gw/o.jpg", "is_closed": false, "url": "https://www.yelp.com/biz/kingston-pizza-wickford?adjust_creative=HbGs3gi3xS-SfqfxZRDuCw&utm_campaign=yelp_api_v3&utm_medium=api_v3_business_search&utm_source=HbGs3gi3xS-SfqfxZRDuCw", "review_count": 11, "categories": [{"alias": "pizza", "title": "Pizza"}], "rating": 2.5, "coordinates": {"latitude": 41.5524274911232, "longitude": -71.4414711693951}, "transactions": ["delivery"], "price": "$", "location": {"address1": "677 Boston Neck Rd", "address2": "", "address3": "", "city": "Wickford", "zip_code": "02852", "country": "US", "state": "RI", "display_address": ["677 Boston Neck Rd", "Wickford, RI 02852"]}, "phone": "+14012941223", "display_phone": "(401) 294-1223", "distance": 5914.904811921255}, {"id": "XMmFAt83NDMHDMRZV9Xf-A", "alias": "catarinas-italian-village-narragansett-3", "name": "Catarina's Italian Village", "image_url": "https://s3-media3.fl.yelpcdn.com/bphoto/4RaoHFqs_R2VCJRrPDtUeQ/o.jpg", "is_closed": false, "url": "https://www.yelp.com/biz/catarinas-italian-village-narragansett-3?adjust_creative=HbGs3gi3xS-SfqfxZRDuCw&utm_campaign=yelp_api_v3&utm_medium=api_v3_business_search&utm_source=HbGs3gi3xS-SfqfxZRDuCw", "review_count": 54, "categories": [{"alias": "italian", "title": "Italian"}, {"alias": "steak", "title": "Steakhouses"}, {"alias": "seafood", "title": "Seafood"}], "rating": 3.0, "coordinates": {"latitude": 41.47807, "longitude": -71.43567}, "transactions": [], "price": "$$", "location": {"address1": "945 Boston Neck Rd", "address2": "", "address3": "", "city": "Narragansett", "zip_code": "02882", "country": "US", "state": "RI", "display_address": ["945 Boston Neck Rd", "Narragansett, RI 02882"]}, "phone": "+14017891725", "display_phone": "(401) 789-1725", "distance": 8768.500233269882}, {"id": "XTsBYB32LzuIjUioM-EQWw", "alias": "tonys-pizzeria-wakefield-2", "name": "Tony's Pizzeria", "image_url": "https://s3-media1.fl.yelpcdn.com/bphoto/ZDkOUWaiyhMr-N5sbwj5JA/o.jpg", "is_closed": false, "url": "https://www.yelp.com/biz/tonys-pizzeria-wakefield-2?adjust_creative=HbGs3gi3xS-SfqfxZRDuCw&utm_campaign=yelp_api_v3&utm_medium=api_v3_business_search&utm_source=HbGs3gi3xS-SfqfxZRDuCw", "review_count": 52, "categories": [{"alias": "pizza", "title": "Pizza"}, {"alias": "salad", "title": "Salad"}, {"alias": "fishnchips", "title": "Fish & Chips"}], "rating": 3.0, "coordinates": {"latitude": 41.466243, "longitude": -71.51186}, "transactions": [], "price": "$$", "location": {"address1": "1916 Kingstown Rd", "address2": "", "address3": "", "city": "Wakefield", "zip_code": "02879", "country": "US", "state": "RI", "display_address": ["1916 Kingstown Rd", "Wakefield, RI 02879"]}, "phone": "+14017898383", "display_phone": "(401) 789-8383", "distance": 7615.975465851368}, {"id": "00LI1UYMmZz41gn-P_gbOQ", "alias": "boston-neck-pizza-north-kingstown", "name": "Boston Neck Pizza", "image_url": "https://s3-media2.fl.yelpcdn.com/bphoto/jP3mvXb3Y-A0ygyLZqNnhQ/o.jpg", "is_closed": false, "url": "https://www.yelp.com/biz/boston-neck-pizza-north-kingstown?adjust_creative=HbGs3gi3xS-SfqfxZRDuCw&utm_campaign=yelp_api_v3&utm_medium=api_v3_business_search&utm_source=HbGs3gi3xS-SfqfxZRDuCw", "review_count": 27, "categories": [{"alias": "pizza", "title": "Pizza"}], "rating": 3.0, "coordinates": {"latitude": 41.52556, "longitude": -71.4245}, "transactions": [], "price": "$$", "location": {"address1": "1814 Boston Neck Rd", "address2": "", "address3": "", "city": "North Kingstown", "zip_code": "02852", "country": "US", "state": "RI", "display_address": ["1814 Boston Neck Rd", "North Kingstown, RI 02852"]}, "phone": "+14012946868", "display_phone": "(401) 294-6868", "distance": 7049.008846109016}, {"id": "rxLXcA0EcN7Qum08v-QDXQ", "alias": "nk-chicago-pizza-north-kingstown", "name": "NK Chicago Pizza", "image_url": "https://s3-media4.fl.yelpcdn.com/bphoto/1dlVf_UAL0BKx72TpUfMsw/o.jpg", "is_closed": false, "url": "https://www.yelp.com/biz/nk-chicago-pizza-north-kingstown?adjust_creative=HbGs3gi3xS-SfqfxZRDuCw&utm_campaign=yelp_api_v3&utm_medium=api_v3_business_search&utm_source=HbGs3gi3xS-SfqfxZRDuCw", "review_count": 21, "categories": [{"alias": "pizza", "title": "Pizza"}], "rating": 3.5, "coordinates": {"latitude": 41.5894409, "longitude": -71.4578605}, "transactions": [], "price": "$", "location": {"address1": "7673 Post Rd", "address2": "", "address3": "", "city": "North Kingstown", "zip_code": "02852", "country": "US", "state": "RI", "display_address": ["7673 Post Rd", "North Kingstown, RI 02852"]}, "phone": "+14012951550", "display_phone": "(401) 295-1550", "distance": 7418.778707185436}, {"id": "dvEQ_c0rU_qsHEEA9DxexA", "alias": "subway-n-kingston", "name": "Subway", "image_url": "https://s3-media3.fl.yelpcdn.com/bphoto/OsQlEC3H7vJTVsQ6f5RcgQ/o.jpg", "is_closed": false, "url": "https://www.yelp.com/biz/subway-n-kingston?adjust_creative=HbGs3gi3xS-SfqfxZRDuCw&utm_campaign=yelp_api_v3&utm_medium=api_v3_business_search&utm_source=HbGs3gi3xS-SfqfxZRDuCw", "review_count": 6, "categories": [{"alias": "sandwiches", "title": "Sandwiches"}], "rating": 1.5, "coordinates": {"latitude": 41.5857412740983, "longitude": -71.4913520242459}, "transactions": [], "price": "$", "location": {"address1": "1031 Ten Rod Rd", "address2": null, "address3": null, "city": "N Kingston", "zip_code": "02852", "country": "US", "state": "RI", "display_address": ["1031 Ten Rod Rd", "N Kingston, RI 02852"]}, "phone": "+14012944471", "display_phone": "(401) 294-4471", "distance": 5854.966306788206}, {"id": "0xMIV3cZcDtSNG2bIy9Ryw", "alias": "bamboo-garden-narragansett", "name": "Bamboo Garden", "image_url": "https://s3-media4.fl.yelpcdn.com/bphoto/sETGpsuCi-DPSjO7KpgsYg/o.jpg", "is_closed": false, "url": "https://www.yelp.com/biz/bamboo-garden-narragansett?adjust_creative=HbGs3gi3xS-SfqfxZRDuCw&utm_campaign=yelp_api_v3&utm_medium=api_v3_business_search&utm_source=HbGs3gi3xS-SfqfxZRDuCw", "review_count": 12, "categories": [{"alias": "chinese", "title": "Chinese"}], "rating": 3.0, "coordinates": {"latitude": 41.47799, "longitude": -71.43602}, "transactions": [], "price": "$$", "location": {"address1": "944 Boston Neck Rd", "address2": null, "address3": null, "city": "Narragansett", "zip_code": "02882", "country": "US", "state": "RI", "display_address": ["944 Boston Neck Rd", "Narragansett, RI 02882"]}, "phone": "+14017888085", "display_phone": "(401) 788-8085", "distance": 8728.317364647544}, {"id": "WSsvY-R-dtudoH_zxfHchg", "alias": "leos-pizza-narragansett", "name": "Leo's Pizza", "image_url": "https://s3-media3.fl.yelpcdn.com/bphoto/eUz7FVi3pdymqCnm0UywLQ/o.jpg", "is_closed": false, "url": "https://www.yelp.com/biz/leos-pizza-narragansett?adjust_creative=HbGs3gi3xS-SfqfxZRDuCw&utm_campaign=yelp_api_v3&utm_medium=api_v3_business_search&utm_source=HbGs3gi3xS-SfqfxZRDuCw", "review_count": 38, "categories": [{"alias": "pizza", "title": "Pizza"}], "rating": 3.5, "coordinates": {"latitude": 41.47732, "longitude": -71.43545}, "transactions": [], "price": "$$", "location": {"address1": "909 Boston Neck Rd", "address2": "", "address3": "", "city": "Narragansett", "zip_code": "02882", "country": "US", "state": "RI", "display_address": ["909 Boston Neck Rd", "Narragansett, RI 02882"]}, "phone": "+14017894950", "display_phone": "(401) 789-4950", "distance": 8986.649134646019}, {"id": "08dYTCV14B7CnoWF04pgyw", "alias": "kingston-pizza-kingston", "name": "Kingston Pizza", "image_url": "https://s3-media1.fl.yelpcdn.com/bphoto/LiyJgas3kUUNHzWVKZSn9g/o.jpg", "is_closed": false, "url": "https://www.yelp.com/biz/kingston-pizza-kingston?adjust_creative=HbGs3gi3xS-SfqfxZRDuCw&utm_campaign=yelp_api_v3&utm_medium=api_v3_business_search&utm_source=HbGs3gi3xS-SfqfxZRDuCw", "review_count": 33, "categories": [{"alias": "pizza", "title": "Pizza"}], "rating": 2.5, "coordinates": {"latitude": 41.48308, "longitude": -71.5238}, "transactions": ["delivery", "pickup"], "price": "$$", "location": {"address1": "63 Briar Ln", "address2": "", "address3": "", "city": "Kingston", "zip_code": "02881", "country": "US", "state": "RI", "display_address": ["63 Briar Ln", "Kingston, RI 02881"]}, "phone": "+14017839130", "display_phone": "(401) 783-9130", "distance": 5869.813617142352}, {"id": "LNwcqQI2TJ7ClvrmS47p8A", "alias": "kingston-pizza-north-kingstown-3", "name": "Kingston Pizza", "image_url": "https://s3-media3.fl.yelpcdn.com/bphoto/mAjIN0TmqO8Ais8_tCVarA/o.jpg", "is_closed": false, "url": "https://www.yelp.com/biz/kingston-pizza-north-kingstown-3?adjust_creative=HbGs3gi3xS-SfqfxZRDuCw&utm_campaign=yelp_api_v3&utm_medium=api_v3_business_search&utm_source=HbGs3gi3xS-SfqfxZRDuCw", "review_count": 18, "categories": [{"alias": "pizza", "title": "Pizza"}], "rating": 2.5, "coordinates": {"latitude": 41.59662, "longitude": -71.45571}, "transactions": [], "price": "$$", "location": {"address1": "7415 Post Rd", "address2": null, "address3": null, "city": "North Kingstown", "zip_code": "02852", "country": "US", "state": "RI", "display_address": ["7415 Post Rd", "North Kingstown, RI 02852"]}, "phone": "+14012952121", "display_phone": "(401) 295-2121", "distance": 8114.613887305626}, {"id": "3YOzgk2UPbFQISWzqS9bHQ", "alias": "subway-kingston-36", "name": "Subway", "image_url": "https://s3-media3.fl.yelpcdn.com/bphoto/JztiFYNk_3e56oRhMcY3Dw/o.jpg", "is_closed": false, "url": "https://www.yelp.com/biz/subway-kingston-36?adjust_creative=HbGs3gi3xS-SfqfxZRDuCw&utm_campaign=yelp_api_v3&utm_medium=api_v3_business_search&utm_source=HbGs3gi3xS-SfqfxZRDuCw", "review_count": 4, "categories": [{"alias": "sandwiches", "title": "Sandwiches"}], "rating": 3.5, "coordinates": {"latitude": 41.48603, "longitude": -71.5240404483066}, "transactions": [], "price": "$", "location": {"address1": "99 Fortin Rd", "address2": "Ste 118 & 119", "address3": "", "city": "Kingston", "zip_code": "02881", "country": "US", "state": "RI", "display_address": ["99 Fortin Rd", "Ste 118 & 119", "Kingston, RI 02881"]}, "phone": "+14017894490", "display_phone": "(401) 789-4490", "distance": 5561.506992960073}, {"id": "piFFfUiJm2BYBasatpDAZg", "alias": "burger-king-n-kingstown", "name": "Burger King", "image_url": "https://s3-media3.fl.yelpcdn.com/bphoto/eVVeL1OMrHR5QuzWU4lpEQ/o.jpg", "is_closed": false, "url": "https://www.yelp.com/biz/burger-king-n-kingstown?adjust_creative=HbGs3gi3xS-SfqfxZRDuCw&utm_campaign=yelp_api_v3&utm_medium=api_v3_business_search&utm_source=HbGs3gi3xS-SfqfxZRDuCw", "review_count": 17, "categories": [{"alias": "burgers", "title": "Burgers"}, {"alias": "hotdogs", "title": "Fast Food"}], "rating": 2.0, "coordinates": {"latitude": 41.606006, "longitude": -71.455847}, "transactions": [], "price": "$", "location": {"address1": "7041 Post Rd", "address2": "", "address3": "", "city": "N Kingstown", "zip_code": "02852", "country": "US", "state": "RI", "display_address": ["7041 Post Rd", "N Kingstown, RI 02852"]}, "phone": "+14018840444", "display_phone": "(401) 884-0444", "distance": 9055.183212613021}, {"id": "dAATXeTa07-T6qb3n00f9w", "alias": "coffee-n-bagel-connection-narragansett-2", "name": "Coffee n' Bagel Connection", "image_url": "https://s3-media2.fl.yelpcdn.com/bphoto/Whq7nzMuhyM9t4UVnRFoqA/o.jpg", "is_closed": false, "url": "https://www.yelp.com/biz/coffee-n-bagel-connection-narragansett-2?adjust_creative=HbGs3gi3xS-SfqfxZRDuCw&utm_campaign=yelp_api_v3&utm_medium=api_v3_business_search&utm_source=HbGs3gi3xS-SfqfxZRDuCw", "review_count": 62, "categories": [{"alias": "coffee", "title": "Coffee & Tea"}, {"alias": "bagels", "title": "Bagels"}, {"alias": "cafes", "title": "Cafes"}], "rating": 3.5, "coordinates": {"latitude": 41.4902, "longitude": -71.43729}, "transactions": [], "price": "$", "location": {"address1": "1175 Boston Neck Rd", "address2": "", "address3": "", "city": "Narragansett", "zip_code": "02882", "country": "US", "state": "RI", "display_address": ["1175 Boston Neck Rd", "Narragansett, RI 02882"]}, "phone": "+14017829920", "display_phone": "(401) 782-9920", "distance": 7707.887491786065}, {"id": "qFAlL8WsmfhnNbKFCtVxEA", "alias": "subway-saunderstown-3", "name": "Subway", "image_url": "https://s3-media3.fl.yelpcdn.com/bphoto/l-Gr-Lu9_WrOApUhecA9GA/o.jpg", "is_closed": false, "url": "https://www.yelp.com/biz/subway-saunderstown-3?adjust_creative=HbGs3gi3xS-SfqfxZRDuCw&utm_campaign=yelp_api_v3&utm_medium=api_v3_business_search&utm_source=HbGs3gi3xS-SfqfxZRDuCw", "review_count": 2, "categories": [{"alias": "sandwiches", "title": "Sandwiches"}], "rating": 2.5, "coordinates": {"latitude": 41.4951765860375, "longitude": -71.45701}, "transactions": [], "price": "$", "location": {"address1": "3045 Tower Hill Rd", "address2": "Unit 4", "address3": null, "city": "Saunderstown", "zip_code": "02874", "country": "US", "state": "RI", "display_address": ["3045 Tower Hill Rd", "Unit 4", "Saunderstown, RI 02874"]}, "phone": "+14017881081", "display_phone": "(401) 788-1081", "distance": 6134.8209954623}, {"id": "wQY7JEbvfzvM5EEfrc4SYw", "alias": "d-angelo-grilled-sandwiches-north-kingstown", "name": "D'angelo Grilled Sandwiches", "image_url": "https://s3-media1.fl.yelpcdn.com/bphoto/m22XgT0WiKfUHJ_UQZfLCA/o.jpg", "is_closed": false, "url": "https://www.yelp.com/biz/d-angelo-grilled-sandwiches-north-kingstown?adjust_creative=HbGs3gi3xS-SfqfxZRDuCw&utm_campaign=yelp_api_v3&utm_medium=api_v3_business_search&utm_source=HbGs3gi3xS-SfqfxZRDuCw", "review_count": 21, "categories": [{"alias": "sandwiches", "title": "Sandwiches"}], "rating": 2.5, "coordinates": {"latitude": 41.6112022, "longitude": -71.4573059}, "transactions": [], "price": "$$", "location": {"address1": "6857 Post Rd Rt 1", "address2": "", "address3": "", "city": "North Kingstown", "zip_code": "02852", "country": "US", "state": "RI", "display_address": ["6857 Post Rd Rt 1", "North Kingstown, RI 02852"]}, "phone": "+14018854528", "display_phone": "(401) 885-4528", "distance": 6830.618822793367}, {"id": "C7Vo9R-yGbX-qIC3RfZGVw", "alias": "subway-north-kingstown-4", "name": "Subway", "image_url": "https://s3-media1.fl.yelpcdn.com/bphoto/alRYZA1lcYo7WSJy9US2QA/o.jpg", "is_closed": false, "url": "https://www.yelp.com/biz/subway-north-kingstown-4?adjust_creative=HbGs3gi3xS-SfqfxZRDuCw&utm_campaign=yelp_api_v3&utm_medium=api_v3_business_search&utm_source=HbGs3gi3xS-SfqfxZRDuCw", "review_count": 3, "categories": [{"alias": "sandwiches", "title": "Sandwiches"}], "rating": 3.0, "coordinates": {"latitude": 41.607103, "longitude": -71.4532162584096}, "transactions": [], "price": "$", "location": {"address1": "76 Gate Rd", "address2": "Unit B6", "address3": "", "city": "North Kingstown", "zip_code": "02852", "country": "US", "state": "RI", "display_address": ["76 Gate Rd", "Unit B6", "North Kingstown, RI 02852"]}, "phone": "+14016672682", "display_phone": "(401) 667-2682", "distance": 9273.563282947958}, {"id": "JIhRVJ4BAWPH9NZ0u-7Wzw", "alias": "flip-n-roll-fall-river", "name": "Flip N Roll", "image_url": "https://s3-media1.fl.yelpcdn.com/bphoto/A3l1k85peGnmCC17j-Bmhg/o.jpg", "is_closed": false, "url": "https://www.yelp.com/biz/flip-n-roll-fall-river?adjust_creative=HbGs3gi3xS-SfqfxZRDuCw&utm_campaign=yelp_api_v3&utm_medium=api_v3_business_search&utm_source=HbGs3gi3xS-SfqfxZRDuCw", "review_count": 1, "categories": [{"alias": "foodtrucks", "title": "Food Trucks"}, {"alias": "tradamerican", "title": "American (Traditional)"}, {"alias": "portuguese", "title": "Portuguese"}], "rating": 1.0, "coordinates": {"latitude": 41.68687, "longitude": -71.17062}, "transactions": [], "price": "$$", "location": {"address1": "", "address2": "", "address3": "", "city": "Fall River", "zip_code": "02724", "country": "US", "state": "MA", "display_address": ["Fall River, MA 02724"]}, "phone": "", "display_phone": "", "distance": 32595.69063409069}, {"id": "PgXTzdjmVT28YPPBfWTgKQ", "alias": "kingston-pizza-bonnet", "name": "Kingston Pizza", "image_url": "https://s3-media1.fl.yelpcdn.com/bphoto/gp37kMbSXk_FMBSfygyPBA/o.jpg", "is_closed": false, "url": "https://www.yelp.com/biz/kingston-pizza-bonnet?adjust_creative=HbGs3gi3xS-SfqfxZRDuCw&utm_campaign=yelp_api_v3&utm_medium=api_v3_business_search&utm_source=HbGs3gi3xS-SfqfxZRDuCw", "review_count": 36, "categories": [{"alias": "pizza", "title": "Pizza"}, {"alias": "italian", "title": "Italian"}], "rating": 2.0, "coordinates": {"latitude": 41.478642, "longitude": -71.435855}, "transactions": ["delivery", "pickup"], "price": "$$", "location": {"address1": "961 Boston Neck Rd", "address2": "", "address3": "", "city": "Bonnet", "zip_code": "02874", "country": "US", "state": "RI", "display_address": ["961 Boston Neck Rd", "Bonnet, RI 02874"]}, "phone": "+14017893146", "display_phone": "(401) 789-3146", "distance": 8681.412049579281}, {"id": "S9xVEfTwXbZSs8hx0pPeig", "alias": "international-slice-pizza-and-wings-kingston", "name": "International Slice Pizza and Wings", "image_url": "https://s3-media4.fl.yelpcdn.com/bphoto/VeEiHFVZhH4u1lGPvKt8QQ/o.jpg", "is_closed": false, "url": "https://www.yelp.com/biz/international-slice-pizza-and-wings-kingston?adjust_creative=HbGs3gi3xS-SfqfxZRDuCw&utm_campaign=yelp_api_v3&utm_medium=api_v3_business_search&utm_source=HbGs3gi3xS-SfqfxZRDuCw", "review_count": 1, "categories": [{"alias": "pizza", "title": "Pizza"}, {"alias": "italian", "title": "Italian"}, {"alias": "chicken_wings", "title": "Chicken Wings"}], "rating": 1.0, "coordinates": {"latitude": 41.485233977437, "longitude": -71.5237265825272}, "transactions": ["delivery", "pickup"], "location": {"address1": "99 Fortin Rd", "address2": "Ste 3A", "address3": null, "city": "Kingston", "zip_code": "02881", "country": "US", "state": "RI", "display_address": ["99 Fortin Rd", "Ste 3A", "Kingston, RI 02881"]}, "phone": "+14012841386", "display_phone": "(401) 284-1386", "distance": 5613.733906040511}, {"id": "324pp6avrBFbzw059DoHsA", "alias": "roadies-raleigh", "name": "Roadies", "image_url": "https://s3-media2.fl.yelpcdn.com/bphoto/3zJZmmgIOYrfKoAOp9Du1w/o.jpg", "is_closed": false, "url": "https://www.yelp.com/biz/roadies-raleigh?adjust_creative=HbGs3gi3xS-SfqfxZRDuCw&utm_campaign=yelp_api_v3&utm_medium=api_v3_business_search&utm_source=HbGs3gi3xS-SfqfxZRDuCw", "review_count": 10, "categories": [{"alias": "foodtrucks", "title": "Food Trucks"}, {"alias": "seafood", "title": "Seafood"}], "rating": 4.5, "coordinates": {"latitude": 35.67575, "longitude": -78.66424}, "transactions": [], "price": "$", "location": {"address1": "", "address2": null, "address3": "", "city": "Raleigh", "zip_code": "27603", "country": "US", "state": "NC", "display_address": ["Raleigh, NC 27603"]}, "phone": "+13476136489", "display_phone": "(347) 613-6489", "distance": 901906.3330895179}]