[{"id": "8JyDjJHt9Xzh1duQ2FMn2Q", "alias": "the-provisioner-new-york-deli-and-cafe-north-kingstown", "name": "The Provisioner New York Deli & Cafe", "image_url": "https://s3-media3.fl.yelpcdn.com/bphoto/_08WFJu_EydydRNKPgNYRg/o.jpg", "is_closed": false, "url": "https://www.yelp.com/biz/the-provisioner-new-york-deli-and-cafe-north-kingstown?adjust_creative=9VzDKP4DqSuZkRYYaMKPjA&utm_campaign=yelp_api_v3&utm_medium=api_v3_business_search&utm_source=9VzDKP4DqSuZkRYYaMKPjA", "review_count": 129, "categories": [{"alias": "bars", "title": "Bars"}, {"alias": "tradamerican", "title": "American (Traditional)"}, {"alias": "delis", "title": "Delis"}], "rating": 4.5, "coordinates": {"latitude": 41.589866, "longitude": -71.45857}, "transactions": ["delivery"], "price": "$", "location": {"address1": "7669 Post Rd", "address2": "", "address3": null, "city": "North Kingstown", "zip_code": "02852", "country": "US", "state": "RI", "display_address": ["7669 Post Rd", "North Kingstown, RI 02852"]}, "phone": "+14016670663", "display_phone": "(401) 667-0663", "distance": 141.5930328582421}, {"id": "lHNieRcPPpelotgf2Im1AA", "alias": "el-tapatio-north-kingstown", "name": "El Tapatio", "image_url": "https://s3-media4.fl.yelpcdn.com/bphoto/ppQCj06w388150lvxIKQVQ/o.jpg", "is_closed": false, "url": "https://www.yelp.com/biz/el-tapatio-north-kingstown?adjust_creative=9VzDKP4DqSuZkRYYaMKPjA&utm_campaign=yelp_api_v3&utm_medium=api_v3_business_search&utm_source=9VzDKP4DqSuZkRYYaMKPjA", "review_count": 126, "categories": [{"alias": "mexican", "title": "Mexican"}], "rating": 3.5, "coordinates": {"latitude": 41.57476, "longitude": -71.46088}, "transactions": ["delivery"], "price": "$$", "location": {"address1": "8220 Post Rd", "address2": "", "address3": "", "city": "North Kingstown", "zip_code": "02852", "country": "US", "state": "RI", "display_address": ["8220 Post Rd", "North Kingstown, RI 02852"]}, "phone": "+14012952280", "display_phone": "(401) 295-2280", "distance": 1648.6089003131774}, {"id": "zgdwftikguiV2i_MFxvbJw", "alias": "tates-italian-kitchen-north-kingstown", "name": "Tate's Italian Kitchen", "image_url": "https://s3-media4.fl.yelpcdn.com/bphoto/iJQ61-UYUGayITRqtlmyOw/o.jpg", "is_closed": false, "url": "https://www.yelp.com/biz/tates-italian-kitchen-north-kingstown?adjust_creative=9VzDKP4DqSuZkRYYaMKPjA&utm_campaign=yelp_api_v3&utm_medium=api_v3_business_search&utm_source=9VzDKP4DqSuZkRYYaMKPjA", "review_count": 97, "categories": [{"alias": "italian", "title": "Italian"}, {"alias": "wine_bars", "title": "Wine Bars"}, {"alias": "salad", "title": "Salad"}], "rating": 4.0, "coordinates": {"latitude": 41.5704464, "longitude": -71.4526042}, "transactions": ["delivery"], "price": "$$", "location": {"address1": "64 Brown St", "address2": "", "address3": "", "city": "North Kingstown", "zip_code": "02852", "country": "US", "state": "RI", "display_address": ["64 Brown St", "North Kingstown, RI 02852"]}, "phone": "+14012940000", "display_phone": "(401) 294-0000", "distance": 2218.238809212443}, {"id": "eweojgQEQl1Nok0EFMEgaA", "alias": "o-sushi-north-kingstown", "name": "O Sushi", "image_url": "https://s3-media2.fl.yelpcdn.com/bphoto/LDVcbRD8lfeRk1WWHrg7ZA/o.jpg", "is_closed": false, "url": "https://www.yelp.com/biz/o-sushi-north-kingstown?adjust_creative=9VzDKP4DqSuZkRYYaMKPjA&utm_campaign=yelp_api_v3&utm_medium=api_v3_business_search&utm_source=9VzDKP4DqSuZkRYYaMKPjA", "review_count": 105, "categories": [{"alias": "sushi", "title": "Sushi Bars"}, {"alias": "japanese", "title": "Japanese"}, {"alias": "thai", "title": "Thai"}], "rating": 4.5, "coordinates": {"latitude": 41.5899406, "longitude": -71.4575887}, "transactions": ["delivery"], "price": "$$", "location": {"address1": "7659 Post Rd", "address2": "", "address3": "", "city": "North Kingstown", "zip_code": "02852", "country": "US", "state": "RI", "display_address": ["7659 Post Rd", "North Kingstown, RI 02852"]}, "phone": "+14016673775", "display_phone": "(401) 667-3775", "distance": 223.196776812643}, {"id": "U03Qykt6ETiLA7ZzBiROxw", "alias": "wickford-on-the-water-north-kingstown-4", "name": "Wickford on the Water", "image_url": "https://s3-media2.fl.yelpcdn.com/bphoto/XzRl9wCVpSvQdgRJC0qa5g/o.jpg", "is_closed": false, "url": "https://www.yelp.com/biz/wickford-on-the-water-north-kingstown-4?adjust_creative=9VzDKP4DqSuZkRYYaMKPjA&utm_campaign=yelp_api_v3&utm_medium=api_v3_business_search&utm_source=9VzDKP4DqSuZkRYYaMKPjA", "review_count": 110, "categories": [{"alias": "seafood", "title": "Seafood"}, {"alias": "breakfast_brunch", "title": "Breakfast & Brunch"}, {"alias": "sandwiches", "title": "Sandwiches"}], "rating": 3.5, "coordinates": {"latitude": 41.5708490675993, "longitude": -71.4522783885966}, "transactions": [], "price": "$$", "location": {"address1": "85 Brown St", "address2": "", "address3": "", "city": "North Kingstown", "zip_code": "02852", "country": "US", "state": "RI", "display_address": ["85 Brown St", "North Kingstown, RI 02852"]}, "phone": "+14012947900", "display_phone": "(401) 294-7900", "distance": 2172.400467421799}, {"id": "si_hN5ISMJY0ADC0lI1xRA", "alias": "the-place-north-kingstown", "name": "The Place", "image_url": "https://s3-media3.fl.yelpcdn.com/bphoto/6L-xT-yxrgpC1YFkHh7SRQ/o.jpg", "is_closed": false, "url": "https://www.yelp.com/biz/the-place-north-kingstown?adjust_creative=9VzDKP4DqSuZkRYYaMKPjA&utm_campaign=yelp_api_v3&utm_medium=api_v3_business_search&utm_source=9VzDKP4DqSuZkRYYaMKPjA", "review_count": 35, "categories": [{"alias": "pizza", "title": "Pizza"}], "rating": 4.0, "coordinates": {"latitude": 41.57133, "longitude": -71.45214}, "transactions": [], "price": "$", "location": {"address1": "95 Brown St", "address2": "", "address3": "", "city": "North Kingstown", "zip_code": "02852", "country": "US", "state": "RI", "display_address": ["95 Brown St", "North Kingstown, RI 02852"]}, "phone": "+14012940800", "display_phone": "(401) 294-0800", "distance": 2143.3123299624867}, {"id": "arARGzbL_5xpb5IS2J7EnA", "alias": "sonoma-bistro-and-winebar-north-kingstown-2", "name": "Sonoma Bistro and WineBar", "image_url": "https://s3-media4.fl.yelpcdn.com/bphoto/aJOCEHDU78CMJj-pMy5Q2g/o.jpg", "is_closed": false, "url": "https://www.yelp.com/biz/sonoma-bistro-and-winebar-north-kingstown-2?adjust_creative=9VzDKP4DqSuZkRYYaMKPjA&utm_campaign=yelp_api_v3&utm_medium=api_v3_business_search&utm_source=9VzDKP4DqSuZkRYYaMKPjA", "review_count": 104, "categories": [{"alias": "wine_bars", "title": "Wine Bars"}, {"alias": "newamerican", "title": "American (New)"}], "rating": 3.5, "coordinates": {"latitude": 41.5969620645046, "longitude": -71.4553637802601}, "transactions": ["delivery"], "price": "$$", "location": {"address1": "7366 Post Rd", "address2": "", "address3": "", "city": "North Kingstown", "zip_code": "02852", "country": "US", "state": "RI", "display_address": ["7366 Post Rd", "North Kingstown, RI 02852"]}, "phone": "+14012950800", "display_phone": "(401) 295-0800", "distance": 991.3594092346463}, {"id": "h8KqqIKzJUOs2mf4_j60jg", "alias": "socrates-pizza-north-kingstown", "name": "Socrates Pizza", "image_url": "https://s3-media2.fl.yelpcdn.com/bphoto/zHXI6QQXu2dGAy2QQneNYQ/o.jpg", "is_closed": false, "url": "https://www.yelp.com/biz/socrates-pizza-north-kingstown?adjust_creative=9VzDKP4DqSuZkRYYaMKPjA&utm_campaign=yelp_api_v3&utm_medium=api_v3_business_search&utm_source=9VzDKP4DqSuZkRYYaMKPjA", "review_count": 28, "categories": [{"alias": "pizza", "title": "Pizza"}], "rating": 4.0, "coordinates": {"latitude": 41.59087, "longitude": -71.45671}, "transactions": ["delivery"], "price": "$$", "location": {"address1": "7610 Post Rd", "address2": "", "address3": "", "city": "North Kingstown", "zip_code": "02852", "country": "US", "state": "RI", "display_address": ["7610 Post Rd", "North Kingstown, RI 02852"]}, "phone": "+14016670250", "display_phone": "(401) 667-0250", "distance": 330.1973430684987}, {"id": "0-WDzzZ-FZk7k4Le6NvqUw", "alias": "maes-place-north-kingstown", "name": "Mae's Place", "image_url": "https://s3-media3.fl.yelpcdn.com/bphoto/VvUCwavYzIUwmntlFpKXcQ/o.jpg", "is_closed": false, "url": "https://www.yelp.com/biz/maes-place-north-kingstown?adjust_creative=9VzDKP4DqSuZkRYYaMKPjA&utm_campaign=yelp_api_v3&utm_medium=api_v3_business_search&utm_source=9VzDKP4DqSuZkRYYaMKPjA", "review_count": 57, "categories": [{"alias": "breakfast_brunch", "title": "Breakfast & Brunch"}], "rating": 4.5, "coordinates": {"latitude": 41.57442, "longitude": -71.46096}, "transactions": ["delivery"], "price": "$", "location": {"address1": "8230 Post Rd", "address2": null, "address3": "", "city": "North Kingstown", "zip_code": "02852", "country": "US", "state": "RI", "display_address": ["8230 Post Rd", "North Kingstown, RI 02852"]}, "phone": "+14016677272", "display_phone": "(401) 667-7272", "distance": 1679.8204445456981}, {"id": "Ww1DD9sAN3BZnitn46cKXg", "alias": "tavern-by-the-sea-n-kingstown-3", "name": "Tavern By The Sea", "image_url": "https://s3-media4.fl.yelpcdn.com/bphoto/Gp5QMaEXNJavnwQ0qOQG6w/o.jpg", "is_closed": false, "url": "https://www.yelp.com/biz/tavern-by-the-sea-n-kingstown-3?adjust_creative=9VzDKP4DqSuZkRYYaMKPjA&utm_campaign=yelp_api_v3&utm_medium=api_v3_business_search&utm_source=9VzDKP4DqSuZkRYYaMKPjA", "review_count": 150, "categories": [{"alias": "seafood", "title": "Seafood"}, {"alias": "sandwiches", "title": "Sandwiches"}, {"alias": "burgers", "title": "Burgers"}], "rating": 3.0, "coordinates": {"latitude": 41.570916, "longitude": -71.452844}, "transactions": ["delivery"], "price": "$$", "location": {"address1": "16 W Main St", "address2": null, "address3": "", "city": "N Kingstown", "zip_code": "02852", "country": "US", "state": "RI", "display_address": ["16 W Main St", "N Kingstown, RI 02852"]}, "phone": "+14012945771", "display_phone": "(401) 294-5771", "distance": 2163.933276743571}, {"id": "MtOtKH1ZSwyntuircCGSmg", "alias": "pagoda-inn-north-kingstown-2", "name": "Pagoda Inn", "image_url": "https://s3-media4.fl.yelpcdn.com/bphoto/E8ROb7fqz_0lgPmf91ekPg/o.jpg", "is_closed": false, "url": "https://www.yelp.com/biz/pagoda-inn-north-kingstown-2?adjust_creative=9VzDKP4DqSuZkRYYaMKPjA&utm_campaign=yelp_api_v3&utm_medium=api_v3_business_search&utm_source=9VzDKP4DqSuZkRYYaMKPjA", "review_count": 46, "categories": [{"alias": "chinese", "title": "Chinese"}], "rating": 3.5, "coordinates": {"latitude": 41.5988616181528, "longitude": -71.4551693201065}, "transactions": [], "price": "$$", "location": {"address1": "7315 Post Rd", "address2": "", "address3": null, "city": "North Kingstown", "zip_code": "02852", "country": "US", "state": "RI", "display_address": ["7315 Post Rd", "North Kingstown, RI 02852"]}, "phone": "+14012942200", "display_phone": "(401) 294-2200", "distance": 1114.8731437327674}, {"id": "slrNKVHlPZaxYqbGQTpnYw", "alias": "mickys-pizza-north-kingstown", "name": "Micky's Pizza", "image_url": "https://s3-media3.fl.yelpcdn.com/bphoto/fKsPzJmMrKo7n9tQa8TW6w/o.jpg", "is_closed": false, "url": "https://www.yelp.com/biz/mickys-pizza-north-kingstown?adjust_creative=9VzDKP4DqSuZkRYYaMKPjA&utm_campaign=yelp_api_v3&utm_medium=api_v3_business_search&utm_source=9VzDKP4DqSuZkRYYaMKPjA", "review_count": 13, "categories": [{"alias": "pizza", "title": "Pizza"}], "rating": 4.5, "coordinates": {"latitude": 41.5703458289259, "longitude": -71.4526748657227}, "transactions": [], "location": {"address1": "60 Brown St", "address2": "", "address3": null, "city": "North Kingstown", "zip_code": "02852", "country": "US", "state": "RI", "display_address": ["60 Brown St", "North Kingstown, RI 02852"]}, "phone": "", "display_phone": "", "distance": 2228.724282441415}, {"id": "rxLXcA0EcN7Qum08v-QDXQ", "alias": "nk-chicago-pizza-north-kingstown", "name": "NK Chicago Pizza", "image_url": "https://s3-media4.fl.yelpcdn.com/bphoto/1dlVf_UAL0BKx72TpUfMsw/o.jpg", "is_closed": false, "url": "https://www.yelp.com/biz/nk-chicago-pizza-north-kingstown?adjust_creative=9VzDKP4DqSuZkRYYaMKPjA&utm_campaign=yelp_api_v3&utm_medium=api_v3_business_search&utm_source=9VzDKP4DqSuZkRYYaMKPjA", "review_count": 21, "categories": [{"alias": "pizza", "title": "Pizza"}], "rating": 3.5, "coordinates": {"latitude": 41.5894409, "longitude": -71.4578605}, "transactions": [], "price": "$", "location": {"address1": "7673 Post Rd", "address2": "", "address3": "", "city": "North Kingstown", "zip_code": "02852", "country": "US", "state": "RI", "display_address": ["7673 Post Rd", "North Kingstown, RI 02852"]}, "phone": "+14012951550", "display_phone": "(401) 295-1550", "distance": 162.84221589019884}, {"id": "LNwcqQI2TJ7ClvrmS47p8A", "alias": "kingston-pizza-north-kingstown-3", "name": "Kingston Pizza", "image_url": "https://s3-media3.fl.yelpcdn.com/bphoto/mAjIN0TmqO8Ais8_tCVarA/o.jpg", "is_closed": false, "url": "https://www.yelp.com/biz/kingston-pizza-north-kingstown-3?adjust_creative=9VzDKP4DqSuZkRYYaMKPjA&utm_campaign=yelp_api_v3&utm_medium=api_v3_business_search&utm_source=9VzDKP4DqSuZkRYYaMKPjA", "review_count": 18, "categories": [{"alias": "pizza", "title": "Pizza"}], "rating": 2.5, "coordinates": {"latitude": 41.59662, "longitude": -71.45571}, "transactions": [], "price": "$$", "location": {"address1": "7415 Post Rd", "address2": null, "address3": null, "city": "North Kingstown", "zip_code": "02852", "country": "US", "state": "RI", "display_address": ["7415 Post Rd", "North Kingstown, RI 02852"]}, "phone": "+14012952121", "display_phone": "(401) 295-2121", "distance": 816.422752141303}, {"id": "zqQdRwgt253GM8hIn_DG1g", "alias": "somethings-brewing-north-kingstown", "name": "Something's Brewing", "image_url": "https://s3-media2.fl.yelpcdn.com/bphoto/eKo3500yA-HJcXK_0hk7PA/o.jpg", "is_closed": false, "url": "https://www.yelp.com/biz/somethings-brewing-north-kingstown?adjust_creative=9VzDKP4DqSuZkRYYaMKPjA&utm_campaign=yelp_api_v3&utm_medium=api_v3_business_search&utm_source=9VzDKP4DqSuZkRYYaMKPjA", "review_count": 12, "categories": [{"alias": "coffee", "title": "Coffee & Tea"}, {"alias": "breakfast_brunch", "title": "Breakfast & Brunch"}], "rating": 4.5, "coordinates": {"latitude": 41.5950040519238, "longitude": -71.4559471607208}, "transactions": ["delivery"], "price": "$", "location": {"address1": "7446 Post Rd", "address2": "", "address3": null, "city": "North Kingstown", "zip_code": "02852", "country": "US", "state": "RI", "display_address": ["7446 Post Rd", "North Kingstown, RI 02852"]}, "phone": "+14012947300", "display_phone": "(401) 294-7300", "distance": 748.7657961928187}, {"id": "Io4C5tUwnb_YzeaMXHBqBA", "alias": "shuckin-truck-narragansett-2", "name": "Shuckin Truck", "image_url": "https://s3-media2.fl.yelpcdn.com/bphoto/r7QRORfe9UYVS7GGzUm9DQ/o.jpg", "is_closed": false, "url": "https://www.yelp.com/biz/shuckin-truck-narragansett-2?adjust_creative=9VzDKP4DqSuZkRYYaMKPjA&utm_campaign=yelp_api_v3&utm_medium=api_v3_business_search&utm_source=9VzDKP4DqSuZkRYYaMKPjA", "review_count": 24, "categories": [{"alias": "foodtrucks", "title": "Food Trucks"}, {"alias": "seafood", "title": "Seafood"}], "rating": 4.5, "coordinates": {"latitude": 41.4274482727051, "longitude": -71.4597778320313}, "transactions": [], "price": "$$", "location": {"address1": "", "address2": "", "address3": "", "city": "Narragansett", "zip_code": "02882", "country": "US", "state": "RI", "display_address": ["Narragansett, RI 02882"]}, "phone": "+14017415953", "display_phone": "(401) 741-5953", "distance": 21401.890977874857}, {"id": "piFFfUiJm2BYBasatpDAZg", "alias": "burger-king-n-kingstown", "name": "Burger King", "image_url": "https://s3-media3.fl.yelpcdn.com/bphoto/eVVeL1OMrHR5QuzWU4lpEQ/o.jpg", "is_closed": false, "url": "https://www.yelp.com/biz/burger-king-n-kingstown?adjust_creative=9VzDKP4DqSuZkRYYaMKPjA&utm_campaign=yelp_api_v3&utm_medium=api_v3_business_search&utm_source=9VzDKP4DqSuZkRYYaMKPjA", "review_count": 17, "categories": [{"alias": "burgers", "title": "Burgers"}, {"alias": "hotdogs", "title": "Fast Food"}], "rating": 2.0, "coordinates": {"latitude": 41.606006, "longitude": -71.455847}, "transactions": [], "price": "$", "location": {"address1": "7041 Post Rd", "address2": "", "address3": "", "city": "N Kingstown", "zip_code": "02852", "country": "US", "state": "RI", "display_address": ["7041 Post Rd", "N Kingstown, RI 02852"]}, "phone": "+14018840444", "display_phone": "(401) 884-0444", "distance": 1858.4780814602664}, {"id": "wQY7JEbvfzvM5EEfrc4SYw", "alias": "d-angelo-grilled-sandwiches-north-kingstown", "name": "D'angelo Grilled Sandwiches", "image_url": "https://s3-media1.fl.yelpcdn.com/bphoto/m22XgT0WiKfUHJ_UQZfLCA/o.jpg", "is_closed": false, "url": "https://www.yelp.com/biz/d-angelo-grilled-sandwiches-north-kingstown?adjust_creative=9VzDKP4DqSuZkRYYaMKPjA&utm_campaign=yelp_api_v3&utm_medium=api_v3_business_search&utm_source=9VzDKP4DqSuZkRYYaMKPjA", "review_count": 21, "categories": [{"alias": "sandwiches", "title": "Sandwiches"}], "rating": 2.5, "coordinates": {"latitude": 41.6112022, "longitude": -71.4573059}, "transactions": [], "price": "$$", "location": {"address1": "6857 Post Rd Rt 1", "address2": "", "address3": "", "city": "North Kingstown", "zip_code": "02852", "country": "US", "state": "RI", "display_address": ["6857 Post Rd Rt 1", "North Kingstown, RI 02852"]}, "phone": "+14018854528", "display_phone": "(401) 885-4528", "distance": 1133.189030114851}, {"id": "oXi5uZqBHaRN-9LfbTz4iw", "alias": "solarcart-cafe-wakefield", "name": "SolarCart Cafe", "image_url": "https://s3-media3.fl.yelpcdn.com/bphoto/2jnm4N-kA74C1G385wcvjw/o.jpg", "is_closed": false, "url": "https://www.yelp.com/biz/solarcart-cafe-wakefield?adjust_creative=9VzDKP4DqSuZkRYYaMKPjA&utm_campaign=yelp_api_v3&utm_medium=api_v3_business_search&utm_source=9VzDKP4DqSuZkRYYaMKPjA", "review_count": 5, "categories": [{"alias": "foodtrucks", "title": "Food Trucks"}, {"alias": "cafes", "title": "Cafes"}], "rating": 5.0, "coordinates": {"latitude": 41.3783548485934, "longitude": -71.5497396899248}, "transactions": [], "location": {"address1": "344 Main St", "address2": "", "address3": null, "city": "Wakefield", "zip_code": "02879", "country": "US", "state": "RI", "display_address": ["344 Main St", "Wakefield, RI 02879"]}, "phone": "+14017936041", "display_phone": "(401) 793-6041", "distance": 24641.926889290644}, {"id": "C7Vo9R-yGbX-qIC3RfZGVw", "alias": "subway-north-kingstown-4", "name": "Subway", "image_url": "https://s3-media1.fl.yelpcdn.com/bphoto/alRYZA1lcYo7WSJy9US2QA/o.jpg", "is_closed": false, "url": "https://www.yelp.com/biz/subway-north-kingstown-4?adjust_creative=9VzDKP4DqSuZkRYYaMKPjA&utm_campaign=yelp_api_v3&utm_medium=api_v3_business_search&utm_source=9VzDKP4DqSuZkRYYaMKPjA", "review_count": 3, "categories": [{"alias": "sandwiches", "title": "Sandwiches"}], "rating": 3.0, "coordinates": {"latitude": 41.607103, "longitude": -71.4532162584096}, "transactions": [], "price": "$", "location": {"address1": "76 Gate Rd", "address2": "Unit B6", "address3": "", "city": "North Kingstown", "zip_code": "02852", "country": "US", "state": "RI", "display_address": ["76 Gate Rd", "Unit B6", "North Kingstown, RI 02852"]}, "phone": "+14016672682", "display_phone": "(401) 667-2682", "distance": 2034.208458068787}, {"id": "JIhRVJ4BAWPH9NZ0u-7Wzw", "alias": "flip-n-roll-fall-river", "name": "Flip N Roll", "image_url": "https://s3-media1.fl.yelpcdn.com/bphoto/A3l1k85peGnmCC17j-Bmhg/o.jpg", "is_closed": false, "url": "https://www.yelp.com/biz/flip-n-roll-fall-river?adjust_creative=9VzDKP4DqSuZkRYYaMKPjA&utm_campaign=yelp_api_v3&utm_medium=api_v3_business_search&utm_source=9VzDKP4DqSuZkRYYaMKPjA", "review_count": 1, "categories": [{"alias": "foodtrucks", "title": "Food Trucks"}, {"alias": "tradamerican", "title": "American (Traditional)"}, {"alias": "portuguese", "title": "Portuguese"}], "rating": 1.0, "coordinates": {"latitude": 41.68687, "longitude": -71.17062}, "transactions": [], "price": "$$", "location": {"address1": "", "address2": "", "address3": "", "city": "Fall River", "zip_code": "02724", "country": "US", "state": "MA", "display_address": ["Fall River, MA 02724"]}, "phone": "", "display_phone": "", "distance": 26155.165304691887}, {"id": "324pp6avrBFbzw059DoHsA", "alias": "roadies-raleigh", "name": "Roadies", "image_url": "https://s3-media2.fl.yelpcdn.com/bphoto/3zJZmmgIOYrfKoAOp9Du1w/o.jpg", "is_closed": false, "url": "https://www.yelp.com/biz/roadies-raleigh?adjust_creative=9VzDKP4DqSuZkRYYaMKPjA&utm_campaign=yelp_api_v3&utm_medium=api_v3_business_search&utm_source=9VzDKP4DqSuZkRYYaMKPjA", "review_count": 10, "categories": [{"alias": "foodtrucks", "title": "Food Trucks"}, {"alias": "seafood", "title": "Seafood"}], "rating": 4.5, "coordinates": {"latitude": 35.67575, "longitude": -78.66424}, "transactions": [], "price": "$", "location": {"address1": "", "address2": null, "address3": "", "city": "Raleigh", "zip_code": "27603", "country": "US", "state": "NC", "display_address": ["Raleigh, NC 27603"]}, "phone": "+13476136489", "display_phone": "(347) 613-6489", "distance": 909036.7287658093}]