[{"id": "WPCcCtx1ue5yTrswRHi0tQ", "alias": "christophers-kitchen-and-bar-woonsocket", "name": "Christopher's Kitchen and Bar", "image_url": "https://s3-media1.fl.yelpcdn.com/bphoto/Ui7GhBQAOEEzPMVArOorDQ/o.jpg", "is_closed": false, "url": "https://www.yelp.com/biz/christophers-kitchen-and-bar-woonsocket?adjust_creative=ogtFoSS6DBKYYW1KXs8qsw&utm_campaign=yelp_api_v3&utm_medium=api_v3_business_search&utm_source=ogtFoSS6DBKYYW1KXs8qsw", "review_count": 31, "categories": [{"alias": "bars", "title": "Bars"}, {"alias": "mediterranean", "title": "Mediterranean"}], "rating": 4.0, "coordinates": {"latitude": 41.99990167, "longitude": -71.51617833}, "transactions": ["delivery"], "price": "$$", "location": {"address1": "2 S Main St", "address2": null, "address3": "", "city": "Woonsocket", "zip_code": "02895", "country": "US", "state": "RI", "display_address": ["2 S Main St", "Woonsocket, RI 02895"]}, "phone": "+14017663615", "display_phone": "(401) 766-3615", "distance": 1418.0907595852373}, {"id": "LOJNnsHl2HyTVtL8GkoOJA", "alias": "neos-greek-restaurant-woonsocket", "name": "NEOS Greek Restaurant", "image_url": "https://s3-media2.fl.yelpcdn.com/bphoto/69veTWNuVXFGbXOjQgrFSA/o.jpg", "is_closed": false, "url": "https://www.yelp.com/biz/neos-greek-restaurant-woonsocket?adjust_creative=ogtFoSS6DBKYYW1KXs8qsw&utm_campaign=yelp_api_v3&utm_medium=api_v3_business_search&utm_source=ogtFoSS6DBKYYW1KXs8qsw", "review_count": 39, "categories": [{"alias": "greek", "title": "Greek"}], "rating": 4.5, "coordinates": {"latitude": 42.00598, "longitude": -71.48901}, "transactions": ["delivery"], "location": {"address1": "480 Cass Ave", "address2": "", "address3": null, "city": "Woonsocket", "zip_code": "02895", "country": "US", "state": "RI", "display_address": ["480 Cass Ave", "Woonsocket, RI 02895"]}, "phone": "+14013564145", "display_phone": "(401) 356-4145", "distance": 1157.6028077788706}, {"id": "2o9ANW9s3BQ02-c_pJZjNg", "alias": "ciros-tavern-woonsocket", "name": "Ciro's Tavern", "image_url": "https://s3-media3.fl.yelpcdn.com/bphoto/pQgOdqb9yXBDxx8xeUnLiw/o.jpg", "is_closed": false, "url": "https://www.yelp.com/biz/ciros-tavern-woonsocket?adjust_creative=ogtFoSS6DBKYYW1KXs8qsw&utm_campaign=yelp_api_v3&utm_medium=api_v3_business_search&utm_source=ogtFoSS6DBKYYW1KXs8qsw", "review_count": 158, "categories": [{"alias": "pubs", "title": "Pubs"}, {"alias": "tradamerican", "title": "American (Traditional)"}, {"alias": "salad", "title": "Salad"}], "rating": 3.5, "coordinates": {"latitude": 42.0045509338379, "longitude": -71.5132522583008}, "transactions": ["delivery"], "price": "$$", "location": {"address1": "42 Cherry St", "address2": "", "address3": "", "city": "Woonsocket", "zip_code": "02895", "country": "US", "state": "RI", "display_address": ["42 Cherry St", "Woonsocket, RI 02895"]}, "phone": "+14017693330", "display_phone": "(401) 769-3330", "distance": 1353.4321078857097}, {"id": "ESV1L-ai5ruQ-3ncZsxKdA", "alias": "goodstuff-smokehouse-blackstone", "name": "Goodstuff Smokehouse", "image_url": "https://s3-media3.fl.yelpcdn.com/bphoto/pyHBn0p5vs0PfwxFKKrOpA/o.jpg", "is_closed": false, "url": "https://www.yelp.com/biz/goodstuff-smokehouse-blackstone?adjust_creative=ogtFoSS6DBKYYW1KXs8qsw&utm_campaign=yelp_api_v3&utm_medium=api_v3_business_search&utm_source=ogtFoSS6DBKYYW1KXs8qsw", "review_count": 272, "categories": [{"alias": "bbq", "title": "Barbeque"}, {"alias": "southern", "title": "Southern"}], "rating": 4.5, "coordinates": {"latitude": 42.01865, "longitude": -71.5363}, "transactions": ["delivery"], "price": "$$", "location": {"address1": "97 Main St", "address2": null, "address3": "", "city": "Blackstone", "zip_code": "01504", "country": "US", "state": "MA", "display_address": ["97 Main St", "Blackstone, MA 01504"]}, "phone": "+15089281815", "display_phone": "(508) 928-1815", "distance": 3810.983870329513}, {"id": "m5RLHsmP10ndwlHViypFtQ", "alias": "lucky-dog-tavern-north-smithfield", "name": "Lucky Dog Tavern", "image_url": "https://s3-media1.fl.yelpcdn.com/bphoto/B1GtVbmAsSqv7LIKsziFkQ/o.jpg", "is_closed": false, "url": "https://www.yelp.com/biz/lucky-dog-tavern-north-smithfield?adjust_creative=ogtFoSS6DBKYYW1KXs8qsw&utm_campaign=yelp_api_v3&utm_medium=api_v3_business_search&utm_source=ogtFoSS6DBKYYW1KXs8qsw", "review_count": 124, "categories": [{"alias": "tradamerican", "title": "American (Traditional)"}, {"alias": "seafood", "title": "Seafood"}, {"alias": "burgers", "title": "Burgers"}], "rating": 4.5, "coordinates": {"latitude": 42.0001733244128, "longitude": -71.570336091304}, "transactions": [], "price": "$$", "location": {"address1": "82 School St", "address2": "", "address3": null, "city": "North Smithfield", "zip_code": "02896", "country": "US", "state": "RI", "display_address": ["82 School St", "North Smithfield, RI 02896"]}, "phone": "+14014884777", "display_phone": "(401) 488-4777", "distance": 5895.739069579547}, {"id": "DfsUHsp2P3w-FEnlbK9JBw", "alias": "ocean-cafe-woonsocket", "name": "Ocean Cafe", "image_url": "https://s3-media1.fl.yelpcdn.com/bphoto/4IxThCDbdCarEYp5eNoaQQ/o.jpg", "is_closed": false, "url": "https://www.yelp.com/biz/ocean-cafe-woonsocket?adjust_creative=ogtFoSS6DBKYYW1KXs8qsw&utm_campaign=yelp_api_v3&utm_medium=api_v3_business_search&utm_source=ogtFoSS6DBKYYW1KXs8qsw", "review_count": 22, "categories": [{"alias": "latin", "title": "Latin American"}], "rating": 5.0, "coordinates": {"latitude": 42.002439961571, "longitude": -71.5145447105169}, "transactions": [], "price": "$", "location": {"address1": "114 N Main St", "address2": null, "address3": null, "city": "Woonsocket", "zip_code": "02895", "country": "US", "state": "RI", "display_address": ["114 N Main St", "Woonsocket, RI 02895"]}, "phone": "+14015970006", "display_phone": "(401) 597-0006", "distance": 1354.3419992862284}, {"id": "kuMdtM2ZB43cZQYx7-ERnw", "alias": "fazzinis-restaurant-woonsocket", "name": "Fazzini's Restaurant", "image_url": "https://s3-media2.fl.yelpcdn.com/bphoto/6OVY49BfsfClHlIRdhwUSQ/o.jpg", "is_closed": false, "url": "https://www.yelp.com/biz/fazzinis-restaurant-woonsocket?adjust_creative=ogtFoSS6DBKYYW1KXs8qsw&utm_campaign=yelp_api_v3&utm_medium=api_v3_business_search&utm_source=ogtFoSS6DBKYYW1KXs8qsw", "review_count": 18, "categories": [{"alias": "italian", "title": "Italian"}, {"alias": "pubs", "title": "Pubs"}, {"alias": "cocktailbars", "title": "Cocktail Bars"}], "rating": 3.5, "coordinates": {"latitude": 42.01505, "longitude": -71.46714}, "transactions": [], "price": "$$", "location": {"address1": "2120 Diamond Hill Rd", "address2": null, "address3": "", "city": "Woonsocket", "zip_code": "02895", "country": "US", "state": "RI", "display_address": ["2120 Diamond Hill Rd", "Woonsocket, RI 02895"]}, "phone": "+14015975095", "display_phone": "(401) 597-5095", "distance": 3213.44307080048}, {"id": "y2zYOMc56ynw5tNgtz04YQ", "alias": "tacos-don-nacho-woonsocket", "name": "Tacos Don Nacho", "image_url": "https://s3-media4.fl.yelpcdn.com/bphoto/NuQBlcQOcOVLAqZrI4pnkQ/o.jpg", "is_closed": false, "url": "https://www.yelp.com/biz/tacos-don-nacho-woonsocket?adjust_creative=ogtFoSS6DBKYYW1KXs8qsw&utm_campaign=yelp_api_v3&utm_medium=api_v3_business_search&utm_source=ogtFoSS6DBKYYW1KXs8qsw", "review_count": 40, "categories": [{"alias": "mexican", "title": "Mexican"}], "rating": 4.5, "coordinates": {"latitude": 42.014389, "longitude": -71.5011292}, "transactions": ["delivery"], "price": "$", "location": {"address1": "986 Social St", "address2": "", "address3": "", "city": "Woonsocket", "zip_code": "02895", "country": "US", "state": "RI", "display_address": ["986 Social St", "Woonsocket, RI 02895"]}, "phone": "+14017664264", "display_phone": "(401) 766-4264", "distance": 1775.8548357896343}, {"id": "CghRGmcqO07RcZh-kduLow", "alias": "river-falls-restaurant-woonsocket-3", "name": "River Falls Restaurant", "image_url": "https://s3-media4.fl.yelpcdn.com/bphoto/EGD7bvfQC8GNmBKEAssfQg/o.jpg", "is_closed": false, "url": "https://www.yelp.com/biz/river-falls-restaurant-woonsocket-3?adjust_creative=ogtFoSS6DBKYYW1KXs8qsw&utm_campaign=yelp_api_v3&utm_medium=api_v3_business_search&utm_source=ogtFoSS6DBKYYW1KXs8qsw", "review_count": 222, "categories": [{"alias": "italian", "title": "Italian"}, {"alias": "steak", "title": "Steakhouses"}, {"alias": "seafood", "title": "Seafood"}], "rating": 3.0, "coordinates": {"latitude": 41.99904, "longitude": -71.51743}, "transactions": ["delivery"], "price": "$$", "location": {"address1": "74 S Main St", "address2": "", "address3": "", "city": "Woonsocket", "zip_code": "02895", "country": "US", "state": "RI", "display_address": ["74 S Main St", "Woonsocket, RI 02895"]}, "phone": "+14012359026", "display_phone": "(401) 235-9026", "distance": 1484.610065993258}, {"id": "TSUFpu2DVh1D5l-9bU0TFw", "alias": "lindys-tavern-forestdale", "name": "Lindy's Tavern", "image_url": "https://s3-media4.fl.yelpcdn.com/bphoto/UTfKQo-bEPIzETtyKio33g/o.jpg", "is_closed": false, "url": "https://www.yelp.com/biz/lindys-tavern-forestdale?adjust_creative=ogtFoSS6DBKYYW1KXs8qsw&utm_campaign=yelp_api_v3&utm_medium=api_v3_business_search&utm_source=ogtFoSS6DBKYYW1KXs8qsw", "review_count": 252, "categories": [{"alias": "seafood", "title": "Seafood"}, {"alias": "bars", "title": "Bars"}, {"alias": "salad", "title": "Salad"}], "rating": 4.0, "coordinates": {"latitude": 41.99935667, "longitude": -71.56814667}, "transactions": [], "price": "$$", "location": {"address1": "98 School St", "address2": null, "address3": null, "city": "Forestdale", "zip_code": "02824", "country": "US", "state": "RI", "display_address": ["98 School St", "Forestdale, RI 02824"]}, "phone": "+14013561966", "display_phone": "(401) 356-1966", "distance": 5707.896205631408}, {"id": "scBmTjmMxxQWaOCL25XLvg", "alias": "the-beef-barn-north-smithfield", "name": "The Beef Barn", "image_url": "https://s3-media2.fl.yelpcdn.com/bphoto/OqJt-ZZRSsPZGycDKKg-5Q/o.jpg", "is_closed": false, "url": "https://www.yelp.com/biz/the-beef-barn-north-smithfield?adjust_creative=ogtFoSS6DBKYYW1KXs8qsw&utm_campaign=yelp_api_v3&utm_medium=api_v3_business_search&utm_source=ogtFoSS6DBKYYW1KXs8qsw", "review_count": 211, "categories": [{"alias": "tradamerican", "title": "American (Traditional)"}], "rating": 4.0, "coordinates": {"latitude": 41.9854007788954, "longitude": -71.5223532757637}, "transactions": ["delivery"], "price": "$", "location": {"address1": "4 Greenville Rd", "address2": "", "address3": "", "city": "North Smithfield", "zip_code": "02896", "country": "US", "state": "RI", "display_address": ["4 Greenville Rd", "North Smithfield, RI 02896"]}, "phone": "+14017629880", "display_phone": "(401) 762-9880", "distance": 2451.3842693769625}, {"id": "DH3SW8QzVrbx7L_ZKetpcg", "alias": "patriots-diner-woonsocket", "name": "Patriots Diner", "image_url": "https://s3-media4.fl.yelpcdn.com/bphoto/0ITn3zrizEL0--9JImhJVQ/o.jpg", "is_closed": false, "url": "https://www.yelp.com/biz/patriots-diner-woonsocket?adjust_creative=ogtFoSS6DBKYYW1KXs8qsw&utm_campaign=yelp_api_v3&utm_medium=api_v3_business_search&utm_source=ogtFoSS6DBKYYW1KXs8qsw", "review_count": 311, "categories": [{"alias": "diners", "title": "Diners"}, {"alias": "tradamerican", "title": "American (Traditional)"}], "rating": 4.0, "coordinates": {"latitude": 41.991307109827, "longitude": -71.485044928239}, "transactions": ["pickup", "delivery"], "price": "$", "location": {"address1": "65 Founders Dr", "address2": "", "address3": "", "city": "Woonsocket", "zip_code": "02895", "country": "US", "state": "RI", "display_address": ["65 Founders Dr", "Woonsocket, RI 02895"]}, "phone": "+14017656900", "display_phone": "(401) 765-6900", "distance": 1406.802022369228}, {"id": "g1H9zWKSZaRkCgyYRTL3kw", "alias": "lao-thai-cafe-bellingham-2", "name": "Lao Thai Cafe", "image_url": "https://s3-media2.fl.yelpcdn.com/bphoto/VHLLwMhkQ8NtWEEkM3nnkw/o.jpg", "is_closed": false, "url": "https://www.yelp.com/biz/lao-thai-cafe-bellingham-2?adjust_creative=ogtFoSS6DBKYYW1KXs8qsw&utm_campaign=yelp_api_v3&utm_medium=api_v3_business_search&utm_source=ogtFoSS6DBKYYW1KXs8qsw", "review_count": 23, "categories": [{"alias": "thai", "title": "Thai"}, {"alias": "laotian", "title": "Laotian"}], "rating": 4.0, "coordinates": {"latitude": 42.0183469, "longitude": -71.4969097}, "transactions": ["delivery"], "price": "$$", "location": {"address1": "52 Pulaski Blvd", "address2": null, "address3": "", "city": "Bellingham", "zip_code": "02895", "country": "US", "state": "RI", "display_address": ["52 Pulaski Blvd", "Bellingham, RI 02895"]}, "phone": "+15088839999", "display_phone": "(508) 883-9999", "distance": 2199.9957828783486}, {"id": "lHKSc2rS7lyiHuXHTeDoSQ", "alias": "kays-restaurant-woonsocket-2", "name": "Kay's Restaurant", "image_url": "https://s3-media2.fl.yelpcdn.com/bphoto/jvWtdSfCWe_juvACCopB4Q/o.jpg", "is_closed": false, "url": "https://www.yelp.com/biz/kays-restaurant-woonsocket-2?adjust_creative=ogtFoSS6DBKYYW1KXs8qsw&utm_campaign=yelp_api_v3&utm_medium=api_v3_business_search&utm_source=ogtFoSS6DBKYYW1KXs8qsw", "review_count": 105, "categories": [{"alias": "sandwiches", "title": "Sandwiches"}, {"alias": "bars", "title": "Bars"}], "rating": 4.0, "coordinates": {"latitude": 42.004312, "longitude": -71.480724}, "transactions": ["pickup", "delivery"], "price": "$", "location": {"address1": "1013 Cass Ave", "address2": "", "address3": "", "city": "Woonsocket", "zip_code": "02895", "country": "US", "state": "RI", "display_address": ["1013 Cass Ave", "Woonsocket, RI 02895"]}, "phone": "+14017629675", "display_phone": "(401) 762-9675", "distance": 1643.227461513662}, {"id": "EHFtJ_sdxLjwfc1FVvj-NA", "alias": "coachmens-lodge-bellingham", "name": "Coachmen's Lodge", "image_url": "https://s3-media2.fl.yelpcdn.com/bphoto/Wu6yyKvsMC9McH3THl8HFQ/o.jpg", "is_closed": false, "url": "https://www.yelp.com/biz/coachmens-lodge-bellingham?adjust_creative=ogtFoSS6DBKYYW1KXs8qsw&utm_campaign=yelp_api_v3&utm_medium=api_v3_business_search&utm_source=ogtFoSS6DBKYYW1KXs8qsw", "review_count": 155, "categories": [{"alias": "venues", "title": "Venues & Event Spaces"}, {"alias": "italian", "title": "Italian"}, {"alias": "mediterranean", "title": "Mediterranean"}], "rating": 3.5, "coordinates": {"latitude": 42.02531, "longitude": -71.47533}, "transactions": ["restaurant_reservation", "delivery"], "price": "$$", "location": {"address1": "273 Wrentham Rd", "address2": "", "address3": "", "city": "Bellingham", "zip_code": "02019", "country": "US", "state": "MA", "display_address": ["273 Wrentham Rd", "Bellingham, MA 02019"]}, "phone": "+15088839888", "display_phone": "(508) 883-9888", "distance": 3569.230186466817}, {"id": "Ns5SdvE6PxVoXF_cDhV4Yg", "alias": "lotus-fine-thai-north-smithfield", "name": "Lotus Fine Thai", "image_url": "https://s3-media2.fl.yelpcdn.com/bphoto/5Fot6Hgx6npMnjsWHER1Sg/o.jpg", "is_closed": false, "url": "https://www.yelp.com/biz/lotus-fine-thai-north-smithfield?adjust_creative=ogtFoSS6DBKYYW1KXs8qsw&utm_campaign=yelp_api_v3&utm_medium=api_v3_business_search&utm_source=ogtFoSS6DBKYYW1KXs8qsw", "review_count": 102, "categories": [{"alias": "thai", "title": "Thai"}, {"alias": "bubbletea", "title": "Bubble Tea"}], "rating": 4.0, "coordinates": {"latitude": 41.97903, "longitude": -71.51363}, "transactions": [], "price": "$$", "location": {"address1": "175 Eddie Dowling Hwy", "address2": "", "address3": "", "city": "North Smithfield", "zip_code": "02896", "country": "US", "state": "RI", "display_address": ["175 Eddie Dowling Hwy", "North Smithfield, RI 02896"]}, "phone": "+14013256888", "display_phone": "(401) 325-6888", "distance": 2475.8062016657414}, {"id": "QWyG7YDSFK3wSp4cnYV1QA", "alias": "thai-garden-woonsocket", "name": "Thai Garden", "image_url": "https://s3-media3.fl.yelpcdn.com/bphoto/5nvEBHwOcHbrLGUzP2sIIA/o.jpg", "is_closed": false, "url": "https://www.yelp.com/biz/thai-garden-woonsocket?adjust_creative=ogtFoSS6DBKYYW1KXs8qsw&utm_campaign=yelp_api_v3&utm_medium=api_v3_business_search&utm_source=ogtFoSS6DBKYYW1KXs8qsw", "review_count": 66, "categories": [{"alias": "thai", "title": "Thai"}], "rating": 4.0, "coordinates": {"latitude": 42.00444, "longitude": -71.51291}, "transactions": ["delivery"], "price": "$", "location": {"address1": "280 Main St", "address2": "", "address3": "", "city": "Woonsocket", "zip_code": "02895", "country": "US", "state": "RI", "display_address": ["280 Main St", "Woonsocket, RI 02895"]}, "phone": "+14017657010", "display_phone": "(401) 765-7010", "distance": 1319.2736541727963}, {"id": "LlTWx5oV7HPKrpjX27_QcQ", "alias": "michaels-woonsocket", "name": "Michael's", "image_url": "https://s3-media1.fl.yelpcdn.com/bphoto/TzuXtK-7-IylT_PA-KLFZQ/o.jpg", "is_closed": false, "url": "https://www.yelp.com/biz/michaels-woonsocket?adjust_creative=ogtFoSS6DBKYYW1KXs8qsw&utm_campaign=yelp_api_v3&utm_medium=api_v3_business_search&utm_source=ogtFoSS6DBKYYW1KXs8qsw", "review_count": 24, "categories": [{"alias": "sportsbars", "title": "Sports Bars"}, {"alias": "karaoke", "title": "Karaoke"}, {"alias": "newamerican", "title": "American (New)"}], "rating": 4.5, "coordinates": {"latitude": 42.0076069, "longitude": -71.4950209}, "transactions": [], "price": "$", "location": {"address1": "495 Elm St", "address2": "", "address3": "", "city": "Woonsocket", "zip_code": "02895", "country": "US", "state": "RI", "display_address": ["495 Elm St", "Woonsocket, RI 02895"]}, "phone": "+14017663741", "display_phone": "(401) 766-3741", "distance": 1062.3573448430782}, {"id": "RAuxXCkh-oZQY9BHGpdfWQ", "alias": "early-bird-lincoln", "name": "Early Bird", "image_url": "https://s3-media4.fl.yelpcdn.com/bphoto/tHWgHsD2Rm7lor7PrLRilg/o.jpg", "is_closed": false, "url": "https://www.yelp.com/biz/early-bird-lincoln?adjust_creative=ogtFoSS6DBKYYW1KXs8qsw&utm_campaign=yelp_api_v3&utm_medium=api_v3_business_search&utm_source=ogtFoSS6DBKYYW1KXs8qsw", "review_count": 2, "categories": [{"alias": "breakfast_brunch", "title": "Breakfast & Brunch"}], "rating": 4.0, "coordinates": {"latitude": 41.97092, "longitude": -71.47393}, "transactions": [], "location": {"address1": "29 Winter St", "address2": "", "address3": null, "city": "Lincoln", "zip_code": "02838", "country": "US", "state": "RI", "display_address": ["29 Winter St", "Lincoln, RI 02838"]}, "phone": "", "display_phone": "", "distance": 3708.4850298997435}, {"id": "z5NHbHXn0krY9XPGkdnHmQ", "alias": "js-deli-woonsocket", "name": "J's Deli", "image_url": "https://s3-media3.fl.yelpcdn.com/bphoto/mAcrBe2MECfMQEz4ZNK4zQ/o.jpg", "is_closed": false, "url": "https://www.yelp.com/biz/js-deli-woonsocket?adjust_creative=ogtFoSS6DBKYYW1KXs8qsw&utm_campaign=yelp_api_v3&utm_medium=api_v3_business_search&utm_source=ogtFoSS6DBKYYW1KXs8qsw", "review_count": 79, "categories": [{"alias": "sandwiches", "title": "Sandwiches"}], "rating": 3.5, "coordinates": {"latitude": 41.9960975646973, "longitude": -71.4883422851562}, "transactions": ["pickup", "delivery"], "price": "$", "location": {"address1": "760 Cumberland Hill Rd", "address2": "", "address3": "", "city": "Woonsocket", "zip_code": "02895", "country": "US", "state": "RI", "display_address": ["760 Cumberland Hill Rd", "Woonsocket, RI 02895"]}, "phone": "+14013561430", "display_phone": "(401) 356-1430", "distance": 923.9504209253483}, {"id": "L7Zdn_bFhzX6Ni-xHwRMeg", "alias": "vohns-restaurant-bellingham", "name": "Vohn's Restaurant", "image_url": "https://s3-media3.fl.yelpcdn.com/bphoto/k-Ill-vzG7pkshT3-AqOYg/o.jpg", "is_closed": false, "url": "https://www.yelp.com/biz/vohns-restaurant-bellingham?adjust_creative=ogtFoSS6DBKYYW1KXs8qsw&utm_campaign=yelp_api_v3&utm_medium=api_v3_business_search&utm_source=ogtFoSS6DBKYYW1KXs8qsw", "review_count": 172, "categories": [{"alias": "vietnamese", "title": "Vietnamese"}, {"alias": "thai", "title": "Thai"}], "rating": 4.0, "coordinates": {"latitude": 42.032706, "longitude": -71.4841304719448}, "transactions": ["delivery"], "price": "$$", "location": {"address1": "633 Pulaski Blvd", "address2": "", "address3": "", "city": "Bellingham", "zip_code": "02019", "country": "US", "state": "MA", "display_address": ["633 Pulaski Blvd", "Bellingham, MA 02019"]}, "phone": "+15088834934", "display_phone": "(508) 883-4934", "distance": 3994.6516374692883}, {"id": "nNn8eI7JnwedItXKv4gbpw", "alias": "the-castle-luncheonette-woonsocket", "name": "The Castle Luncheonette", "image_url": "https://s3-media2.fl.yelpcdn.com/bphoto/4ldBLCn-QFmQySX9rDywQg/o.jpg", "is_closed": false, "url": "https://www.yelp.com/biz/the-castle-luncheonette-woonsocket?adjust_creative=ogtFoSS6DBKYYW1KXs8qsw&utm_campaign=yelp_api_v3&utm_medium=api_v3_business_search&utm_source=ogtFoSS6DBKYYW1KXs8qsw", "review_count": 15, "categories": [{"alias": "tradamerican", "title": "American (Traditional)"}], "rating": 4.0, "coordinates": {"latitude": 42.008598, "longitude": -71.505897}, "transactions": ["delivery"], "price": "$$", "location": {"address1": "420 Social St", "address2": "", "address3": "", "city": "Woonsocket", "zip_code": "02895", "country": "US", "state": "RI", "display_address": ["420 Social St", "Woonsocket, RI 02895"]}, "phone": "+14017625424", "display_phone": "(401) 762-5424", "distance": 1259.768241116188}, {"id": "b6wocGQ0FxrWgtyZDB_7vw", "alias": "serios-fish-and-chips-woonsocket", "name": "Serio's Fish and Chips", "image_url": "https://s3-media3.fl.yelpcdn.com/bphoto/6Js9sojjaqt9wodrLEJ4NQ/o.jpg", "is_closed": false, "url": "https://www.yelp.com/biz/serios-fish-and-chips-woonsocket?adjust_creative=ogtFoSS6DBKYYW1KXs8qsw&utm_campaign=yelp_api_v3&utm_medium=api_v3_business_search&utm_source=ogtFoSS6DBKYYW1KXs8qsw", "review_count": 13, "categories": [{"alias": "fishnchips", "title": "Fish & Chips"}, {"alias": "seafood", "title": "Seafood"}], "rating": 4.5, "coordinates": {"latitude": 41.9942, "longitude": -71.5213}, "transactions": ["delivery"], "price": "$$", "location": {"address1": "170 Providence St", "address2": null, "address3": null, "city": "Woonsocket", "zip_code": "02895", "country": "US", "state": "RI", "display_address": ["170 Providence St", "Woonsocket, RI 02895"]}, "phone": "+14015970515", "display_phone": "(401) 597-0515", "distance": 1905.5714550644557}, {"id": "Hl1duVdJ3rPEg26hLhdmZg", "alias": "ye-olde-english-fish-and-chips-restaurant-woonsocket", "name": "Ye Olde English Fish & Chips Restaurant", "image_url": "https://s3-media2.fl.yelpcdn.com/bphoto/qKJqLMkTB_tY_B1_vNWZHA/o.jpg", "is_closed": false, "url": "https://www.yelp.com/biz/ye-olde-english-fish-and-chips-restaurant-woonsocket?adjust_creative=ogtFoSS6DBKYYW1KXs8qsw&utm_campaign=yelp_api_v3&utm_medium=api_v3_business_search&utm_source=ogtFoSS6DBKYYW1KXs8qsw", "review_count": 96, "categories": [{"alias": "fishnchips", "title": "Fish & Chips"}, {"alias": "sandwiches", "title": "Sandwiches"}, {"alias": "beer_and_wine", "title": "Beer, Wine & Spirits"}], "rating": 3.5, "coordinates": {"latitude": 41.9994303, "longitude": -71.5169909}, "transactions": ["delivery"], "price": "$$", "location": {"address1": "25 S Main St", "address2": "", "address3": "", "city": "Woonsocket", "zip_code": "02895", "country": "US", "state": "RI", "display_address": ["25 S Main St", "Woonsocket, RI 02895"]}, "phone": "+14017623637", "display_phone": "(401) 762-3637", "distance": 1513.2829527200101}, {"id": "N-7r3MOvaMbsEiZpmtsHOw", "alias": "new-york-lunch-woonsocket", "name": "New York Lunch", "image_url": "https://s3-media2.fl.yelpcdn.com/bphoto/68xJdHRUxVTXoCyA38fuGA/o.jpg", "is_closed": false, "url": "https://www.yelp.com/biz/new-york-lunch-woonsocket?adjust_creative=ogtFoSS6DBKYYW1KXs8qsw&utm_campaign=yelp_api_v3&utm_medium=api_v3_business_search&utm_source=ogtFoSS6DBKYYW1KXs8qsw", "review_count": 49, "categories": [{"alias": "hotdog", "title": "Hot Dogs"}], "rating": 4.0, "coordinates": {"latitude": 42.0006404, "longitude": -71.516041}, "transactions": [], "price": "$", "location": {"address1": "8 Main St", "address2": "", "address3": "", "city": "Woonsocket", "zip_code": "02895", "country": "US", "state": "RI", "display_address": ["8 Main St", "Woonsocket, RI 02895"]}, "phone": "+14017629619", "display_phone": "(401) 762-9619", "distance": 1425.724180485589}, {"id": "Yxbri-0bGC0cyXZYpRHB-A", "alias": "sakura-asian-cuisine-bellingham-5", "name": "Sakura Asian Cuisine", "image_url": "https://s3-media3.fl.yelpcdn.com/bphoto/h-UxjWeUtXRYzhV1sMKJzw/o.jpg", "is_closed": false, "url": "https://www.yelp.com/biz/sakura-asian-cuisine-bellingham-5?adjust_creative=ogtFoSS6DBKYYW1KXs8qsw&utm_campaign=yelp_api_v3&utm_medium=api_v3_business_search&utm_source=ogtFoSS6DBKYYW1KXs8qsw", "review_count": 18, "categories": [{"alias": "japanese", "title": "Japanese"}, {"alias": "thai", "title": "Thai"}, {"alias": "noodles", "title": "Noodles"}], "rating": 4.0, "coordinates": {"latitude": 42.0192688, "longitude": -71.4953995}, "transactions": ["pickup", "delivery"], "location": {"address1": "101 Pulaski Blvd", "address2": null, "address3": "", "city": "Bellingham", "zip_code": "02019", "country": "US", "state": "MA", "display_address": ["101 Pulaski Blvd", "Bellingham, MA 02019"]}, "phone": "+15089281747", "display_phone": "(508) 928-1747", "distance": 2325.6624855611635}, {"id": "YdZPnBD1riY8rvhm1e1R0g", "alias": "modern-bistro-cumberland", "name": "Modern Bistro", "image_url": "https://s3-media2.fl.yelpcdn.com/bphoto/poFWBAIuFaWKqpklWekq2w/o.jpg", "is_closed": false, "url": "https://www.yelp.com/biz/modern-bistro-cumberland?adjust_creative=ogtFoSS6DBKYYW1KXs8qsw&utm_campaign=yelp_api_v3&utm_medium=api_v3_business_search&utm_source=ogtFoSS6DBKYYW1KXs8qsw", "review_count": 91, "categories": [{"alias": "breakfast_brunch", "title": "Breakfast & Brunch"}], "rating": 4.0, "coordinates": {"latitude": 41.9852333068848, "longitude": -71.4777755737305}, "transactions": ["delivery"], "price": "$", "location": {"address1": "4077 Mendon Rd", "address2": "", "address3": "", "city": "Cumberland", "zip_code": "02864", "country": "US", "state": "RI", "display_address": ["4077 Mendon Rd", "Cumberland, RI 02864"]}, "phone": "+14016580449", "display_phone": "(401) 658-0449", "distance": 2298.2000347222474}, {"id": "x45-99O7OHj5Y-ZeNXkO5g", "alias": "texas-roadhouse-north-smithfield", "name": "Texas Roadhouse", "image_url": "https://s3-media1.fl.yelpcdn.com/bphoto/iesYirwTuvtpLV6_TRllQQ/o.jpg", "is_closed": false, "url": "https://www.yelp.com/biz/texas-roadhouse-north-smithfield?adjust_creative=ogtFoSS6DBKYYW1KXs8qsw&utm_campaign=yelp_api_v3&utm_medium=api_v3_business_search&utm_source=ogtFoSS6DBKYYW1KXs8qsw", "review_count": 107, "categories": [{"alias": "steak", "title": "Steakhouses"}, {"alias": "bbq", "title": "Barbeque"}], "rating": 3.5, "coordinates": {"latitude": 41.9792577972983, "longitude": -71.5084980079346}, "transactions": [], "price": "$$", "location": {"address1": "39 Dowling Village Blvd", "address2": null, "address3": null, "city": "North Smithfield", "zip_code": "02896", "country": "US", "state": "RI", "display_address": ["39 Dowling Village Blvd", "North Smithfield, RI 02896"]}, "phone": "+14017667427", "display_phone": "(401) 766-7427", "distance": 2281.309998247228}, {"id": "LbDsByEV3nwV5GymcXXhgw", "alias": "toyo-steak-house-woonsocket", "name": "Toyo Steak House", "image_url": "https://s3-media2.fl.yelpcdn.com/bphoto/UStl7gWBKJZO9XxJPVrR1Q/o.jpg", "is_closed": false, "url": "https://www.yelp.com/biz/toyo-steak-house-woonsocket?adjust_creative=ogtFoSS6DBKYYW1KXs8qsw&utm_campaign=yelp_api_v3&utm_medium=api_v3_business_search&utm_source=ogtFoSS6DBKYYW1KXs8qsw", "review_count": 38, "categories": [{"alias": "sushi", "title": "Sushi Bars"}, {"alias": "japanese", "title": "Japanese"}, {"alias": "steak", "title": "Steakhouses"}], "rating": 3.5, "coordinates": {"latitude": 42.006225, "longitude": -71.506325}, "transactions": ["delivery"], "price": "$$", "location": {"address1": "401 Clinton St", "address2": "", "address3": null, "city": "Woonsocket", "zip_code": "02895", "country": "US", "state": "RI", "display_address": ["401 Clinton St", "Woonsocket, RI 02895"]}, "phone": "+14017620800", "display_phone": "(401) 762-0800", "distance": 1049.6336887416237}, {"id": "mT-cbwNNAb9ftdEHAyWtZA", "alias": "andrews-bistro-cumberland", "name": "Andrew's Bistro", "image_url": "https://s3-media4.fl.yelpcdn.com/bphoto/clAiIg_hmIJWbOpyxJFGSQ/o.jpg", "is_closed": false, "url": "https://www.yelp.com/biz/andrews-bistro-cumberland?adjust_creative=ogtFoSS6DBKYYW1KXs8qsw&utm_campaign=yelp_api_v3&utm_medium=api_v3_business_search&utm_source=ogtFoSS6DBKYYW1KXs8qsw", "review_count": 129, "categories": [{"alias": "italian", "title": "Italian"}], "rating": 3.5, "coordinates": {"latitude": 41.983211, "longitude": -71.468025}, "transactions": ["delivery"], "price": "$$", "location": {"address1": "3755 Mendon Rd", "address2": "", "address3": "", "city": "Cumberland", "zip_code": "02864", "country": "US", "state": "RI", "display_address": ["3755 Mendon Rd", "Cumberland, RI 02864"]}, "phone": "+14016581515", "display_phone": "(401) 658-1515", "distance": 3074.9069301582026}, {"id": "bypemJ_Tjow9ffxHn4RIiw", "alias": "trattoria-romana-lincoln", "name": "Trattoria Romana", "image_url": "https://s3-media1.fl.yelpcdn.com/bphoto/GF-PsKPk213zGsGfgTDFMA/o.jpg", "is_closed": false, "url": "https://www.yelp.com/biz/trattoria-romana-lincoln?adjust_creative=ogtFoSS6DBKYYW1KXs8qsw&utm_campaign=yelp_api_v3&utm_medium=api_v3_business_search&utm_source=ogtFoSS6DBKYYW1KXs8qsw", "review_count": 322, "categories": [{"alias": "italian", "title": "Italian"}, {"alias": "desserts", "title": "Desserts"}, {"alias": "beerbar", "title": "Beer Bar"}], "rating": 4.0, "coordinates": {"latitude": 41.933994, "longitude": -71.474129}, "transactions": [], "price": "$$", "location": {"address1": "3 Wake Robin Rd", "address2": "Ste 1", "address3": "", "city": "Lincoln", "zip_code": "02865", "country": "US", "state": "RI", "display_address": ["3 Wake Robin Rd", "Ste 1", "Lincoln, RI 02865"]}, "phone": "+14013336700", "display_phone": "(401) 333-6700", "distance": 7465.148808098754}, {"id": "W80UywxEeUHOjFfXikio8g", "alias": "casa-burrito-blackstone", "name": "Casa Burrito", "image_url": "https://s3-media3.fl.yelpcdn.com/bphoto/p6Zv5TIKKX6ZAq11TTyhsw/o.jpg", "is_closed": false, "url": "https://www.yelp.com/biz/casa-burrito-blackstone?adjust_creative=ogtFoSS6DBKYYW1KXs8qsw&utm_campaign=yelp_api_v3&utm_medium=api_v3_business_search&utm_source=ogtFoSS6DBKYYW1KXs8qsw", "review_count": 39, "categories": [{"alias": "mexican", "title": "Mexican"}], "rating": 4.5, "coordinates": {"latitude": 42.0189204003048, "longitude": -71.536976159632}, "transactions": ["delivery"], "price": "$$", "location": {"address1": "114 Main St", "address2": "", "address3": null, "city": "Blackstone", "zip_code": "01504", "country": "US", "state": "MA", "display_address": ["114 Main St", "Blackstone, MA 01504"]}, "phone": "+15089280904", "display_phone": "(508) 928-0904", "distance": 3869.7267126954043}, {"id": "6kKipTzsrlBr1LWcgON2qA", "alias": "swagat-indian-food-and-grocery-woonsocket", "name": "Swagat Indian Food and Grocery", "image_url": "https://s3-media1.fl.yelpcdn.com/bphoto/w6aKs0YpRwtRBsZXVcn7IA/o.jpg", "is_closed": false, "url": "https://www.yelp.com/biz/swagat-indian-food-and-grocery-woonsocket?adjust_creative=ogtFoSS6DBKYYW1KXs8qsw&utm_campaign=yelp_api_v3&utm_medium=api_v3_business_search&utm_source=ogtFoSS6DBKYYW1KXs8qsw", "review_count": 1, "categories": [{"alias": "indpak", "title": "Indian"}], "rating": 5.0, "coordinates": {"latitude": 42.015711749723, "longitude": -71.4975043013692}, "transactions": [], "location": {"address1": "480 Diamond Hill Rd", "address2": "", "address3": null, "city": "Woonsocket", "zip_code": "02895", "country": "US", "state": "RI", "display_address": ["480 Diamond Hill Rd", "Woonsocket, RI 02895"]}, "phone": "+17192010667", "display_phone": "(719) 201-0667", "distance": 1914.9002783029712}, {"id": "Z03HJ4kQItWYSbppp1Er8w", "alias": "champs-diner-woonsocket", "name": "Champ's Diner", "image_url": "https://s3-media3.fl.yelpcdn.com/bphoto/Km2T4A6LYyMpwMvjIavIhQ/o.jpg", "is_closed": false, "url": "https://www.yelp.com/biz/champs-diner-woonsocket?adjust_creative=ogtFoSS6DBKYYW1KXs8qsw&utm_campaign=yelp_api_v3&utm_medium=api_v3_business_search&utm_source=ogtFoSS6DBKYYW1KXs8qsw", "review_count": 52, "categories": [{"alias": "breakfast_brunch", "title": "Breakfast & Brunch"}], "rating": 4.0, "coordinates": {"latitude": 41.9970703125, "longitude": -71.5176086425781}, "transactions": ["delivery"], "price": "$", "location": {"address1": "719 Front St", "address2": "Ste 111", "address3": "", "city": "Woonsocket", "zip_code": "02895", "country": "US", "state": "RI", "display_address": ["719 Front St", "Ste 111", "Woonsocket, RI 02895"]}, "phone": "+14017666080", "display_phone": "(401) 766-6080", "distance": 1518.338143483163}, {"id": "vP-HitDc-G_2ADjtu5AfbA", "alias": "the-beef-barn-bellingham-2", "name": "The Beef  Barn", "image_url": "https://s3-media2.fl.yelpcdn.com/bphoto/BaQUz9vkkzSCOy6a2vOmNw/o.jpg", "is_closed": false, "url": "https://www.yelp.com/biz/the-beef-barn-bellingham-2?adjust_creative=ogtFoSS6DBKYYW1KXs8qsw&utm_campaign=yelp_api_v3&utm_medium=api_v3_business_search&utm_source=ogtFoSS6DBKYYW1KXs8qsw", "review_count": 79, "categories": [{"alias": "desserts", "title": "Desserts"}, {"alias": "tradamerican", "title": "American (Traditional)"}], "rating": 4.5, "coordinates": {"latitude": 42.0206798941605, "longitude": -71.4950884320202}, "transactions": ["pickup", "delivery"], "price": "$", "location": {"address1": "160 Pulaski Blvd", "address2": "", "address3": "", "city": "Bellingham", "zip_code": "02019", "country": "US", "state": "MA", "display_address": ["160 Pulaski Blvd", "Bellingham, MA 02019"]}, "phone": "+15088831799", "display_phone": "(508) 883-1799", "distance": 2484.5770539532546}, {"id": "vkfEHFP-IjQshrYIjfVIFQ", "alias": "savinis-pomodoro-woonsocket", "name": "Savini's Pomodoro", "image_url": "https://s3-media2.fl.yelpcdn.com/bphoto/QQHFdPUXpUTKN1mm6pAYRg/o.jpg", "is_closed": false, "url": "https://www.yelp.com/biz/savinis-pomodoro-woonsocket?adjust_creative=ogtFoSS6DBKYYW1KXs8qsw&utm_campaign=yelp_api_v3&utm_medium=api_v3_business_search&utm_source=ogtFoSS6DBKYYW1KXs8qsw", "review_count": 52, "categories": [{"alias": "italian", "title": "Italian"}], "rating": 3.0, "coordinates": {"latitude": 42.0153552, "longitude": -71.5027961}, "transactions": ["delivery"], "price": "$$", "location": {"address1": "476 Rathbun St", "address2": "", "address3": "", "city": "Woonsocket", "zip_code": "02895", "country": "US", "state": "RI", "display_address": ["476 Rathbun St", "Woonsocket, RI 02895"]}, "phone": "+14017625114", "display_phone": "(401) 762-5114", "distance": 1896.9225601667388}, {"id": "dEdKXuVRx8FMoi1MlXIvMw", "alias": "tavern-6-two-1-north-smithfield", "name": "Tavern 6 Two 1", "image_url": "https://s3-media4.fl.yelpcdn.com/bphoto/N1b7itR_OkZJFWh_DIdXsw/o.jpg", "is_closed": false, "url": "https://www.yelp.com/biz/tavern-6-two-1-north-smithfield?adjust_creative=ogtFoSS6DBKYYW1KXs8qsw&utm_campaign=yelp_api_v3&utm_medium=api_v3_business_search&utm_source=ogtFoSS6DBKYYW1KXs8qsw", "review_count": 47, "categories": [{"alias": "pizza", "title": "Pizza"}, {"alias": "tradamerican", "title": "American (Traditional)"}, {"alias": "sportsbars", "title": "Sports Bars"}], "rating": 4.5, "coordinates": {"latitude": 41.989519164815, "longitude": -71.5571130786062}, "transactions": [], "price": "$$", "location": {"address1": "621 Pound Hill Rd", "address2": "", "address3": null, "city": "North Smithfield", "zip_code": "02896", "country": "US", "state": "RI", "display_address": ["621 Pound Hill Rd", "North Smithfield, RI 02896"]}, "phone": "+14012499333", "display_phone": "(401) 249-9333", "distance": 4904.01458282813}, {"id": "fqocnXGgv-Db12PaigBOVg", "alias": "pacific-asian-cuisine-woonsocket", "name": "Pacific Asian Cuisine", "image_url": "https://s3-media3.fl.yelpcdn.com/bphoto/KJpRjrmFeFBs6szoKxNXNQ/o.jpg", "is_closed": false, "url": "https://www.yelp.com/biz/pacific-asian-cuisine-woonsocket?adjust_creative=ogtFoSS6DBKYYW1KXs8qsw&utm_campaign=yelp_api_v3&utm_medium=api_v3_business_search&utm_source=ogtFoSS6DBKYYW1KXs8qsw", "review_count": 49, "categories": [{"alias": "chinese", "title": "Chinese"}, {"alias": "seafood", "title": "Seafood"}, {"alias": "thai", "title": "Thai"}], "rating": 3.5, "coordinates": {"latitude": 42.00791104199, "longitude": -71.5029394626617}, "transactions": ["delivery"], "price": "$", "location": {"address1": "63 Cumberland St", "address2": "", "address3": "", "city": "Woonsocket", "zip_code": "02895", "country": "US", "state": "RI", "display_address": ["63 Cumberland St", "Woonsocket, RI 02895"]}, "phone": "+14015340100", "display_phone": "(401) 534-0100", "distance": 1092.407428590925}, {"id": "jVIpzIiHKPWydcTMymq13w", "alias": "wilfreds-seafood-woonsocket", "name": "Wilfred's Seafood", "image_url": "https://s3-media1.fl.yelpcdn.com/bphoto/b45GcSBsu5Bff7WOsp6DFQ/o.jpg", "is_closed": false, "url": "https://www.yelp.com/biz/wilfreds-seafood-woonsocket?adjust_creative=ogtFoSS6DBKYYW1KXs8qsw&utm_campaign=yelp_api_v3&utm_medium=api_v3_business_search&utm_source=ogtFoSS6DBKYYW1KXs8qsw", "review_count": 10, "categories": [{"alias": "seafood", "title": "Seafood"}], "rating": 3.5, "coordinates": {"latitude": 41.995246887207, "longitude": -71.4884948730469}, "transactions": [], "price": "$$", "location": {"address1": "805 Cumberland Hill Rd", "address2": "", "address3": "", "city": "Woonsocket", "zip_code": "02895", "country": "US", "state": "RI", "display_address": ["805 Cumberland Hill Rd", "Woonsocket, RI 02895"]}, "phone": "+14017696260", "display_phone": "(401) 769-6260", "distance": 937.4395116892243}, {"id": "0DgbZ9mul31T-fNhdMfmKw", "alias": "chelos-hometown-bar-and-grille-woonsocket-2", "name": "Chelo's Hometown Bar & Grille", "image_url": "https://s3-media2.fl.yelpcdn.com/bphoto/5B0xP_zE_P80rH9Zbkw72Q/o.jpg", "is_closed": false, "url": "https://www.yelp.com/biz/chelos-hometown-bar-and-grille-woonsocket-2?adjust_creative=ogtFoSS6DBKYYW1KXs8qsw&utm_campaign=yelp_api_v3&utm_medium=api_v3_business_search&utm_source=ogtFoSS6DBKYYW1KXs8qsw", "review_count": 52, "categories": [{"alias": "burgers", "title": "Burgers"}, {"alias": "tradamerican", "title": "American (Traditional)"}], "rating": 3.0, "coordinates": {"latitude": 42.007686, "longitude": -71.506278}, "transactions": ["delivery"], "price": "$$", "location": {"address1": "490 Clinton St", "address2": "", "address3": "", "city": "Woonsocket", "zip_code": "02895", "country": "US", "state": "RI", "display_address": ["490 Clinton St", "Woonsocket, RI 02895"]}, "phone": "+14017696622", "display_phone": "(401) 769-6622", "distance": 1181.6894921657438}, {"id": "8AIZ_zXg9_FWbIKBptD2lw", "alias": "broaster-house-woonsocket", "name": "Broaster House", "image_url": "https://s3-media1.fl.yelpcdn.com/bphoto/Xzz5QxXIngxTYnCSG9vADw/o.jpg", "is_closed": false, "url": "https://www.yelp.com/biz/broaster-house-woonsocket?adjust_creative=ogtFoSS6DBKYYW1KXs8qsw&utm_campaign=yelp_api_v3&utm_medium=api_v3_business_search&utm_source=ogtFoSS6DBKYYW1KXs8qsw", "review_count": 24, "categories": [{"alias": "comfortfood", "title": "Comfort Food"}, {"alias": "seafood", "title": "Seafood"}, {"alias": "chicken_wings", "title": "Chicken Wings"}], "rating": 3.0, "coordinates": {"latitude": 42.0092503386243, "longitude": -71.5112918615341}, "transactions": ["pickup", "delivery"], "price": "$$", "location": {"address1": "263 Pond St", "address2": "", "address3": "", "city": "Woonsocket", "zip_code": "02895", "country": "US", "state": "RI", "display_address": ["263 Pond St", "Woonsocket, RI 02895"]}, "phone": "+14017621717", "display_phone": "(401) 762-1717", "distance": 1565.0028598947222}, {"id": "-KVb_NboQvs6vw0Lye7lmg", "alias": "gottaq-smokehouse-bbq-cumberland-2", "name": "GottaQ Smokehouse BBQ", "image_url": "https://s3-media1.fl.yelpcdn.com/bphoto/CtzkLsROkm3uYAoVxgBQoA/o.jpg", "is_closed": false, "url": "https://www.yelp.com/biz/gottaq-smokehouse-bbq-cumberland-2?adjust_creative=ogtFoSS6DBKYYW1KXs8qsw&utm_campaign=yelp_api_v3&utm_medium=api_v3_business_search&utm_source=ogtFoSS6DBKYYW1KXs8qsw", "review_count": 138, "categories": [{"alias": "foodtrucks", "title": "Food Trucks"}, {"alias": "bbq", "title": "Barbeque"}, {"alias": "catering", "title": "Caterers"}], "rating": 4.0, "coordinates": {"latitude": 41.9506914460398, "longitude": -71.4420672135692}, "transactions": [], "price": "$$", "location": {"address1": "2000 Mendon Rd", "address2": "Ste 10", "address3": "", "city": "Cumberland", "zip_code": "02864", "country": "US", "state": "RI", "display_address": ["2000 Mendon Rd", "Ste 10", "Cumberland, RI 02864"]}, "phone": "+14014754227", "display_phone": "(401) 475-4227", "distance": 7103.6715555833525}, {"id": "eLeQiDi3Jhgyan4_38hwKw", "alias": "la-familia-cumberland-5", "name": "La Familia", "image_url": "https://s3-media1.fl.yelpcdn.com/bphoto/LkMqgoNuqZMjE3luYy-5Ig/o.jpg", "is_closed": false, "url": "https://www.yelp.com/biz/la-familia-cumberland-5?adjust_creative=ogtFoSS6DBKYYW1KXs8qsw&utm_campaign=yelp_api_v3&utm_medium=api_v3_business_search&utm_source=ogtFoSS6DBKYYW1KXs8qsw", "review_count": 113, "categories": [{"alias": "italian", "title": "Italian"}, {"alias": "portuguese", "title": "Portuguese"}], "rating": 4.0, "coordinates": {"latitude": 41.936033, "longitude": -71.39963}, "transactions": ["delivery"], "price": "$$", "location": {"address1": "1666 Diamond Hill Rd", "address2": "", "address3": null, "city": "Cumberland", "zip_code": "02864", "country": "US", "state": "RI", "display_address": ["1666 Diamond Hill Rd", "Cumberland, RI 02864"]}, "phone": "+14013053916", "display_phone": "(401) 305-3916", "distance": 10765.207747920604}, {"id": "pv-XUNhkMT4bH16CbdYxqA", "alias": "aroma-ct-cafe-woonsocket", "name": "Aroma CT Cafe", "image_url": "https://s3-media2.fl.yelpcdn.com/bphoto/gS3ZtBrJgJousqoEJscFYA/o.jpg", "is_closed": false, "url": "https://www.yelp.com/biz/aroma-ct-cafe-woonsocket?adjust_creative=ogtFoSS6DBKYYW1KXs8qsw&utm_campaign=yelp_api_v3&utm_medium=api_v3_business_search&utm_source=ogtFoSS6DBKYYW1KXs8qsw", "review_count": 17, "categories": [{"alias": "donuts", "title": "Donuts"}, {"alias": "coffee", "title": "Coffee & Tea"}, {"alias": "breakfast_brunch", "title": "Breakfast & Brunch"}], "rating": 4.0, "coordinates": {"latitude": 42.0020019558317, "longitude": -71.5110990777612}, "transactions": ["pickup", "delivery"], "price": "$", "location": {"address1": "17 Front St", "address2": "", "address3": null, "city": "Woonsocket", "zip_code": "02895", "country": "US", "state": "RI", "display_address": ["17 Front St", "Woonsocket, RI 02895"]}, "phone": "+14017621606", "display_phone": "(401) 762-1606", "distance": 1070.0261082402963}, {"id": "wa4SGYw_n8iTLQNJwZgRHw", "alias": "chans-woonsocket", "name": "Chan's", "image_url": "https://s3-media2.fl.yelpcdn.com/bphoto/NVQRdDHC0SsDEddUVx0nOg/o.jpg", "is_closed": false, "url": "https://www.yelp.com/biz/chans-woonsocket?adjust_creative=ogtFoSS6DBKYYW1KXs8qsw&utm_campaign=yelp_api_v3&utm_medium=api_v3_business_search&utm_source=ogtFoSS6DBKYYW1KXs8qsw", "review_count": 129, "categories": [{"alias": "chinese", "title": "Chinese"}, {"alias": "jazzandblues", "title": "Jazz & Blues"}, {"alias": "seafood", "title": "Seafood"}], "rating": 2.5, "coordinates": {"latitude": 42.0040867, "longitude": -71.512502}, "transactions": ["delivery"], "price": "$$", "location": {"address1": "267 Main St", "address2": null, "address3": "", "city": "Woonsocket", "zip_code": "02895", "country": "US", "state": "RI", "display_address": ["267 Main St", "Woonsocket, RI 02895"]}, "phone": "+14017651900", "display_phone": "(401) 765-1900", "distance": 1273.7976006797423}, {"id": "ASPhReiu3rooTrDue-baTQ", "alias": "empire-buffet-woonsocket", "name": "Empire Buffet", "image_url": "https://s3-media1.fl.yelpcdn.com/bphoto/DGXzBQ5UHoUcyl51Q7WUgw/o.jpg", "is_closed": false, "url": "https://www.yelp.com/biz/empire-buffet-woonsocket?adjust_creative=ogtFoSS6DBKYYW1KXs8qsw&utm_campaign=yelp_api_v3&utm_medium=api_v3_business_search&utm_source=ogtFoSS6DBKYYW1KXs8qsw", "review_count": 59, "categories": [{"alias": "chinese", "title": "Chinese"}], "rating": 3.0, "coordinates": {"latitude": 42.0158424377441, "longitude": -71.4902572631836}, "transactions": ["delivery"], "price": "$", "location": {"address1": "876 Diamond Hill Rd", "address2": "", "address3": "", "city": "Woonsocket", "zip_code": "02895", "country": "US", "state": "RI", "display_address": ["876 Diamond Hill Rd", "Woonsocket, RI 02895"]}, "phone": "+14017669888", "display_phone": "(401) 766-9888", "distance": 2061.520049020124}, {"id": "OPF4oIeKxo_DQXX4qQ0a1g", "alias": "adelines-speakeasy-kitchen-bar-cumberland-2", "name": "Adeline's Speakeasy Kitchen Bar", "image_url": "https://s3-media3.fl.yelpcdn.com/bphoto/Q6EODUePFyyMb6Z7zQAfXA/o.jpg", "is_closed": false, "url": "https://www.yelp.com/biz/adelines-speakeasy-kitchen-bar-cumberland-2?adjust_creative=ogtFoSS6DBKYYW1KXs8qsw&utm_campaign=yelp_api_v3&utm_medium=api_v3_business_search&utm_source=ogtFoSS6DBKYYW1KXs8qsw", "review_count": 96, "categories": [{"alias": "newamerican", "title": "American (New)"}, {"alias": "speakeasies", "title": "Speakeasies"}], "rating": 3.5, "coordinates": {"latitude": 41.957393, "longitude": -71.443717}, "transactions": ["delivery"], "price": "$$", "location": {"address1": "2352 Mendon Rd", "address2": "", "address3": "", "city": "Cumberland", "zip_code": "02864", "country": "US", "state": "RI", "display_address": ["2352 Mendon Rd", "Cumberland, RI 02864"]}, "phone": "+14014050073", "display_phone": "(401) 405-0073", "distance": 6463.571727680873}, {"id": "uqzp9jHeLAjMbeNE2SRoGg", "alias": "king-wok-chinese-restaurant-woonsocket", "name": "King Wok Chinese Restaurant", "image_url": "https://s3-media4.fl.yelpcdn.com/bphoto/M3fgamabLthfUP3u4-8U7g/o.jpg", "is_closed": false, "url": "https://www.yelp.com/biz/king-wok-chinese-restaurant-woonsocket?adjust_creative=ogtFoSS6DBKYYW1KXs8qsw&utm_campaign=yelp_api_v3&utm_medium=api_v3_business_search&utm_source=ogtFoSS6DBKYYW1KXs8qsw", "review_count": 32, "categories": [{"alias": "chinese", "title": "Chinese"}], "rating": 3.5, "coordinates": {"latitude": 42.0067499, "longitude": -71.5056199}, "transactions": ["delivery"], "price": "$", "location": {"address1": "477 Clinton St", "address2": "", "address3": "", "city": "Woonsocket", "zip_code": "02895", "country": "US", "state": "RI", "display_address": ["477 Clinton St", "Woonsocket, RI 02895"]}, "phone": "+14017620025", "display_phone": "(401) 762-0025", "distance": 1057.1712858698781}, {"id": "ASpjMM7DCGgHXTAt1cL7kA", "alias": "roast-house-blackstone", "name": "Roast House", "image_url": "https://s3-media1.fl.yelpcdn.com/bphoto/wOxpKMRdANP8VPsb8bQCmQ/o.jpg", "is_closed": false, "url": "https://www.yelp.com/biz/roast-house-blackstone?adjust_creative=ogtFoSS6DBKYYW1KXs8qsw&utm_campaign=yelp_api_v3&utm_medium=api_v3_business_search&utm_source=ogtFoSS6DBKYYW1KXs8qsw", "review_count": 55, "categories": [{"alias": "tradamerican", "title": "American (Traditional)"}, {"alias": "bars", "title": "Bars"}], "rating": 3.5, "coordinates": {"latitude": 42.0173518, "longitude": -71.51308}, "transactions": ["delivery"], "price": "$$", "location": {"address1": "3 Farm St", "address2": null, "address3": null, "city": "Blackstone", "zip_code": "01504", "country": "US", "state": "MA", "display_address": ["3 Farm St", "Blackstone, MA 01504"]}, "phone": "+15088837700", "display_phone": "(508) 883-7700", "distance": 2393.7672491273324}, {"id": "h-xZBfvba5pgzDoqS1QJog", "alias": "mvp-pizzeria-woonsocket-2", "name": "MVP Pizzeria", "image_url": "https://s3-media2.fl.yelpcdn.com/bphoto/weOaCr_eMAtOrATWq897Nw/o.jpg", "is_closed": false, "url": "https://www.yelp.com/biz/mvp-pizzeria-woonsocket-2?adjust_creative=ogtFoSS6DBKYYW1KXs8qsw&utm_campaign=yelp_api_v3&utm_medium=api_v3_business_search&utm_source=ogtFoSS6DBKYYW1KXs8qsw", "review_count": 33, "categories": [{"alias": "pizza", "title": "Pizza"}, {"alias": "italian", "title": "Italian"}, {"alias": "sandwiches", "title": "Sandwiches"}], "rating": 4.0, "coordinates": {"latitude": 41.994962, "longitude": -71.486457}, "transactions": ["pickup", "delivery"], "price": "$", "location": {"address1": "840 Cumberland Hill Rd", "address2": "", "address3": "", "city": "Woonsocket", "zip_code": "02895", "country": "US", "state": "RI", "display_address": ["840 Cumberland Hill Rd", "Woonsocket, RI 02895"]}, "phone": "+14017673737", "display_phone": "(401) 767-3737", "distance": 1111.579987339382}, {"id": "07dZuMLl4EN6nzwfhsNVCA", "alias": "bollywood-grill-cumberland-2", "name": "Bollywood Grill", "image_url": "https://s3-media3.fl.yelpcdn.com/bphoto/oEg90kQOCXm1C-yWG47Wcg/o.jpg", "is_closed": false, "url": "https://www.yelp.com/biz/bollywood-grill-cumberland-2?adjust_creative=ogtFoSS6DBKYYW1KXs8qsw&utm_campaign=yelp_api_v3&utm_medium=api_v3_business_search&utm_source=ogtFoSS6DBKYYW1KXs8qsw", "review_count": 167, "categories": [{"alias": "indpak", "title": "Indian"}], "rating": 4.0, "coordinates": {"latitude": 41.943979, "longitude": -71.436724}, "transactions": ["pickup", "delivery"], "price": "$$", "location": {"address1": "1764 Mendon Rd", "address2": "Ste 3 & 4", "address3": "", "city": "Cumberland", "zip_code": "02864", "country": "US", "state": "RI", "display_address": ["1764 Mendon Rd", "Ste 3 & 4", "Cumberland, RI 02864"]}, "phone": "+14014751477", "display_phone": "(401) 475-1477", "distance": 7957.190942823364}, {"id": "BtSCWqOh_z_bzQAMlF5cCQ", "alias": "woonsocket-palace-pizza-woonsocket", "name": "Woonsocket Palace Pizza", "image_url": "https://s3-media3.fl.yelpcdn.com/bphoto/KRA-HAp6R_JLNJXw1I7G6w/o.jpg", "is_closed": false, "url": "https://www.yelp.com/biz/woonsocket-palace-pizza-woonsocket?adjust_creative=ogtFoSS6DBKYYW1KXs8qsw&utm_campaign=yelp_api_v3&utm_medium=api_v3_business_search&utm_source=ogtFoSS6DBKYYW1KXs8qsw", "review_count": 11, "categories": [{"alias": "pizza", "title": "Pizza"}], "rating": 3.5, "coordinates": {"latitude": 42.0015791, "longitude": -71.5111735}, "transactions": ["pickup", "delivery"], "price": "$", "location": {"address1": "85 Front St", "address2": "Unit B", "address3": "", "city": "Woonsocket", "zip_code": "02895", "country": "US", "state": "RI", "display_address": ["85 Front St", "Unit B", "Woonsocket, RI 02895"]}, "phone": "+14017669777", "display_phone": "(401) 766-9777", "distance": 1059.790020643572}, {"id": "u8Ue06Y2XlzRGGbNl3aYsQ", "alias": "skeffs-neighborhood-pub-cumberland", "name": "Skeff's Neighborhood Pub", "image_url": "https://s3-media1.fl.yelpcdn.com/bphoto/RArqJeu2FyM3jzvlbRhtjg/o.jpg", "is_closed": false, "url": "https://www.yelp.com/biz/skeffs-neighborhood-pub-cumberland?adjust_creative=ogtFoSS6DBKYYW1KXs8qsw&utm_campaign=yelp_api_v3&utm_medium=api_v3_business_search&utm_source=ogtFoSS6DBKYYW1KXs8qsw", "review_count": 22, "categories": [{"alias": "tradamerican", "title": "American (Traditional)"}, {"alias": "pubs", "title": "Pubs"}], "rating": 4.5, "coordinates": {"latitude": 41.97581, "longitude": -71.46541}, "transactions": [], "price": "$", "location": {"address1": "80 Manville Hill Rd", "address2": "", "address3": null, "city": "Cumberland", "zip_code": "02864", "country": "US", "state": "RI", "display_address": ["80 Manville Hill Rd", "Cumberland, RI 02864"]}, "phone": "+14016582591", "display_phone": "(401) 658-2591", "distance": 3815.3831592047895}, {"id": "K78THltJtqnaNHFhH7kYTw", "alias": "vm-moonlight-north-smithfield", "name": "VM Moonlight", "image_url": "https://s3-media4.fl.yelpcdn.com/bphoto/bJlUkqTHmChjVCHqqqI_xQ/o.jpg", "is_closed": false, "url": "https://www.yelp.com/biz/vm-moonlight-north-smithfield?adjust_creative=ogtFoSS6DBKYYW1KXs8qsw&utm_campaign=yelp_api_v3&utm_medium=api_v3_business_search&utm_source=ogtFoSS6DBKYYW1KXs8qsw", "review_count": 4, "categories": [{"alias": "breakfast_brunch", "title": "Breakfast & Brunch"}], "rating": 4.0, "coordinates": {"latitude": 41.97903, "longitude": -71.51363}, "transactions": ["pickup", "delivery"], "location": {"address1": "175 Eddie Dowling Hwy", "address2": "", "address3": "", "city": "North Smithfield", "zip_code": "02896", "country": "US", "state": "RI", "display_address": ["175 Eddie Dowling Hwy", "North Smithfield, RI 02896"]}, "phone": "+14013561745", "display_phone": "(401) 356-1745", "distance": 2476.0878750710767}, {"id": "lcP4rb76-ymxAdtLJGVRqw", "alias": "the-village-haven-forestdale", "name": "The Village Haven", "image_url": "https://s3-media3.fl.yelpcdn.com/bphoto/L0ide9UMs7XtAWWNnKaCjw/o.jpg", "is_closed": false, "url": "https://www.yelp.com/biz/the-village-haven-forestdale?adjust_creative=ogtFoSS6DBKYYW1KXs8qsw&utm_campaign=yelp_api_v3&utm_medium=api_v3_business_search&utm_source=ogtFoSS6DBKYYW1KXs8qsw", "review_count": 73, "categories": [{"alias": "tradamerican", "title": "American (Traditional)"}], "rating": 4.0, "coordinates": {"latitude": 41.999786, "longitude": -71.569072}, "transactions": [], "price": "$$", "location": {"address1": "90 School St", "address2": "", "address3": "", "city": "Forestdale", "zip_code": "02824", "country": "US", "state": "RI", "display_address": ["90 School St", "Forestdale, RI 02824"]}, "phone": "+14017624242", "display_phone": "(401) 762-4242", "distance": 5790.149311164396}, {"id": "CfKT3OZwUZNYLViI-9sEeQ", "alias": "missys-family-restaurant-woonsocket", "name": "Missy's Family Restaurant", "image_url": "https://s3-media3.fl.yelpcdn.com/bphoto/y1vrphipvSiVyNIE_klFEA/o.jpg", "is_closed": false, "url": "https://www.yelp.com/biz/missys-family-restaurant-woonsocket?adjust_creative=ogtFoSS6DBKYYW1KXs8qsw&utm_campaign=yelp_api_v3&utm_medium=api_v3_business_search&utm_source=ogtFoSS6DBKYYW1KXs8qsw", "review_count": 22, "categories": [{"alias": "breakfast_brunch", "title": "Breakfast & Brunch"}], "rating": 4.0, "coordinates": {"latitude": 42.0092027562116, "longitude": -71.5019413456321}, "transactions": ["pickup", "delivery"], "price": "$$", "location": {"address1": "801 Clinton St", "address2": "", "address3": "", "city": "Woonsocket", "zip_code": "02895", "country": "US", "state": "RI", "display_address": ["801 Clinton St", "Woonsocket, RI 02895"]}, "phone": "+14015976442", "display_phone": "(401) 597-6442", "distance": 1211.2545037690886}, {"id": "Nr0co1w_ArEhpkaFaIKlIw", "alias": "ollies-diner-cumberland", "name": "Ollie's Diner", "image_url": "https://s3-media2.fl.yelpcdn.com/bphoto/T3Vw49MKWcloAhGBJbU8lQ/o.jpg", "is_closed": false, "url": "https://www.yelp.com/biz/ollies-diner-cumberland?adjust_creative=ogtFoSS6DBKYYW1KXs8qsw&utm_campaign=yelp_api_v3&utm_medium=api_v3_business_search&utm_source=ogtFoSS6DBKYYW1KXs8qsw", "review_count": 118, "categories": [{"alias": "breakfast_brunch", "title": "Breakfast & Brunch"}, {"alias": "diners", "title": "Diners"}], "rating": 4.5, "coordinates": {"latitude": 41.9236918, "longitude": -71.3989677}, "transactions": ["delivery"], "price": "$", "location": {"address1": "802 High Street", "address2": "", "address3": "", "city": "Cumberland", "zip_code": "02864", "country": "US", "state": "RI", "display_address": ["802 High Street", "Cumberland, RI 02864"]}, "phone": "+14013053113", "display_phone": "(401) 305-3113", "distance": 11726.511062468548}, {"id": "42TEHIYhJ5rq9-sEascugQ", "alias": "egans-pub-bellingham", "name": "Egan's Pub", "image_url": "https://s3-media2.fl.yelpcdn.com/bphoto/wJfoCOTf84QuQFG9gzIjaA/o.jpg", "is_closed": false, "url": "https://www.yelp.com/biz/egans-pub-bellingham?adjust_creative=ogtFoSS6DBKYYW1KXs8qsw&utm_campaign=yelp_api_v3&utm_medium=api_v3_business_search&utm_source=ogtFoSS6DBKYYW1KXs8qsw", "review_count": 3, "categories": [{"alias": "pubs", "title": "Pubs"}, {"alias": "newamerican", "title": "American (New)"}, {"alias": "sandwiches", "title": "Sandwiches"}], "rating": 4.5, "coordinates": {"latitude": 42.0211076, "longitude": -71.4830976}, "transactions": [], "price": "$$", "location": {"address1": "180 Paine St", "address2": "", "address3": "The New England Country Club", "city": "Bellingham", "zip_code": "02019", "country": "US", "state": "MA", "display_address": ["180 Paine St", "The New England Country Club", "Bellingham, MA 02019"]}, "phone": "+15088832300", "display_phone": "(508) 883-2300", "distance": 2834.666701782043}, {"id": "JQfFIbfoPJA_hm5dUG9LHg", "alias": "als-place-woonsocket", "name": "Al's Place", "image_url": "https://s3-media1.fl.yelpcdn.com/bphoto/Q6WYqnmqPaRSX5MDE7e_-A/o.jpg", "is_closed": false, "url": "https://www.yelp.com/biz/als-place-woonsocket?adjust_creative=ogtFoSS6DBKYYW1KXs8qsw&utm_campaign=yelp_api_v3&utm_medium=api_v3_business_search&utm_source=ogtFoSS6DBKYYW1KXs8qsw", "review_count": 8, "categories": [{"alias": "breakfast_brunch", "title": "Breakfast & Brunch"}, {"alias": "burgers", "title": "Burgers"}], "rating": 4.5, "coordinates": {"latitude": 41.9947242736816, "longitude": -71.5216217041016}, "transactions": [], "location": {"address1": "134 Providence St", "address2": "", "address3": "", "city": "Woonsocket", "zip_code": "02895", "country": "US", "state": "RI", "display_address": ["134 Providence St", "Woonsocket, RI 02895"]}, "phone": "+14017626330", "display_phone": "(401) 762-6330", "distance": 1917.0981415548526}, {"id": "vc3UQd1asGWc8BeJc6o4yQ", "alias": "ricks-bar-and-grill-woonsocket", "name": "Rick's Bar and Grill", "image_url": "https://s3-media3.fl.yelpcdn.com/bphoto/Zbh2G4AkH4HhH0DnghhPMw/o.jpg", "is_closed": false, "url": "https://www.yelp.com/biz/ricks-bar-and-grill-woonsocket?adjust_creative=ogtFoSS6DBKYYW1KXs8qsw&utm_campaign=yelp_api_v3&utm_medium=api_v3_business_search&utm_source=ogtFoSS6DBKYYW1KXs8qsw", "review_count": 6, "categories": [{"alias": "bars", "title": "Bars"}, {"alias": "pizza", "title": "Pizza"}, {"alias": "tradamerican", "title": "American (Traditional)"}], "rating": 4.0, "coordinates": {"latitude": 42.0054615, "longitude": -71.4936115}, "transactions": ["pickup", "delivery"], "location": {"address1": "297 Cass Ave", "address2": null, "address3": null, "city": "Woonsocket", "zip_code": "02895", "country": "US", "state": "RI", "display_address": ["297 Cass Ave", "Woonsocket, RI 02895"]}, "phone": "+14017683444", "display_phone": "(401) 768-3444", "distance": 899.2824922488744}, {"id": "ukGam4bZqVn_6QIjf-O7aw", "alias": "gallifords-restaurant-and-tavern-mendon", "name": "Galliford's Restaurant & Tavern", "image_url": "https://s3-media2.fl.yelpcdn.com/bphoto/9ZFBDmrQT6NvVX6TtbWI9A/o.jpg", "is_closed": false, "url": "https://www.yelp.com/biz/gallifords-restaurant-and-tavern-mendon?adjust_creative=ogtFoSS6DBKYYW1KXs8qsw&utm_campaign=yelp_api_v3&utm_medium=api_v3_business_search&utm_source=ogtFoSS6DBKYYW1KXs8qsw", "review_count": 95, "categories": [{"alias": "newamerican", "title": "American (New)"}, {"alias": "beerbar", "title": "Beer Bar"}], "rating": 4.0, "coordinates": {"latitude": 42.064921819907, "longitude": -71.5841863249914}, "transactions": [], "price": "$$", "location": {"address1": "5 Southwick St", "address2": "", "address3": "Southwick's Zoo", "city": "Mendon", "zip_code": "01756", "country": "US", "state": "MA", "display_address": ["5 Southwick St", "Southwick's Zoo", "Mendon, MA 01756"]}, "phone": "+15089280928", "display_phone": "(508) 928-0928", "distance": 10196.997382767864}, {"id": "k4OOc1yd7Q57GgFgs8KTeQ", "alias": "park-ave-pizza-woonsocket", "name": "Park Ave Pizza", "image_url": "https://s3-media3.fl.yelpcdn.com/bphoto/d13MUUhRtqmn5PMJp96Ibg/o.jpg", "is_closed": false, "url": "https://www.yelp.com/biz/park-ave-pizza-woonsocket?adjust_creative=ogtFoSS6DBKYYW1KXs8qsw&utm_campaign=yelp_api_v3&utm_medium=api_v3_business_search&utm_source=ogtFoSS6DBKYYW1KXs8qsw", "review_count": 36, "categories": [{"alias": "pizza", "title": "Pizza"}, {"alias": "italian", "title": "Italian"}], "rating": 3.5, "coordinates": {"latitude": 41.9916038513184, "longitude": -71.5148010253906}, "transactions": ["delivery"], "price": "$$", "location": {"address1": "857 Park Ave", "address2": "", "address3": "", "city": "Woonsocket", "zip_code": "02895", "country": "US", "state": "RI", "display_address": ["857 Park Ave", "Woonsocket, RI 02895"]}, "phone": "+14017653142", "display_phone": "(401) 765-3142", "distance": 1514.9565285586848}, {"id": "3icicrZjMcZUfE_P5WR80w", "alias": "barbaras-place-woonsocket", "name": "Barbara's Place", "image_url": "https://s3-media3.fl.yelpcdn.com/bphoto/KfL7qrb8A4FiRVJx2mZGEA/o.jpg", "is_closed": false, "url": "https://www.yelp.com/biz/barbaras-place-woonsocket?adjust_creative=ogtFoSS6DBKYYW1KXs8qsw&utm_campaign=yelp_api_v3&utm_medium=api_v3_business_search&utm_source=ogtFoSS6DBKYYW1KXs8qsw", "review_count": 13, "categories": [{"alias": "diners", "title": "Diners"}], "rating": 4.0, "coordinates": {"latitude": 42.0066795349121, "longitude": -71.5130157470703}, "transactions": ["delivery"], "price": "$", "location": {"address1": "79 N Main St", "address2": null, "address3": null, "city": "Woonsocket", "zip_code": "02895", "country": "US", "state": "RI", "display_address": ["79 N Main St", "Woonsocket, RI 02895"]}, "phone": "+14017624730", "display_phone": "(401) 762-4730", "distance": 1469.2092954990112}, {"id": "ot9ck3-nQchZ-Pno9b9y0Q", "alias": "china-house-woonsocket-2", "name": "China House", "image_url": "https://s3-media1.fl.yelpcdn.com/bphoto/jbyCULIGOkDWeyuqJjrQpA/o.jpg", "is_closed": false, "url": "https://www.yelp.com/biz/china-house-woonsocket-2?adjust_creative=ogtFoSS6DBKYYW1KXs8qsw&utm_campaign=yelp_api_v3&utm_medium=api_v3_business_search&utm_source=ogtFoSS6DBKYYW1KXs8qsw", "review_count": 6, "categories": [{"alias": "chinese", "title": "Chinese"}], "rating": 3.0, "coordinates": {"latitude": 42.0080699, "longitude": -71.50918}, "transactions": ["delivery"], "location": {"address1": "240 Social St", "address2": "", "address3": null, "city": "Woonsocket", "zip_code": "02895", "country": "US", "state": "RI", "display_address": ["240 Social St", "Woonsocket, RI 02895"]}, "phone": "+14013561443", "display_phone": "(401) 356-1443", "distance": 1354.226657358136}, {"id": "JmIIyv9etq8gbsUq2XUtOw", "alias": "main-street-cafe-woonsocket", "name": "Main Street Cafe", "image_url": "https://s3-media2.fl.yelpcdn.com/bphoto/-bXaBLwdyugbeVGlkiP9_Q/o.jpg", "is_closed": false, "url": "https://www.yelp.com/biz/main-street-cafe-woonsocket?adjust_creative=ogtFoSS6DBKYYW1KXs8qsw&utm_campaign=yelp_api_v3&utm_medium=api_v3_business_search&utm_source=ogtFoSS6DBKYYW1KXs8qsw", "review_count": 13, "categories": [{"alias": "coffee", "title": "Coffee & Tea"}, {"alias": "breakfast_brunch", "title": "Breakfast & Brunch"}], "rating": 4.5, "coordinates": {"latitude": 42.001664, "longitude": -71.5150756}, "transactions": ["delivery"], "price": "$", "location": {"address1": "85 Main St", "address2": null, "address3": null, "city": "Woonsocket", "zip_code": "02895", "country": "US", "state": "RI", "display_address": ["85 Main St", "Woonsocket, RI 02895"]}, "phone": "+14015337166", "display_phone": "(401) 533-7166", "distance": 1371.5292853180827}, {"id": "Nxzcq93thr1K-wKPSwYkug", "alias": "asia-grille-lincoln", "name": "Asia Grille", "image_url": "https://s3-media2.fl.yelpcdn.com/bphoto/z7NvKoi5SYvLoA5pd9R-kw/o.jpg", "is_closed": false, "url": "https://www.yelp.com/biz/asia-grille-lincoln?adjust_creative=ogtFoSS6DBKYYW1KXs8qsw&utm_campaign=yelp_api_v3&utm_medium=api_v3_business_search&utm_source=ogtFoSS6DBKYYW1KXs8qsw", "review_count": 313, "categories": [{"alias": "chinese", "title": "Chinese"}], "rating": 4.0, "coordinates": {"latitude": 41.9364783631284, "longitude": -71.479694860248}, "transactions": ["delivery"], "price": "$$", "location": {"address1": "622 George Washington Hwy", "address2": "", "address3": "", "city": "Lincoln", "zip_code": "02865", "country": "US", "state": "RI", "display_address": ["622 George Washington Hwy", "Lincoln, RI 02865"]}, "phone": "+14013343200", "display_phone": "(401) 334-3200", "distance": 7082.199214344108}, {"id": "UGc9EH9ygwpRnRjAbmtbmA", "alias": "sunrise-pizza-and-grille-woonsocket", "name": "Sunrise Pizza & Grille", "image_url": "https://s3-media4.fl.yelpcdn.com/bphoto/FZT--DYD1JeL44wKFUMdoA/o.jpg", "is_closed": false, "url": "https://www.yelp.com/biz/sunrise-pizza-and-grille-woonsocket?adjust_creative=ogtFoSS6DBKYYW1KXs8qsw&utm_campaign=yelp_api_v3&utm_medium=api_v3_business_search&utm_source=ogtFoSS6DBKYYW1KXs8qsw", "review_count": 74, "categories": [{"alias": "pizza", "title": "Pizza"}], "rating": 3.0, "coordinates": {"latitude": 42.00755, "longitude": -71.51024}, "transactions": ["pickup", "delivery"], "price": "$$", "location": {"address1": "180 Social St", "address2": "", "address3": "", "city": "Woonsocket", "zip_code": "02895", "country": "US", "state": "RI", "display_address": ["180 Social St", "Woonsocket, RI 02895"]}, "phone": "+14013561111", "display_phone": "(401) 356-1111", "distance": 1363.4194716288846}, {"id": "3b4J007NMpzmSPplBSYDcQ", "alias": "buddys-lower-level-bar-and-grill-north-smithfield", "name": "Buddy's Lower Level Bar & Grill", "image_url": "https://s3-media4.fl.yelpcdn.com/bphoto/xpEdDgI50imkZogq_0T18g/o.jpg", "is_closed": false, "url": "https://www.yelp.com/biz/buddys-lower-level-bar-and-grill-north-smithfield?adjust_creative=ogtFoSS6DBKYYW1KXs8qsw&utm_campaign=yelp_api_v3&utm_medium=api_v3_business_search&utm_source=ogtFoSS6DBKYYW1KXs8qsw", "review_count": 7, "categories": [{"alias": "bars", "title": "Bars"}, {"alias": "tradamerican", "title": "American (Traditional)"}], "rating": 4.0, "coordinates": {"latitude": 41.97903, "longitude": -71.51363}, "transactions": [], "price": "$", "location": {"address1": "175 Eddie Dowling Hwy", "address2": null, "address3": null, "city": "North Smithfield", "zip_code": "02896", "country": "US", "state": "RI", "display_address": ["175 Eddie Dowling Hwy", "North Smithfield, RI 02896"]}, "phone": "+14017697900", "display_phone": "(401) 769-7900", "distance": 2475.8062016657414}, {"id": "grfwQ716A8PBiii-LxR_hQ", "alias": "capriottis-sandwich-shop-lincoln-3", "name": "Capriotti's Sandwich Shop", "image_url": "https://s3-media3.fl.yelpcdn.com/bphoto/0qOsI7SiBz86zL_HP4kjfQ/o.jpg", "is_closed": false, "url": "https://www.yelp.com/biz/capriottis-sandwich-shop-lincoln-3?adjust_creative=ogtFoSS6DBKYYW1KXs8qsw&utm_campaign=yelp_api_v3&utm_medium=api_v3_business_search&utm_source=ogtFoSS6DBKYYW1KXs8qsw", "review_count": 21, "categories": [{"alias": "sandwiches", "title": "Sandwiches"}, {"alias": "hotdogs", "title": "Fast Food"}, {"alias": "delis", "title": "Delis"}], "rating": 4.0, "coordinates": {"latitude": 41.93852, "longitude": -71.47755}, "transactions": ["pickup", "delivery"], "price": "$$", "location": {"address1": "622 George Washington Hwy", "address2": "Unit 68", "address3": null, "city": "Lincoln", "zip_code": "02865", "country": "US", "state": "RI", "display_address": ["622 George Washington Hwy", "Unit 68", "Lincoln, RI 02865"]}, "phone": "+14013331840", "display_phone": "(401) 333-1840", "distance": 7003.328899646208}, {"id": "UAexFbIHNTkznoH7yvPJsQ", "alias": "bocce-club-restaurant-woonsocket", "name": "Bocce Club Restaurant", "image_url": "https://s3-media1.fl.yelpcdn.com/bphoto/_1z52sc3_QHTyQW2LdfJYg/o.jpg", "is_closed": false, "url": "https://www.yelp.com/biz/bocce-club-restaurant-woonsocket?adjust_creative=ogtFoSS6DBKYYW1KXs8qsw&utm_campaign=yelp_api_v3&utm_medium=api_v3_business_search&utm_source=ogtFoSS6DBKYYW1KXs8qsw", "review_count": 18, "categories": [{"alias": "italian", "title": "Italian"}], "rating": 2.5, "coordinates": {"latitude": 42.014575958252, "longitude": -71.4899291992188}, "transactions": [], "price": "$$", "location": {"address1": "226 Saint Louis Ave", "address2": "", "address3": "", "city": "Woonsocket", "zip_code": "02895", "country": "US", "state": "RI", "display_address": ["226 Saint Louis Ave", "Woonsocket, RI 02895"]}, "phone": "+14017672000", "display_phone": "(401) 767-2000", "distance": 1930.5285922704875}, {"id": "zDezRElRZik5ffd2_SEmEg", "alias": "buffalo-wild-wings-north-smithfield", "name": "Buffalo Wild Wings", "image_url": "https://s3-media3.fl.yelpcdn.com/bphoto/cvaG_l5qRiMUm-ge986ePw/o.jpg", "is_closed": false, "url": "https://www.yelp.com/biz/buffalo-wild-wings-north-smithfield?adjust_creative=ogtFoSS6DBKYYW1KXs8qsw&utm_campaign=yelp_api_v3&utm_medium=api_v3_business_search&utm_source=ogtFoSS6DBKYYW1KXs8qsw", "review_count": 97, "categories": [{"alias": "tradamerican", "title": "American (Traditional)"}, {"alias": "sportsbars", "title": "Sports Bars"}, {"alias": "chicken_wings", "title": "Chicken Wings"}], "rating": 2.5, "coordinates": {"latitude": 41.981884, "longitude": -71.510662}, "transactions": ["delivery"], "price": "$$", "location": {"address1": "51 Dowling Village Blvd", "address2": "", "address3": "", "city": "North Smithfield", "zip_code": "02896", "country": "US", "state": "RI", "display_address": ["51 Dowling Village Blvd", "North Smithfield, RI 02896"]}, "phone": "+14017652806", "display_phone": "(401) 765-2806", "distance": 2085.7306694107874}, {"id": "6k3vtgo5w41xr3h4i4kMFA", "alias": "popeyes-louisiana-kitchen-woonsocket-2", "name": "Popeyes Louisiana Kitchen", "image_url": "https://s3-media1.fl.yelpcdn.com/bphoto/ZhePsupi_V8pwEYmXQtI4g/o.jpg", "is_closed": false, "url": "https://www.yelp.com/biz/popeyes-louisiana-kitchen-woonsocket-2?adjust_creative=ogtFoSS6DBKYYW1KXs8qsw&utm_campaign=yelp_api_v3&utm_medium=api_v3_business_search&utm_source=ogtFoSS6DBKYYW1KXs8qsw", "review_count": 28, "categories": [{"alias": "hotdogs", "title": "Fast Food"}, {"alias": "chicken_wings", "title": "Chicken Wings"}], "rating": 2.5, "coordinates": {"latitude": 42.015279, "longitude": -71.478496}, "transactions": ["pickup", "delivery"], "price": "$", "location": {"address1": "1507 Diamond Hill Rd", "address2": null, "address3": "", "city": "Woonsocket", "zip_code": "02895", "country": "US", "state": "RI", "display_address": ["1507 Diamond Hill Rd", "Woonsocket, RI 02895"]}, "phone": "+14013560996", "display_phone": "(401) 356-0996", "distance": 2519.1643637129864}, {"id": "rPZMmSmvp1QbhdFzbFwH2Q", "alias": "mickey-gs-clam-shack-cumberland", "name": "Mickey G's Clam Shack", "image_url": "https://s3-media3.fl.yelpcdn.com/bphoto/BgDmNcnPxMkpxzfvv-tCrw/o.jpg", "is_closed": false, "url": "https://www.yelp.com/biz/mickey-gs-clam-shack-cumberland?adjust_creative=ogtFoSS6DBKYYW1KXs8qsw&utm_campaign=yelp_api_v3&utm_medium=api_v3_business_search&utm_source=ogtFoSS6DBKYYW1KXs8qsw", "review_count": 5, "categories": [{"alias": "foodstands", "title": "Food Stands"}], "rating": 5.0, "coordinates": {"latitude": 41.9666667, "longitude": -71.4327778}, "transactions": [], "location": {"address1": "", "address2": "", "address3": "", "city": "Cumberland", "zip_code": "", "country": "US", "state": "RI", "display_address": ["Cumberland, RI"]}, "phone": "", "display_phone": "", "distance": 6521.78962046664}, {"id": "KVP5An103h9-dE_rRojzHg", "alias": "moonlight-house-of-weiners-woonsocket", "name": "Moonlight House of Weiners", "image_url": "https://s3-media2.fl.yelpcdn.com/bphoto/G5IXEjATlS7xeSDNCdE_EA/o.jpg", "is_closed": false, "url": "https://www.yelp.com/biz/moonlight-house-of-weiners-woonsocket?adjust_creative=ogtFoSS6DBKYYW1KXs8qsw&utm_campaign=yelp_api_v3&utm_medium=api_v3_business_search&utm_source=ogtFoSS6DBKYYW1KXs8qsw", "review_count": 30, "categories": [{"alias": "diners", "title": "Diners"}, {"alias": "breakfast_brunch", "title": "Breakfast & Brunch"}, {"alias": "burgers", "title": "Burgers"}], "rating": 3.0, "coordinates": {"latitude": 42.009422, "longitude": -71.503959}, "transactions": ["pickup", "delivery"], "price": "$", "location": {"address1": "32 Rathbun St", "address2": "", "address3": "", "city": "Woonsocket", "zip_code": "02895", "country": "US", "state": "RI", "display_address": ["32 Rathbun St", "Woonsocket, RI 02895"]}, "phone": "+14017665806", "display_phone": "(401) 766-5806", "distance": 1276.293665726517}, {"id": "eQGzk1MWptUdEzt7LrI2Hw", "alias": "grumpys-restaurant-bellingham", "name": "Grumpy's Restaurant", "image_url": "https://s3-media2.fl.yelpcdn.com/bphoto/X2Zec0dkD2cZqOhcL43ZHw/o.jpg", "is_closed": false, "url": "https://www.yelp.com/biz/grumpys-restaurant-bellingham?adjust_creative=ogtFoSS6DBKYYW1KXs8qsw&utm_campaign=yelp_api_v3&utm_medium=api_v3_business_search&utm_source=ogtFoSS6DBKYYW1KXs8qsw", "review_count": 65, "categories": [{"alias": "tradamerican", "title": "American (Traditional)"}], "rating": 2.5, "coordinates": {"latitude": 42.02111, "longitude": -71.49429}, "transactions": ["pickup", "delivery"], "price": "$$", "location": {"address1": "190 Pulaski Blvd", "address2": "", "address3": "", "city": "Bellingham", "zip_code": "02019", "country": "US", "state": "MA", "display_address": ["190 Pulaski Blvd", "Bellingham, MA 02019"]}, "phone": "+15088830101", "display_phone": "(508) 883-0101", "distance": 2541.479384075299}, {"id": "4uUDNnozeGvFdj8opI7K2g", "alias": "hunan-place-blackstone", "name": "Hunan Place", "image_url": "https://s3-media3.fl.yelpcdn.com/bphoto/86m26Gn77gZDEDLU2hncWQ/o.jpg", "is_closed": false, "url": "https://www.yelp.com/biz/hunan-place-blackstone?adjust_creative=ogtFoSS6DBKYYW1KXs8qsw&utm_campaign=yelp_api_v3&utm_medium=api_v3_business_search&utm_source=ogtFoSS6DBKYYW1KXs8qsw", "review_count": 14, "categories": [{"alias": "chinese", "title": "Chinese"}], "rating": 3.0, "coordinates": {"latitude": 42.015894, "longitude": -71.526655}, "transactions": ["delivery"], "price": "$$", "location": {"address1": "3 Main St", "address2": "Ste C", "address3": "", "city": "Blackstone", "zip_code": "01504", "country": "US", "state": "MA", "display_address": ["3 Main St", "Ste C", "Blackstone, MA 01504"]}, "phone": "+15088838822", "display_phone": "(508) 883-8822", "distance": 2984.260063176695}, {"id": "FP23m_z_uxIlg_Pv3BSpaw", "alias": "the-bellingham-palace-bellingham", "name": "The Bellingham Palace", "image_url": "https://s3-media3.fl.yelpcdn.com/bphoto/ssUHth_xz8kJpDhNFaMUSg/o.jpg", "is_closed": false, "url": "https://www.yelp.com/biz/the-bellingham-palace-bellingham?adjust_creative=ogtFoSS6DBKYYW1KXs8qsw&utm_campaign=yelp_api_v3&utm_medium=api_v3_business_search&utm_source=ogtFoSS6DBKYYW1KXs8qsw", "review_count": 93, "categories": [{"alias": "burgers", "title": "Burgers"}, {"alias": "pizza", "title": "Pizza"}, {"alias": "sandwiches", "title": "Sandwiches"}], "rating": 3.5, "coordinates": {"latitude": 42.01891, "longitude": -71.49647}, "transactions": ["delivery"], "price": "$", "location": {"address1": "90 Pulaski Blvd", "address2": null, "address3": "", "city": "Bellingham", "zip_code": "02019", "country": "US", "state": "MA", "display_address": ["90 Pulaski Blvd", "Bellingham, MA 02019"]}, "phone": "+15088831074", "display_phone": "(508) 883-1074", "distance": 2282.02780069924}, {"id": "CHX-RckjLGMNfjzggrBLNg", "alias": "the-chateau-franklin-2", "name": "The Chateau", "image_url": "https://s3-media2.fl.yelpcdn.com/bphoto/LwyS6opuzUxQt_MB0LLPaw/o.jpg", "is_closed": false, "url": "https://www.yelp.com/biz/the-chateau-franklin-2?adjust_creative=ogtFoSS6DBKYYW1KXs8qsw&utm_campaign=yelp_api_v3&utm_medium=api_v3_business_search&utm_source=ogtFoSS6DBKYYW1KXs8qsw", "review_count": 28, "categories": [{"alias": "italian", "title": "Italian"}], "rating": 3.0, "coordinates": {"latitude": 42.06644, "longitude": -71.3988122}, "transactions": ["pickup", "delivery"], "location": {"address1": "466 King St", "address2": "", "address3": null, "city": "Franklin", "zip_code": "02038", "country": "US", "state": "MA", "display_address": ["466 King St", "Franklin, MA 02038"]}, "phone": "+17746139300", "display_phone": "(774) 613-9300", "distance": 11203.901402549061}, {"id": "CSRtIjGOdNKLgOY8umV5rQ", "alias": "cumberland-house-of-pizza-cumberland-3", "name": "Cumberland House of Pizza", "image_url": "https://s3-media2.fl.yelpcdn.com/bphoto/X3fgYQK0spVNiX2sYpplhA/o.jpg", "is_closed": false, "url": "https://www.yelp.com/biz/cumberland-house-of-pizza-cumberland-3?adjust_creative=ogtFoSS6DBKYYW1KXs8qsw&utm_campaign=yelp_api_v3&utm_medium=api_v3_business_search&utm_source=ogtFoSS6DBKYYW1KXs8qsw", "review_count": 118, "categories": [{"alias": "pizza", "title": "Pizza"}], "rating": 4.0, "coordinates": {"latitude": 41.95862, "longitude": -71.44327}, "transactions": ["delivery"], "price": "$", "location": {"address1": "2360 Mendon Rd", "address2": "Ste A", "address3": "", "city": "Cumberland", "zip_code": "02864", "country": "US", "state": "RI", "display_address": ["2360 Mendon Rd", "Ste A", "Cumberland, RI 02864"]}, "phone": "+14016582626", "display_phone": "(401) 658-2626", "distance": 6447.180056980863}, {"id": "CAT9w-IPD_HF4N7mn4cuZg", "alias": "new-hong-kong-woonsocket", "name": "New Hong Kong", "image_url": "https://s3-media1.fl.yelpcdn.com/bphoto/YF9nGCzPAh1mlDvUQffH5A/o.jpg", "is_closed": false, "url": "https://www.yelp.com/biz/new-hong-kong-woonsocket?adjust_creative=ogtFoSS6DBKYYW1KXs8qsw&utm_campaign=yelp_api_v3&utm_medium=api_v3_business_search&utm_source=ogtFoSS6DBKYYW1KXs8qsw", "review_count": 8, "categories": [{"alias": "chinese", "title": "Chinese"}], "rating": 3.0, "coordinates": {"latitude": 42.01145, "longitude": -71.50179}, "transactions": ["delivery"], "price": "$", "location": {"address1": "774 Social St", "address2": "", "address3": "", "city": "Woonsocket", "zip_code": "02895", "country": "US", "state": "RI", "display_address": ["774 Social St", "Woonsocket, RI 02895"]}, "phone": "+14017656868", "display_phone": "(401) 765-6868", "distance": 1451.3227595968071}, {"id": "rpaUYCqcAQ041wpNsocuFw", "alias": "yama-fuji-north-smithfield-2", "name": "Yama Fuji", "image_url": "https://s3-media1.fl.yelpcdn.com/bphoto/hosPRo6JNWhK5ZqmdYREgg/o.jpg", "is_closed": false, "url": "https://www.yelp.com/biz/yama-fuji-north-smithfield-2?adjust_creative=ogtFoSS6DBKYYW1KXs8qsw&utm_campaign=yelp_api_v3&utm_medium=api_v3_business_search&utm_source=ogtFoSS6DBKYYW1KXs8qsw", "review_count": 74, "categories": [{"alias": "japanese", "title": "Japanese"}, {"alias": "sushi", "title": "Sushi Bars"}], "rating": 3.5, "coordinates": {"latitude": 42.0050400107292, "longitude": -71.5855900175255}, "transactions": [], "price": "$$", "location": {"address1": "900 Victory Hwy", "address2": "Ste 3", "address3": "", "city": "North Smithfield", "zip_code": "02896", "country": "US", "state": "RI", "display_address": ["900 Victory Hwy", "Ste 3", "North Smithfield, RI 02896"]}, "phone": "+14015970885", "display_phone": "(401) 597-0885", "distance": 7189.688700360537}, {"id": "v09mSdNmzp1mXlS0ZmU-dw", "alias": "ollys-pizzeria-woonsocket", "name": "Olly's Pizzeria", "image_url": "https://s3-media2.fl.yelpcdn.com/bphoto/X0mA35rp4OcGUnf3BUizwg/o.jpg", "is_closed": false, "url": "https://www.yelp.com/biz/ollys-pizzeria-woonsocket?adjust_creative=ogtFoSS6DBKYYW1KXs8qsw&utm_campaign=yelp_api_v3&utm_medium=api_v3_business_search&utm_source=ogtFoSS6DBKYYW1KXs8qsw", "review_count": 45, "categories": [{"alias": "pizza", "title": "Pizza"}, {"alias": "sandwiches", "title": "Sandwiches"}, {"alias": "burgers", "title": "Burgers"}], "rating": 3.0, "coordinates": {"latitude": 41.9979148, "longitude": -71.5193968}, "transactions": ["pickup", "delivery"], "price": "$", "location": {"address1": "204 S Main St", "address2": "", "address3": "", "city": "Woonsocket", "zip_code": "02895", "country": "US", "state": "RI", "display_address": ["204 S Main St", "Woonsocket, RI 02895"]}, "phone": "+14017661157", "display_phone": "(401) 766-1157", "distance": 1662.2831076118493}, {"id": "RcTzHkCTD_SDFY43_0HruQ", "alias": "tandoori-restaurant-woonsocket", "name": "Tandoori Restaurant", "image_url": "", "is_closed": false, "url": "https://www.yelp.com/biz/tandoori-restaurant-woonsocket?adjust_creative=ogtFoSS6DBKYYW1KXs8qsw&utm_campaign=yelp_api_v3&utm_medium=api_v3_business_search&utm_source=ogtFoSS6DBKYYW1KXs8qsw", "review_count": 9, "categories": [{"alias": "indpak", "title": "Indian"}, {"alias": "pakistani", "title": "Pakistani"}], "rating": 2.0, "coordinates": {"latitude": 42.0022551580312, "longitude": -71.5146380662989}, "transactions": ["pickup"], "price": "$", "location": {"address1": "114 Main St", "address2": "", "address3": "", "city": "Woonsocket", "zip_code": "02895", "country": "US", "state": "RI", "display_address": ["114 Main St", "Woonsocket, RI 02895"]}, "phone": "+14015975050", "display_phone": "(401) 597-5050", "distance": 1369.125521376293}, {"id": "a-Bj8NJQ_yvMG7vPe4HX1A", "alias": "coffee-and-cream-north-smithfield-3", "name": "Coffee & Cream", "image_url": "https://s3-media1.fl.yelpcdn.com/bphoto/VvoVaUe4zoI6y3wKtLkqXw/o.jpg", "is_closed": false, "url": "https://www.yelp.com/biz/coffee-and-cream-north-smithfield-3?adjust_creative=ogtFoSS6DBKYYW1KXs8qsw&utm_campaign=yelp_api_v3&utm_medium=api_v3_business_search&utm_source=ogtFoSS6DBKYYW1KXs8qsw", "review_count": 8, "categories": [{"alias": "breakfast_brunch", "title": "Breakfast & Brunch"}, {"alias": "coffee", "title": "Coffee & Tea"}], "rating": 3.5, "coordinates": {"latitude": 42.0051, "longitude": -71.5856228}, "transactions": [], "location": {"address1": "900 Victory Hwy", "address2": "", "address3": null, "city": "North Smithfield", "zip_code": "02876", "country": "US", "state": "RI", "display_address": ["900 Victory Hwy", "North Smithfield, RI 02876"]}, "phone": "+14014884448", "display_phone": "(401) 488-4448", "distance": 7193.055097421661}, {"id": "-i4gDIWCBMYqF3NgxMdGpg", "alias": "parentes-restaurant-smithfield", "name": "Parente's Restaurant", "image_url": "https://s3-media3.fl.yelpcdn.com/bphoto/4ZuUxfmN9QT-B_BaintfMg/o.jpg", "is_closed": false, "url": "https://www.yelp.com/biz/parentes-restaurant-smithfield?adjust_creative=ogtFoSS6DBKYYW1KXs8qsw&utm_campaign=yelp_api_v3&utm_medium=api_v3_business_search&utm_source=ogtFoSS6DBKYYW1KXs8qsw", "review_count": 57, "categories": [{"alias": "tradamerican", "title": "American (Traditional)"}, {"alias": "italian", "title": "Italian"}, {"alias": "cocktailbars", "title": "Cocktail Bars"}], "rating": 3.0, "coordinates": {"latitude": 41.924053, "longitude": -71.530616}, "transactions": ["delivery"], "price": "$$", "location": {"address1": "1114 Douglas Pike", "address2": "", "address3": "", "city": "Smithfield", "zip_code": "02917", "country": "US", "state": "RI", "display_address": ["1114 Douglas Pike", "Smithfield, RI 02917"]}, "phone": "+14012317600", "display_phone": "(401) 231-7600", "distance": 8687.653613524304}, {"id": "pjI3Xige-FX1ueGHxt4PjQ", "alias": "georges-breakfast-and-lunch-woonsocket", "name": "George's Breakfast & Lunch", "image_url": "https://s3-media3.fl.yelpcdn.com/bphoto/LMBXZZC6uBlTJ9gDDZJaTg/o.jpg", "is_closed": false, "url": "https://www.yelp.com/biz/georges-breakfast-and-lunch-woonsocket?adjust_creative=ogtFoSS6DBKYYW1KXs8qsw&utm_campaign=yelp_api_v3&utm_medium=api_v3_business_search&utm_source=ogtFoSS6DBKYYW1KXs8qsw", "review_count": 14, "categories": [{"alias": "restaurants", "title": "Restaurants"}], "rating": 4.0, "coordinates": {"latitude": 42.0136489868164, "longitude": -71.5266494750977}, "transactions": [], "price": "$", "location": {"address1": "793 Harris Ave", "address2": "", "address3": "", "city": "Woonsocket", "zip_code": "02895", "country": "US", "state": "RI", "display_address": ["793 Harris Ave", "Woonsocket, RI 02895"]}, "phone": "+14017691036", "display_phone": "(401) 769-1036", "distance": 2834.496976526561}, {"id": "vbMA44p66uAGLplz1vsKAg", "alias": "mcts-tavern-cumberland", "name": "McT'S Tavern", "image_url": "https://s3-media2.fl.yelpcdn.com/bphoto/IAiz3i8pqtJI4C1fazB44w/o.jpg", "is_closed": false, "url": "https://www.yelp.com/biz/mcts-tavern-cumberland?adjust_creative=ogtFoSS6DBKYYW1KXs8qsw&utm_campaign=yelp_api_v3&utm_medium=api_v3_business_search&utm_source=ogtFoSS6DBKYYW1KXs8qsw", "review_count": 13, "categories": [{"alias": "newamerican", "title": "American (New)"}, {"alias": "bars", "title": "Bars"}], "rating": 4.0, "coordinates": {"latitude": 41.9277791, "longitude": -71.4200601}, "transactions": [], "price": "$", "location": {"address1": "940 Mendon Rd", "address2": "", "address3": "", "city": "Cumberland", "zip_code": "02864", "country": "US", "state": "RI", "display_address": ["940 Mendon Rd", "Cumberland, RI 02864"]}, "phone": "+14014754422", "display_phone": "(401) 475-4422", "distance": 10223.167310057323}, {"id": "Pj80sY15tma7S_MyoUz0ng", "alias": "enn-japanese-cuisine-and-sushi-bar-lincoln", "name": "ENN Japanese Cuisine & Sushi Bar", "image_url": "https://s3-media2.fl.yelpcdn.com/bphoto/Y92QqRg8LKNRCDGaJ_hJGA/o.jpg", "is_closed": false, "url": "https://www.yelp.com/biz/enn-japanese-cuisine-and-sushi-bar-lincoln?adjust_creative=ogtFoSS6DBKYYW1KXs8qsw&utm_campaign=yelp_api_v3&utm_medium=api_v3_business_search&utm_source=ogtFoSS6DBKYYW1KXs8qsw", "review_count": 141, "categories": [{"alias": "japanese", "title": "Japanese"}, {"alias": "sushi", "title": "Sushi Bars"}], "rating": 3.5, "coordinates": {"latitude": 41.935471, "longitude": -71.4818504}, "transactions": ["pickup", "delivery"], "price": "$$", "location": {"address1": "600 George Washington Hwy", "address2": "", "address3": "", "city": "Lincoln", "zip_code": "02865", "country": "US", "state": "RI", "display_address": ["600 George Washington Hwy", "Lincoln, RI 02865"]}, "phone": "+14013330366", "display_phone": "(401) 333-0366", "distance": 7163.398398966317}, {"id": "l6Gu7GZAYhsbzyrgh40pUQ", "alias": "davenports-restaurant-cumberland", "name": "Davenport's Restaurant", "image_url": "https://s3-media1.fl.yelpcdn.com/bphoto/vhtbkBCGN2FLzViM_pvAQg/o.jpg", "is_closed": false, "url": "https://www.yelp.com/biz/davenports-restaurant-cumberland?adjust_creative=ogtFoSS6DBKYYW1KXs8qsw&utm_campaign=yelp_api_v3&utm_medium=api_v3_business_search&utm_source=ogtFoSS6DBKYYW1KXs8qsw", "review_count": 113, "categories": [{"alias": "tradamerican", "title": "American (Traditional)"}, {"alias": "seafood", "title": "Seafood"}, {"alias": "burgers", "title": "Burgers"}], "rating": 3.5, "coordinates": {"latitude": 41.9295996, "longitude": -71.4222667}, "transactions": ["pickup", "delivery"], "price": "$$", "location": {"address1": "1070 Mendon Rd", "address2": "", "address3": "", "city": "Cumberland", "zip_code": "02864", "country": "US", "state": "RI", "display_address": ["1070 Mendon Rd", "Cumberland, RI 02864"]}, "phone": "+14013341017", "display_phone": "(401) 334-1017", "distance": 9932.07247206955}, {"id": "05fMFCqEAbzQzNTR4FV-mA", "alias": "dannys-breakfast-place-woonsocket", "name": "Danny's Breakfast Place", "image_url": "https://s3-media2.fl.yelpcdn.com/bphoto/GkVxFFZi9kVU_kTm3cnRKw/o.jpg", "is_closed": false, "url": "https://www.yelp.com/biz/dannys-breakfast-place-woonsocket?adjust_creative=ogtFoSS6DBKYYW1KXs8qsw&utm_campaign=yelp_api_v3&utm_medium=api_v3_business_search&utm_source=ogtFoSS6DBKYYW1KXs8qsw", "review_count": 14, "categories": [{"alias": "newamerican", "title": "American (New)"}], "rating": 3.5, "coordinates": {"latitude": 42.003879, "longitude": -71.48027}, "transactions": [], "price": "$", "location": {"address1": "1039 Cass Ave", "address2": "", "address3": "", "city": "Woonsocket", "zip_code": "02895", "country": "US", "state": "RI", "display_address": ["1039 Cass Ave", "Woonsocket, RI 02895"]}, "phone": "+14013560523", "display_phone": "(401) 356-0523", "distance": 1655.9205408719722}, {"id": "FBxj5aiSH6WvjGnv0oZQGQ", "alias": "sandys-chill-spot-ice-cream-bellingham", "name": "Sandy's Chill Spot Ice Cream", "image_url": "https://s3-media1.fl.yelpcdn.com/bphoto/9I5hExO8v1VhMASwW5JQRw/o.jpg", "is_closed": false, "url": "https://www.yelp.com/biz/sandys-chill-spot-ice-cream-bellingham?adjust_creative=ogtFoSS6DBKYYW1KXs8qsw&utm_campaign=yelp_api_v3&utm_medium=api_v3_business_search&utm_source=ogtFoSS6DBKYYW1KXs8qsw", "review_count": 28, "categories": [{"alias": "icecream", "title": "Ice Cream & Frozen Yogurt"}, {"alias": "seafood", "title": "Seafood"}, {"alias": "hotdog", "title": "Hot Dogs"}], "rating": 4.5, "coordinates": {"latitude": 42.035896, "longitude": -71.481436}, "transactions": ["delivery"], "price": "$", "location": {"address1": "800 Pulaski Blvd", "address2": "", "address3": "", "city": "Bellingham", "zip_code": "02019", "country": "US", "state": "MA", "display_address": ["800 Pulaski Blvd", "Bellingham, MA 02019"]}, "phone": "+15083489478", "display_phone": "(508) 348-9478", "distance": 4401.862367019065}, {"id": "JLr13bSN2ccR8dbZoXn4Jg", "alias": "applebees-grill-bar-woonsocket", "name": "Applebee's Grill + Bar", "image_url": "https://s3-media1.fl.yelpcdn.com/bphoto/leVreA0-INNuUJoJSqQEEw/o.jpg", "is_closed": false, "url": "https://www.yelp.com/biz/applebees-grill-bar-woonsocket?adjust_creative=ogtFoSS6DBKYYW1KXs8qsw&utm_campaign=yelp_api_v3&utm_medium=api_v3_business_search&utm_source=ogtFoSS6DBKYYW1KXs8qsw", "review_count": 39, "categories": [{"alias": "sportsbars", "title": "Sports Bars"}, {"alias": "burgers", "title": "Burgers"}, {"alias": "tradamerican", "title": "American (Traditional)"}], "rating": 3.0, "coordinates": {"latitude": 42.0148, "longitude": -71.4725}, "transactions": ["delivery"], "price": "$$", "location": {"address1": "1855 Diamond Hill Rd", "address2": "Diamond Hill Plaza", "address3": "", "city": "Woonsocket", "zip_code": "02895", "country": "US", "state": "RI", "display_address": ["1855 Diamond Hill Rd", "Diamond Hill Plaza", "Woonsocket, RI 02895"]}, "phone": "+14017671010", "display_phone": "(401) 767-1010", "distance": 2841.939327516794}, {"id": "45EAEbIVnzW0QYv_I07DoA", "alias": "debbies-breakfast-place-woonsocket", "name": "Debbie's Breakfast Place", "image_url": "https://s3-media3.fl.yelpcdn.com/bphoto/BFK04bQws7Ey0fIhhbqhkQ/o.jpg", "is_closed": false, "url": "https://www.yelp.com/biz/debbies-breakfast-place-woonsocket?adjust_creative=ogtFoSS6DBKYYW1KXs8qsw&utm_campaign=yelp_api_v3&utm_medium=api_v3_business_search&utm_source=ogtFoSS6DBKYYW1KXs8qsw", "review_count": 22, "categories": [{"alias": "breakfast_brunch", "title": "Breakfast & Brunch"}], "rating": 3.5, "coordinates": {"latitude": 41.99224, "longitude": -71.51425}, "transactions": ["delivery"], "price": "$", "location": {"address1": "804 Park Ave", "address2": "", "address3": "", "city": "Woonsocket", "zip_code": "02895", "country": "US", "state": "RI", "display_address": ["804 Park Ave", "Woonsocket, RI 02895"]}, "phone": "+14017697205", "display_phone": "(401) 769-7205", "distance": 1439.9555396765272}, {"id": "dhcr03qDYhfOV6YCgvKIzg", "alias": "all-star-pizza-woonsocket-2", "name": "All Star Pizza", "image_url": "https://s3-media2.fl.yelpcdn.com/bphoto/kP_RKbPBjmOEMBtKl7V-PQ/o.jpg", "is_closed": false, "url": "https://www.yelp.com/biz/all-star-pizza-woonsocket-2?adjust_creative=ogtFoSS6DBKYYW1KXs8qsw&utm_campaign=yelp_api_v3&utm_medium=api_v3_business_search&utm_source=ogtFoSS6DBKYYW1KXs8qsw", "review_count": 24, "categories": [{"alias": "pizza", "title": "Pizza"}, {"alias": "sandwiches", "title": "Sandwiches"}, {"alias": "seafood", "title": "Seafood"}], "rating": 3.5, "coordinates": {"latitude": 41.9856585495591, "longitude": -71.5217283368111}, "transactions": ["delivery"], "price": "$", "location": {"address1": "800 Providence St", "address2": "", "address3": "", "city": "Woonsocket", "zip_code": "02895", "country": "US", "state": "RI", "display_address": ["800 Providence St", "Woonsocket, RI 02895"]}, "phone": "+14017667827", "display_phone": "(401) 766-7827", "distance": 2359.8033735703016}, {"id": "ZfuAs9Z2bw7ZGPZtnbq0oA", "alias": "wise-guys-deli-smithfield", "name": "Wise Guys Deli", "image_url": "https://s3-media1.fl.yelpcdn.com/bphoto/5M3GqBSe3nyJF6uy2w3_Xw/o.jpg", "is_closed": false, "url": "https://www.yelp.com/biz/wise-guys-deli-smithfield?adjust_creative=ogtFoSS6DBKYYW1KXs8qsw&utm_campaign=yelp_api_v3&utm_medium=api_v3_business_search&utm_source=ogtFoSS6DBKYYW1KXs8qsw", "review_count": 24, "categories": [{"alias": "pizza", "title": "Pizza"}, {"alias": "sandwiches", "title": "Sandwiches"}], "rating": 3.5, "coordinates": {"latitude": 41.9285094755351, "longitude": -71.5365591537746}, "transactions": ["delivery"], "location": {"address1": "1201 Douglas Pike", "address2": "", "address3": null, "city": "Smithfield", "zip_code": "02917", "country": "US", "state": "RI", "display_address": ["1201 Douglas Pike", "Smithfield, RI 02917"]}, "phone": "+14012310202", "display_phone": "(401) 231-0202", "distance": 8381.417569682453}, {"id": "gzVSjt3IwXWkbfQ5_4JHSw", "alias": "marys-burger-and-brat-house-north-smithfield", "name": "Mary's Burger and Brat House", "image_url": "", "is_closed": false, "url": "https://www.yelp.com/biz/marys-burger-and-brat-house-north-smithfield?adjust_creative=ogtFoSS6DBKYYW1KXs8qsw&utm_campaign=yelp_api_v3&utm_medium=api_v3_business_search&utm_source=ogtFoSS6DBKYYW1KXs8qsw", "review_count": 3, "categories": [{"alias": "tradamerican", "title": "American (Traditional)"}], "rating": 4.0, "coordinates": {"latitude": 41.9366448033534, "longitude": -71.589231826365}, "transactions": [], "location": {"address1": "92 Log Rd", "address2": "", "address3": null, "city": "North Smithfield", "zip_code": "02830", "country": "US", "state": "RI", "display_address": ["92 Log Rd", "North Smithfield, RI 02830"]}, "phone": "", "display_phone": "", "distance": 10147.488824456641}, {"id": "CvaPfL6mkuWhphRd18rJKw", "alias": "cw-bar-and-grill-lincoln", "name": "CW Bar & Grill", "image_url": "https://s3-media2.fl.yelpcdn.com/bphoto/XaPI2oIxVXpelF65KAMRDg/o.jpg", "is_closed": false, "url": "https://www.yelp.com/biz/cw-bar-and-grill-lincoln?adjust_creative=ogtFoSS6DBKYYW1KXs8qsw&utm_campaign=yelp_api_v3&utm_medium=api_v3_business_search&utm_source=ogtFoSS6DBKYYW1KXs8qsw", "review_count": 40, "categories": [{"alias": "newamerican", "title": "American (New)"}], "rating": 3.0, "coordinates": {"latitude": 41.9382671392862, "longitude": -71.4780184107902}, "transactions": ["delivery"], "price": "$$", "location": {"address1": "620 George Washington Hwy", "address2": "", "address3": "", "city": "Lincoln", "zip_code": "02865", "country": "US", "state": "RI", "display_address": ["620 George Washington Hwy", "Lincoln, RI 02865"]}, "phone": "+14012883543", "display_phone": "(401) 288-3543", "distance": 6922.032114368474}, {"id": "zJ6ipwDq1PM4T8Qw6j6Z9Q", "alias": "maks-roast-beef-and-pizza-bellingham", "name": "Mak's Roast Beef And Pizza", "image_url": "https://s3-media3.fl.yelpcdn.com/bphoto/HRDXERSN-HssqKv71EvbdQ/o.jpg", "is_closed": false, "url": "https://www.yelp.com/biz/maks-roast-beef-and-pizza-bellingham?adjust_creative=ogtFoSS6DBKYYW1KXs8qsw&utm_campaign=yelp_api_v3&utm_medium=api_v3_business_search&utm_source=ogtFoSS6DBKYYW1KXs8qsw", "review_count": 51, "categories": [{"alias": "pizza", "title": "Pizza"}], "rating": 3.5, "coordinates": {"latitude": 42.0269597321749, "longitude": -71.4887546002865}, "transactions": ["delivery"], "price": "$", "location": {"address1": "431 Pulaski Blvd", "address2": "", "address3": "", "city": "Bellingham", "zip_code": "02019", "country": "US", "state": "MA", "display_address": ["431 Pulaski Blvd", "Bellingham, MA 02019"]}, "phone": "+15089282758", "display_phone": "(508) 928-2758", "distance": 3327.801270616308}, {"id": "xSuPdhkcXrSOGW0baJH6WQ", "alias": "quik-stop-deli-north-smithfield", "name": "Quik Stop Deli", "image_url": "https://s3-media3.fl.yelpcdn.com/bphoto/sXXpgxFE1R4mf0Ef2-Q_BQ/o.jpg", "is_closed": false, "url": "https://www.yelp.com/biz/quik-stop-deli-north-smithfield?adjust_creative=ogtFoSS6DBKYYW1KXs8qsw&utm_campaign=yelp_api_v3&utm_medium=api_v3_business_search&utm_source=ogtFoSS6DBKYYW1KXs8qsw", "review_count": 16, "categories": [{"alias": "delis", "title": "Delis"}], "rating": 4.5, "coordinates": {"latitude": 42.0006, "longitude": -71.57955}, "transactions": [], "price": "$", "location": {"address1": "11 Main St", "address2": "", "address3": "", "city": "North Smithfield", "zip_code": "02896", "country": "US", "state": "RI", "display_address": ["11 Main St", "North Smithfield, RI 02896"]}, "phone": "+14017653227", "display_phone": "(401) 765-3227", "distance": 6717.895571059117}, {"id": "ENYr63IjBHP5_cbv5tuvCA", "alias": "ihop-lincoln-6", "name": "IHOP", "image_url": "https://s3-media2.fl.yelpcdn.com/bphoto/yw-DMyoojd_tAh2gDlfAtQ/o.jpg", "is_closed": false, "url": "https://www.yelp.com/biz/ihop-lincoln-6?adjust_creative=ogtFoSS6DBKYYW1KXs8qsw&utm_campaign=yelp_api_v3&utm_medium=api_v3_business_search&utm_source=ogtFoSS6DBKYYW1KXs8qsw", "review_count": 21, "categories": [{"alias": "tradamerican", "title": "American (Traditional)"}, {"alias": "breakfast_brunch", "title": "Breakfast & Brunch"}, {"alias": "burgers", "title": "Burgers"}], "rating": 3.0, "coordinates": {"latitude": 41.937925, "longitude": -71.477029}, "transactions": [], "location": {"address1": "622 George Washington Hwy", "address2": "Unit 70", "address3": null, "city": "Lincoln", "zip_code": "02865", "country": "US", "state": "RI", "display_address": ["622 George Washington Hwy", "Unit 70", "Lincoln, RI 02865"]}, "phone": "+14013331593", "display_phone": "(401) 333-1593", "distance": 6979.729898607999}, {"id": "hTJnzDxgMcVMnFegEu7cmg", "alias": "eggs-up-family-restaurant-cumberland", "name": "Eggs-Up Family Restaurant", "image_url": "https://s3-media4.fl.yelpcdn.com/bphoto/Z7zRZTrC-VUNPj0UCkIIRg/o.jpg", "is_closed": false, "url": "https://www.yelp.com/biz/eggs-up-family-restaurant-cumberland?adjust_creative=ogtFoSS6DBKYYW1KXs8qsw&utm_campaign=yelp_api_v3&utm_medium=api_v3_business_search&utm_source=ogtFoSS6DBKYYW1KXs8qsw", "review_count": 59, "categories": [{"alias": "breakfast_brunch", "title": "Breakfast & Brunch"}], "rating": 4.0, "coordinates": {"latitude": 41.9585444, "longitude": -71.4432466}, "transactions": ["delivery"], "price": "$", "location": {"address1": "2378 Mendon Rd", "address2": "", "address3": "", "city": "Cumberland", "zip_code": "02864", "country": "US", "state": "RI", "display_address": ["2378 Mendon Rd", "Cumberland, RI 02864"]}, "phone": "+14016582424", "display_phone": "(401) 658-2424", "distance": 6416.270729343096}, {"id": "IpsYi0rOnYQ-Q0BBP9sJgQ", "alias": "supreme-pizza-cumberland", "name": "Supreme Pizza", "image_url": "https://s3-media1.fl.yelpcdn.com/bphoto/pci6x_TK6zbexbQyyMUG3g/o.jpg", "is_closed": false, "url": "https://www.yelp.com/biz/supreme-pizza-cumberland?adjust_creative=ogtFoSS6DBKYYW1KXs8qsw&utm_campaign=yelp_api_v3&utm_medium=api_v3_business_search&utm_source=ogtFoSS6DBKYYW1KXs8qsw", "review_count": 67, "categories": [{"alias": "pizza", "title": "Pizza"}], "rating": 3.5, "coordinates": {"latitude": 41.97772, "longitude": -71.460405}, "transactions": ["delivery"], "price": "$", "location": {"address1": "3450 Mendon Rd", "address2": "", "address3": "", "city": "Cumberland", "zip_code": "02864", "country": "US", "state": "RI", "display_address": ["3450 Mendon Rd", "Cumberland, RI 02864"]}, "phone": "+14016580032", "display_phone": "(401) 658-0032", "distance": 3944.5044838359395}, {"id": "IF564MzVcVL4vpG_ueubhw", "alias": "dominos-pizza-woonsocket", "name": "Domino's Pizza", "image_url": "https://s3-media4.fl.yelpcdn.com/bphoto/I7t9njXA53Piz5YxwjKlrg/o.jpg", "is_closed": false, "url": "https://www.yelp.com/biz/dominos-pizza-woonsocket?adjust_creative=ogtFoSS6DBKYYW1KXs8qsw&utm_campaign=yelp_api_v3&utm_medium=api_v3_business_search&utm_source=ogtFoSS6DBKYYW1KXs8qsw", "review_count": 14, "categories": [{"alias": "pizza", "title": "Pizza"}, {"alias": "chicken_wings", "title": "Chicken Wings"}, {"alias": "sandwiches", "title": "Sandwiches"}], "rating": 3.5, "coordinates": {"latitude": 42.003322, "longitude": -71.513321}, "transactions": [], "price": "$", "location": {"address1": "194 Main St", "address2": "", "address3": "", "city": "Woonsocket", "zip_code": "02895", "country": "US", "state": "RI", "display_address": ["194 Main St", "Woonsocket, RI 02895"]}, "phone": "+14017653571", "display_phone": "(401) 765-3571", "distance": 1296.1541174526444}, {"id": "VUBOX7Ust7JCD9WBuZo4UA", "alias": "rock-n-coal-pizza-bellingham", "name": "Rock N' Coal Pizza", "image_url": "https://s3-media1.fl.yelpcdn.com/bphoto/6aZ60f_MqFB1x2fh2Z1QRQ/o.jpg", "is_closed": false, "url": "https://www.yelp.com/biz/rock-n-coal-pizza-bellingham?adjust_creative=ogtFoSS6DBKYYW1KXs8qsw&utm_campaign=yelp_api_v3&utm_medium=api_v3_business_search&utm_source=ogtFoSS6DBKYYW1KXs8qsw", "review_count": 169, "categories": [{"alias": "pizza", "title": "Pizza"}], "rating": 2.5, "coordinates": {"latitude": 42.051201, "longitude": -71.481815}, "transactions": ["delivery"], "price": "$$", "location": {"address1": "799 S Main St", "address2": null, "address3": "", "city": "Bellingham", "zip_code": "02019", "country": "US", "state": "MA", "display_address": ["799 S Main St", "Bellingham, MA 02019"]}, "phone": "+15089282784", "display_phone": "(508) 928-2784", "distance": 6027.0206135448625}, {"id": "RnSWcBw1RNyhOumTp4MJcQ", "alias": "djp-marques-food-truck-cumberland", "name": "DJP Marques Food Truck", "image_url": "https://s3-media4.fl.yelpcdn.com/bphoto/N7-ILTtME_6Hl03ZIB4CYg/o.jpg", "is_closed": false, "url": "https://www.yelp.com/biz/djp-marques-food-truck-cumberland?adjust_creative=ogtFoSS6DBKYYW1KXs8qsw&utm_campaign=yelp_api_v3&utm_medium=api_v3_business_search&utm_source=ogtFoSS6DBKYYW1KXs8qsw", "review_count": 2, "categories": [{"alias": "foodtrucks", "title": "Food Trucks"}, {"alias": "portuguese", "title": "Portuguese"}, {"alias": "sandwiches", "title": "Sandwiches"}], "rating": 4.5, "coordinates": {"latitude": 41.902425, "longitude": -71.392164}, "transactions": [], "location": {"address1": "130 Broad St", "address2": "", "address3": null, "city": "Cumberland", "zip_code": "02864", "country": "US", "state": "RI", "display_address": ["130 Broad St", "Cumberland, RI 02864"]}, "phone": "+14017443010", "display_phone": "(401) 744-3010", "distance": 13866.754824934942}, {"id": "KKL8w4sqOMYScbuAsq5uIw", "alias": "end-zone-sports-pub-cumberland", "name": "End Zone Sports Pub", "image_url": "https://s3-media3.fl.yelpcdn.com/bphoto/-6yHUaNTydAsxsg24-P7-Q/o.jpg", "is_closed": false, "url": "https://www.yelp.com/biz/end-zone-sports-pub-cumberland?adjust_creative=ogtFoSS6DBKYYW1KXs8qsw&utm_campaign=yelp_api_v3&utm_medium=api_v3_business_search&utm_source=ogtFoSS6DBKYYW1KXs8qsw", "review_count": 3, "categories": [{"alias": "sportsbars", "title": "Sports Bars"}, {"alias": "fishnchips", "title": "Fish & Chips"}, {"alias": "sandwiches", "title": "Sandwiches"}], "rating": 4.0, "coordinates": {"latitude": 41.92823, "longitude": -71.42054}, "transactions": [], "location": {"address1": "960 Mendon Rd", "address2": "", "address3": null, "city": "Cumberland", "zip_code": "02864", "country": "US", "state": "RI", "display_address": ["960 Mendon Rd", "Cumberland, RI 02864"]}, "phone": "+14013343395", "display_phone": "(401) 334-3395", "distance": 10157.903552139736}, {"id": "tbAvoK7WPaivrHbiXxbDIQ", "alias": "stewarts-diner-blackstone", "name": "Stewart's Diner", "image_url": "https://s3-media2.fl.yelpcdn.com/bphoto/dIXhurw5OzixwIlxbNUHmw/o.jpg", "is_closed": false, "url": "https://www.yelp.com/biz/stewarts-diner-blackstone?adjust_creative=ogtFoSS6DBKYYW1KXs8qsw&utm_campaign=yelp_api_v3&utm_medium=api_v3_business_search&utm_source=ogtFoSS6DBKYYW1KXs8qsw", "review_count": 14, "categories": [{"alias": "diners", "title": "Diners"}, {"alias": "catering", "title": "Caterers"}], "rating": 4.0, "coordinates": {"latitude": 42.018219, "longitude": -71.539957}, "transactions": [], "price": "$", "location": {"address1": "148 Main St", "address2": "", "address3": "", "city": "Blackstone", "zip_code": "01504", "country": "US", "state": "MA", "display_address": ["148 Main St", "Blackstone, MA 01504"]}, "phone": "+15088834855", "display_phone": "(508) 883-4855", "distance": 4028.9599353149515}, {"id": "4qqoDKGdVJbGe8iY9jIuBQ", "alias": "chowder-bowl-restaurant-bellingham", "name": "Chowder Bowl Restaurant", "image_url": "https://s3-media3.fl.yelpcdn.com/bphoto/uQl6QUjw5oTtL5rMF-rfTA/o.jpg", "is_closed": false, "url": "https://www.yelp.com/biz/chowder-bowl-restaurant-bellingham?adjust_creative=ogtFoSS6DBKYYW1KXs8qsw&utm_campaign=yelp_api_v3&utm_medium=api_v3_business_search&utm_source=ogtFoSS6DBKYYW1KXs8qsw", "review_count": 34, "categories": [{"alias": "seafood", "title": "Seafood"}], "rating": 2.5, "coordinates": {"latitude": 42.057746887207, "longitude": -71.4936065673828}, "transactions": [], "price": "$$", "location": {"address1": "325 Lakeshore Dr", "address2": "", "address3": "", "city": "Bellingham", "zip_code": "02019", "country": "US", "state": "MA", "display_address": ["325 Lakeshore Dr", "Bellingham, MA 02019"]}, "phone": "+15088837030", "display_phone": "(508) 883-7030", "distance": 6489.615182549809}, {"id": "fWWXFPfFX690DQxjM4jZqw", "alias": "azalea-asian-cuisine-and-sushi-bar-cumberland", "name": "Azalea Asian Cuisine & Sushi Bar", "image_url": "https://s3-media1.fl.yelpcdn.com/bphoto/egetq0njYhC91P4e-uL_Hg/o.jpg", "is_closed": false, "url": "https://www.yelp.com/biz/azalea-asian-cuisine-and-sushi-bar-cumberland?adjust_creative=ogtFoSS6DBKYYW1KXs8qsw&utm_campaign=yelp_api_v3&utm_medium=api_v3_business_search&utm_source=ogtFoSS6DBKYYW1KXs8qsw", "review_count": 2, "categories": [{"alias": "asianfusion", "title": "Asian Fusion"}, {"alias": "sushi", "title": "Sushi Bars"}], "rating": 4.5, "coordinates": {"latitude": 41.944039, "longitude": -71.436896}, "transactions": [], "location": {"address1": "1764 Mendon Rd", "address2": null, "address3": "", "city": "Cumberland", "zip_code": "02864", "country": "US", "state": "RI", "display_address": ["1764 Mendon Rd", "Cumberland, RI 02864"]}, "phone": "+14013334700", "display_phone": "(401) 333-4700", "distance": 7940.225483971}, {"id": "3zBGVFi0eSfoYZCfw7L-Mw", "alias": "poppys-family-restaurant-cumberland", "name": "Poppy's Family Restaurant", "image_url": "https://s3-media4.fl.yelpcdn.com/bphoto/K2AlXyDU2RwxsFYqheWBsA/o.jpg", "is_closed": false, "url": "https://www.yelp.com/biz/poppys-family-restaurant-cumberland?adjust_creative=ogtFoSS6DBKYYW1KXs8qsw&utm_campaign=yelp_api_v3&utm_medium=api_v3_business_search&utm_source=ogtFoSS6DBKYYW1KXs8qsw", "review_count": 54, "categories": [{"alias": "breakfast_brunch", "title": "Breakfast & Brunch"}], "rating": 3.5, "coordinates": {"latitude": 41.9766469, "longitude": -71.4586918}, "transactions": ["delivery"], "price": "$", "location": {"address1": "3344 Mendon Rd", "address2": "", "address3": "", "city": "Cumberland", "zip_code": "02864", "country": "US", "state": "RI", "display_address": ["3344 Mendon Rd", "Cumberland, RI 02864"]}, "phone": "+14016582700", "display_phone": "(401) 658-2700", "distance": 4109.666349753963}, {"id": "Y28Jxm3fl0O__uK90Jzj4A", "alias": "hercules-beef-wings-and-pizza-north-smithfield", "name": "Hercules Beef, Wings & Pizza", "image_url": "https://s3-media1.fl.yelpcdn.com/bphoto/KGlnJkfJ_eysQgKjf6JVKg/o.jpg", "is_closed": false, "url": "https://www.yelp.com/biz/hercules-beef-wings-and-pizza-north-smithfield?adjust_creative=ogtFoSS6DBKYYW1KXs8qsw&utm_campaign=yelp_api_v3&utm_medium=api_v3_business_search&utm_source=ogtFoSS6DBKYYW1KXs8qsw", "review_count": 4, "categories": [{"alias": "pizza", "title": "Pizza"}, {"alias": "chicken_wings", "title": "Chicken Wings"}, {"alias": "sandwiches", "title": "Sandwiches"}], "rating": 3.5, "coordinates": {"latitude": 42.000133, "longitude": -71.579853}, "transactions": [], "location": {"address1": "7 Main St", "address2": null, "address3": "", "city": "North Smithfield", "zip_code": "02896", "country": "US", "state": "RI", "display_address": ["7 Main St", "North Smithfield, RI 02896"]}, "phone": "+14017661111", "display_phone": "(401) 766-1111", "distance": 6681.712272951885}, {"id": "osRVaLhdq5KlSpdxjmMDDQ", "alias": "king-street-cafe-franklin", "name": "King Street Cafe", "image_url": "https://s3-media1.fl.yelpcdn.com/bphoto/12PdzsHrdVVbHKkTZGFV_g/o.jpg", "is_closed": false, "url": "https://www.yelp.com/biz/king-street-cafe-franklin?adjust_creative=ogtFoSS6DBKYYW1KXs8qsw&utm_campaign=yelp_api_v3&utm_medium=api_v3_business_search&utm_source=ogtFoSS6DBKYYW1KXs8qsw", "review_count": 170, "categories": [{"alias": "breakfast_brunch", "title": "Breakfast & Brunch"}], "rating": 4.0, "coordinates": {"latitude": 42.067195892334, "longitude": -71.3977737426758}, "transactions": ["delivery"], "price": "$$", "location": {"address1": "390 King St", "address2": "", "address3": "", "city": "Franklin", "zip_code": "02038", "country": "US", "state": "MA", "display_address": ["390 King St", "Franklin, MA 02038"]}, "phone": "+15085417117", "display_phone": "(508) 541-7117", "distance": 11319.64158016512}, {"id": "gSccetieOarGSndw5ITdSw", "alias": "veg-m-bellingham", "name": "Veg M", "image_url": "https://s3-media3.fl.yelpcdn.com/bphoto/o7qeYsih3jspAyXfglE-MA/o.jpg", "is_closed": false, "url": "https://www.yelp.com/biz/veg-m-bellingham?adjust_creative=ogtFoSS6DBKYYW1KXs8qsw&utm_campaign=yelp_api_v3&utm_medium=api_v3_business_search&utm_source=ogtFoSS6DBKYYW1KXs8qsw", "review_count": 3, "categories": [{"alias": "chinese", "title": "Chinese"}], "rating": 1.0, "coordinates": {"latitude": 42.05113, "longitude": -71.48181}, "transactions": [], "location": {"address1": "799 S Main St", "address2": "Ste 7", "address3": "", "city": "Bellingham", "zip_code": "02019", "country": "US", "state": "MA", "display_address": ["799 S Main St", "Ste 7", "Bellingham, MA 02019"]}, "phone": "+15088832088", "display_phone": "(508) 883-2088", "distance": 6007.766715977601}, {"id": "EeGiDYnY0MKAdrkYKteCTg", "alias": "mill-tavern-pizza-millville", "name": "Mill Tavern Pizza", "image_url": "https://s3-media1.fl.yelpcdn.com/bphoto/MPYWO_2hNrwuXrxpgzhNdQ/o.jpg", "is_closed": false, "url": "https://www.yelp.com/biz/mill-tavern-pizza-millville?adjust_creative=ogtFoSS6DBKYYW1KXs8qsw&utm_campaign=yelp_api_v3&utm_medium=api_v3_business_search&utm_source=ogtFoSS6DBKYYW1KXs8qsw", "review_count": 13, "categories": [{"alias": "pizza", "title": "Pizza"}, {"alias": "salad", "title": "Salad"}, {"alias": "sandwiches", "title": "Sandwiches"}], "rating": 4.0, "coordinates": {"latitude": 42.026018, "longitude": -71.575881}, "transactions": [], "price": "$", "location": {"address1": "187 Main St", "address2": "", "address3": "", "city": "Millville", "zip_code": "01529", "country": "US", "state": "MA", "display_address": ["187 Main St", "Millville, MA 01529"]}, "phone": "+15088831650", "display_phone": "(508) 883-1650", "distance": 7047.270121897656}, {"id": "1JNmF92LhvHRecOsygtObQ", "alias": "js-deli-cumberland", "name": "J's Deli", "image_url": "https://s3-media3.fl.yelpcdn.com/bphoto/BqBZHiVAD01txdzKY2vRwg/o.jpg", "is_closed": false, "url": "https://www.yelp.com/biz/js-deli-cumberland?adjust_creative=ogtFoSS6DBKYYW1KXs8qsw&utm_campaign=yelp_api_v3&utm_medium=api_v3_business_search&utm_source=ogtFoSS6DBKYYW1KXs8qsw", "review_count": 106, "categories": [{"alias": "delis", "title": "Delis"}, {"alias": "sandwiches", "title": "Sandwiches"}], "rating": 4.0, "coordinates": {"latitude": 41.9550517, "longitude": -71.401421}, "transactions": ["delivery", "pickup"], "price": "$", "location": {"address1": "2364 Diamond Hill Rd", "address2": "", "address3": "", "city": "Cumberland", "zip_code": "02864", "country": "US", "state": "RI", "display_address": ["2364 Diamond Hill Rd", "Cumberland, RI 02864"]}, "phone": "+14013341414", "display_phone": "(401) 334-1414", "distance": 9415.937543921546}, {"id": "nurGixU5-Cpeq_s6SCVfDA", "alias": "ronzio-pizza-and-subs-woonsocket", "name": "Ronzio Pizza & Subs", "image_url": "https://s3-media1.fl.yelpcdn.com/bphoto/4u8l3FsVZuw7i4rrc_Vohg/o.jpg", "is_closed": false, "url": "https://www.yelp.com/biz/ronzio-pizza-and-subs-woonsocket?adjust_creative=ogtFoSS6DBKYYW1KXs8qsw&utm_campaign=yelp_api_v3&utm_medium=api_v3_business_search&utm_source=ogtFoSS6DBKYYW1KXs8qsw", "review_count": 14, "categories": [{"alias": "pizza", "title": "Pizza"}], "rating": 3.5, "coordinates": {"latitude": 41.9914436340332, "longitude": -71.5214767456055}, "transactions": ["delivery"], "price": "$$", "location": {"address1": "375 Providence St", "address2": "", "address3": "", "city": "Woonsocket", "zip_code": "02895", "country": "US", "state": "RI", "display_address": ["375 Providence St", "Woonsocket, RI 02895"]}, "phone": "+14017672085", "display_phone": "(401) 767-2085", "distance": 2017.2702983087504}, {"id": "4Hg9SzHXTRHUwnS4FMKZEQ", "alias": "new-hunan-kitchen-bellingham", "name": "New Hunan Kitchen", "image_url": "https://s3-media1.fl.yelpcdn.com/bphoto/ChFtM3SKjw65hlU97Ud36Q/o.jpg", "is_closed": false, "url": "https://www.yelp.com/biz/new-hunan-kitchen-bellingham?adjust_creative=ogtFoSS6DBKYYW1KXs8qsw&utm_campaign=yelp_api_v3&utm_medium=api_v3_business_search&utm_source=ogtFoSS6DBKYYW1KXs8qsw", "review_count": 8, "categories": [{"alias": "chinese", "title": "Chinese"}], "rating": 3.0, "coordinates": {"latitude": 42.05164, "longitude": -71.482}, "transactions": [], "location": {"address1": "799 S Main St", "address2": null, "address3": "", "city": "Bellingham", "zip_code": "02019", "country": "US", "state": "MA", "display_address": ["799 S Main St", "Bellingham, MA 02019"]}, "phone": "+15088832088", "display_phone": "(508) 883-2088", "distance": 6007.766715977601}, {"id": "UzEkpP5bLZBPWqf8DZvlWg", "alias": "trattoria-express-lincoln", "name": "Trattoria Express", "image_url": "https://s3-media3.fl.yelpcdn.com/bphoto/IxzabhL9N9x2dsk0hKE4tQ/o.jpg", "is_closed": false, "url": "https://www.yelp.com/biz/trattoria-express-lincoln?adjust_creative=ogtFoSS6DBKYYW1KXs8qsw&utm_campaign=yelp_api_v3&utm_medium=api_v3_business_search&utm_source=ogtFoSS6DBKYYW1KXs8qsw", "review_count": 32, "categories": [{"alias": "italian", "title": "Italian"}, {"alias": "wine_bars", "title": "Wine Bars"}], "rating": 3.0, "coordinates": {"latitude": 41.9339609, "longitude": -71.4744429}, "transactions": ["delivery"], "price": "$$", "location": {"address1": "3 Wake Robin Rd", "address2": "Ste 3", "address3": "", "city": "Lincoln", "zip_code": "02865", "country": "US", "state": "RI", "display_address": ["3 Wake Robin Rd", "Ste 3", "Lincoln, RI 02865"]}, "phone": "+14013335261", "display_phone": "(401) 333-5261", "distance": 7461.576655123536}, {"id": "oWxrQgeUFqkMV8DQ4gyjtg", "alias": "original-house-of-pizza-woonsocket", "name": "original house of pizza", "image_url": "https://s3-media1.fl.yelpcdn.com/bphoto/fZpmYm1jpekTTMULwR3uWg/o.jpg", "is_closed": false, "url": "https://www.yelp.com/biz/original-house-of-pizza-woonsocket?adjust_creative=ogtFoSS6DBKYYW1KXs8qsw&utm_campaign=yelp_api_v3&utm_medium=api_v3_business_search&utm_source=ogtFoSS6DBKYYW1KXs8qsw", "review_count": 26, "categories": [{"alias": "pizza", "title": "Pizza"}, {"alias": "burgers", "title": "Burgers"}, {"alias": "sandwiches", "title": "Sandwiches"}], "rating": 2.5, "coordinates": {"latitude": 42.0155471, "longitude": -71.4799658}, "transactions": ["delivery", "pickup"], "price": "$", "location": {"address1": "1431 Diamond Hill Rd", "address2": "", "address3": "", "city": "Woonsocket", "zip_code": "02895", "country": "US", "state": "RI", "display_address": ["1431 Diamond Hill Rd", "Woonsocket, RI 02895"]}, "phone": "+14017666400", "display_phone": "(401) 766-6400", "distance": 2461.8940483337824}, {"id": "JZFXfuheqyKKAhtfShf-Ng", "alias": "great-taste-chinese-restaurants-cumberland", "name": "Great Taste Chinese Restaurants", "image_url": "https://s3-media2.fl.yelpcdn.com/bphoto/f8oMlz5yqmXCcYPA5tpfuw/o.jpg", "is_closed": false, "url": "https://www.yelp.com/biz/great-taste-chinese-restaurants-cumberland?adjust_creative=ogtFoSS6DBKYYW1KXs8qsw&utm_campaign=yelp_api_v3&utm_medium=api_v3_business_search&utm_source=ogtFoSS6DBKYYW1KXs8qsw", "review_count": 23, "categories": [{"alias": "chinese", "title": "Chinese"}], "rating": 2.5, "coordinates": {"latitude": 41.9776419, "longitude": -71.4598213}, "transactions": ["delivery"], "price": "$", "location": {"address1": "3450 Mendon Rd", "address2": "", "address3": "", "city": "Cumberland", "zip_code": "02864", "country": "US", "state": "RI", "display_address": ["3450 Mendon Rd", "Cumberland, RI 02864"]}, "phone": "+14016581298", "display_phone": "(401) 658-1298", "distance": 3944.5312324865795}, {"id": "7NEZVxW463XMK7kVVhBXqA", "alias": "j-and-d-pizza-woonsocket", "name": "J & D Pizza", "image_url": "https://s3-media2.fl.yelpcdn.com/bphoto/vs7qOF7lpq6uBwR4Wdt3TQ/o.jpg", "is_closed": false, "url": "https://www.yelp.com/biz/j-and-d-pizza-woonsocket?adjust_creative=ogtFoSS6DBKYYW1KXs8qsw&utm_campaign=yelp_api_v3&utm_medium=api_v3_business_search&utm_source=ogtFoSS6DBKYYW1KXs8qsw", "review_count": 32, "categories": [{"alias": "pizza", "title": "Pizza"}, {"alias": "italian", "title": "Italian"}], "rating": 3.5, "coordinates": {"latitude": 42.01409, "longitude": -71.48028}, "transactions": ["delivery", "pickup"], "price": "$", "location": {"address1": "282-284 Mendon Rd", "address2": "", "address3": "", "city": "Woonsocket", "zip_code": "02895", "country": "US", "state": "RI", "display_address": ["282-284 Mendon Rd", "Woonsocket, RI 02895"]}, "phone": "+14017692020", "display_phone": "(401) 769-2020", "distance": 2357.2380734860308}, {"id": "RGKtYtR-FL61L43qCuL3lA", "alias": "chilis-lincoln-3", "name": "Chili's", "image_url": "https://s3-media3.fl.yelpcdn.com/bphoto/tDm5YIp-VhSCO771YmUtgg/o.jpg", "is_closed": false, "url": "https://www.yelp.com/biz/chilis-lincoln-3?adjust_creative=ogtFoSS6DBKYYW1KXs8qsw&utm_campaign=yelp_api_v3&utm_medium=api_v3_business_search&utm_source=ogtFoSS6DBKYYW1KXs8qsw", "review_count": 79, "categories": [{"alias": "tradamerican", "title": "American (Traditional)"}, {"alias": "bars", "title": "Bars"}, {"alias": "tex-mex", "title": "Tex-Mex"}], "rating": 2.5, "coordinates": {"latitude": 41.935705, "longitude": -71.478373}, "transactions": ["delivery", "pickup"], "price": "$$", "location": {"address1": "622 George Washington Hwy", "address2": "", "address3": "", "city": "Lincoln", "zip_code": "02865", "country": "US", "state": "RI", "display_address": ["622 George Washington Hwy", "Lincoln, RI 02865"]}, "phone": "+14013334085", "display_phone": "(401) 333-4085", "distance": 7191.164084486523}, {"id": "hcxdGNsNSaQwxwy_dYT8ZQ", "alias": "breakfast-nook-bellingham", "name": "Breakfast Nook", "image_url": "https://s3-media2.fl.yelpcdn.com/bphoto/kH2CJJZOC2xhjZobTFZ37w/o.jpg", "is_closed": false, "url": "https://www.yelp.com/biz/breakfast-nook-bellingham?adjust_creative=ogtFoSS6DBKYYW1KXs8qsw&utm_campaign=yelp_api_v3&utm_medium=api_v3_business_search&utm_source=ogtFoSS6DBKYYW1KXs8qsw", "review_count": 47, "categories": [{"alias": "breakfast_brunch", "title": "Breakfast & Brunch"}], "rating": 3.5, "coordinates": {"latitude": 42.04927, "longitude": -71.48607}, "transactions": [], "price": "$", "location": {"address1": "770 S Main St", "address2": "", "address3": "", "city": "Bellingham", "zip_code": "02019", "country": "US", "state": "MA", "display_address": ["770 S Main St", "Bellingham, MA 02019"]}, "phone": "+15088832442", "display_phone": "(508) 883-2442", "distance": 5740.321727204933}, {"id": "PE1UwRZAOfJ6SUqUhdfLxQ", "alias": "fortune-house-cumberland-2", "name": "Fortune house", "image_url": "https://s3-media4.fl.yelpcdn.com/bphoto/0SOBIubDB83xWMAxeutpNQ/o.jpg", "is_closed": false, "url": "https://www.yelp.com/biz/fortune-house-cumberland-2?adjust_creative=ogtFoSS6DBKYYW1KXs8qsw&utm_campaign=yelp_api_v3&utm_medium=api_v3_business_search&utm_source=ogtFoSS6DBKYYW1KXs8qsw", "review_count": 73, "categories": [{"alias": "desserts", "title": "Desserts"}, {"alias": "soup", "title": "Soup"}, {"alias": "szechuan", "title": "Szechuan"}], "rating": 3.5, "coordinates": {"latitude": 41.9447487, "longitude": -71.4368377}, "transactions": ["delivery"], "price": "$$", "location": {"address1": "1800 Mendon Rd", "address2": "Ste F", "address3": "", "city": "Cumberland", "zip_code": "02864", "country": "US", "state": "RI", "display_address": ["1800 Mendon Rd", "Ste F", "Cumberland, RI 02864"]}, "phone": "+14013339976", "display_phone": "(401) 333-9976", "distance": 7758.247112924324}, {"id": "3AdM2Zv3gjs5OnRs0r3BEg", "alias": "panera-bread-lincoln-6", "name": "Panera Bread", "image_url": "https://s3-media4.fl.yelpcdn.com/bphoto/FP9pAADjIHiCxUzbsp3fLw/o.jpg", "is_closed": false, "url": "https://www.yelp.com/biz/panera-bread-lincoln-6?adjust_creative=ogtFoSS6DBKYYW1KXs8qsw&utm_campaign=yelp_api_v3&utm_medium=api_v3_business_search&utm_source=ogtFoSS6DBKYYW1KXs8qsw", "review_count": 60, "categories": [{"alias": "salad", "title": "Salad"}, {"alias": "soup", "title": "Soup"}, {"alias": "sandwiches", "title": "Sandwiches"}], "rating": 2.5, "coordinates": {"latitude": 41.934745, "longitude": -71.4806883}, "transactions": ["delivery"], "price": "$$", "location": {"address1": "613 George Washington Hwy", "address2": null, "address3": null, "city": "Lincoln", "zip_code": "02865", "country": "US", "state": "RI", "display_address": ["613 George Washington Hwy", "Lincoln, RI 02865"]}, "phone": "+14013333718", "display_phone": "(401) 333-3718", "distance": 7252.493212735647}, {"id": "IbirWhzuLj33ZxmzycKtzQ", "alias": "pizzeria-romana-lincoln-2", "name": "Pizzeria Romana", "image_url": "https://s3-media1.fl.yelpcdn.com/bphoto/YHs2oJau_h7dIuyiMuXXdg/o.jpg", "is_closed": false, "url": "https://www.yelp.com/biz/pizzeria-romana-lincoln-2?adjust_creative=ogtFoSS6DBKYYW1KXs8qsw&utm_campaign=yelp_api_v3&utm_medium=api_v3_business_search&utm_source=ogtFoSS6DBKYYW1KXs8qsw", "review_count": 71, "categories": [{"alias": "italian", "title": "Italian"}, {"alias": "pizza", "title": "Pizza"}], "rating": 3.5, "coordinates": {"latitude": 41.93499, "longitude": -71.47451}, "transactions": [], "price": "$$", "location": {"address1": "3 Wake Robin Rd", "address2": "", "address3": "", "city": "Lincoln", "zip_code": "02865", "country": "US", "state": "RI", "display_address": ["3 Wake Robin Rd", "Lincoln, RI 02865"]}, "phone": "+14013055848", "display_phone": "(401) 305-5848", "distance": 7461.523575253078}, {"id": "qfF6FV27qAmgANq3GmXvhQ", "alias": "d-angelo-woonsocket", "name": "D'Angelo", "image_url": "https://s3-media3.fl.yelpcdn.com/bphoto/FJoJnoFan2riacfH25FCtA/o.jpg", "is_closed": false, "url": "https://www.yelp.com/biz/d-angelo-woonsocket?adjust_creative=ogtFoSS6DBKYYW1KXs8qsw&utm_campaign=yelp_api_v3&utm_medium=api_v3_business_search&utm_source=ogtFoSS6DBKYYW1KXs8qsw", "review_count": 13, "categories": [{"alias": "sandwiches", "title": "Sandwiches"}], "rating": 3.0, "coordinates": {"latitude": 41.984333, "longitude": -71.515571}, "transactions": ["delivery"], "price": "$$", "location": {"address1": "1396 Park Ave", "address2": "", "address3": "", "city": "Woonsocket", "zip_code": "02895", "country": "US", "state": "RI", "display_address": ["1396 Park Ave", "Woonsocket, RI 02895"]}, "phone": "+14017620390", "display_phone": "(401) 762-0390", "distance": 2084.9338342302285}, {"id": "CdoI0HLyNF_n0wLzPj014Q", "alias": "papa-ginos-pizzeria-woonsocket", "name": "Papa Gino's Pizzeria", "image_url": "https://s3-media2.fl.yelpcdn.com/bphoto/FWjPCePfq8q-cR0jyD-v4Q/o.jpg", "is_closed": false, "url": "https://www.yelp.com/biz/papa-ginos-pizzeria-woonsocket?adjust_creative=ogtFoSS6DBKYYW1KXs8qsw&utm_campaign=yelp_api_v3&utm_medium=api_v3_business_search&utm_source=ogtFoSS6DBKYYW1KXs8qsw", "review_count": 18, "categories": [{"alias": "pizza", "title": "Pizza"}], "rating": 3.0, "coordinates": {"latitude": 42.0156936645508, "longitude": -71.4741058349609}, "transactions": ["delivery"], "price": "$$", "location": {"address1": "1750 Diamond Hill Rd", "address2": "", "address3": "", "city": "Woonsocket", "zip_code": "02895", "country": "US", "state": "RI", "display_address": ["1750 Diamond Hill Rd", "Woonsocket, RI 02895"]}, "phone": "+14017658181", "display_phone": "(401) 765-8181", "distance": 2803.9930321296774}, {"id": "aL3d51-T-06r0ZnFZg7Vpg", "alias": "italian-pizza-and-grill-bellingham", "name": "Italian Pizza & Grill", "image_url": "https://s3-media3.fl.yelpcdn.com/bphoto/q7EWk3a8HFaoOiZM3DByaA/o.jpg", "is_closed": false, "url": "https://www.yelp.com/biz/italian-pizza-and-grill-bellingham?adjust_creative=ogtFoSS6DBKYYW1KXs8qsw&utm_campaign=yelp_api_v3&utm_medium=api_v3_business_search&utm_source=ogtFoSS6DBKYYW1KXs8qsw", "review_count": 19, "categories": [{"alias": "pizza", "title": "Pizza"}, {"alias": "sandwiches", "title": "Sandwiches"}, {"alias": "italian", "title": "Italian"}], "rating": 3.5, "coordinates": {"latitude": 42.019276, "longitude": -71.495366}, "transactions": ["delivery", "pickup"], "price": "$$", "location": {"address1": "131 Pulaski Blvd", "address2": "", "address3": "", "city": "Bellingham", "zip_code": "02019", "country": "US", "state": "MA", "display_address": ["131 Pulaski Blvd", "Bellingham, MA 02019"]}, "phone": "+15088761020", "display_phone": "(508) 876-1020", "distance": 2326.8142698057172}, {"id": "7irn3abXSRNeRohyFcJOxA", "alias": "blackhawk-pizza-bellingham", "name": "Blackhawk Pizza", "image_url": "https://s3-media4.fl.yelpcdn.com/bphoto/gQuc8b6JOVL8hnvaNjLgGQ/o.jpg", "is_closed": false, "url": "https://www.yelp.com/biz/blackhawk-pizza-bellingham?adjust_creative=ogtFoSS6DBKYYW1KXs8qsw&utm_campaign=yelp_api_v3&utm_medium=api_v3_business_search&utm_source=ogtFoSS6DBKYYW1KXs8qsw", "review_count": 30, "categories": [{"alias": "pizza", "title": "Pizza"}, {"alias": "hotdogs", "title": "Fast Food"}, {"alias": "greek", "title": "Greek"}], "rating": 4.0, "coordinates": {"latitude": 42.0539970397949, "longitude": -71.4838409423828}, "transactions": ["delivery"], "price": "$$", "location": {"address1": "829 S Main St", "address2": "Unit 1", "address3": "", "city": "Bellingham", "zip_code": "02019", "country": "US", "state": "MA", "display_address": ["829 S Main St", "Unit 1", "Bellingham, MA 02019"]}, "phone": "+15088830055", "display_phone": "(508) 883-0055", "distance": 6288.250285360823}, {"id": "Qrwxm23Q-uZL9XVi3ko9VQ", "alias": "manville-palace-pizza-manville", "name": "Manville Palace Pizza", "image_url": "https://s3-media4.fl.yelpcdn.com/bphoto/WANjHA_XTD4EdSgLV-a1tw/o.jpg", "is_closed": false, "url": "https://www.yelp.com/biz/manville-palace-pizza-manville?adjust_creative=ogtFoSS6DBKYYW1KXs8qsw&utm_campaign=yelp_api_v3&utm_medium=api_v3_business_search&utm_source=ogtFoSS6DBKYYW1KXs8qsw", "review_count": 67, "categories": [{"alias": "pizza", "title": "Pizza"}, {"alias": "hotdogs", "title": "Fast Food"}], "rating": 2.5, "coordinates": {"latitude": 41.9725714, "longitude": -71.4760236}, "transactions": ["delivery", "pickup"], "price": "$", "location": {"address1": "141 Railroad St", "address2": "", "address3": "", "city": "Manville", "zip_code": "02838", "country": "US", "state": "RI", "display_address": ["141 Railroad St", "Manville, RI 02838"]}, "phone": "+14017699777", "display_phone": "(401) 769-9777", "distance": 3469.5463611209543}, {"id": "5zIUKHC0sPjvvEja1hbJwA", "alias": "subway-north-smithfield-4", "name": "Subway", "image_url": "https://s3-media3.fl.yelpcdn.com/bphoto/JnUZXnBVprAUeeigFBdZMw/o.jpg", "is_closed": false, "url": "https://www.yelp.com/biz/subway-north-smithfield-4?adjust_creative=ogtFoSS6DBKYYW1KXs8qsw&utm_campaign=yelp_api_v3&utm_medium=api_v3_business_search&utm_source=ogtFoSS6DBKYYW1KXs8qsw", "review_count": 4, "categories": [{"alias": "sandwiches", "title": "Sandwiches"}], "rating": 4.0, "coordinates": {"latitude": 41.980723, "longitude": -71.514263}, "transactions": [], "price": "$", "location": {"address1": "99 Eddie Dowling Hwy", "address2": null, "address3": null, "city": "North Smithfield", "zip_code": "02896", "country": "US", "state": "RI", "display_address": ["99 Eddie Dowling Hwy", "North Smithfield, RI 02896"]}, "phone": "+14017665445", "display_phone": "(401) 766-5445", "distance": 2346.467851384256}, {"id": "yAOhnAcY2jiyDZ8UmBQ6Iw", "alias": "subway-bellingham-19", "name": "Subway", "image_url": "https://s3-media1.fl.yelpcdn.com/bphoto/ZbKHaRcFrBV3x4_jVANlAg/o.jpg", "is_closed": false, "url": "https://www.yelp.com/biz/subway-bellingham-19?adjust_creative=ogtFoSS6DBKYYW1KXs8qsw&utm_campaign=yelp_api_v3&utm_medium=api_v3_business_search&utm_source=ogtFoSS6DBKYYW1KXs8qsw", "review_count": 1, "categories": [{"alias": "sandwiches", "title": "Sandwiches"}], "rating": 5.0, "coordinates": {"latitude": 42.0205602, "longitude": -71.4948618}, "transactions": [], "price": "$", "location": {"address1": "170 Pulaski Blvd", "address2": "", "address3": "", "city": "Bellingham", "zip_code": "02019", "country": "US", "state": "MA", "display_address": ["170 Pulaski Blvd", "Bellingham, MA 02019"]}, "phone": "+15088836599", "display_phone": "(508) 883-6599", "distance": 2473.915684437576}, {"id": "eyGSmnjRucScmi3Lu_hkKg", "alias": "subway-woonsocket-5", "name": "Subway", "image_url": "https://s3-media1.fl.yelpcdn.com/bphoto/x5ovcbbkA08MqlxxGBQX8A/o.jpg", "is_closed": false, "url": "https://www.yelp.com/biz/subway-woonsocket-5?adjust_creative=ogtFoSS6DBKYYW1KXs8qsw&utm_campaign=yelp_api_v3&utm_medium=api_v3_business_search&utm_source=ogtFoSS6DBKYYW1KXs8qsw", "review_count": 5, "categories": [{"alias": "sandwiches", "title": "Sandwiches"}], "rating": 3.0, "coordinates": {"latitude": 42.0067917, "longitude": -71.5053969499363}, "transactions": ["delivery", "pickup"], "price": "$", "location": {"address1": "483 Clinton St", "address2": "", "address3": "", "city": "Woonsocket", "zip_code": "02895", "country": "US", "state": "RI", "display_address": ["483 Clinton St", "Woonsocket, RI 02895"]}, "phone": "+14017656655", "display_phone": "(401) 765-6655", "distance": 1059.135418181839}, {"id": "cyyIZCXunHCQxshKeugLYw", "alias": "burger-king-woonsocket", "name": "Burger King", "image_url": "https://s3-media1.fl.yelpcdn.com/bphoto/ssJ1WuMPIrfZS2hJQ5V7Dw/o.jpg", "is_closed": false, "url": "https://www.yelp.com/biz/burger-king-woonsocket?adjust_creative=ogtFoSS6DBKYYW1KXs8qsw&utm_campaign=yelp_api_v3&utm_medium=api_v3_business_search&utm_source=ogtFoSS6DBKYYW1KXs8qsw", "review_count": 5, "categories": [{"alias": "burgers", "title": "Burgers"}, {"alias": "hotdogs", "title": "Fast Food"}], "rating": 1.0, "coordinates": {"latitude": 42.007825, "longitude": -71.507923}, "transactions": [], "price": "$", "location": {"address1": "293 Social Street", "address2": "", "address3": "", "city": "Woonsocket", "zip_code": "02895", "country": "US", "state": "RI", "display_address": ["293 Social Street", "Woonsocket, RI 02895"]}, "phone": "", "display_phone": "", "distance": 1267.1482545435783}, {"id": "VjQembHTErT0_scWO5rG9g", "alias": "dennys-north-smithfield-2", "name": "Denny's", "image_url": "https://s3-media3.fl.yelpcdn.com/bphoto/TeWYFLq2RvHKGG-2PHlbqQ/o.jpg", "is_closed": false, "url": "https://www.yelp.com/biz/dennys-north-smithfield-2?adjust_creative=ogtFoSS6DBKYYW1KXs8qsw&utm_campaign=yelp_api_v3&utm_medium=api_v3_business_search&utm_source=ogtFoSS6DBKYYW1KXs8qsw", "review_count": 48, "categories": [{"alias": "tradamerican", "title": "American (Traditional)"}, {"alias": "breakfast_brunch", "title": "Breakfast & Brunch"}, {"alias": "diners", "title": "Diners"}], "rating": 2.5, "coordinates": {"latitude": 41.979507030443, "longitude": -71.512028953373}, "transactions": ["delivery", "pickup"], "price": "$", "location": {"address1": "44 Dowling Village Blvd", "address2": "", "address3": "", "city": "North Smithfield", "zip_code": "02896", "country": "US", "state": "RI", "display_address": ["44 Dowling Village Blvd", "North Smithfield, RI 02896"]}, "phone": "+14013561109", "display_phone": "(401) 356-1109", "distance": 2372.461046363541}, {"id": "yGb4ckkMHjRMME5-MqXZgA", "alias": "everybodys-favorite-family-restaurant-cumberland", "name": "Everybody's Favorite Family Restaurant", "image_url": "https://s3-media2.fl.yelpcdn.com/bphoto/6cCi35fNsi0zcUZ3oPxPvA/o.jpg", "is_closed": false, "url": "https://www.yelp.com/biz/everybodys-favorite-family-restaurant-cumberland?adjust_creative=ogtFoSS6DBKYYW1KXs8qsw&utm_campaign=yelp_api_v3&utm_medium=api_v3_business_search&utm_source=ogtFoSS6DBKYYW1KXs8qsw", "review_count": 18, "categories": [{"alias": "tradamerican", "title": "American (Traditional)"}], "rating": 4.0, "coordinates": {"latitude": 41.9348460082467, "longitude": -71.4287196491346}, "transactions": ["delivery"], "price": "$", "location": {"address1": "1370 Mendon Rd", "address2": "", "address3": "", "city": "Cumberland", "zip_code": "02864", "country": "US", "state": "RI", "display_address": ["1370 Mendon Rd", "Cumberland, RI 02864"]}, "phone": "+14013335035", "display_phone": "(401) 333-5035", "distance": 9091.229189215854}, {"id": "q87il-TiOL3yBtWTZfvnCA", "alias": "dels-frozen-lemonade-bellingham", "name": "Del's Frozen Lemonade", "image_url": "", "is_closed": false, "url": "https://www.yelp.com/biz/dels-frozen-lemonade-bellingham?adjust_creative=ogtFoSS6DBKYYW1KXs8qsw&utm_campaign=yelp_api_v3&utm_medium=api_v3_business_search&utm_source=ogtFoSS6DBKYYW1KXs8qsw", "review_count": 1, "categories": [{"alias": "delis", "title": "Delis"}], "rating": 5.0, "coordinates": {"latitude": 42.02108, "longitude": -71.4935}, "transactions": [], "location": {"address1": "201 Pulaski Blvd", "address2": "", "address3": "", "city": "Bellingham", "zip_code": "02019", "country": "US", "state": "MA", "display_address": ["201 Pulaski Blvd", "Bellingham, MA 02019"]}, "phone": "+15088838844", "display_phone": "(508) 883-8844", "distance": 2548.9984181372724}, {"id": "BCxykHwS5JVzjevZS_WulA", "alias": "simons-diner-bellingham", "name": "Simon's Diner", "image_url": "https://s3-media2.fl.yelpcdn.com/bphoto/gggY6gXiGaSgp84z0J0euQ/o.jpg", "is_closed": false, "url": "https://www.yelp.com/biz/simons-diner-bellingham?adjust_creative=ogtFoSS6DBKYYW1KXs8qsw&utm_campaign=yelp_api_v3&utm_medium=api_v3_business_search&utm_source=ogtFoSS6DBKYYW1KXs8qsw", "review_count": 2, "categories": [{"alias": "diners", "title": "Diners"}], "rating": 1.0, "coordinates": {"latitude": 42.019906193018, "longitude": -71.4950423687696}, "transactions": [], "price": "$", "location": {"address1": "131 Pulaski Blvd", "address2": "", "address3": "", "city": "Bellingham", "zip_code": "02019", "country": "US", "state": "MA", "display_address": ["131 Pulaski Blvd", "Bellingham, MA 02019"]}, "phone": "+15088769444", "display_phone": "(508) 876-9444", "distance": 2386.6872576454894}, {"id": "CPpDhrFKK8CIJXcn23EVZQ", "alias": "kfc-woonsocket", "name": "KFC", "image_url": "https://s3-media1.fl.yelpcdn.com/bphoto/Q5uLMrRJk7c4CuXk0d7VKQ/o.jpg", "is_closed": false, "url": "https://www.yelp.com/biz/kfc-woonsocket?adjust_creative=ogtFoSS6DBKYYW1KXs8qsw&utm_campaign=yelp_api_v3&utm_medium=api_v3_business_search&utm_source=ogtFoSS6DBKYYW1KXs8qsw", "review_count": 9, "categories": [{"alias": "hotdogs", "title": "Fast Food"}, {"alias": "chicken_wings", "title": "Chicken Wings"}, {"alias": "chickenshop", "title": "Chicken Shop"}], "rating": 1.5, "coordinates": {"latitude": 42.004470558156, "longitude": -71.5109498625948}, "transactions": ["delivery", "pickup"], "price": "$", "location": {"address1": "137 Clinton St", "address2": "", "address3": "", "city": "Woonsocket", "zip_code": "02895", "country": "US", "state": "RI", "display_address": ["137 Clinton St", "Woonsocket, RI 02895"]}, "phone": "+14017690022", "display_phone": "(401) 769-0022", "distance": 1186.5494117853018}, {"id": "Mo-FLQHmlM0V8ASDrGnoKA", "alias": "burger-king-north-smithfield", "name": "Burger King", "image_url": "https://s3-media3.fl.yelpcdn.com/bphoto/W5ahoyrVKF3Ml0XQ5rtgCQ/o.jpg", "is_closed": false, "url": "https://www.yelp.com/biz/burger-king-north-smithfield?adjust_creative=ogtFoSS6DBKYYW1KXs8qsw&utm_campaign=yelp_api_v3&utm_medium=api_v3_business_search&utm_source=ogtFoSS6DBKYYW1KXs8qsw", "review_count": 6, "categories": [{"alias": "burgers", "title": "Burgers"}, {"alias": "hotdogs", "title": "Fast Food"}], "rating": 1.5, "coordinates": {"latitude": 41.98226167, "longitude": -71.51397333}, "transactions": [], "price": "$", "location": {"address1": "66 Eddy Dowling Hwy", "address2": "", "address3": "", "city": "North Smithfield", "zip_code": "02896", "country": "US", "state": "RI", "display_address": ["66 Eddy Dowling Hwy", "North Smithfield, RI 02896"]}, "phone": "", "display_phone": "", "distance": 2192.3558993314386}, {"id": "3t_JyW3vQbhdrVJ8DW7aww", "alias": "elm-street-pizza-woonsocket", "name": "Elm Street Pizza", "image_url": "https://s3-media2.fl.yelpcdn.com/bphoto/4L85VggEfc8aScFZzuKoVg/o.jpg", "is_closed": false, "url": "https://www.yelp.com/biz/elm-street-pizza-woonsocket?adjust_creative=ogtFoSS6DBKYYW1KXs8qsw&utm_campaign=yelp_api_v3&utm_medium=api_v3_business_search&utm_source=ogtFoSS6DBKYYW1KXs8qsw", "review_count": 8, "categories": [{"alias": "pizza", "title": "Pizza"}, {"alias": "salad", "title": "Salad"}], "rating": 2.5, "coordinates": {"latitude": 42.007984161377, "longitude": -71.4932022094727}, "transactions": ["delivery"], "price": "$$", "location": {"address1": "596 Elm St", "address2": "", "address3": "", "city": "Woonsocket", "zip_code": "02895", "country": "US", "state": "RI", "display_address": ["596 Elm St", "Woonsocket, RI 02895"]}, "phone": "+14017656000", "display_phone": "(401) 765-6000", "distance": 1159.9352496469328}, {"id": "xq8vtOugiBfH09-ljuXTvQ", "alias": "taco-bell-woonsocket", "name": "Taco Bell", "image_url": "https://s3-media4.fl.yelpcdn.com/bphoto/-VMM_T0oCNooFGw2I4_5bA/o.jpg", "is_closed": false, "url": "https://www.yelp.com/biz/taco-bell-woonsocket?adjust_creative=ogtFoSS6DBKYYW1KXs8qsw&utm_campaign=yelp_api_v3&utm_medium=api_v3_business_search&utm_source=ogtFoSS6DBKYYW1KXs8qsw", "review_count": 18, "categories": [{"alias": "hotdogs", "title": "Fast Food"}, {"alias": "tacos", "title": "Tacos"}], "rating": 3.0, "coordinates": {"latitude": 42.015682, "longitude": -71.477739}, "transactions": ["delivery"], "price": "$", "location": {"address1": "1500 Diamond Hill Rd", "address2": "", "address3": "", "city": "Woonsocket", "zip_code": "02895", "country": "US", "state": "RI", "display_address": ["1500 Diamond Hill Rd", "Woonsocket, RI 02895"]}, "phone": "+14017661082", "display_phone": "(401) 766-1082", "distance": 2594.45491176001}, {"id": "uSnpx7KYqDfVgbyS5BXhmw", "alias": "five-guys-lincoln-2", "name": "Five Guys", "image_url": "https://s3-media1.fl.yelpcdn.com/bphoto/rJzT26HcDZFJkkGDIigbsQ/o.jpg", "is_closed": false, "url": "https://www.yelp.com/biz/five-guys-lincoln-2?adjust_creative=ogtFoSS6DBKYYW1KXs8qsw&utm_campaign=yelp_api_v3&utm_medium=api_v3_business_search&utm_source=ogtFoSS6DBKYYW1KXs8qsw", "review_count": 62, "categories": [{"alias": "burgers", "title": "Burgers"}, {"alias": "hotdogs", "title": "Fast Food"}], "rating": 3.5, "coordinates": {"latitude": 41.93575, "longitude": -71.477537}, "transactions": ["delivery"], "price": "$", "location": {"address1": "622 George Washington Hwy", "address2": "", "address3": "", "city": "Lincoln", "zip_code": "02865", "country": "US", "state": "RI", "display_address": ["622 George Washington Hwy", "Lincoln, RI 02865"]}, "phone": "+14013353883", "display_phone": "(401) 335-3883", "distance": 7203.037033509773}, {"id": "VifmfCbrMaPVKD78lFfflA", "alias": "ideal-pizza-blackstone", "name": "Ideal Pizza", "image_url": "https://s3-media1.fl.yelpcdn.com/bphoto/sZ-0w_jT0_OtUqlRLMCcHw/o.jpg", "is_closed": false, "url": "https://www.yelp.com/biz/ideal-pizza-blackstone?adjust_creative=ogtFoSS6DBKYYW1KXs8qsw&utm_campaign=yelp_api_v3&utm_medium=api_v3_business_search&utm_source=ogtFoSS6DBKYYW1KXs8qsw", "review_count": 13, "categories": [{"alias": "pizza", "title": "Pizza"}], "rating": 3.0, "coordinates": {"latitude": 42.015372, "longitude": -71.527309}, "transactions": ["delivery"], "price": "$", "location": {"address1": "2 Main St", "address2": "Ste 1", "address3": "", "city": "Blackstone", "zip_code": "01504", "country": "US", "state": "MA", "display_address": ["2 Main St", "Ste 1", "Blackstone, MA 01504"]}, "phone": "+15088834455", "display_phone": "(508) 883-4455", "distance": 2995.0174838102375}, {"id": "S2af-p-xvx8jOnYrFtXMlA", "alias": "mcdonalds-north-smithfield", "name": "McDonald's", "image_url": "https://s3-media3.fl.yelpcdn.com/bphoto/dOIrDXsIqzJ46wfGGDOrSw/o.jpg", "is_closed": false, "url": "https://www.yelp.com/biz/mcdonalds-north-smithfield?adjust_creative=ogtFoSS6DBKYYW1KXs8qsw&utm_campaign=yelp_api_v3&utm_medium=api_v3_business_search&utm_source=ogtFoSS6DBKYYW1KXs8qsw", "review_count": 13, "categories": [{"alias": "burgers", "title": "Burgers"}, {"alias": "hotdogs", "title": "Fast Food"}, {"alias": "coffee", "title": "Coffee & Tea"}], "rating": 1.5, "coordinates": {"latitude": 41.9827742186148, "longitude": -71.5144555346796}, "transactions": [], "price": "$", "location": {"address1": "12 Eddie Dowling Hwy", "address2": "", "address3": "", "city": "North Smithfield", "zip_code": "02896", "country": "US", "state": "RI", "display_address": ["12 Eddie Dowling Hwy", "North Smithfield, RI 02896"]}, "phone": "+14017692624", "display_phone": "(401) 769-2624", "distance": 2166.818113553325}, {"id": "toeLljzoJKxkkMabOD3Dlw", "alias": "tko-pizza-blackstone", "name": "TKO Pizza", "image_url": "https://s3-media3.fl.yelpcdn.com/bphoto/HlbaNDC5TNoprHDM1-soCQ/o.jpg", "is_closed": false, "url": "https://www.yelp.com/biz/tko-pizza-blackstone?adjust_creative=ogtFoSS6DBKYYW1KXs8qsw&utm_campaign=yelp_api_v3&utm_medium=api_v3_business_search&utm_source=ogtFoSS6DBKYYW1KXs8qsw", "review_count": 30, "categories": [{"alias": "pizza", "title": "Pizza"}], "rating": 2.5, "coordinates": {"latitude": 42.01897, "longitude": -71.53404}, "transactions": ["delivery"], "price": "$", "location": {"address1": "63 Main St", "address2": "", "address3": "", "city": "Blackstone", "zip_code": "01504", "country": "US", "state": "MA", "display_address": ["63 Main St", "Blackstone, MA 01504"]}, "phone": "+15088837607", "display_phone": "(508) 883-7607", "distance": 3662.376052878446}, {"id": "f6jVeg_bOTUxI56vkQCtjQ", "alias": "taco-bell-north-smithfield", "name": "Taco Bell", "image_url": "https://s3-media4.fl.yelpcdn.com/bphoto/sqJRDt0oXzBK5PDVEDJENQ/o.jpg", "is_closed": false, "url": "https://www.yelp.com/biz/taco-bell-north-smithfield?adjust_creative=ogtFoSS6DBKYYW1KXs8qsw&utm_campaign=yelp_api_v3&utm_medium=api_v3_business_search&utm_source=ogtFoSS6DBKYYW1KXs8qsw", "review_count": 13, "categories": [{"alias": "hotdogs", "title": "Fast Food"}, {"alias": "tacos", "title": "Tacos"}], "rating": 3.0, "coordinates": {"latitude": 41.97403, "longitude": -71.509876}, "transactions": ["delivery"], "price": "$", "location": {"address1": "2 Dowling Village Blvd.", "address2": "", "address3": "", "city": "North Smithfield", "zip_code": "02896", "country": "US", "state": "RI", "display_address": ["2 Dowling Village Blvd.", "North Smithfield, RI 02896"]}, "phone": "+14017621472", "display_phone": "(401) 762-1472", "distance": 2867.8942989206103}, {"id": "jbuFZumKE7Ke9zZdMX-y2A", "alias": "andersons-variety-blackstone", "name": "Anderson's Variety", "image_url": "", "is_closed": false, "url": "https://www.yelp.com/biz/andersons-variety-blackstone?adjust_creative=ogtFoSS6DBKYYW1KXs8qsw&utm_campaign=yelp_api_v3&utm_medium=api_v3_business_search&utm_source=ogtFoSS6DBKYYW1KXs8qsw", "review_count": 1, "categories": [{"alias": "delis", "title": "Delis"}], "rating": 5.0, "coordinates": {"latitude": 42.04968, "longitude": -71.53212}, "transactions": [], "location": {"address1": "266 Blackstone St", "address2": "", "address3": "", "city": "Blackstone", "zip_code": "01504", "country": "US", "state": "MA", "display_address": ["266 Blackstone St", "Blackstone, MA 01504"]}, "phone": "+15088837819", "display_phone": "(508) 883-7819", "distance": 6296.1944599771505}, {"id": "qUUUaPnfRIxzvLnubQbKsw", "alias": "tr-ginger-lincoln", "name": "TR Ginger", "image_url": "", "is_closed": false, "url": "https://www.yelp.com/biz/tr-ginger-lincoln?adjust_creative=ogtFoSS6DBKYYW1KXs8qsw&utm_campaign=yelp_api_v3&utm_medium=api_v3_business_search&utm_source=ogtFoSS6DBKYYW1KXs8qsw", "review_count": 10, "categories": [{"alias": "italian", "title": "Italian"}], "rating": 3.0, "coordinates": {"latitude": 41.9347839, "longitude": -71.4741898}, "transactions": ["delivery"], "price": "$$$", "location": {"address1": "3 Wake Robin Rd", "address2": "", "address3": "", "city": "Lincoln", "zip_code": "02865", "country": "US", "state": "RI", "display_address": ["3 Wake Robin Rd", "Lincoln, RI 02865"]}, "phone": "+14013335261", "display_phone": "(401) 333-5261", "distance": 7461.523575253078}, {"id": "YOB6sad0NztJdjK9mfSPSQ", "alias": "subway-north-smithfield-5", "name": "Subway", "image_url": "https://s3-media2.fl.yelpcdn.com/bphoto/_x6M3LTScaNbFBUf7idiiw/o.jpg", "is_closed": false, "url": "https://www.yelp.com/biz/subway-north-smithfield-5?adjust_creative=ogtFoSS6DBKYYW1KXs8qsw&utm_campaign=yelp_api_v3&utm_medium=api_v3_business_search&utm_source=ogtFoSS6DBKYYW1KXs8qsw", "review_count": 5, "categories": [{"alias": "sandwiches", "title": "Sandwiches"}], "rating": 4.5, "coordinates": {"latitude": 42.0050210413264, "longitude": -71.585678046627}, "transactions": [], "price": "$", "location": {"address1": "900 Victory Hwy", "address2": null, "address3": null, "city": "North Smithfield", "zip_code": "02896", "country": "US", "state": "RI", "display_address": ["900 Victory Hwy", "North Smithfield, RI 02896"]}, "phone": "+14017656400", "display_phone": "(401) 765-6400", "distance": 7196.714861282435}, {"id": "zwJjOQPA2Sw_p4gsM-qGvQ", "alias": "subway-blackstone-3", "name": "Subway", "image_url": "https://s3-media4.fl.yelpcdn.com/bphoto/GnaYsE65ydgZ3bnXIR9Eaw/o.jpg", "is_closed": false, "url": "https://www.yelp.com/biz/subway-blackstone-3?adjust_creative=ogtFoSS6DBKYYW1KXs8qsw&utm_campaign=yelp_api_v3&utm_medium=api_v3_business_search&utm_source=ogtFoSS6DBKYYW1KXs8qsw", "review_count": 4, "categories": [{"alias": "sandwiches", "title": "Sandwiches"}], "rating": 4.5, "coordinates": {"latitude": 42.0163839934226, "longitude": -71.5273749116324}, "transactions": [], "price": "$", "location": {"address1": "4 Main St", "address2": null, "address3": null, "city": "Blackstone", "zip_code": "01504", "country": "US", "state": "MA", "display_address": ["4 Main St", "Blackstone, MA 01504"]}, "phone": "+15089282313", "display_phone": "(508) 928-2313", "distance": 3070.7852839787734}, {"id": "iTvpToJa6MpiqmUoBxJ6yQ", "alias": "anis-pizza-and-seafood-cumberland", "name": "Ani's Pizza & Seafood", "image_url": "https://s3-media3.fl.yelpcdn.com/bphoto/ZsmwQvOozhAmZqDp2U-ang/o.jpg", "is_closed": false, "url": "https://www.yelp.com/biz/anis-pizza-and-seafood-cumberland?adjust_creative=ogtFoSS6DBKYYW1KXs8qsw&utm_campaign=yelp_api_v3&utm_medium=api_v3_business_search&utm_source=ogtFoSS6DBKYYW1KXs8qsw", "review_count": 48, "categories": [{"alias": "pizza", "title": "Pizza"}, {"alias": "seafood", "title": "Seafood"}], "rating": 4.0, "coordinates": {"latitude": 41.925195, "longitude": -71.399697}, "transactions": ["delivery", "pickup"], "price": "$$", "location": {"address1": "1182 High St", "address2": "", "address3": "", "city": "Cumberland", "zip_code": "02864", "country": "US", "state": "RI", "display_address": ["1182 High St", "Cumberland, RI 02864"]}, "phone": "+14013343440", "display_phone": "(401) 334-3440", "distance": 11573.184638192186}, {"id": "1kN8p4irqeH5eG8_CQVQlQ", "alias": "dennis-market-lincoln", "name": "Dennis Market", "image_url": "", "is_closed": false, "url": "https://www.yelp.com/biz/dennis-market-lincoln?adjust_creative=ogtFoSS6DBKYYW1KXs8qsw&utm_campaign=yelp_api_v3&utm_medium=api_v3_business_search&utm_source=ogtFoSS6DBKYYW1KXs8qsw", "review_count": 4, "categories": [{"alias": "delis", "title": "Delis"}, {"alias": "convenience", "title": "Convenience Stores"}, {"alias": "salad", "title": "Salad"}], "rating": 2.5, "coordinates": {"latitude": 41.9664195924997, "longitude": -71.4734841138124}, "transactions": [], "location": {"address1": "361 Old River Rd", "address2": "", "address3": "", "city": "Lincoln", "zip_code": "02838", "country": "US", "state": "RI", "display_address": ["361 Old River Rd", "Lincoln, RI 02838"]}, "phone": "", "display_phone": "", "distance": 4139.006277893674}, {"id": "6FP5M04d6si-lfXG95KIUQ", "alias": "lumberjacks-pizza-north-smithfield", "name": "Lumberjack's Pizza", "image_url": "https://s3-media1.fl.yelpcdn.com/bphoto/U5d9b52Y1oASmxbJsNO-2A/o.jpg", "is_closed": false, "url": "https://www.yelp.com/biz/lumberjacks-pizza-north-smithfield?adjust_creative=ogtFoSS6DBKYYW1KXs8qsw&utm_campaign=yelp_api_v3&utm_medium=api_v3_business_search&utm_source=ogtFoSS6DBKYYW1KXs8qsw", "review_count": 31, "categories": [{"alias": "pizza", "title": "Pizza"}], "rating": 3.0, "coordinates": {"latitude": 41.9949264526367, "longitude": -71.5978164672852}, "transactions": [], "price": "$$", "location": {"address1": "1402 Victory Hwy", "address2": null, "address3": null, "city": "North Smithfield", "zip_code": "02896", "country": "US", "state": "RI", "display_address": ["1402 Victory Hwy", "North Smithfield, RI 02896"]}, "phone": "+14017697437", "display_phone": "(401) 769-7437", "distance": 8170.699622834499}, {"id": "G_UJIRODfjFJ_TUjIt-I6Q", "alias": "chipotle-mexican-grill-lincoln-6", "name": "Chipotle Mexican Grill", "image_url": "https://s3-media1.fl.yelpcdn.com/bphoto/SOd3PrVk_lwckRtAHKgZSQ/o.jpg", "is_closed": false, "url": "https://www.yelp.com/biz/chipotle-mexican-grill-lincoln-6?adjust_creative=ogtFoSS6DBKYYW1KXs8qsw&utm_campaign=yelp_api_v3&utm_medium=api_v3_business_search&utm_source=ogtFoSS6DBKYYW1KXs8qsw", "review_count": 12, "categories": [{"alias": "mexican", "title": "Mexican"}, {"alias": "hotdogs", "title": "Fast Food"}], "rating": 2.5, "coordinates": {"latitude": 41.935763, "longitude": -71.475613}, "transactions": [], "price": "$", "location": {"address1": "622 George Washington Hwy", "address2": "", "address3": null, "city": "Lincoln", "zip_code": "02865", "country": "US", "state": "RI", "display_address": ["622 George Washington Hwy", "Lincoln, RI 02865"]}, "phone": "+14013333531", "display_phone": "(401) 333-3531", "distance": 7242.5144428786725}, {"id": "EqW9pRUckTxZdnNH_WgWVw", "alias": "reds-street-kitchen-warren", "name": "Red's Street Kitchen", "image_url": "https://s3-media1.fl.yelpcdn.com/bphoto/PVyAJAT1dJLgxcBwfoBn0g/o.jpg", "is_closed": false, "url": "https://www.yelp.com/biz/reds-street-kitchen-warren?adjust_creative=ogtFoSS6DBKYYW1KXs8qsw&utm_campaign=yelp_api_v3&utm_medium=api_v3_business_search&utm_source=ogtFoSS6DBKYYW1KXs8qsw", "review_count": 14, "categories": [{"alias": "foodtrucks", "title": "Food Trucks"}, {"alias": "portuguese", "title": "Portuguese"}, {"alias": "cheesesteaks", "title": "Cheesesteaks"}], "rating": 4.0, "coordinates": {"latitude": 41.725138, "longitude": -71.282295}, "transactions": [], "location": {"address1": "691 Main St", "address2": "", "address3": null, "city": "Warren", "zip_code": "02885", "country": "US", "state": "RI", "display_address": ["691 Main St", "Warren, RI 02885"]}, "phone": "+14012126933", "display_phone": "(401) 212-6933", "distance": 35302.35607245435}, {"id": "Pc-mVwLu9dFLUe6TcgXleQ", "alias": "harmony-cafe-manville", "name": "Harmony Cafe", "image_url": "https://s3-media3.fl.yelpcdn.com/bphoto/QuXtusQIHtlrxm36ZGUgRw/o.jpg", "is_closed": false, "url": "https://www.yelp.com/biz/harmony-cafe-manville?adjust_creative=ogtFoSS6DBKYYW1KXs8qsw&utm_campaign=yelp_api_v3&utm_medium=api_v3_business_search&utm_source=ogtFoSS6DBKYYW1KXs8qsw", "review_count": 3, "categories": [{"alias": "cafes", "title": "Cafes"}], "rating": 2.0, "coordinates": {"latitude": 41.970532, "longitude": -71.470765}, "transactions": ["delivery"], "location": {"address1": "3 Main St Manville", "address2": "", "address3": "", "city": "Manville", "zip_code": "02838", "country": "US", "state": "RI", "display_address": ["3 Main St Manville", "Manville, RI 02838"]}, "phone": "+14017629350", "display_phone": "(401) 762-9350", "distance": 3891.779565756615}, {"id": "reApOpm5y34rl_ycGtwckA", "alias": "firehouse-pizza-shop-ii-north-smithfield", "name": "Firehouse Pizza Shop II", "image_url": "https://s3-media2.fl.yelpcdn.com/bphoto/dUwegvBm80C-cKfRvTmtEw/o.jpg", "is_closed": false, "url": "https://www.yelp.com/biz/firehouse-pizza-shop-ii-north-smithfield?adjust_creative=ogtFoSS6DBKYYW1KXs8qsw&utm_campaign=yelp_api_v3&utm_medium=api_v3_business_search&utm_source=ogtFoSS6DBKYYW1KXs8qsw", "review_count": 15, "categories": [{"alias": "pizza", "title": "Pizza"}, {"alias": "sandwiches", "title": "Sandwiches"}], "rating": 3.0, "coordinates": {"latitude": 41.99982, "longitude": -71.55062}, "transactions": ["delivery"], "price": "$", "location": {"address1": "639 Great Rd", "address2": "", "address3": "", "city": "North Smithfield", "zip_code": "02896", "country": "US", "state": "RI", "display_address": ["639 Great Rd", "North Smithfield, RI 02896"]}, "phone": "+14017667171", "display_phone": "(401) 766-7171", "distance": 4255.105586528618}, {"id": "paNYYgT1YJxTGvJZ2GVCuw", "alias": "dragon-garden-woonsocket", "name": "Dragon Garden", "image_url": "", "is_closed": false, "url": "https://www.yelp.com/biz/dragon-garden-woonsocket?adjust_creative=ogtFoSS6DBKYYW1KXs8qsw&utm_campaign=yelp_api_v3&utm_medium=api_v3_business_search&utm_source=ogtFoSS6DBKYYW1KXs8qsw", "review_count": 1, "categories": [{"alias": "chinese", "title": "Chinese"}], "rating": 2.0, "coordinates": {"latitude": 42.0080699, "longitude": -71.50918}, "transactions": ["delivery"], "price": "$", "location": {"address1": "240 Social St", "address2": null, "address3": null, "city": "Woonsocket", "zip_code": "02895", "country": "US", "state": "RI", "display_address": ["240 Social St", "Woonsocket, RI 02895"]}, "phone": "+14015976800", "display_phone": "(401) 597-6800", "distance": 1354.226657358136}, {"id": "YBB8RVJsE9iDhHLsoVXhig", "alias": "piezonis-pizza-lincoln", "name": "PieZoni's Pizza", "image_url": "https://s3-media4.fl.yelpcdn.com/bphoto/a83hRvApnsriiWT2TfB4Bg/o.jpg", "is_closed": false, "url": "https://www.yelp.com/biz/piezonis-pizza-lincoln?adjust_creative=ogtFoSS6DBKYYW1KXs8qsw&utm_campaign=yelp_api_v3&utm_medium=api_v3_business_search&utm_source=ogtFoSS6DBKYYW1KXs8qsw", "review_count": 42, "categories": [{"alias": "pizza", "title": "Pizza"}, {"alias": "salad", "title": "Salad"}, {"alias": "sandwiches", "title": "Sandwiches"}], "rating": 2.5, "coordinates": {"latitude": 41.9362873105627, "longitude": -71.4807079747401}, "transactions": ["delivery"], "price": "$$", "location": {"address1": "618 George Washington Hwy", "address2": "", "address3": "", "city": "Lincoln", "zip_code": "02865", "country": "US", "state": "RI", "display_address": ["618 George Washington Hwy", "Lincoln, RI 02865"]}, "phone": "+14013333222", "display_phone": "(401) 333-3222", "distance": 7084.523229932255}, {"id": "ZmHBv7mUAnlvftunnrUYgA", "alias": "little-caesars-pizza-woonsocket", "name": "Little Caesars Pizza", "image_url": "https://s3-media4.fl.yelpcdn.com/bphoto/OprdPWqc86QO20Cx7y9krg/o.jpg", "is_closed": false, "url": "https://www.yelp.com/biz/little-caesars-pizza-woonsocket?adjust_creative=ogtFoSS6DBKYYW1KXs8qsw&utm_campaign=yelp_api_v3&utm_medium=api_v3_business_search&utm_source=ogtFoSS6DBKYYW1KXs8qsw", "review_count": 17, "categories": [{"alias": "pizza", "title": "Pizza"}], "rating": 2.0, "coordinates": {"latitude": 42.0152702, "longitude": -71.4781494}, "transactions": [], "price": "$", "location": {"address1": "1551 Diamond Hill Rd", "address2": "", "address3": "", "city": "Woonsocket", "zip_code": "02895", "country": "US", "state": "RI", "display_address": ["1551 Diamond Hill Rd", "Woonsocket, RI 02895"]}, "phone": "+14017621111", "display_phone": "(401) 762-1111", "distance": 2551.9973320253434}, {"id": "5rGouNNMCXi2lvBpLIeZvA", "alias": "martys-liquors-millville", "name": "Marty's Liquors", "image_url": "", "is_closed": false, "url": "https://www.yelp.com/biz/martys-liquors-millville?adjust_creative=ogtFoSS6DBKYYW1KXs8qsw&utm_campaign=yelp_api_v3&utm_medium=api_v3_business_search&utm_source=ogtFoSS6DBKYYW1KXs8qsw", "review_count": 6, "categories": [{"alias": "beer_and_wine", "title": "Beer, Wine & Spirits"}, {"alias": "delis", "title": "Delis"}, {"alias": "sandwiches", "title": "Sandwiches"}], "rating": 4.0, "coordinates": {"latitude": 42.0139304, "longitude": -71.5943051}, "transactions": [], "price": "$$", "location": {"address1": "1 Buxton St", "address2": "", "address3": null, "city": "Millville", "zip_code": "01529", "country": "US", "state": "MA", "display_address": ["1 Buxton St", "Millville, MA 01529"]}, "phone": "+15088831880", "display_phone": "(508) 883-1880", "distance": 7781.287565484795}, {"id": "6akiug5o-_HWfptrL60g-Q", "alias": "pizza-queen-bellingham", "name": "Pizza Queen", "image_url": "https://s3-media3.fl.yelpcdn.com/bphoto/MVIG1jE-jsmFkid7tbuPrw/o.jpg", "is_closed": false, "url": "https://www.yelp.com/biz/pizza-queen-bellingham?adjust_creative=ogtFoSS6DBKYYW1KXs8qsw&utm_campaign=yelp_api_v3&utm_medium=api_v3_business_search&utm_source=ogtFoSS6DBKYYW1KXs8qsw", "review_count": 32, "categories": [{"alias": "hotdogs", "title": "Fast Food"}, {"alias": "pizza", "title": "Pizza"}], "rating": 3.0, "coordinates": {"latitude": 42.0183372, "longitude": -71.4969177}, "transactions": ["delivery", "pickup"], "price": "$$", "location": {"address1": "56 Pulaski Blvd", "address2": null, "address3": null, "city": "Bellingham", "zip_code": "02019", "country": "US", "state": "MA", "display_address": ["56 Pulaski Blvd", "Bellingham, MA 02019"]}, "phone": "+15088762666", "display_phone": "(508) 876-2666", "distance": 2228.45597488696}, {"id": "dOPhxPxb5yZQPM_Sl-hl4g", "alias": "honey-dew-donuts-bellingham", "name": "Honey Dew Donuts", "image_url": "https://s3-media3.fl.yelpcdn.com/bphoto/fYudHqmgHPfhV_PJIDJZ2A/o.jpg", "is_closed": false, "url": "https://www.yelp.com/biz/honey-dew-donuts-bellingham?adjust_creative=ogtFoSS6DBKYYW1KXs8qsw&utm_campaign=yelp_api_v3&utm_medium=api_v3_business_search&utm_source=ogtFoSS6DBKYYW1KXs8qsw", "review_count": 6, "categories": [{"alias": "donuts", "title": "Donuts"}, {"alias": "sandwiches", "title": "Sandwiches"}], "rating": 3.0, "coordinates": {"latitude": 42.0235557556152, "longitude": -71.4919815063477}, "transactions": [], "location": {"address1": "290 Pulaski Blvd", "address2": "", "address3": "", "city": "Bellingham", "zip_code": "02019", "country": "US", "state": "MA", "display_address": ["290 Pulaski Blvd", "Bellingham, MA 02019"]}, "phone": "+15088834580", "display_phone": "(508) 883-4580", "distance": 2844.0769025596815}, {"id": "MIsHA0JzI08BqGIx7ihTyw", "alias": "wendys-n-smithfield", "name": "Wendy's", "image_url": "https://s3-media3.fl.yelpcdn.com/bphoto/4bZcStHoybdceExkpalOAg/o.jpg", "is_closed": false, "url": "https://www.yelp.com/biz/wendys-n-smithfield?adjust_creative=ogtFoSS6DBKYYW1KXs8qsw&utm_campaign=yelp_api_v3&utm_medium=api_v3_business_search&utm_source=ogtFoSS6DBKYYW1KXs8qsw", "review_count": 11, "categories": [{"alias": "hotdogs", "title": "Fast Food"}, {"alias": "burgers", "title": "Burgers"}], "rating": 1.5, "coordinates": {"latitude": 41.980836, "longitude": -71.514454}, "transactions": ["delivery"], "price": "$", "location": {"address1": "77 Eddie Dowling Hwy", "address2": "", "address3": "", "city": "N.Smithfield", "zip_code": "02896", "country": "US", "state": "RI", "display_address": ["77 Eddie Dowling Hwy", "N.Smithfield, RI 02896"]}, "phone": "+14017651927", "display_phone": "(401) 765-1927", "distance": 2346.0963409187384}, {"id": "gZdn17TIb1TBQsu50LnU7w", "alias": "sakis-pizzeria-cumberland-2", "name": "Sakis Pizzeria", "image_url": "https://s3-media3.fl.yelpcdn.com/bphoto/1JasZPTsXtlq0aH52rlp1Q/o.jpg", "is_closed": false, "url": "https://www.yelp.com/biz/sakis-pizzeria-cumberland-2?adjust_creative=ogtFoSS6DBKYYW1KXs8qsw&utm_campaign=yelp_api_v3&utm_medium=api_v3_business_search&utm_source=ogtFoSS6DBKYYW1KXs8qsw", "review_count": 24, "categories": [{"alias": "pizza", "title": "Pizza"}], "rating": 3.5, "coordinates": {"latitude": 41.9540787, "longitude": -71.4014664}, "transactions": ["delivery", "pickup"], "price": "$", "location": {"address1": "2339 Diamond Hill Rd", "address2": "", "address3": "", "city": "Cumberland", "zip_code": "02864", "country": "US", "state": "RI", "display_address": ["2339 Diamond Hill Rd", "Cumberland, RI 02864"]}, "phone": "+14013344137", "display_phone": "(401) 334-4137", "distance": 9468.149932506363}, {"id": "--IvKc_xdesj_rkdPNMeVw", "alias": "spruce-pond-creamery-franklin", "name": "Spruce Pond Creamery", "image_url": "https://s3-media4.fl.yelpcdn.com/bphoto/kteM6Ir8UjkG3QsfpMHUag/o.jpg", "is_closed": false, "url": "https://www.yelp.com/biz/spruce-pond-creamery-franklin?adjust_creative=ogtFoSS6DBKYYW1KXs8qsw&utm_campaign=yelp_api_v3&utm_medium=api_v3_business_search&utm_source=ogtFoSS6DBKYYW1KXs8qsw", "review_count": 125, "categories": [{"alias": "icecream", "title": "Ice Cream & Frozen Yogurt"}, {"alias": "pizza", "title": "Pizza"}], "rating": 3.5, "coordinates": {"latitude": 42.06776, "longitude": -71.39697}, "transactions": ["delivery"], "price": "$$", "location": {"address1": "370 King St", "address2": "", "address3": "", "city": "Franklin", "zip_code": "02038", "country": "US", "state": "MA", "display_address": ["370 King St", "Franklin, MA 02038"]}, "phone": "+15085207900", "display_phone": "(508) 520-7900", "distance": 11433.201269553036}, {"id": "WgNLJn4dSN8PHL_5A5pgLQ", "alias": "denis-market-manville-2", "name": "Denis Market", "image_url": "https://s3-media2.fl.yelpcdn.com/bphoto/_Mz6Pm3FDRJ040d_VKtuXg/o.jpg", "is_closed": false, "url": "https://www.yelp.com/biz/denis-market-manville-2?adjust_creative=ogtFoSS6DBKYYW1KXs8qsw&utm_campaign=yelp_api_v3&utm_medium=api_v3_business_search&utm_source=ogtFoSS6DBKYYW1KXs8qsw", "review_count": 6, "categories": [{"alias": "convenience", "title": "Convenience Stores"}, {"alias": "pizza", "title": "Pizza"}, {"alias": "sandwiches", "title": "Sandwiches"}], "rating": 2.0, "coordinates": {"latitude": 41.9662018, "longitude": -71.4733487}, "transactions": ["delivery", "pickup"], "price": "$$", "location": {"address1": "359 Old River Rd", "address2": "", "address3": "", "city": "Manville", "zip_code": "02838", "country": "US", "state": "RI", "display_address": ["359 Old River Rd", "Manville, RI 02838"]}, "phone": "+14017623737", "display_phone": "(401) 762-3737", "distance": 4174.192544856727}, {"id": "mas-uZe7QaOW6JrGNnQN-w", "alias": "golden-palace-restaurant-cumberland", "name": "Golden Palace Restaurant", "image_url": "https://s3-media4.fl.yelpcdn.com/bphoto/VWx5Zous8uIam7LAPqYbqA/o.jpg", "is_closed": false, "url": "https://www.yelp.com/biz/golden-palace-restaurant-cumberland?adjust_creative=ogtFoSS6DBKYYW1KXs8qsw&utm_campaign=yelp_api_v3&utm_medium=api_v3_business_search&utm_source=ogtFoSS6DBKYYW1KXs8qsw", "review_count": 24, "categories": [{"alias": "chinese", "title": "Chinese"}], "rating": 3.0, "coordinates": {"latitude": 41.92508, "longitude": -71.39909}, "transactions": ["delivery"], "price": "$", "location": {"address1": "1165 High St", "address2": "", "address3": "", "city": "Cumberland", "zip_code": "02864", "country": "US", "state": "RI", "display_address": ["1165 High St", "Cumberland, RI 02864"]}, "phone": "+14013348995", "display_phone": "(401) 334-8995", "distance": 11627.384657893814}, {"id": "3BaaKYH_BPRSdEYprDWXbw", "alias": "subway-cumberland-20", "name": "Subway", "image_url": "https://s3-media2.fl.yelpcdn.com/bphoto/pNcum1sXS3V3wNVkeQCljA/o.jpg", "is_closed": false, "url": "https://www.yelp.com/biz/subway-cumberland-20?adjust_creative=ogtFoSS6DBKYYW1KXs8qsw&utm_campaign=yelp_api_v3&utm_medium=api_v3_business_search&utm_source=ogtFoSS6DBKYYW1KXs8qsw", "review_count": 5, "categories": [{"alias": "sandwiches", "title": "Sandwiches"}], "rating": 4.0, "coordinates": {"latitude": 41.9512685169961, "longitude": -71.442005843713}, "transactions": ["delivery", "pickup"], "price": "$", "location": {"address1": "2130 Mendon Rd", "address2": "Ste 2", "address3": "", "city": "Cumberland", "zip_code": "02864", "country": "US", "state": "RI", "display_address": ["2130 Mendon Rd", "Ste 2", "Cumberland, RI 02864"]}, "phone": "+14013336710", "display_phone": "(401) 333-6710", "distance": 7059.124300440988}, {"id": "Io4C5tUwnb_YzeaMXHBqBA", "alias": "shuckin-truck-narragansett-2", "name": "Shuckin Truck", "image_url": "https://s3-media2.fl.yelpcdn.com/bphoto/r7QRORfe9UYVS7GGzUm9DQ/o.jpg", "is_closed": false, "url": "https://www.yelp.com/biz/shuckin-truck-narragansett-2?adjust_creative=ogtFoSS6DBKYYW1KXs8qsw&utm_campaign=yelp_api_v3&utm_medium=api_v3_business_search&utm_source=ogtFoSS6DBKYYW1KXs8qsw", "review_count": 24, "categories": [{"alias": "foodtrucks", "title": "Food Trucks"}, {"alias": "seafood", "title": "Seafood"}], "rating": 4.5, "coordinates": {"latitude": 41.4274482727051, "longitude": -71.4597778320313}, "transactions": [], "price": "$$", "location": {"address1": "", "address2": "", "address3": "", "city": "Narragansett", "zip_code": "02882", "country": "US", "state": "RI", "display_address": ["Narragansett, RI 02882"]}, "phone": "+14017415953", "display_phone": "(401) 741-5953", "distance": 66742.59574673594}, {"id": "IBT3O_al5H1BsfB0BJW87w", "alias": "mcdonalds-woonsocket-3", "name": "McDonald's", "image_url": "https://s3-media1.fl.yelpcdn.com/bphoto/AuLBjwFQtlqRN_Lq2uQZqQ/o.jpg", "is_closed": false, "url": "https://www.yelp.com/biz/mcdonalds-woonsocket-3?adjust_creative=ogtFoSS6DBKYYW1KXs8qsw&utm_campaign=yelp_api_v3&utm_medium=api_v3_business_search&utm_source=ogtFoSS6DBKYYW1KXs8qsw", "review_count": 12, "categories": [{"alias": "coffee", "title": "Coffee & Tea"}, {"alias": "burgers", "title": "Burgers"}, {"alias": "hotdogs", "title": "Fast Food"}], "rating": 1.5, "coordinates": {"latitude": 42.0154601610639, "longitude": -71.4713189005852}, "transactions": [], "price": "$", "location": {"address1": "1900 Diamond Hill Rd", "address2": null, "address3": null, "city": "Woonsocket", "zip_code": "02895", "country": "US", "state": "RI", "display_address": ["1900 Diamond Hill Rd", "Woonsocket, RI 02895"]}, "phone": "+14017651176", "display_phone": "(401) 765-1176", "distance": 2963.925039737019}, {"id": "Gkd6x8hFjR_ntoIymGcXgQ", "alias": "subway-woonsocket-6", "name": "Subway", "image_url": "https://s3-media3.fl.yelpcdn.com/bphoto/CFGYkZIDU7jeGW1WIbzGvg/o.jpg", "is_closed": false, "url": "https://www.yelp.com/biz/subway-woonsocket-6?adjust_creative=ogtFoSS6DBKYYW1KXs8qsw&utm_campaign=yelp_api_v3&utm_medium=api_v3_business_search&utm_source=ogtFoSS6DBKYYW1KXs8qsw", "review_count": 2, "categories": [{"alias": "sandwiches", "title": "Sandwiches"}], "rating": 1.0, "coordinates": {"latitude": 42.0168662, "longitude": -71.4699711}, "transactions": [], "price": "$", "location": {"address1": "2000 Diamond Hill Rd", "address2": "", "address3": "", "city": "Woonsocket", "zip_code": "02895", "country": "US", "state": "RI", "display_address": ["2000 Diamond Hill Rd", "Woonsocket, RI 02895"]}, "phone": "+14013564131", "display_phone": "(401) 356-4131", "distance": 3149.6242547495763}, {"id": "uq4tWGU3nr8_5Cib88C76g", "alias": "subway-lincoln-74", "name": "Subway", "image_url": "https://s3-media4.fl.yelpcdn.com/bphoto/IYV5R4lQ9IPK1tRIMi9EIQ/o.jpg", "is_closed": false, "url": "https://www.yelp.com/biz/subway-lincoln-74?adjust_creative=ogtFoSS6DBKYYW1KXs8qsw&utm_campaign=yelp_api_v3&utm_medium=api_v3_business_search&utm_source=ogtFoSS6DBKYYW1KXs8qsw", "review_count": 6, "categories": [{"alias": "sandwiches", "title": "Sandwiches"}], "rating": 3.5, "coordinates": {"latitude": 41.9382689, "longitude": -71.4773326}, "transactions": ["delivery", "pickup"], "price": "$", "location": {"address1": "622 George Washington Hwy", "address2": "D-03", "address3": null, "city": "Lincoln", "zip_code": "02865", "country": "US", "state": "RI", "display_address": ["622 George Washington Hwy", "D-03", "Lincoln, RI 02865"]}, "phone": "+14013339770", "display_phone": "(401) 333-9770", "distance": 6936.284757655537}, {"id": "XOG5apyi_VF0-EGaAuomdA", "alias": "ronzio-pizza-and-subs-cumberland", "name": "Ronzio Pizza & Subs", "image_url": "https://s3-media4.fl.yelpcdn.com/bphoto/2LtXeOyTnLf0PnG2spq9Zg/o.jpg", "is_closed": false, "url": "https://www.yelp.com/biz/ronzio-pizza-and-subs-cumberland?adjust_creative=ogtFoSS6DBKYYW1KXs8qsw&utm_campaign=yelp_api_v3&utm_medium=api_v3_business_search&utm_source=ogtFoSS6DBKYYW1KXs8qsw", "review_count": 14, "categories": [{"alias": "pizza", "title": "Pizza"}], "rating": 2.5, "coordinates": {"latitude": 41.943603, "longitude": -71.435731}, "transactions": ["delivery", "pickup"], "price": "$", "location": {"address1": "1700 Mendon Rd", "address2": "", "address3": "", "city": "Cumberland", "zip_code": "02864", "country": "US", "state": "RI", "display_address": ["1700 Mendon Rd", "Cumberland, RI 02864"]}, "phone": "+14013339118", "display_phone": "(401) 333-9118", "distance": 8106.354357104183}, {"id": "45_lFNwnlIqGeDpcw26YYg", "alias": "papa-ginos-lincoln-2", "name": "Papa Gino's", "image_url": "https://s3-media4.fl.yelpcdn.com/bphoto/_ffdwJn-K8YSi7LCvZO46Q/o.jpg", "is_closed": false, "url": "https://www.yelp.com/biz/papa-ginos-lincoln-2?adjust_creative=ogtFoSS6DBKYYW1KXs8qsw&utm_campaign=yelp_api_v3&utm_medium=api_v3_business_search&utm_source=ogtFoSS6DBKYYW1KXs8qsw", "review_count": 23, "categories": [{"alias": "pizza", "title": "Pizza"}], "rating": 2.5, "coordinates": {"latitude": 41.9357490539551, "longitude": -71.4763031005859}, "transactions": ["delivery"], "price": "$", "location": {"address1": "622 George Washington Hwy", "address2": "", "address3": "Lincoln Mall", "city": "Lincoln", "zip_code": "02865", "country": "US", "state": "RI", "display_address": ["622 George Washington Hwy", "Lincoln Mall", "Lincoln, RI 02865"]}, "phone": "+14013336888", "display_phone": "(401) 333-6888", "distance": 7003.328899646208}, {"id": "p7MMassD3euPwz9f_P6yZw", "alias": "dominos-pizza-cumberland", "name": "Domino's Pizza", "image_url": "", "is_closed": false, "url": "https://www.yelp.com/biz/dominos-pizza-cumberland?adjust_creative=ogtFoSS6DBKYYW1KXs8qsw&utm_campaign=yelp_api_v3&utm_medium=api_v3_business_search&utm_source=ogtFoSS6DBKYYW1KXs8qsw", "review_count": 7, "categories": [{"alias": "pizza", "title": "Pizza"}, {"alias": "chicken_wings", "title": "Chicken Wings"}, {"alias": "sandwiches", "title": "Sandwiches"}], "rating": 2.0, "coordinates": {"latitude": 41.9772761, "longitude": -71.4593986}, "transactions": [], "price": "$", "location": {"address1": "3400 Mendon Rd", "address2": "", "address3": "", "city": "Cumberland", "zip_code": "02864", "country": "US", "state": "RI", "display_address": ["3400 Mendon Rd", "Cumberland, RI 02864"]}, "phone": "+14016580077", "display_phone": "(401) 658-0077", "distance": 4054.742353367188}, {"id": "usP9czUkDGcyC7CSseiMdw", "alias": "shuck-food-truck-boston-2", "name": "Shuck Food Truck", "image_url": "https://s3-media2.fl.yelpcdn.com/bphoto/vh62vEgAkPe1IC7D00fF2A/o.jpg", "is_closed": false, "url": "https://www.yelp.com/biz/shuck-food-truck-boston-2?adjust_creative=ogtFoSS6DBKYYW1KXs8qsw&utm_campaign=yelp_api_v3&utm_medium=api_v3_business_search&utm_source=ogtFoSS6DBKYYW1KXs8qsw", "review_count": 27, "categories": [{"alias": "foodtrucks", "title": "Food Trucks"}, {"alias": "seafood", "title": "Seafood"}, {"alias": "tradamerican", "title": "American (Traditional)"}], "rating": 4.5, "coordinates": {"latitude": 42.64758, "longitude": -71.32212}, "transactions": [], "location": {"address1": "", "address2": "", "address3": null, "city": "Boston", "zip_code": "01854", "country": "US", "state": "MA", "display_address": ["Boston, MA 01854"]}, "phone": "+19789446618", "display_phone": "(978) 944-6618", "distance": 72841.64367544992}, {"id": "-RVtCW9MogCL4N0Xl2pnVw", "alias": "burger-king-cumberland-3", "name": "Burger King", "image_url": "https://s3-media3.fl.yelpcdn.com/bphoto/T1CpaBKneYSkYUbS3EIw_g/o.jpg", "is_closed": false, "url": "https://www.yelp.com/biz/burger-king-cumberland-3?adjust_creative=ogtFoSS6DBKYYW1KXs8qsw&utm_campaign=yelp_api_v3&utm_medium=api_v3_business_search&utm_source=ogtFoSS6DBKYYW1KXs8qsw", "review_count": 1, "categories": [{"alias": "burgers", "title": "Burgers"}, {"alias": "hotdogs", "title": "Fast Food"}], "rating": 1.0, "coordinates": {"latitude": 41.94219, "longitude": -71.43442}, "transactions": [], "price": "$", "location": {"address1": "1715 Mendon Rd", "address2": "", "address3": "", "city": "Cumberland", "zip_code": "02864", "country": "US", "state": "RI", "display_address": ["1715 Mendon Rd", "Cumberland, RI 02864"]}, "phone": "", "display_phone": "", "distance": 8216.926966257095}, {"id": "OkB4eTW7dXyazwrmvmJNVw", "alias": "souped-up-food-billerica", "name": "Souped Up Food", "image_url": "https://s3-media1.fl.yelpcdn.com/bphoto/q72dJDqROrXj2hHd0PL5iA/o.jpg", "is_closed": false, "url": "https://www.yelp.com/biz/souped-up-food-billerica?adjust_creative=ogtFoSS6DBKYYW1KXs8qsw&utm_campaign=yelp_api_v3&utm_medium=api_v3_business_search&utm_source=ogtFoSS6DBKYYW1KXs8qsw", "review_count": 3, "categories": [{"alias": "foodtrucks", "title": "Food Trucks"}, {"alias": "salad", "title": "Salad"}, {"alias": "sandwiches", "title": "Sandwiches"}], "rating": 4.5, "coordinates": {"latitude": 42.55582, "longitude": -71.26625}, "transactions": [], "location": {"address1": "", "address2": "", "address3": "", "city": "Billerica", "zip_code": "01821", "country": "US", "state": "MA", "display_address": ["Billerica, MA 01821"]}, "phone": "+17814393925", "display_phone": "(781) 439-3925", "distance": 64240.92416095534}, {"id": "JIhRVJ4BAWPH9NZ0u-7Wzw", "alias": "flip-n-roll-fall-river", "name": "Flip N Roll", "image_url": "https://s3-media1.fl.yelpcdn.com/bphoto/A3l1k85peGnmCC17j-Bmhg/o.jpg", "is_closed": false, "url": "https://www.yelp.com/biz/flip-n-roll-fall-river?adjust_creative=ogtFoSS6DBKYYW1KXs8qsw&utm_campaign=yelp_api_v3&utm_medium=api_v3_business_search&utm_source=ogtFoSS6DBKYYW1KXs8qsw", "review_count": 1, "categories": [{"alias": "foodtrucks", "title": "Food Trucks"}, {"alias": "tradamerican", "title": "American (Traditional)"}, {"alias": "portuguese", "title": "Portuguese"}], "rating": 1.0, "coordinates": {"latitude": 41.68687, "longitude": -71.17062}, "transactions": [], "price": "$$", "location": {"address1": "", "address2": "", "address3": "", "city": "Fall River", "zip_code": "02724", "country": "US", "state": "MA", "display_address": ["Fall River, MA 02724"]}, "phone": "", "display_phone": "", "distance": 43729.65505313313}, {"id": "r-CSxu8QVjlElt1vFfXDUg", "alias": "tasty-food-cumberland", "name": "Tasty Food", "image_url": "", "is_closed": false, "url": "https://www.yelp.com/biz/tasty-food-cumberland?adjust_creative=ogtFoSS6DBKYYW1KXs8qsw&utm_campaign=yelp_api_v3&utm_medium=api_v3_business_search&utm_source=ogtFoSS6DBKYYW1KXs8qsw", "review_count": 3, "categories": [{"alias": "pizza", "title": "Pizza"}, {"alias": "fishnchips", "title": "Fish & Chips"}, {"alias": "sandwiches", "title": "Sandwiches"}], "rating": 2.5, "coordinates": {"latitude": 41.9258330762386, "longitude": -71.3995738327503}, "transactions": [], "price": "$", "location": {"address1": "1182 High St", "address2": "", "address3": "", "city": "Cumberland", "zip_code": "02864", "country": "US", "state": "RI", "display_address": ["1182 High St", "Cumberland, RI 02864"]}, "phone": "+14013343440", "display_phone": "(401) 334-3440", "distance": 11573.184638192186}, {"id": "OtTJj4ewbEpawghv7c4vpw", "alias": "honey-dew-donuts-cumberland-2", "name": "Honey Dew Donuts", "image_url": "", "is_closed": false, "url": "https://www.yelp.com/biz/honey-dew-donuts-cumberland-2?adjust_creative=ogtFoSS6DBKYYW1KXs8qsw&utm_campaign=yelp_api_v3&utm_medium=api_v3_business_search&utm_source=ogtFoSS6DBKYYW1KXs8qsw", "review_count": 5, "categories": [{"alias": "coffee", "title": "Coffee & Tea"}, {"alias": "donuts", "title": "Donuts"}, {"alias": "sandwiches", "title": "Sandwiches"}], "rating": 2.5, "coordinates": {"latitude": 41.9776419, "longitude": -71.4598213}, "transactions": ["delivery"], "location": {"address1": "3450 Mendon Rd", "address2": "Unit A", "address3": null, "city": "Cumberland", "zip_code": "02864", "country": "US", "state": "RI", "display_address": ["3450 Mendon Rd", "Unit A", "Cumberland, RI 02864"]}, "phone": "+14016581141", "display_phone": "(401) 658-1141", "distance": 3944.825399597251}, {"id": "f1mOF5lDzpFjfnvkCBGfYA", "alias": "mcdonalds-lincoln-17", "name": "McDonald's", "image_url": "https://s3-media1.fl.yelpcdn.com/bphoto/XZBr38r29t3Ntm1O7nUMzQ/o.jpg", "is_closed": false, "url": "https://www.yelp.com/biz/mcdonalds-lincoln-17?adjust_creative=ogtFoSS6DBKYYW1KXs8qsw&utm_campaign=yelp_api_v3&utm_medium=api_v3_business_search&utm_source=ogtFoSS6DBKYYW1KXs8qsw", "review_count": 13, "categories": [{"alias": "burgers", "title": "Burgers"}, {"alias": "hotdogs", "title": "Fast Food"}, {"alias": "coffee", "title": "Coffee & Tea"}], "rating": 3.0, "coordinates": {"latitude": 41.9360739090089, "longitude": -71.4748674631119}, "transactions": [], "price": "$", "location": {"address1": "622 Geroge Washington Hwy", "address2": "", "address3": "", "city": "Lincoln", "zip_code": "02865", "country": "US", "state": "RI", "display_address": ["622 Geroge Washington Hwy", "Lincoln, RI 02865"]}, "phone": "+14013330850", "display_phone": "(401) 333-0850", "distance": 7225.997232123712}, {"id": "h_RHqDh5Titn_LLoFMiYxQ", "alias": "mcdonalds-cumberland", "name": "McDonald's", "image_url": "https://s3-media2.fl.yelpcdn.com/bphoto/c1n3FhlLGLCNargdGRWMVg/o.jpg", "is_closed": false, "url": "https://www.yelp.com/biz/mcdonalds-cumberland?adjust_creative=ogtFoSS6DBKYYW1KXs8qsw&utm_campaign=yelp_api_v3&utm_medium=api_v3_business_search&utm_source=ogtFoSS6DBKYYW1KXs8qsw", "review_count": 15, "categories": [{"alias": "hotdogs", "title": "Fast Food"}, {"alias": "burgers", "title": "Burgers"}, {"alias": "coffee", "title": "Coffee & Tea"}], "rating": 2.0, "coordinates": {"latitude": 41.9435280051235, "longitude": -71.4361893385649}, "transactions": ["delivery"], "price": "$", "location": {"address1": "1754 Mendon Rd", "address2": "", "address3": "", "city": "Cumberland", "zip_code": "02864", "country": "US", "state": "RI", "display_address": ["1754 Mendon Rd", "Cumberland, RI 02864"]}, "phone": "+14013343177", "display_phone": "(401) 334-3177", "distance": 8024.039020811261}, {"id": "324pp6avrBFbzw059DoHsA", "alias": "roadies-raleigh", "name": "Roadies", "image_url": "https://s3-media2.fl.yelpcdn.com/bphoto/3zJZmmgIOYrfKoAOp9Du1w/o.jpg", "is_closed": false, "url": "https://www.yelp.com/biz/roadies-raleigh?adjust_creative=ogtFoSS6DBKYYW1KXs8qsw&utm_campaign=yelp_api_v3&utm_medium=api_v3_business_search&utm_source=ogtFoSS6DBKYYW1KXs8qsw", "review_count": 10, "categories": [{"alias": "foodtrucks", "title": "Food Trucks"}, {"alias": "seafood", "title": "Seafood"}], "rating": 4.5, "coordinates": {"latitude": 35.67575, "longitude": -78.66424}, "transactions": [], "price": "$", "location": {"address1": "", "address2": null, "address3": "", "city": "Raleigh", "zip_code": "27603", "country": "US", "state": "NC", "display_address": ["Raleigh, NC 27603"]}, "phone": "+13476136489", "display_phone": "(347) 613-6489", "distance": 939030.1389285225}]