[{"id": "OY2M6cvH5PynYYROW320zA", "alias": "tavern-on-the-hill-west-greenwich", "name": "Tavern On the Hill", "image_url": "https://s3-media3.fl.yelpcdn.com/bphoto/tCdEJaTfqw9Yk85eVbGkqQ/o.jpg", "is_closed": false, "url": "https://www.yelp.com/biz/tavern-on-the-hill-west-greenwich?adjust_creative=pzvBKuEUl0Vl1jtHQqJaog&utm_campaign=yelp_api_v3&utm_medium=api_v3_business_search&utm_source=pzvBKuEUl0Vl1jtHQqJaog", "review_count": 31, "categories": [{"alias": "bars", "title": "Bars"}, {"alias": "tradamerican", "title": "American (Traditional)"}], "rating": 4.0, "coordinates": {"latitude": 41.616128, "longitude": -71.635625}, "transactions": [], "price": "$$", "location": {"address1": "809 Nooseneck Hill Rd", "address2": "", "address3": "", "city": "West Greenwich", "zip_code": "02817", "country": "US", "state": "RI", "display_address": ["809 Nooseneck Hill Rd", "West Greenwich, RI 02817"]}, "phone": "+14013853835", "display_phone": "(401) 385-3835", "distance": 3023.062715717213}, {"id": "4Qlr65qCZoFYp9AEIWsqBg", "alias": "dans-place-west-greenwich", "name": "Dan's Place", "image_url": "https://s3-media1.fl.yelpcdn.com/bphoto/5GzxYiDUiztlyQc8eO1T1w/o.jpg", "is_closed": false, "url": "https://www.yelp.com/biz/dans-place-west-greenwich?adjust_creative=pzvBKuEUl0Vl1jtHQqJaog&utm_campaign=yelp_api_v3&utm_medium=api_v3_business_search&utm_source=pzvBKuEUl0Vl1jtHQqJaog", "review_count": 198, "categories": [{"alias": "pizza", "title": "Pizza"}, {"alias": "tradamerican", "title": "American (Traditional)"}, {"alias": "bars", "title": "Bars"}], "rating": 4.0, "coordinates": {"latitude": 41.607883, "longitude": -71.661329}, "transactions": [], "price": "$$", "location": {"address1": "880 Victory Hwy", "address2": "", "address3": "", "city": "West Greenwich", "zip_code": "02817", "country": "US", "state": "RI", "display_address": ["880 Victory Hwy", "West Greenwich, RI 02817"]}, "phone": "+14013923092", "display_phone": "(401) 392-3092", "distance": 2368.683005712987}, {"id": "Bv1w7xDfUOW_0PTRGX4Q2w", "alias": "cornerstone-pub-exeter", "name": "Cornerstone Pub", "image_url": "https://s3-media4.fl.yelpcdn.com/bphoto/UdFsQXgWA5cDvdfEWXKOyQ/o.jpg", "is_closed": false, "url": "https://www.yelp.com/biz/cornerstone-pub-exeter?adjust_creative=pzvBKuEUl0Vl1jtHQqJaog&utm_campaign=yelp_api_v3&utm_medium=api_v3_business_search&utm_source=pzvBKuEUl0Vl1jtHQqJaog", "review_count": 90, "categories": [{"alias": "newamerican", "title": "American (New)"}, {"alias": "burgers", "title": "Burgers"}, {"alias": "pubs", "title": "Pubs"}], "rating": 4.5, "coordinates": {"latitude": 41.5836410522461, "longitude": -71.6530990600586}, "transactions": [], "price": "$$", "location": {"address1": "273 Nooseneck Hill Rd", "address2": "", "address3": "", "city": "Exeter", "zip_code": "02822", "country": "US", "state": "RI", "display_address": ["273 Nooseneck Hill Rd", "Exeter, RI 02822"]}, "phone": "+14013853025", "display_phone": "(401) 385-3025", "distance": 5149.645136024722}, {"id": "Ptw7JjFWpSpAwgDLfChwzg", "alias": "middle-of-nowhere-diner-exeter", "name": "Middle of Nowhere Diner", "image_url": "https://s3-media3.fl.yelpcdn.com/bphoto/38aOJhHWn-vEiYMhoQRBZw/o.jpg", "is_closed": false, "url": "https://www.yelp.com/biz/middle-of-nowhere-diner-exeter?adjust_creative=pzvBKuEUl0Vl1jtHQqJaog&utm_campaign=yelp_api_v3&utm_medium=api_v3_business_search&utm_source=pzvBKuEUl0Vl1jtHQqJaog", "review_count": 185, "categories": [{"alias": "diners", "title": "Diners"}, {"alias": "breakfast_brunch", "title": "Breakfast & Brunch"}, {"alias": "tradamerican", "title": "American (Traditional)"}], "rating": 4.0, "coordinates": {"latitude": 41.586883, "longitude": -71.651757}, "transactions": [], "price": "$", "location": {"address1": "222 Nooseneck Hill Rd", "address2": "", "address3": "", "city": "Exeter", "zip_code": "02822", "country": "US", "state": "RI", "display_address": ["222 Nooseneck Hill Rd", "Exeter, RI 02822"]}, "phone": "+14013978855", "display_phone": "(401) 397-8855", "distance": 4867.764345011806}, {"id": "shy0Y85GWw49WVzsdkK52Q", "alias": "the-woods-tavern-west-greenwich-2", "name": "The Woods Tavern", "image_url": "https://s3-media2.fl.yelpcdn.com/bphoto/wtrQZnQURg0cp6RZge1LYg/o.jpg", "is_closed": false, "url": "https://www.yelp.com/biz/the-woods-tavern-west-greenwich-2?adjust_creative=pzvBKuEUl0Vl1jtHQqJaog&utm_campaign=yelp_api_v3&utm_medium=api_v3_business_search&utm_source=pzvBKuEUl0Vl1jtHQqJaog", "review_count": 37, "categories": [{"alias": "soup", "title": "Soup"}, {"alias": "sandwiches", "title": "Sandwiches"}, {"alias": "burgers", "title": "Burgers"}], "rating": 3.5, "coordinates": {"latitude": 41.6572113, "longitude": -71.604126}, "transactions": ["delivery"], "price": "$$", "location": {"address1": "45 Nooseneck Hill Rd", "address2": null, "address3": "", "city": "West Greenwich", "zip_code": "02817", "country": "US", "state": "RI", "display_address": ["45 Nooseneck Hill Rd", "West Greenwich, RI 02817"]}, "phone": "+14013921314", "display_phone": "(401) 392-1314", "distance": 6048.493059262362}, {"id": "Z7dFSdqwu66VOduhtPhMLg", "alias": "arcadia-pizza-west-greenwich", "name": "Arcadia Pizza", "image_url": "https://s3-media1.fl.yelpcdn.com/bphoto/QPEDWSvs5oiXCPP9nj0dTA/o.jpg", "is_closed": false, "url": "https://www.yelp.com/biz/arcadia-pizza-west-greenwich?adjust_creative=pzvBKuEUl0Vl1jtHQqJaog&utm_campaign=yelp_api_v3&utm_medium=api_v3_business_search&utm_source=pzvBKuEUl0Vl1jtHQqJaog", "review_count": 49, "categories": [{"alias": "pizza", "title": "Pizza"}, {"alias": "burgers", "title": "Burgers"}, {"alias": "sandwiches", "title": "Sandwiches"}], "rating": 4.5, "coordinates": {"latitude": 41.612208, "longitude": -71.665471}, "transactions": [], "price": "$$", "location": {"address1": "780 Victory Hwy", "address2": "Unit 10", "address3": "", "city": "West Greenwich", "zip_code": "02817", "country": "US", "state": "RI", "display_address": ["780 Victory Hwy", "Unit 10", "West Greenwich, RI 02817"]}, "phone": "+14013923130", "display_phone": "(401) 392-3130", "distance": 1834.6663348347215}, {"id": "dhtbQqd5oWmRmwa80TzTYQ", "alias": "braza-brazilian-bbq-coventry", "name": "Braza Brazilian BBQ", "image_url": "https://s3-media4.fl.yelpcdn.com/bphoto/xHinLRK-sGZXhA7ySg2xkQ/o.jpg", "is_closed": false, "url": "https://www.yelp.com/biz/braza-brazilian-bbq-coventry?adjust_creative=pzvBKuEUl0Vl1jtHQqJaog&utm_campaign=yelp_api_v3&utm_medium=api_v3_business_search&utm_source=pzvBKuEUl0Vl1jtHQqJaog", "review_count": 19, "categories": [{"alias": "brazilian", "title": "Brazilian"}], "rating": 4.5, "coordinates": {"latitude": 41.689639, "longitude": -71.561516}, "transactions": [], "location": {"address1": "15 Sandy Bottom Rd", "address2": "", "address3": null, "city": "Coventry", "zip_code": "02816", "country": "US", "state": "RI", "display_address": ["15 Sandy Bottom Rd", "Coventry, RI 02816"]}, "phone": "+14012623639", "display_phone": "(401) 262-3639", "distance": 11168.383904721197}, {"id": "0VIQA1-TtXvpQLxld6-5Iw", "alias": "pats-italian-restaurant-coventry", "name": "Pat's Italian Restaurant", "image_url": "https://s3-media4.fl.yelpcdn.com/bphoto/eqajkG_duDizESh4jQCYbg/o.jpg", "is_closed": false, "url": "https://www.yelp.com/biz/pats-italian-restaurant-coventry?adjust_creative=pzvBKuEUl0Vl1jtHQqJaog&utm_campaign=yelp_api_v3&utm_medium=api_v3_business_search&utm_source=pzvBKuEUl0Vl1jtHQqJaog", "review_count": 4, "categories": [{"alias": "italian", "title": "Italian"}], "rating": 4.0, "coordinates": {"latitude": 41.672371, "longitude": -71.595883}, "transactions": [], "location": {"address1": "1650 Nooseneck Hill Rd", "address2": "", "address3": null, "city": "Coventry", "zip_code": "02816", "country": "US", "state": "RI", "display_address": ["1650 Nooseneck Hill Rd", "Coventry, RI 02816"]}, "phone": "+14013208787", "display_phone": "(401) 320-8787", "distance": 7713.484071198037}, {"id": "2YGe6lz0ReGsrAIPAyFEKA", "alias": "black-oak-kitchen-and-drinks-coventry-2", "name": "Black Oak Kitchen & Drinks", "image_url": "https://s3-media3.fl.yelpcdn.com/bphoto/B0yNi2mE3VdZkY1vfNEXBQ/o.jpg", "is_closed": false, "url": "https://www.yelp.com/biz/black-oak-kitchen-and-drinks-coventry-2?adjust_creative=pzvBKuEUl0Vl1jtHQqJaog&utm_campaign=yelp_api_v3&utm_medium=api_v3_business_search&utm_source=pzvBKuEUl0Vl1jtHQqJaog", "review_count": 65, "categories": [{"alias": "comfortfood", "title": "Comfort Food"}, {"alias": "salad", "title": "Salad"}, {"alias": "cocktailbars", "title": "Cocktail Bars"}], "rating": 4.0, "coordinates": {"latitude": 41.681868, "longitude": -71.561252}, "transactions": ["pickup", "delivery"], "price": "$$", "location": {"address1": "760 Tiogue Ave", "address2": "", "address3": null, "city": "Coventry", "zip_code": "02816", "country": "US", "state": "RI", "display_address": ["760 Tiogue Ave", "Coventry, RI 02816"]}, "phone": "+14016152500", "display_phone": "(401) 615-2500", "distance": 10660.182701918871}, {"id": "7rRck0Vo7_E75o_Wcqngjg", "alias": "wicked-good-pizza-west-greenwich", "name": "Wicked Good Pizza", "image_url": "https://s3-media3.fl.yelpcdn.com/bphoto/NtADSOUurPQZWLLpWy0XcA/o.jpg", "is_closed": false, "url": "https://www.yelp.com/biz/wicked-good-pizza-west-greenwich?adjust_creative=pzvBKuEUl0Vl1jtHQqJaog&utm_campaign=yelp_api_v3&utm_medium=api_v3_business_search&utm_source=pzvBKuEUl0Vl1jtHQqJaog", "review_count": 13, "categories": [{"alias": "pizza", "title": "Pizza"}], "rating": 3.5, "coordinates": {"latitude": 41.6592645, "longitude": -71.6032579}, "transactions": ["delivery"], "location": {"address1": "12 Nooseneck Hill Rd", "address2": "", "address3": "", "city": "West Greenwich", "zip_code": "02817", "country": "US", "state": "RI", "display_address": ["12 Nooseneck Hill Rd", "West Greenwich, RI 02817"]}, "phone": "+14013853851", "display_phone": "(401) 385-3851", "distance": 6364.693425310165}, {"id": "rWY-Ziti_mnkZT4fg5CFrw", "alias": "popeyes-louisiana-kitchen-w-greenwich", "name": "Popeyes Louisiana Kitchen", "image_url": "https://s3-media3.fl.yelpcdn.com/bphoto/VTwWpdLUaZTpShJF6gMYXA/o.jpg", "is_closed": false, "url": "https://www.yelp.com/biz/popeyes-louisiana-kitchen-w-greenwich?adjust_creative=pzvBKuEUl0Vl1jtHQqJaog&utm_campaign=yelp_api_v3&utm_medium=api_v3_business_search&utm_source=pzvBKuEUl0Vl1jtHQqJaog", "review_count": 20, "categories": [{"alias": "hotdogs", "title": "Fast Food"}, {"alias": "chicken_wings", "title": "Chicken Wings"}], "rating": 3.5, "coordinates": {"latitude": 41.608992, "longitude": -71.665454}, "transactions": [], "price": "$", "location": {"address1": "849 Victory Hwy", "address2": "", "address3": "", "city": "W Greenwich", "zip_code": "02817", "country": "US", "state": "RI", "display_address": ["849 Victory Hwy", "W Greenwich, RI 02817"]}, "phone": "+14013977774", "display_phone": "(401) 397-7774", "distance": 2190.525558015369}, {"id": "iKeG-OHNhzsx_F0qbyzM1A", "alias": "the-olde-theater-diner-coventry", "name": "The Olde Theater Diner", "image_url": "https://s3-media3.fl.yelpcdn.com/bphoto/n0zYBiELUZ_dC-B4JgXNlA/o.jpg", "is_closed": false, "url": "https://www.yelp.com/biz/the-olde-theater-diner-coventry?adjust_creative=pzvBKuEUl0Vl1jtHQqJaog&utm_campaign=yelp_api_v3&utm_medium=api_v3_business_search&utm_source=pzvBKuEUl0Vl1jtHQqJaog", "review_count": 105, "categories": [{"alias": "diners", "title": "Diners"}], "rating": 3.5, "coordinates": {"latitude": 41.6894233, "longitude": -71.5606689}, "transactions": ["delivery"], "price": "$$", "location": {"address1": "33 Sandy Bottom Rd", "address2": "", "address3": "", "city": "Coventry", "zip_code": "02816", "country": "US", "state": "RI", "display_address": ["33 Sandy Bottom Rd", "Coventry, RI 02816"]}, "phone": "+14018281810", "display_phone": "(401) 828-1810", "distance": 11080.306039111363}, {"id": "xNCeCVr_Ly2adwKGv9jlTw", "alias": "little-country-pizza-exeter", "name": "Little Country Pizza", "image_url": "https://s3-media2.fl.yelpcdn.com/bphoto/EANAplBdR0B2JoN2Vb2gvQ/o.jpg", "is_closed": false, "url": "https://www.yelp.com/biz/little-country-pizza-exeter?adjust_creative=pzvBKuEUl0Vl1jtHQqJaog&utm_campaign=yelp_api_v3&utm_medium=api_v3_business_search&utm_source=pzvBKuEUl0Vl1jtHQqJaog", "review_count": 41, "categories": [{"alias": "pizza", "title": "Pizza"}, {"alias": "sandwiches", "title": "Sandwiches"}, {"alias": "bbq", "title": "Barbeque"}], "rating": 4.0, "coordinates": {"latitude": 41.578511, "longitude": -71.654604}, "transactions": [], "price": "$", "location": {"address1": "349 Nooseneck Hill Rd", "address2": "", "address3": "", "city": "Exeter", "zip_code": "02822", "country": "US", "state": "RI", "display_address": ["349 Nooseneck Hill Rd", "Exeter, RI 02822"]}, "phone": "+14013972500", "display_phone": "(401) 397-2500", "distance": 5671.717842790431}, {"id": "rqc8vJ80L6DI8J3pJjh-fA", "alias": "morse-tavern-coventry-3", "name": "Morse Tavern", "image_url": "https://s3-media2.fl.yelpcdn.com/bphoto/PWc9awivBLp9aE1Ocv6UBw/o.jpg", "is_closed": false, "url": "https://www.yelp.com/biz/morse-tavern-coventry-3?adjust_creative=pzvBKuEUl0Vl1jtHQqJaog&utm_campaign=yelp_api_v3&utm_medium=api_v3_business_search&utm_source=pzvBKuEUl0Vl1jtHQqJaog", "review_count": 78, "categories": [{"alias": "newamerican", "title": "American (New)"}], "rating": 3.0, "coordinates": {"latitude": 41.6848204225557, "longitude": -71.5478678047657}, "transactions": ["delivery"], "location": {"address1": "446 Tiogue Ave", "address2": "", "address3": null, "city": "Coventry", "zip_code": "02816", "country": "US", "state": "RI", "display_address": ["446 Tiogue Ave", "Coventry, RI 02816"]}, "phone": "+14018257300", "display_phone": "(401) 825-7300", "distance": 11771.98386692526}, {"id": "1qBt0IYWCkFuvLhQKda1IQ", "alias": "the-pond-pub-and-pizza-coventry", "name": "The Pond Pub & Pizza", "image_url": "https://s3-media2.fl.yelpcdn.com/bphoto/AkPs7Oe6QryZHlQgS2FQXw/o.jpg", "is_closed": false, "url": "https://www.yelp.com/biz/the-pond-pub-and-pizza-coventry?adjust_creative=pzvBKuEUl0Vl1jtHQqJaog&utm_campaign=yelp_api_v3&utm_medium=api_v3_business_search&utm_source=pzvBKuEUl0Vl1jtHQqJaog", "review_count": 12, "categories": [{"alias": "pizza", "title": "Pizza"}, {"alias": "bars", "title": "Bars"}], "rating": 4.5, "coordinates": {"latitude": 41.7047131061554, "longitude": -71.6166108101606}, "transactions": ["pickup", "delivery"], "location": {"address1": "2260 Flat RIver Rd", "address2": null, "address3": "", "city": "Coventry", "zip_code": "02816", "country": "US", "state": "RI", "display_address": ["2260 Flat RIver Rd", "Coventry, RI 02816"]}, "phone": "+14013970001", "display_phone": "(401) 397-0001", "distance": 9468.35614844937}, {"id": "8hbVqav2A52SAU_wmliIhg", "alias": "gentleman-farmer-coventry", "name": "Gentleman Farmer", "image_url": "https://s3-media2.fl.yelpcdn.com/bphoto/AJ6ymqCFyxprsr9UAaj9iw/o.jpg", "is_closed": false, "url": "https://www.yelp.com/biz/gentleman-farmer-coventry?adjust_creative=pzvBKuEUl0Vl1jtHQqJaog&utm_campaign=yelp_api_v3&utm_medium=api_v3_business_search&utm_source=pzvBKuEUl0Vl1jtHQqJaog", "review_count": 24, "categories": [{"alias": "tradamerican", "title": "American (Traditional)"}], "rating": 3.0, "coordinates": {"latitude": 41.6635599, "longitude": -71.60211}, "transactions": ["delivery"], "price": "$", "location": {"address1": "2405 Nooseneck Hill Rd", "address2": "", "address3": "", "city": "Coventry", "zip_code": "02816", "country": "US", "state": "RI", "display_address": ["2405 Nooseneck Hill Rd", "Coventry, RI 02816"]}, "phone": "+14013920130", "display_phone": "(401) 392-0130", "distance": 6646.776518651973}, {"id": "rNyNrOfeYavjaODmG_JMgg", "alias": "sherris-come-along-inn-coventry", "name": "Sherri's Come Along Inn", "image_url": "https://s3-media4.fl.yelpcdn.com/bphoto/BFimnJMYGM9UjmXib4b6MA/o.jpg", "is_closed": false, "url": "https://www.yelp.com/biz/sherris-come-along-inn-coventry?adjust_creative=pzvBKuEUl0Vl1jtHQqJaog&utm_campaign=yelp_api_v3&utm_medium=api_v3_business_search&utm_source=pzvBKuEUl0Vl1jtHQqJaog", "review_count": 22, "categories": [{"alias": "tradamerican", "title": "American (Traditional)"}, {"alias": "italian", "title": "Italian"}, {"alias": "burgers", "title": "Burgers"}], "rating": 4.5, "coordinates": {"latitude": 41.6954474, "longitude": -71.5334644}, "transactions": ["pickup", "delivery"], "location": {"address1": "402 Washington St", "address2": "", "address3": "", "city": "Coventry", "zip_code": "02816", "country": "US", "state": "RI", "display_address": ["402 Washington St", "Coventry, RI 02816"]}, "phone": "+14018288300", "display_phone": "(401) 828-8300", "distance": 13416.661689379102}, {"id": "Fi7z65ofjwuWdj5gEBVdxw", "alias": "celestial-cafe-exeter", "name": "Celestial Cafe", "image_url": "https://s3-media2.fl.yelpcdn.com/bphoto/i2hHyybC7aaaqK3ul-KWpQ/o.jpg", "is_closed": false, "url": "https://www.yelp.com/biz/celestial-cafe-exeter?adjust_creative=pzvBKuEUl0Vl1jtHQqJaog&utm_campaign=yelp_api_v3&utm_medium=api_v3_business_search&utm_source=pzvBKuEUl0Vl1jtHQqJaog", "review_count": 159, "categories": [{"alias": "newamerican", "title": "American (New)"}, {"alias": "breakfast_brunch", "title": "Breakfast & Brunch"}, {"alias": "cocktailbars", "title": "Cocktail Bars"}], "rating": 4.0, "coordinates": {"latitude": 41.526923, "longitude": -71.552297}, "transactions": [], "price": "$$", "location": {"address1": "567 S County Trail Rte 2", "address2": null, "address3": "", "city": "Exeter", "zip_code": "02822", "country": "US", "state": "RI", "display_address": ["567 S County Trail Rte 2", "Exeter, RI 02822"]}, "phone": "+14012955559", "display_phone": "(401) 295-5559", "distance": 14844.548834646283}, {"id": "0UiNdCaKHvPFn8iwinKXHw", "alias": "summit-general-store-greene", "name": "Summit General Store", "image_url": "https://s3-media3.fl.yelpcdn.com/bphoto/U7Q15gyI951FYEabX7cJyA/o.jpg", "is_closed": false, "url": "https://www.yelp.com/biz/summit-general-store-greene?adjust_creative=pzvBKuEUl0Vl1jtHQqJaog&utm_campaign=yelp_api_v3&utm_medium=api_v3_business_search&utm_source=pzvBKuEUl0Vl1jtHQqJaog", "review_count": 11, "categories": [{"alias": "livestocksupply", "title": "Livestock Feed & Supply"}, {"alias": "delis", "title": "Delis"}], "rating": 4.5, "coordinates": {"latitude": 41.6914606, "longitude": -71.6994328}, "transactions": [], "location": {"address1": "25 Old Summit Rd", "address2": "", "address3": "", "city": "Greene", "zip_code": "02827", "country": "US", "state": "RI", "display_address": ["25 Old Summit Rd", "Greene, RI 02827"]}, "phone": "+14013973366", "display_phone": "(401) 397-3366", "distance": 7406.220264388003}, {"id": "3sr6IW9LtceWJFE1E11mvQ", "alias": "the-knotty-oak-room-coventry", "name": "The Knotty Oak Room", "image_url": "https://s3-media4.fl.yelpcdn.com/bphoto/9VC-RHtfXgyOR5Xz12HRFQ/o.jpg", "is_closed": false, "url": "https://www.yelp.com/biz/the-knotty-oak-room-coventry?adjust_creative=pzvBKuEUl0Vl1jtHQqJaog&utm_campaign=yelp_api_v3&utm_medium=api_v3_business_search&utm_source=pzvBKuEUl0Vl1jtHQqJaog", "review_count": 2, "categories": [{"alias": "cookingschools", "title": "Cooking Schools"}, {"alias": "breakfast_brunch", "title": "Breakfast & Brunch"}], "rating": 5.0, "coordinates": {"latitude": 41.6833224892616, "longitude": -71.5879359841347}, "transactions": [], "location": {"address1": "40 Reservoir Rd", "address2": "", "address3": null, "city": "Coventry", "zip_code": "02816", "country": "US", "state": "RI", "display_address": ["40 Reservoir Rd", "Coventry, RI 02816"]}, "phone": "+14018229499", "display_phone": "(401) 822-9499", "distance": 8996.883868829711}, {"id": "Rt1GaN8fCmq0lnshOMjL2Q", "alias": "bean-barn-ri-coventry", "name": "Bean Barn RI", "image_url": "https://s3-media1.fl.yelpcdn.com/bphoto/DiYgds-g-rV-djDqf4usBQ/o.jpg", "is_closed": false, "url": "https://www.yelp.com/biz/bean-barn-ri-coventry?adjust_creative=pzvBKuEUl0Vl1jtHQqJaog&utm_campaign=yelp_api_v3&utm_medium=api_v3_business_search&utm_source=pzvBKuEUl0Vl1jtHQqJaog", "review_count": 31, "categories": [{"alias": "coffee", "title": "Coffee & Tea"}, {"alias": "breakfast_brunch", "title": "Breakfast & Brunch"}], "rating": 4.5, "coordinates": {"latitude": 41.68431, "longitude": -71.55421}, "transactions": ["delivery"], "location": {"address1": "599 Tiogue Ave", "address2": null, "address3": "", "city": "Coventry", "zip_code": "02816", "country": "US", "state": "RI", "display_address": ["599 Tiogue Ave", "Coventry, RI 02816"]}, "phone": "+14016152662", "display_phone": "(401) 615-2662", "distance": 11280.163896064214}, {"id": "_cIoHf69sU2pIXl6yjYQRQ", "alias": "walts-hot-dogs-exeter", "name": "Walt's Hot Dogs", "image_url": "https://s3-media1.fl.yelpcdn.com/bphoto/_qXV5Iype-ZFPUVIieW8ew/o.jpg", "is_closed": false, "url": "https://www.yelp.com/biz/walts-hot-dogs-exeter?adjust_creative=pzvBKuEUl0Vl1jtHQqJaog&utm_campaign=yelp_api_v3&utm_medium=api_v3_business_search&utm_source=pzvBKuEUl0Vl1jtHQqJaog", "review_count": 7, "categories": [{"alias": "hotdog", "title": "Hot Dogs"}], "rating": 4.5, "coordinates": {"latitude": 41.5791664, "longitude": -71.6018829}, "transactions": [], "price": "$", "location": {"address1": "900 10 Rod Rd", "address2": "", "address3": "", "city": "Exeter", "zip_code": "02822", "country": "US", "state": "RI", "display_address": ["900 10 Rod Rd", "Exeter, RI 02822"]}, "phone": "", "display_phone": "", "distance": 7965.844037057399}, {"id": "LqWeZAe7IK1QjgFrfIG4-A", "alias": "wolf-rocks-catering-exeter", "name": "Wolf Rock's Catering", "image_url": "https://s3-media4.fl.yelpcdn.com/bphoto/G9RLwrFx0u9HvCdtuglq2w/o.jpg", "is_closed": false, "url": "https://www.yelp.com/biz/wolf-rocks-catering-exeter?adjust_creative=pzvBKuEUl0Vl1jtHQqJaog&utm_campaign=yelp_api_v3&utm_medium=api_v3_business_search&utm_source=pzvBKuEUl0Vl1jtHQqJaog", "review_count": 4, "categories": [{"alias": "restaurants", "title": "Restaurants"}], "rating": 5.0, "coordinates": {"latitude": 41.5798683166504, "longitude": -71.576286315918}, "transactions": [], "location": {"address1": null, "address2": "", "address3": "", "city": "Exeter", "zip_code": "02822", "country": "US", "state": "RI", "display_address": ["Exeter, RI 02822"]}, "phone": "+14012944981", "display_phone": "(401) 294-4981", "distance": 6511.8647140849525}, {"id": "mdgpnKPit_lH0WE21gnLtw", "alias": "skips-countryside-cafe-coventry", "name": "Skip's Countryside Cafe", "image_url": "https://s3-media4.fl.yelpcdn.com/bphoto/vXCHSipqlnV5haVoyGoHow/o.jpg", "is_closed": false, "url": "https://www.yelp.com/biz/skips-countryside-cafe-coventry?adjust_creative=pzvBKuEUl0Vl1jtHQqJaog&utm_campaign=yelp_api_v3&utm_medium=api_v3_business_search&utm_source=pzvBKuEUl0Vl1jtHQqJaog", "review_count": 8, "categories": [{"alias": "breakfast_brunch", "title": "Breakfast & Brunch"}], "rating": 3.5, "coordinates": {"latitude": 41.7046810051239, "longitude": -71.6160058425064}, "transactions": ["delivery"], "location": {"address1": "2246 Flat River Rd", "address2": "", "address3": null, "city": "Coventry", "zip_code": "02816", "country": "US", "state": "RI", "display_address": ["2246 Flat River Rd", "Coventry, RI 02816"]}, "phone": "", "display_phone": "", "distance": 9488.452738122785}, {"id": "kAba61pAXVA8TgN5lFDxFA", "alias": "big-daddys-pizza-coventry", "name": "Big Daddy's Pizza", "image_url": "", "is_closed": false, "url": "https://www.yelp.com/biz/big-daddys-pizza-coventry?adjust_creative=pzvBKuEUl0Vl1jtHQqJaog&utm_campaign=yelp_api_v3&utm_medium=api_v3_business_search&utm_source=pzvBKuEUl0Vl1jtHQqJaog", "review_count": 1, "categories": [{"alias": "restaurants", "title": "Restaurants"}], "rating": 5.0, "coordinates": {"latitude": 41.7046809196472, "longitude": -71.6160059720278}, "transactions": [], "location": {"address1": "2246 Flat River Rd", "address2": null, "address3": null, "city": "Coventry", "zip_code": "02816", "country": "US", "state": "RI", "display_address": ["2246 Flat River Rd", "Coventry, RI 02816"]}, "phone": "+14013853660", "display_phone": "(401) 385-3660", "distance": 9488.452738122785}, {"id": "8N_KX5HftuCp-HnCdc45Lw", "alias": "taste-of-china-exeter", "name": "Taste of China", "image_url": "https://s3-media2.fl.yelpcdn.com/bphoto/sU3X4hnqc-Rbyt_Lc3luUg/o.jpg", "is_closed": false, "url": "https://www.yelp.com/biz/taste-of-china-exeter?adjust_creative=pzvBKuEUl0Vl1jtHQqJaog&utm_campaign=yelp_api_v3&utm_medium=api_v3_business_search&utm_source=pzvBKuEUl0Vl1jtHQqJaog", "review_count": 24, "categories": [{"alias": "chinese", "title": "Chinese"}], "rating": 3.5, "coordinates": {"latitude": 41.5271492, "longitude": -71.5512161}, "transactions": [], "price": "$", "location": {"address1": "567 S County Trl", "address2": "Unit 109", "address3": "", "city": "Exeter", "zip_code": "02822", "country": "US", "state": "RI", "display_address": ["567 S County Trl", "Unit 109", "Exeter, RI 02822"]}, "phone": "+14012958886", "display_phone": "(401) 295-8886", "distance": 14820.418798731196}, {"id": "9f35VLW9hBn7Rsrsq9AsPQ", "alias": "seven-moons-coventry-coventry", "name": "Seven Moons Coventry", "image_url": "https://s3-media2.fl.yelpcdn.com/bphoto/UR3lp76Iq2-555-rXPzQRg/o.jpg", "is_closed": false, "url": "https://www.yelp.com/biz/seven-moons-coventry-coventry?adjust_creative=pzvBKuEUl0Vl1jtHQqJaog&utm_campaign=yelp_api_v3&utm_medium=api_v3_business_search&utm_source=pzvBKuEUl0Vl1jtHQqJaog", "review_count": 46, "categories": [{"alias": "chinese", "title": "Chinese"}, {"alias": "seafood", "title": "Seafood"}, {"alias": "asianfusion", "title": "Asian Fusion"}], "rating": 3.5, "coordinates": {"latitude": 41.6806771017338, "longitude": -71.5667840838432}, "transactions": ["delivery"], "location": {"address1": "856 Tiogue Ave", "address2": "", "address3": null, "city": "Coventry", "zip_code": "02816", "country": "US", "state": "RI", "display_address": ["856 Tiogue Ave", "Coventry, RI 02816"]}, "phone": "+14018289998", "display_phone": "(401) 828-9998", "distance": 10205.565662344914}, {"id": "naEyZsIhWLJdGScpIArZVA", "alias": "pagliarinis-family-restaurant-and-pizza-coventry", "name": "Pagliarini's Family Restaurant & Pizza", "image_url": "https://s3-media2.fl.yelpcdn.com/bphoto/PwXbbp6DtCyZ21fZdZbgrA/o.jpg", "is_closed": false, "url": "https://www.yelp.com/biz/pagliarinis-family-restaurant-and-pizza-coventry?adjust_creative=pzvBKuEUl0Vl1jtHQqJaog&utm_campaign=yelp_api_v3&utm_medium=api_v3_business_search&utm_source=pzvBKuEUl0Vl1jtHQqJaog", "review_count": 32, "categories": [{"alias": "pizza", "title": "Pizza"}], "rating": 4.0, "coordinates": {"latitude": 41.6966631, "longitude": -71.5474068}, "transactions": ["delivery"], "price": "$$", "location": {"address1": "637 Washington St", "address2": "", "address3": "", "city": "Coventry", "zip_code": "02816", "country": "US", "state": "RI", "display_address": ["637 Washington St", "Coventry, RI 02816"]}, "phone": "+14018285555", "display_phone": "(401) 828-5555", "distance": 12513.644455933761}, {"id": "Io4C5tUwnb_YzeaMXHBqBA", "alias": "shuckin-truck-narragansett-2", "name": "Shuckin Truck", "image_url": "https://s3-media2.fl.yelpcdn.com/bphoto/r7QRORfe9UYVS7GGzUm9DQ/o.jpg", "is_closed": false, "url": "https://www.yelp.com/biz/shuckin-truck-narragansett-2?adjust_creative=pzvBKuEUl0Vl1jtHQqJaog&utm_campaign=yelp_api_v3&utm_medium=api_v3_business_search&utm_source=pzvBKuEUl0Vl1jtHQqJaog", "review_count": 24, "categories": [{"alias": "foodtrucks", "title": "Food Trucks"}, {"alias": "seafood", "title": "Seafood"}], "rating": 4.5, "coordinates": {"latitude": 41.4274482727051, "longitude": -71.4597778320313}, "transactions": [], "price": "$$", "location": {"address1": "", "address2": "", "address3": "", "city": "Narragansett", "zip_code": "02882", "country": "US", "state": "RI", "display_address": ["Narragansett, RI 02882"]}, "phone": "+14017415953", "display_phone": "(401) 741-5953", "distance": 29610.819359016517}, {"id": "-ywXNp1-Pw_cH4KRb9W_Bg", "alias": "rufinos-pizzeria-scituate", "name": "Rufinos Pizzeria", "image_url": "https://s3-media1.fl.yelpcdn.com/bphoto/a1LrkZE-JOUjFnMEF1LCFg/o.jpg", "is_closed": false, "url": "https://www.yelp.com/biz/rufinos-pizzeria-scituate?adjust_creative=pzvBKuEUl0Vl1jtHQqJaog&utm_campaign=yelp_api_v3&utm_medium=api_v3_business_search&utm_source=pzvBKuEUl0Vl1jtHQqJaog", "review_count": 15, "categories": [{"alias": "pizza", "title": "Pizza"}], "rating": 3.5, "coordinates": {"latitude": 41.7304469480088, "longitude": -71.5635037782368}, "transactions": ["pickup", "delivery"], "location": {"address1": "4 Hope Furnace Rd", "address2": "", "address3": null, "city": "Scituate", "zip_code": "02831", "country": "US", "state": "RI", "display_address": ["4 Hope Furnace Rd", "Scituate, RI 02831"]}, "phone": "+14018261444", "display_phone": "(401) 826-1444", "distance": 14264.122645236237}, {"id": "5eMxaIRXjDJwIFpItdUEkg", "alias": "filippous-twisted-pizza-coventry-2", "name": "Filippou's Twisted Pizza", "image_url": "https://s3-media2.fl.yelpcdn.com/bphoto/noeMBbfqrTWGue3MDRLDuQ/o.jpg", "is_closed": false, "url": "https://www.yelp.com/biz/filippous-twisted-pizza-coventry-2?adjust_creative=pzvBKuEUl0Vl1jtHQqJaog&utm_campaign=yelp_api_v3&utm_medium=api_v3_business_search&utm_source=pzvBKuEUl0Vl1jtHQqJaog", "review_count": 64, "categories": [{"alias": "pizza", "title": "Pizza"}, {"alias": "italian", "title": "Italian"}, {"alias": "greek", "title": "Greek"}], "rating": 2.5, "coordinates": {"latitude": 41.6804008, "longitude": -71.5721207}, "transactions": ["delivery"], "price": "$$", "location": {"address1": "915 Tiogue Ave", "address2": "", "address3": "", "city": "Coventry", "zip_code": "02816", "country": "US", "state": "RI", "display_address": ["915 Tiogue Ave", "Coventry, RI 02816"]}, "phone": "+14016153684", "display_phone": "(401) 615-3684", "distance": 9904.71158000538}, {"id": "ETEkkS4q7--Fko812VFWdw", "alias": "the-cozy-grill-coventry", "name": "The Cozy Grill", "image_url": "https://s3-media1.fl.yelpcdn.com/bphoto/b901C9H6hPzMgtz2wsmODw/o.jpg", "is_closed": false, "url": "https://www.yelp.com/biz/the-cozy-grill-coventry?adjust_creative=pzvBKuEUl0Vl1jtHQqJaog&utm_campaign=yelp_api_v3&utm_medium=api_v3_business_search&utm_source=pzvBKuEUl0Vl1jtHQqJaog", "review_count": 60, "categories": [{"alias": "tradamerican", "title": "American (Traditional)"}], "rating": 3.5, "coordinates": {"latitude": 41.68542, "longitude": -71.54853}, "transactions": ["delivery"], "price": "$", "location": {"address1": "473 Tiogue Ave", "address2": "", "address3": "", "city": "Coventry", "zip_code": "02816", "country": "US", "state": "RI", "display_address": ["473 Tiogue Ave", "Coventry, RI 02816"]}, "phone": "+14018213440", "display_phone": "(401) 821-3440", "distance": 11791.410554984192}, {"id": "_DAFln0Oz6DVxSnYeK2LEg", "alias": "depetrillos-pizza-and-bakery-coventry", "name": "Depetrillo's Pizza & Bakery", "image_url": "https://s3-media2.fl.yelpcdn.com/bphoto/qW76wpQ6naCrGEob3dP8tA/o.jpg", "is_closed": false, "url": "https://www.yelp.com/biz/depetrillos-pizza-and-bakery-coventry?adjust_creative=pzvBKuEUl0Vl1jtHQqJaog&utm_campaign=yelp_api_v3&utm_medium=api_v3_business_search&utm_source=pzvBKuEUl0Vl1jtHQqJaog", "review_count": 22, "categories": [{"alias": "pizza", "title": "Pizza"}], "rating": 4.0, "coordinates": {"latitude": 41.6818447, "longitude": -71.5643141}, "transactions": ["delivery"], "price": "$", "location": {"address1": "797 Tiogue Ave", "address2": "", "address3": "", "city": "Coventry", "zip_code": "02816", "country": "US", "state": "RI", "display_address": ["797 Tiogue Ave", "Coventry, RI 02816"]}, "phone": "+14018284300", "display_phone": "(401) 828-4300", "distance": 10452.223715360964}, {"id": "xuUJmrnyBQO6tcnlfMm3Pg", "alias": "401-deli-exeter", "name": "401 Deli", "image_url": "", "is_closed": false, "url": "https://www.yelp.com/biz/401-deli-exeter?adjust_creative=pzvBKuEUl0Vl1jtHQqJaog&utm_campaign=yelp_api_v3&utm_medium=api_v3_business_search&utm_source=pzvBKuEUl0Vl1jtHQqJaog", "review_count": 1, "categories": [{"alias": "italian", "title": "Italian"}, {"alias": "delis", "title": "Delis"}, {"alias": "tradamerican", "title": "American (Traditional)"}], "rating": 3.0, "coordinates": {"latitude": 41.527393, "longitude": -71.552181}, "transactions": [], "location": {"address1": "567 S County Trl", "address2": "Ste 206", "address3": "", "city": "Exeter", "zip_code": "02822", "country": "US", "state": "RI", "display_address": ["567 S County Trl", "Ste 206", "Exeter, RI 02822"]}, "phone": "+14016676148", "display_phone": "(401) 667-6148", "distance": 14820.418798731196}, {"id": "JzzOQvIrC6jq6rYL0eIzTA", "alias": "jws-pub-coventry", "name": "Jw's Pub", "image_url": "https://s3-media2.fl.yelpcdn.com/bphoto/zU2UuWxz9GW7i2O-GKb3pg/o.jpg", "is_closed": false, "url": "https://www.yelp.com/biz/jws-pub-coventry?adjust_creative=pzvBKuEUl0Vl1jtHQqJaog&utm_campaign=yelp_api_v3&utm_medium=api_v3_business_search&utm_source=pzvBKuEUl0Vl1jtHQqJaog", "review_count": 31, "categories": [{"alias": "chicken_wings", "title": "Chicken Wings"}, {"alias": "burgers", "title": "Burgers"}, {"alias": "cocktailbars", "title": "Cocktail Bars"}], "rating": 4.5, "coordinates": {"latitude": 41.6956, "longitude": -71.53568}, "transactions": ["delivery"], "price": "$$", "location": {"address1": "433 Washington St", "address2": null, "address3": "", "city": "Coventry", "zip_code": "02816", "country": "US", "state": "RI", "display_address": ["433 Washington St", "Coventry, RI 02816"]}, "phone": "+14012623350", "display_phone": "(401) 262-3350", "distance": 13286.737193247867}, {"id": "BKZJqQX8IGDqEg2kGNHCzQ", "alias": "harris-bar-and-grill-coventry", "name": "Harris Bar & Grill", "image_url": "https://s3-media2.fl.yelpcdn.com/bphoto/Bxsh-4B0QwUiaqsi9gpwbg/o.jpg", "is_closed": false, "url": "https://www.yelp.com/biz/harris-bar-and-grill-coventry?adjust_creative=pzvBKuEUl0Vl1jtHQqJaog&utm_campaign=yelp_api_v3&utm_medium=api_v3_business_search&utm_source=pzvBKuEUl0Vl1jtHQqJaog", "review_count": 26, "categories": [{"alias": "bars", "title": "Bars"}, {"alias": "italian", "title": "Italian"}, {"alias": "newamerican", "title": "American (New)"}], "rating": 4.0, "coordinates": {"latitude": 41.7234, "longitude": -71.53452}, "transactions": ["delivery"], "price": "$$", "location": {"address1": "666 Main St", "address2": "", "address3": "", "city": "Coventry", "zip_code": "02816", "country": "US", "state": "RI", "display_address": ["666 Main St", "Coventry, RI 02816"]}, "phone": "+14018239178", "display_phone": "(401) 823-9178", "distance": 15335.95761396396}, {"id": "y1Ot4lNCCbl0AivjxnDAbg", "alias": "dragon-palace-coventry", "name": "Dragon Palace", "image_url": "https://s3-media2.fl.yelpcdn.com/bphoto/Uz7fYCw4eaSqKWosTjNiTg/o.jpg", "is_closed": false, "url": "https://www.yelp.com/biz/dragon-palace-coventry?adjust_creative=pzvBKuEUl0Vl1jtHQqJaog&utm_campaign=yelp_api_v3&utm_medium=api_v3_business_search&utm_source=pzvBKuEUl0Vl1jtHQqJaog", "review_count": 84, "categories": [{"alias": "chinese", "title": "Chinese"}, {"alias": "sushi", "title": "Sushi Bars"}, {"alias": "japanese", "title": "Japanese"}], "rating": 3.5, "coordinates": {"latitude": 41.68498, "longitude": -71.55182}, "transactions": ["delivery"], "price": "$$", "location": {"address1": "577 Tiogue Ave", "address2": "", "address3": "", "city": "Coventry", "zip_code": "02816", "country": "US", "state": "RI", "display_address": ["577 Tiogue Ave", "Coventry, RI 02816"]}, "phone": "+14018280100", "display_phone": "(401) 828-0100", "distance": 11369.777413579628}, {"id": "KaFVuy14xgPM_3jkp2ngPA", "alias": "big-dawggs-griswold", "name": "Big Dawggs", "image_url": "https://s3-media2.fl.yelpcdn.com/bphoto/Cz3hfpM0JRXf2_4arj1dgQ/o.jpg", "is_closed": false, "url": "https://www.yelp.com/biz/big-dawggs-griswold?adjust_creative=pzvBKuEUl0Vl1jtHQqJaog&utm_campaign=yelp_api_v3&utm_medium=api_v3_business_search&utm_source=pzvBKuEUl0Vl1jtHQqJaog", "review_count": 8, "categories": [{"alias": "hotdog", "title": "Hot Dogs"}, {"alias": "foodtrucks", "title": "Food Trucks"}], "rating": 4.0, "coordinates": {"latitude": 41.5824783917777, "longitude": -71.9147496200406}, "transactions": [], "price": "$", "location": {"address1": "1111 Voluntown Rd", "address2": "", "address3": "", "city": "Griswold", "zip_code": "06351", "country": "US", "state": "CT", "display_address": ["1111 Voluntown Rd", "Griswold, CT 06351"]}, "phone": "+18603349778", "display_phone": "(860) 334-9778", "distance": 21152.156104820242}, {"id": "89rHKhlbuRnnfyyV7NG_IQ", "alias": "weideles-pizza-and-pub-sterling", "name": "Weidele's Pizza & Pub", "image_url": "https://s3-media3.fl.yelpcdn.com/bphoto/0dmNJRsOjrq1cQoYhqWIXg/o.jpg", "is_closed": false, "url": "https://www.yelp.com/biz/weideles-pizza-and-pub-sterling?adjust_creative=pzvBKuEUl0Vl1jtHQqJaog&utm_campaign=yelp_api_v3&utm_medium=api_v3_business_search&utm_source=pzvBKuEUl0Vl1jtHQqJaog", "review_count": 18, "categories": [{"alias": "pizza", "title": "Pizza"}, {"alias": "beer_and_wine", "title": "Beer, Wine & Spirits"}], "rating": 3.5, "coordinates": {"latitude": 41.6991157531738, "longitude": -71.7943725585938}, "transactions": ["delivery"], "price": "$$", "location": {"address1": "901 Sterling Rd", "address2": "", "address3": "", "city": "Sterling", "zip_code": "06377", "country": "US", "state": "CT", "display_address": ["901 Sterling Rd", "Sterling, CT 06377"]}, "phone": "+18605646680", "display_phone": "(860) 564-6680", "distance": 13106.029990659927}, {"id": "xa6Ysy_MN0gMmfMzbZOz_g", "alias": "hash-ny-system-coventry", "name": "Hash Ny System", "image_url": "https://s3-media2.fl.yelpcdn.com/bphoto/TyhuQl_lu6oSuryltZ4kvw/o.jpg", "is_closed": false, "url": "https://www.yelp.com/biz/hash-ny-system-coventry?adjust_creative=pzvBKuEUl0Vl1jtHQqJaog&utm_campaign=yelp_api_v3&utm_medium=api_v3_business_search&utm_source=pzvBKuEUl0Vl1jtHQqJaog", "review_count": 3, "categories": [{"alias": "breakfast_brunch", "title": "Breakfast & Brunch"}, {"alias": "diners", "title": "Diners"}], "rating": 4.5, "coordinates": {"latitude": 41.7236, "longitude": -71.53469}, "transactions": [], "location": {"address1": "656 Main St", "address2": null, "address3": "", "city": "Coventry", "zip_code": "02816", "country": "US", "state": "RI", "display_address": ["656 Main St", "Coventry, RI 02816"]}, "phone": "+14013208476", "display_phone": "(401) 320-8476", "distance": 15313.848847742362}, {"id": "A6z565n125C9LeO0V5-B1g", "alias": "harris-deli-and-catering-coventry", "name": "Harris Deli & Catering", "image_url": "https://s3-media3.fl.yelpcdn.com/bphoto/yEHhKwA6IWbnsGElp8DzFQ/o.jpg", "is_closed": false, "url": "https://www.yelp.com/biz/harris-deli-and-catering-coventry?adjust_creative=pzvBKuEUl0Vl1jtHQqJaog&utm_campaign=yelp_api_v3&utm_medium=api_v3_business_search&utm_source=pzvBKuEUl0Vl1jtHQqJaog", "review_count": 1, "categories": [{"alias": "catering", "title": "Caterers"}, {"alias": "delis", "title": "Delis"}], "rating": 4.0, "coordinates": {"latitude": 41.7241005867093, "longitude": -71.5352952447634}, "transactions": [], "location": {"address1": "656 Main St", "address2": "", "address3": "", "city": "Coventry", "zip_code": "02816", "country": "US", "state": "RI", "display_address": ["656 Main St", "Coventry, RI 02816"]}, "phone": "+14018256044", "display_phone": "(401) 825-6044", "distance": 15300.891528809076}, {"id": "v6v4QHrH2DDYC-0S4Y7clg", "alias": "china-star-coventry", "name": "China Star", "image_url": "https://s3-media3.fl.yelpcdn.com/bphoto/buHJuhAKLmU9t79sNfFFHA/o.jpg", "is_closed": false, "url": "https://www.yelp.com/biz/china-star-coventry?adjust_creative=pzvBKuEUl0Vl1jtHQqJaog&utm_campaign=yelp_api_v3&utm_medium=api_v3_business_search&utm_source=pzvBKuEUl0Vl1jtHQqJaog", "review_count": 7, "categories": [{"alias": "chinese", "title": "Chinese"}], "rating": 2.5, "coordinates": {"latitude": 41.6799255514718, "longitude": -71.5751858933867}, "transactions": ["delivery"], "price": "$", "location": {"address1": "1028 Tiogue Ave", "address2": "", "address3": "", "city": "Coventry", "zip_code": "02816", "country": "US", "state": "RI", "display_address": ["1028 Tiogue Ave", "Coventry, RI 02816"]}, "phone": "+14018283127", "display_phone": "(401) 828-3127", "distance": 9406.447190642664}, {"id": "Q3mqox1cSd9dc8H7jxR5Vw", "alias": "rick-and-dees-restaurant-coventry-2", "name": "Rick & Dee's Restaurant", "image_url": "https://s3-media4.fl.yelpcdn.com/bphoto/OaNmJmliF6KY776gsfrtMQ/o.jpg", "is_closed": false, "url": "https://www.yelp.com/biz/rick-and-dees-restaurant-coventry-2?adjust_creative=pzvBKuEUl0Vl1jtHQqJaog&utm_campaign=yelp_api_v3&utm_medium=api_v3_business_search&utm_source=pzvBKuEUl0Vl1jtHQqJaog", "review_count": 27, "categories": [{"alias": "cafes", "title": "Cafes"}, {"alias": "diners", "title": "Diners"}, {"alias": "breakfast_brunch", "title": "Breakfast & Brunch"}], "rating": 4.0, "coordinates": {"latitude": 41.692641, "longitude": -71.557161}, "transactions": ["delivery"], "price": "$", "location": {"address1": "17 Knotty Oak Rd", "address2": "", "address3": "", "city": "Coventry", "zip_code": "02816", "country": "US", "state": "RI", "display_address": ["17 Knotty Oak Rd", "Coventry, RI 02816"]}, "phone": "+14018283732", "display_phone": "(401) 828-3732", "distance": 11665.422569961605}, {"id": "tqlA_83iMMRHuM6Myas54g", "alias": "cracker-barrel-old-country-store-coventry", "name": "Cracker Barrel Old Country Store", "image_url": "https://s3-media2.fl.yelpcdn.com/bphoto/DX_zg6vPSdndmCWtmO_XxQ/o.jpg", "is_closed": false, "url": "https://www.yelp.com/biz/cracker-barrel-old-country-store-coventry?adjust_creative=pzvBKuEUl0Vl1jtHQqJaog&utm_campaign=yelp_api_v3&utm_medium=api_v3_business_search&utm_source=pzvBKuEUl0Vl1jtHQqJaog", "review_count": 109, "categories": [{"alias": "breakfast_brunch", "title": "Breakfast & Brunch"}, {"alias": "southern", "title": "Southern"}, {"alias": "tradamerican", "title": "American (Traditional)"}], "rating": 3.5, "coordinates": {"latitude": 41.6610866832823, "longitude": -71.5464437755205}, "transactions": ["delivery"], "price": "$$", "location": {"address1": "825 Centre Of New England Blvd", "address2": "", "address3": "", "city": "Coventry", "zip_code": "02816", "country": "US", "state": "RI", "display_address": ["825 Centre Of New England Blvd", "Coventry, RI 02816"]}, "phone": "+14018278015", "display_phone": "(401) 827-8015", "distance": 10722.06555246149}, {"id": "71FertrAXhU6puMwBnjMPQ", "alias": "santoros-pizza-coventry", "name": "Santoros Pizza", "image_url": "https://s3-media1.fl.yelpcdn.com/bphoto/o_aiVb0WhakbbTVKbjDfrg/o.jpg", "is_closed": false, "url": "https://www.yelp.com/biz/santoros-pizza-coventry?adjust_creative=pzvBKuEUl0Vl1jtHQqJaog&utm_campaign=yelp_api_v3&utm_medium=api_v3_business_search&utm_source=pzvBKuEUl0Vl1jtHQqJaog", "review_count": 30, "categories": [{"alias": "pizza", "title": "Pizza"}], "rating": 3.0, "coordinates": {"latitude": 41.68359, "longitude": -71.55836}, "transactions": ["delivery"], "price": "$", "location": {"address1": "687 Tiogue Ave", "address2": "", "address3": "", "city": "Coventry", "zip_code": "02816", "country": "US", "state": "RI", "display_address": ["687 Tiogue Ave", "Coventry, RI 02816"]}, "phone": "+14018216342", "display_phone": "(401) 821-6342", "distance": 10969.954737619393}, {"id": "QfH8gfhXwfP8mQ_YRSX-CA", "alias": "phenix-square-restaurant-west-warwick", "name": "Phenix Square Restaurant", "image_url": "https://s3-media3.fl.yelpcdn.com/bphoto/xCym9lRhAfCzyesfDZx9cg/o.jpg", "is_closed": false, "url": "https://www.yelp.com/biz/phenix-square-restaurant-west-warwick?adjust_creative=pzvBKuEUl0Vl1jtHQqJaog&utm_campaign=yelp_api_v3&utm_medium=api_v3_business_search&utm_source=pzvBKuEUl0Vl1jtHQqJaog", "review_count": 10, "categories": [{"alias": "restaurants", "title": "Restaurants"}], "rating": 3.5, "coordinates": {"latitude": 41.72131, "longitude": -71.531845}, "transactions": [], "price": "$", "location": {"address1": "9 Pleasant St", "address2": "", "address3": "", "city": "West Warwick", "zip_code": "02893", "country": "US", "state": "RI", "display_address": ["9 Pleasant St", "West Warwick, RI 02893"]}, "phone": "+14018288110", "display_phone": "(401) 828-8110", "distance": 15297.869544837085}, {"id": "73RtjdZtOOnIaOAw371doA", "alias": "effie-filippous-twisted-pizza-exeter", "name": "Effie Filippou's Twisted Pizza", "image_url": "https://s3-media1.fl.yelpcdn.com/bphoto/47o8X7BiLjTCuV7a7MDjvA/o.jpg", "is_closed": false, "url": "https://www.yelp.com/biz/effie-filippous-twisted-pizza-exeter?adjust_creative=pzvBKuEUl0Vl1jtHQqJaog&utm_campaign=yelp_api_v3&utm_medium=api_v3_business_search&utm_source=pzvBKuEUl0Vl1jtHQqJaog", "review_count": 60, "categories": [{"alias": "pizza", "title": "Pizza"}, {"alias": "greek", "title": "Greek"}, {"alias": "bars", "title": "Bars"}], "rating": 2.5, "coordinates": {"latitude": 41.527177, "longitude": -71.5523615}, "transactions": [], "price": "$$", "location": {"address1": "567 S County Trl", "address2": "", "address3": "Oak Harbour Plz", "city": "Exeter", "zip_code": "02822", "country": "US", "state": "RI", "display_address": ["567 S County Trl", "Oak Harbour Plz", "Exeter, RI 02822"]}, "phone": "+14012949767", "display_phone": "(401) 294-9767", "distance": 14819.555134672259}, {"id": "XBNvv5TmctLFauyOvSA5BQ", "alias": "hunan-balcony-coventry", "name": "Hunan Balcony", "image_url": "https://s3-media1.fl.yelpcdn.com/bphoto/at0dv7GAsatur6jG7DPBXg/o.jpg", "is_closed": false, "url": "https://www.yelp.com/biz/hunan-balcony-coventry?adjust_creative=pzvBKuEUl0Vl1jtHQqJaog&utm_campaign=yelp_api_v3&utm_medium=api_v3_business_search&utm_source=pzvBKuEUl0Vl1jtHQqJaog", "review_count": 22, "categories": [{"alias": "chinese", "title": "Chinese"}], "rating": 4.0, "coordinates": {"latitude": 41.69493, "longitude": -71.55028}, "transactions": ["delivery"], "price": "$", "location": {"address1": "687 Washington St", "address2": "", "address3": "", "city": "Coventry", "zip_code": "02816", "country": "US", "state": "RI", "display_address": ["687 Washington St", "Coventry, RI 02816"]}, "phone": "+14018263833", "display_phone": "(401) 826-3833", "distance": 12237.275176395593}, {"id": "iaMsPxpHooLTB1fn5sQhNQ", "alias": "dennys-coventry-2", "name": "Denny's", "image_url": "https://s3-media2.fl.yelpcdn.com/bphoto/KgfukAZdeAq1IdJQf-lLyA/o.jpg", "is_closed": false, "url": "https://www.yelp.com/biz/dennys-coventry-2?adjust_creative=pzvBKuEUl0Vl1jtHQqJaog&utm_campaign=yelp_api_v3&utm_medium=api_v3_business_search&utm_source=pzvBKuEUl0Vl1jtHQqJaog", "review_count": 56, "categories": [{"alias": "tradamerican", "title": "American (Traditional)"}, {"alias": "breakfast_brunch", "title": "Breakfast & Brunch"}, {"alias": "diners", "title": "Diners"}], "rating": 3.5, "coordinates": {"latitude": 41.6608978145257, "longitude": -71.5475553274155}, "transactions": ["pickup", "delivery"], "price": "$", "location": {"address1": "785 Centre Of New England Blvd", "address2": "", "address3": "", "city": "Coventry", "zip_code": "02816", "country": "US", "state": "RI", "display_address": ["785 Centre Of New England Blvd", "Coventry, RI 02816"]}, "phone": "+14018270321", "display_phone": "(401) 827-0321", "distance": 10628.046493802507}, {"id": "DOEsdOVLcsaeWv40cc6uwg", "alias": "silver-lake-pizza-coventry", "name": "Silver Lake Pizza", "image_url": "https://s3-media1.fl.yelpcdn.com/bphoto/cme0jtAnlSP1k3KLDqOdXQ/o.jpg", "is_closed": false, "url": "https://www.yelp.com/biz/silver-lake-pizza-coventry?adjust_creative=pzvBKuEUl0Vl1jtHQqJaog&utm_campaign=yelp_api_v3&utm_medium=api_v3_business_search&utm_source=pzvBKuEUl0Vl1jtHQqJaog", "review_count": 29, "categories": [{"alias": "pizza", "title": "Pizza"}], "rating": 3.0, "coordinates": {"latitude": 41.690165, "longitude": -71.5656077}, "transactions": ["delivery"], "price": "$", "location": {"address1": "1146 Main St", "address2": "", "address3": "", "city": "Coventry", "zip_code": "02816", "country": "US", "state": "RI", "display_address": ["1146 Main St", "Coventry, RI 02816"]}, "phone": "+14018287810", "display_phone": "(401) 828-7810", "distance": 10914.471697145027}, {"id": "Vg2zmPYCyuj30YFlpzxYHQ", "alias": "applebees-grill-bar-coventry-2", "name": "Applebee's Grill + Bar", "image_url": "https://s3-media4.fl.yelpcdn.com/bphoto/MRc2jBUKL1DVfRklGmOzEw/o.jpg", "is_closed": false, "url": "https://www.yelp.com/biz/applebees-grill-bar-coventry-2?adjust_creative=pzvBKuEUl0Vl1jtHQqJaog&utm_campaign=yelp_api_v3&utm_medium=api_v3_business_search&utm_source=pzvBKuEUl0Vl1jtHQqJaog", "review_count": 60, "categories": [{"alias": "sportsbars", "title": "Sports Bars"}, {"alias": "burgers", "title": "Burgers"}, {"alias": "tradamerican", "title": "American (Traditional)"}], "rating": 3.0, "coordinates": {"latitude": 41.662083, "longitude": -71.546476}, "transactions": ["delivery"], "price": "$$", "location": {"address1": "830 Centre Of New England Blvd", "address2": "", "address3": "", "city": "Coventry", "zip_code": "02816", "country": "US", "state": "RI", "display_address": ["830 Centre Of New England Blvd", "Coventry, RI 02816"]}, "phone": "+14018260057", "display_phone": "(401) 826-0057", "distance": 10757.305363171266}, {"id": "PA8jmW13s8RMMADIWwyMnQ", "alias": "d-angelo-sandwich-shops-coventry", "name": "D'angelo Sandwich Shops", "image_url": "https://s3-media4.fl.yelpcdn.com/bphoto/kjHUd-R2pAOKXu-YIdf7zA/o.jpg", "is_closed": false, "url": "https://www.yelp.com/biz/d-angelo-sandwich-shops-coventry?adjust_creative=pzvBKuEUl0Vl1jtHQqJaog&utm_campaign=yelp_api_v3&utm_medium=api_v3_business_search&utm_source=pzvBKuEUl0Vl1jtHQqJaog", "review_count": 24, "categories": [{"alias": "sandwiches", "title": "Sandwiches"}], "rating": 2.5, "coordinates": {"latitude": 41.6818669, "longitude": -71.56422}, "transactions": ["delivery"], "price": "$", "location": {"address1": "795 Tiogue Ave", "address2": "", "address3": "", "city": "Coventry", "zip_code": "02816", "country": "US", "state": "RI", "display_address": ["795 Tiogue Ave", "Coventry, RI 02816"]}, "phone": "+14018219760", "display_phone": "(401) 821-9760", "distance": 10457.588020273863}, {"id": "xgPjlQQ4ZYiqHPHKiomVXw", "alias": "the-cone-zone-exeter", "name": "The Cone Zone", "image_url": "", "is_closed": false, "url": "https://www.yelp.com/biz/the-cone-zone-exeter?adjust_creative=pzvBKuEUl0Vl1jtHQqJaog&utm_campaign=yelp_api_v3&utm_medium=api_v3_business_search&utm_source=pzvBKuEUl0Vl1jtHQqJaog", "review_count": 2, "categories": [{"alias": "hotdogs", "title": "Fast Food"}], "rating": 5.0, "coordinates": {"latitude": 41.52592, "longitude": -71.55203}, "transactions": [], "location": {"address1": "567 S County Trl", "address2": "", "address3": "", "city": "Exeter", "zip_code": "02822", "country": "US", "state": "RI", "display_address": ["567 S County Trl", "Exeter, RI 02822"]}, "phone": "+14016677644", "display_phone": "(401) 667-7644", "distance": 14820.418798731196}, {"id": "KteX1CYSyHNhiambfEX1Kg", "alias": "bill-s-place-west-warwick", "name": "Bill\u2019s Place", "image_url": "https://s3-media4.fl.yelpcdn.com/bphoto/0B2lK_5AUHMGa6Hw2KnvqQ/o.jpg", "is_closed": false, "url": "https://www.yelp.com/biz/bill-s-place-west-warwick?adjust_creative=pzvBKuEUl0Vl1jtHQqJaog&utm_campaign=yelp_api_v3&utm_medium=api_v3_business_search&utm_source=pzvBKuEUl0Vl1jtHQqJaog", "review_count": 62, "categories": [{"alias": "pizza", "title": "Pizza"}, {"alias": "tradamerican", "title": "American (Traditional)"}], "rating": 4.0, "coordinates": {"latitude": 41.72237, "longitude": -71.53388}, "transactions": ["delivery"], "price": "$$", "location": {"address1": "707 Main St", "address2": "", "address3": "", "city": "West Warwick", "zip_code": "02893", "country": "US", "state": "RI", "display_address": ["707 Main St", "West Warwick, RI 02893"]}, "phone": "+14018282300", "display_phone": "(401) 828-2300", "distance": 15246.092904490133}, {"id": "AU5AMYRhIbfPVMjzKXgm1A", "alias": "mcdonalds-coventry", "name": "McDonald's", "image_url": "https://s3-media2.fl.yelpcdn.com/bphoto/hZ-DGvx5ph-y3ZfUvt5roA/o.jpg", "is_closed": false, "url": "https://www.yelp.com/biz/mcdonalds-coventry?adjust_creative=pzvBKuEUl0Vl1jtHQqJaog&utm_campaign=yelp_api_v3&utm_medium=api_v3_business_search&utm_source=pzvBKuEUl0Vl1jtHQqJaog", "review_count": 16, "categories": [{"alias": "hotdogs", "title": "Fast Food"}, {"alias": "burgers", "title": "Burgers"}, {"alias": "coffee", "title": "Coffee & Tea"}], "rating": 2.5, "coordinates": {"latitude": 41.6789552, "longitude": -71.5803139}, "transactions": ["delivery"], "price": "$", "location": {"address1": "1100 Tiogue Ave", "address2": "", "address3": "", "city": "Coventry", "zip_code": "02816", "country": "US", "state": "RI", "display_address": ["1100 Tiogue Ave", "Coventry, RI 02816"]}, "phone": "+14018280492", "display_phone": "(401) 828-0492", "distance": 9194.069997451463}, {"id": "CrHHS4l6aNanWIxaH3Xa7A", "alias": "mcdonalds-east-greenwich-4", "name": "McDonald's", "image_url": "https://s3-media1.fl.yelpcdn.com/bphoto/QVuoPbEeJoDjap57mtu8RA/o.jpg", "is_closed": false, "url": "https://www.yelp.com/biz/mcdonalds-east-greenwich-4?adjust_creative=pzvBKuEUl0Vl1jtHQqJaog&utm_campaign=yelp_api_v3&utm_medium=api_v3_business_search&utm_source=pzvBKuEUl0Vl1jtHQqJaog", "review_count": 8, "categories": [{"alias": "coffee", "title": "Coffee & Tea"}, {"alias": "burgers", "title": "Burgers"}, {"alias": "hotdogs", "title": "Fast Food"}], "rating": 1.5, "coordinates": {"latitude": 41.6606861, "longitude": -71.5457498}, "transactions": ["delivery"], "price": "$", "location": {"address1": "2500 New London Tpke", "address2": null, "address3": null, "city": "East Greenwich", "zip_code": "02818", "country": "US", "state": "RI", "display_address": ["2500 New London Tpke", "East Greenwich, RI 02818"]}, "phone": "+14018214900", "display_phone": "(401) 821-4900", "distance": 10836.635734166905}, {"id": "6TV0UD9j0etjrw3wx22uDQ", "alias": "pjs-diner-coventry", "name": "Pj's Diner", "image_url": "https://s3-media2.fl.yelpcdn.com/bphoto/3LU86BrEI8csc1FUcg8FVA/o.jpg", "is_closed": false, "url": "https://www.yelp.com/biz/pjs-diner-coventry?adjust_creative=pzvBKuEUl0Vl1jtHQqJaog&utm_campaign=yelp_api_v3&utm_medium=api_v3_business_search&utm_source=pzvBKuEUl0Vl1jtHQqJaog", "review_count": 17, "categories": [{"alias": "restaurants", "title": "Restaurants"}], "rating": 3.0, "coordinates": {"latitude": 41.68383, "longitude": -71.55507}, "transactions": [], "price": "$", "location": {"address1": "608 Tiogue Ave", "address2": "", "address3": "", "city": "Coventry", "zip_code": "02816", "country": "US", "state": "RI", "display_address": ["608 Tiogue Ave", "Coventry, RI 02816"]}, "phone": "+14018237850", "display_phone": "(401) 823-7850", "distance": 11219.050393634141}, {"id": "PcDniXVSocYaB1OTFGtL6Q", "alias": "burger-king-coventry-3", "name": "Burger King", "image_url": "https://s3-media2.fl.yelpcdn.com/bphoto/-2P7HubbQsqra9llzi9TJA/o.jpg", "is_closed": false, "url": "https://www.yelp.com/biz/burger-king-coventry-3?adjust_creative=pzvBKuEUl0Vl1jtHQqJaog&utm_campaign=yelp_api_v3&utm_medium=api_v3_business_search&utm_source=pzvBKuEUl0Vl1jtHQqJaog", "review_count": 6, "categories": [{"alias": "burgers", "title": "Burgers"}, {"alias": "hotdogs", "title": "Fast Food"}], "rating": 2.0, "coordinates": {"latitude": 41.6795725, "longitude": -71.58165517}, "transactions": [], "price": "$", "location": {"address1": "1145 Tioque Ave", "address2": "", "address3": "", "city": "Coventry", "zip_code": "02816", "country": "US", "state": "RI", "display_address": ["1145 Tioque Ave", "Coventry, RI 02816"]}, "phone": "", "display_phone": "", "distance": 9119.707550742034}, {"id": "kC2gFX50NfQ2Hk4O0hCBIg", "alias": "taco-bell-coventry", "name": "Taco Bell", "image_url": "https://s3-media1.fl.yelpcdn.com/bphoto/9TbNPYn6RV4AljcUsaLwHQ/o.jpg", "is_closed": false, "url": "https://www.yelp.com/biz/taco-bell-coventry?adjust_creative=pzvBKuEUl0Vl1jtHQqJaog&utm_campaign=yelp_api_v3&utm_medium=api_v3_business_search&utm_source=pzvBKuEUl0Vl1jtHQqJaog", "review_count": 12, "categories": [{"alias": "hotdogs", "title": "Fast Food"}, {"alias": "tacos", "title": "Tacos"}], "rating": 2.0, "coordinates": {"latitude": 41.682092, "longitude": -71.563344}, "transactions": ["delivery"], "price": "$", "location": {"address1": "784 Tiogue Ave", "address2": "", "address3": "", "city": "Coventry", "zip_code": "02816", "country": "US", "state": "RI", "display_address": ["784 Tiogue Ave", "Coventry, RI 02816"]}, "phone": "+14018219980", "display_phone": "(401) 821-9980", "distance": 10530.151365407612}, {"id": "oXi5uZqBHaRN-9LfbTz4iw", "alias": "solarcart-cafe-wakefield", "name": "SolarCart Cafe", "image_url": "https://s3-media3.fl.yelpcdn.com/bphoto/2jnm4N-kA74C1G385wcvjw/o.jpg", "is_closed": false, "url": "https://www.yelp.com/biz/solarcart-cafe-wakefield?adjust_creative=pzvBKuEUl0Vl1jtHQqJaog&utm_campaign=yelp_api_v3&utm_medium=api_v3_business_search&utm_source=pzvBKuEUl0Vl1jtHQqJaog", "review_count": 5, "categories": [{"alias": "foodtrucks", "title": "Food Trucks"}, {"alias": "cafes", "title": "Cafes"}], "rating": 5.0, "coordinates": {"latitude": 41.3783548485934, "longitude": -71.5497396899248}, "transactions": [], "location": {"address1": "344 Main St", "address2": "", "address3": null, "city": "Wakefield", "zip_code": "02879", "country": "US", "state": "RI", "display_address": ["344 Main St", "Wakefield, RI 02879"]}, "phone": "+14017936041", "display_phone": "(401) 793-6041", "distance": 29516.008746996038}, {"id": "P1VDZuZkFxf04k3hUnlQdQ", "alias": "wendys-coventry", "name": "Wendy's", "image_url": "https://s3-media3.fl.yelpcdn.com/bphoto/pqQ5z0ysQoi4Woy2QF49Dg/o.jpg", "is_closed": false, "url": "https://www.yelp.com/biz/wendys-coventry?adjust_creative=pzvBKuEUl0Vl1jtHQqJaog&utm_campaign=yelp_api_v3&utm_medium=api_v3_business_search&utm_source=pzvBKuEUl0Vl1jtHQqJaog", "review_count": 28, "categories": [{"alias": "burgers", "title": "Burgers"}, {"alias": "hotdogs", "title": "Fast Food"}], "rating": 2.0, "coordinates": {"latitude": 41.6619336, "longitude": -71.5445603}, "transactions": ["delivery"], "price": "$", "location": {"address1": "2311 New London Tpke", "address2": "", "address3": "", "city": "Coventry", "zip_code": "02816", "country": "US", "state": "RI", "display_address": ["2311 New London Tpke", "Coventry, RI 02816"]}, "phone": "+14018270165", "display_phone": "(401) 827-0165", "distance": 10860.902792764467}, {"id": "JIhRVJ4BAWPH9NZ0u-7Wzw", "alias": "flip-n-roll-fall-river", "name": "Flip N Roll", "image_url": "https://s3-media1.fl.yelpcdn.com/bphoto/A3l1k85peGnmCC17j-Bmhg/o.jpg", "is_closed": false, "url": "https://www.yelp.com/biz/flip-n-roll-fall-river?adjust_creative=pzvBKuEUl0Vl1jtHQqJaog&utm_campaign=yelp_api_v3&utm_medium=api_v3_business_search&utm_source=pzvBKuEUl0Vl1jtHQqJaog", "review_count": 1, "categories": [{"alias": "foodtrucks", "title": "Food Trucks"}, {"alias": "tradamerican", "title": "American (Traditional)"}, {"alias": "portuguese", "title": "Portuguese"}], "rating": 1.0, "coordinates": {"latitude": 41.68687, "longitude": -71.17062}, "transactions": [], "price": "$$", "location": {"address1": "", "address2": "", "address3": "", "city": "Fall River", "zip_code": "02724", "country": "US", "state": "MA", "display_address": ["Fall River, MA 02724"]}, "phone": "", "display_phone": "", "distance": 41522.13770531324}, {"id": "UZFJutpL3QQ1S75o6JWw7g", "alias": "cumberland-farms-coventry-4", "name": "Cumberland Farms", "image_url": "https://s3-media2.fl.yelpcdn.com/bphoto/F1eXTWmspHzjrYxuSywNtA/o.jpg", "is_closed": false, "url": "https://www.yelp.com/biz/cumberland-farms-coventry-4?adjust_creative=pzvBKuEUl0Vl1jtHQqJaog&utm_campaign=yelp_api_v3&utm_medium=api_v3_business_search&utm_source=pzvBKuEUl0Vl1jtHQqJaog", "review_count": 5, "categories": [{"alias": "servicestations", "title": "Gas Stations"}, {"alias": "coffee", "title": "Coffee & Tea"}, {"alias": "sandwiches", "title": "Sandwiches"}], "rating": 4.0, "coordinates": {"latitude": 41.6628297418356, "longitude": -71.5432919561863}, "transactions": [], "price": "$$", "location": {"address1": "2293 New London Tpke", "address2": "", "address3": null, "city": "Coventry", "zip_code": "02816", "country": "US", "state": "RI", "display_address": ["2293 New London Tpke", "Coventry, RI 02816"]}, "phone": "+14018211760", "display_phone": "(401) 821-1760", "distance": 11018.921764357954}, {"id": "RORcDoQLZ1l2r2cA9KovHA", "alias": "exeter-town-pizza-exeter", "name": "Exeter Town Pizza", "image_url": "https://s3-media3.fl.yelpcdn.com/bphoto/a6p5egetrd8hEAeegZzbQA/o.jpg", "is_closed": false, "url": "https://www.yelp.com/biz/exeter-town-pizza-exeter?adjust_creative=pzvBKuEUl0Vl1jtHQqJaog&utm_campaign=yelp_api_v3&utm_medium=api_v3_business_search&utm_source=pzvBKuEUl0Vl1jtHQqJaog", "review_count": 17, "categories": [{"alias": "pizza", "title": "Pizza"}], "rating": 3.5, "coordinates": {"latitude": 41.545894, "longitude": -71.533206}, "transactions": [], "price": "$$", "location": {"address1": "393 S County Trl", "address2": "", "address3": "", "city": "Exeter", "zip_code": "02822", "country": "US", "state": "RI", "display_address": ["393 S County Trl", "Exeter, RI 02822"]}, "phone": "+14012942393", "display_phone": "(401) 294-2393", "distance": 14496.34020359255}, {"id": "DNiQayVGTSbmGxlUuVzgPw", "alias": "dels-lemonade-coventry", "name": "Del's Lemonade", "image_url": "https://s3-media1.fl.yelpcdn.com/bphoto/vD7A_1VDDFJuqOyCsePWUA/o.jpg", "is_closed": false, "url": "https://www.yelp.com/biz/dels-lemonade-coventry?adjust_creative=pzvBKuEUl0Vl1jtHQqJaog&utm_campaign=yelp_api_v3&utm_medium=api_v3_business_search&utm_source=pzvBKuEUl0Vl1jtHQqJaog", "review_count": 11, "categories": [{"alias": "newamerican", "title": "American (New)"}], "rating": 4.5, "coordinates": {"latitude": 41.68535, "longitude": -71.54829}, "transactions": [], "price": "$", "location": {"address1": "465 Tiogue Ave", "address2": "", "address3": "", "city": "Coventry", "zip_code": "02816", "country": "US", "state": "RI", "display_address": ["465 Tiogue Ave", "Coventry, RI 02816"]}, "phone": "+14018220334", "display_phone": "(401) 822-0334", "distance": 11778.854918943704}, {"id": "Tb4xI6F3xzpw9e7NeuZHOQ", "alias": "subway-coventry-10", "name": "Subway", "image_url": "https://s3-media3.fl.yelpcdn.com/bphoto/OHti8bc8yRdHd9-sZdSn9Q/o.jpg", "is_closed": false, "url": "https://www.yelp.com/biz/subway-coventry-10?adjust_creative=pzvBKuEUl0Vl1jtHQqJaog&utm_campaign=yelp_api_v3&utm_medium=api_v3_business_search&utm_source=pzvBKuEUl0Vl1jtHQqJaog", "review_count": 3, "categories": [{"alias": "sandwiches", "title": "Sandwiches"}], "rating": 2.0, "coordinates": {"latitude": 41.6630882654392, "longitude": -71.602607919397}, "transactions": [], "price": "$", "location": {"address1": "2405 Nooseneck Hill Rd", "address2": "", "address3": "", "city": "Coventry", "zip_code": "02816", "country": "US", "state": "RI", "display_address": ["2405 Nooseneck Hill Rd", "Coventry, RI 02816"]}, "phone": "+14013978800", "display_phone": "(401) 397-8800", "distance": 6646.123626021984}, {"id": "pa1nfv3aH519o5HZJGcttA", "alias": "subway-coventry-11", "name": "Subway", "image_url": "https://s3-media1.fl.yelpcdn.com/bphoto/HvLSM9S0ONG01B6M2yyUkQ/o.jpg", "is_closed": false, "url": "https://www.yelp.com/biz/subway-coventry-11?adjust_creative=pzvBKuEUl0Vl1jtHQqJaog&utm_campaign=yelp_api_v3&utm_medium=api_v3_business_search&utm_source=pzvBKuEUl0Vl1jtHQqJaog", "review_count": 9, "categories": [{"alias": "sandwiches", "title": "Sandwiches"}], "rating": 2.5, "coordinates": {"latitude": 41.6883596, "longitude": -71.5618970073112}, "transactions": [], "price": "$", "location": {"address1": "47 Sandy Bottom Rd", "address2": null, "address3": null, "city": "Coventry", "zip_code": "02816", "country": "US", "state": "RI", "display_address": ["47 Sandy Bottom Rd", "Coventry, RI 02816"]}, "phone": "+14018234300", "display_phone": "(401) 823-4300", "distance": 11034.30911918262}, {"id": "IGeGqtqFjTqff3MwyOQ4tQ", "alias": "kfc-coventry", "name": "KFC", "image_url": "https://s3-media4.fl.yelpcdn.com/bphoto/K8qLBNh1tT-mcfpFftQeCQ/o.jpg", "is_closed": false, "url": "https://www.yelp.com/biz/kfc-coventry?adjust_creative=pzvBKuEUl0Vl1jtHQqJaog&utm_campaign=yelp_api_v3&utm_medium=api_v3_business_search&utm_source=pzvBKuEUl0Vl1jtHQqJaog", "review_count": 13, "categories": [{"alias": "hotdogs", "title": "Fast Food"}, {"alias": "chicken_wings", "title": "Chicken Wings"}, {"alias": "chickenshop", "title": "Chicken Shop"}], "rating": 2.5, "coordinates": {"latitude": 41.6809766079934, "longitude": -71.565847}, "transactions": ["delivery", "pickup"], "price": "$", "location": {"address1": "824 Tiogue Ave", "address2": "", "address3": "", "city": "Coventry", "zip_code": "02816", "country": "US", "state": "RI", "display_address": ["824 Tiogue Ave", "Coventry, RI 02816"]}, "phone": "+14018214460", "display_phone": "(401) 821-4460", "distance": 10288.568251763245}, {"id": "CoYSENnROM5nzKku-Shirw", "alias": "newport-creamery-coventry", "name": "Newport Creamery", "image_url": "https://s3-media3.fl.yelpcdn.com/bphoto/i_vg_gIQiguq_RA9L5gXug/o.jpg", "is_closed": false, "url": "https://www.yelp.com/biz/newport-creamery-coventry?adjust_creative=pzvBKuEUl0Vl1jtHQqJaog&utm_campaign=yelp_api_v3&utm_medium=api_v3_business_search&utm_source=pzvBKuEUl0Vl1jtHQqJaog", "review_count": 18, "categories": [{"alias": "icecream", "title": "Ice Cream & Frozen Yogurt"}, {"alias": "breakfast_brunch", "title": "Breakfast & Brunch"}, {"alias": "burgers", "title": "Burgers"}], "rating": 2.5, "coordinates": {"latitude": 41.6821022, "longitude": -71.5632158}, "transactions": [], "price": "$", "location": {"address1": "781 Tiogue Ave", "address2": "", "address3": "", "city": "Coventry", "zip_code": "02816", "country": "US", "state": "RI", "display_address": ["781 Tiogue Ave", "Coventry, RI 02816"]}, "phone": "+14018212265", "display_phone": "(401) 821-2265", "distance": 10547.899783332185}, {"id": "324pp6avrBFbzw059DoHsA", "alias": "roadies-raleigh", "name": "Roadies", "image_url": "https://s3-media2.fl.yelpcdn.com/bphoto/3zJZmmgIOYrfKoAOp9Du1w/o.jpg", "is_closed": false, "url": "https://www.yelp.com/biz/roadies-raleigh?adjust_creative=pzvBKuEUl0Vl1jtHQqJaog&utm_campaign=yelp_api_v3&utm_medium=api_v3_business_search&utm_source=pzvBKuEUl0Vl1jtHQqJaog", "review_count": 10, "categories": [{"alias": "foodtrucks", "title": "Food Trucks"}, {"alias": "seafood", "title": "Seafood"}], "rating": 4.5, "coordinates": {"latitude": 35.67575, "longitude": -78.66424}, "transactions": [], "price": "$", "location": {"address1": "", "address2": null, "address3": "", "city": "Raleigh", "zip_code": "27603", "country": "US", "state": "NC", "display_address": ["Raleigh, NC 27603"]}, "phone": "+13476136489", "display_phone": "(347) 613-6489", "distance": 899802.9701556717}]