[{"id": "ZW8J9HdUYRerT3uLjAwrzA", "alias": "back-in-thyme-herb-farm-and-kitchen-hopkinton-2", "name": "Back In Thyme Herb Farm And Kitchen", "image_url": "https://s3-media3.fl.yelpcdn.com/bphoto/NcLYU6zRgGkIv-wzTOYMWw/o.jpg", "is_closed": false, "url": "https://www.yelp.com/biz/back-in-thyme-herb-farm-and-kitchen-hopkinton-2?adjust_creative=pzvBKuEUl0Vl1jtHQqJaog&utm_campaign=yelp_api_v3&utm_medium=api_v3_business_search&utm_source=pzvBKuEUl0Vl1jtHQqJaog", "review_count": 43, "categories": [{"alias": "gourmet", "title": "Specialty Food"}, {"alias": "comfortfood", "title": "Comfort Food"}, {"alias": "soulfood", "title": "Soul Food"}], "rating": 4.5, "coordinates": {"latitude": 41.4616231620312, "longitude": -71.7780187726021}, "transactions": [], "price": "$$", "location": {"address1": "493 Main St", "address2": null, "address3": "", "city": "Hopkinton", "zip_code": "02833", "country": "US", "state": "RI", "display_address": ["493 Main St", "Hopkinton, RI 02833"]}, "phone": "+14016444967", "display_phone": "(401) 644-4967", "distance": 6089.0083820830305}, {"id": "jrxLphEy9WRpmrUFCHDK-g", "alias": "the-thirsty-gull-westerly", "name": "The Thirsty Gull", "image_url": "https://s3-media1.fl.yelpcdn.com/bphoto/82tnLTpgxTMFaAQOM1mL6Q/o.jpg", "is_closed": false, "url": "https://www.yelp.com/biz/the-thirsty-gull-westerly?adjust_creative=pzvBKuEUl0Vl1jtHQqJaog&utm_campaign=yelp_api_v3&utm_medium=api_v3_business_search&utm_source=pzvBKuEUl0Vl1jtHQqJaog", "review_count": 28, "categories": [{"alias": "seafood", "title": "Seafood"}, {"alias": "gastropubs", "title": "Gastropubs"}], "rating": 4.0, "coordinates": {"latitude": 41.367013, "longitude": -71.819841}, "transactions": [], "location": {"address1": "9 E Ave", "address2": "Unit F", "address3": null, "city": "Westerly", "zip_code": "02891", "country": "US", "state": "RI", "display_address": ["9 E Ave", "Unit F", "Westerly, RI 02891"]}, "phone": "+14015961936", "display_phone": "(401) 596-1936", "distance": 7443.2786030260495}, {"id": "6rsUHlR7vWYlzqmDuern1A", "alias": "the-sea-goose-westerly", "name": "The Sea Goose", "image_url": "https://s3-media2.fl.yelpcdn.com/bphoto/Zo_QOamOAJhF68GMvS33ng/o.jpg", "is_closed": false, "url": "https://www.yelp.com/biz/the-sea-goose-westerly?adjust_creative=pzvBKuEUl0Vl1jtHQqJaog&utm_campaign=yelp_api_v3&utm_medium=api_v3_business_search&utm_source=pzvBKuEUl0Vl1jtHQqJaog", "review_count": 172, "categories": [{"alias": "seafood", "title": "Seafood"}, {"alias": "bars", "title": "Bars"}, {"alias": "tradamerican", "title": "American (Traditional)"}], "rating": 4.0, "coordinates": {"latitude": 41.351390838623, "longitude": -71.7643432617188}, "transactions": [], "price": "$$", "location": {"address1": "265 Post Rd", "address2": "", "address3": "", "city": "Westerly", "zip_code": "02891", "country": "US", "state": "RI", "display_address": ["265 Post Rd", "Westerly, RI 02891"]}, "phone": "+14013150788", "display_phone": "(401) 315-0788", "distance": 6659.486640726607}, {"id": "8gXaeFOak_To2t2xvtWUQw", "alias": "the-shallows-westerly", "name": "The Shallows", "image_url": "https://s3-media1.fl.yelpcdn.com/bphoto/Ky7YBh0s0_q6d7zIQb4riw/o.jpg", "is_closed": false, "url": "https://www.yelp.com/biz/the-shallows-westerly?adjust_creative=pzvBKuEUl0Vl1jtHQqJaog&utm_campaign=yelp_api_v3&utm_medium=api_v3_business_search&utm_source=pzvBKuEUl0Vl1jtHQqJaog", "review_count": 43, "categories": [{"alias": "newamerican", "title": "American (New)"}, {"alias": "bars", "title": "Bars"}], "rating": 4.5, "coordinates": {"latitude": 41.379296, "longitude": -71.830527}, "transactions": ["delivery"], "price": "$$", "location": {"address1": "54 High St", "address2": "", "address3": null, "city": "Westerly", "zip_code": "02891", "country": "US", "state": "RI", "display_address": ["54 High St", "Westerly, RI 02891"]}, "phone": "+14013155737", "display_phone": "(401) 315-5737", "distance": 7410.603967160829}, {"id": "6tRPcOSZzLRE_8ChRiOoBg", "alias": "the-cooked-goose-westerly", "name": "The Cooked Goose", "image_url": "https://s3-media3.fl.yelpcdn.com/bphoto/xvpq5uFi19C6idySvUaScw/o.jpg", "is_closed": false, "url": "https://www.yelp.com/biz/the-cooked-goose-westerly?adjust_creative=pzvBKuEUl0Vl1jtHQqJaog&utm_campaign=yelp_api_v3&utm_medium=api_v3_business_search&utm_source=pzvBKuEUl0Vl1jtHQqJaog", "review_count": 278, "categories": [{"alias": "breakfast_brunch", "title": "Breakfast & Brunch"}], "rating": 4.5, "coordinates": {"latitude": 41.334174, "longitude": -71.829853}, "transactions": ["delivery"], "price": "$$", "location": {"address1": "92 Watch Hill Rd", "address2": "", "address3": "", "city": "Westerly", "zip_code": "02891", "country": "US", "state": "RI", "display_address": ["92 Watch Hill Rd", "Westerly, RI 02891"]}, "phone": "+14013489888", "display_phone": "(401) 348-9888", "distance": 10714.5087728368}, {"id": "lwPzsh8ZjmiDUrU9jSM6VQ", "alias": "petes-grocery-bradford", "name": "Pete's Grocery", "image_url": "https://s3-media2.fl.yelpcdn.com/bphoto/QAZKJiPkeBcROBPbrkO54w/o.jpg", "is_closed": false, "url": "https://www.yelp.com/biz/petes-grocery-bradford?adjust_creative=pzvBKuEUl0Vl1jtHQqJaog&utm_campaign=yelp_api_v3&utm_medium=api_v3_business_search&utm_source=pzvBKuEUl0Vl1jtHQqJaog", "review_count": 6, "categories": [{"alias": "grocery", "title": "Grocery"}, {"alias": "delis", "title": "Delis"}], "rating": 5.0, "coordinates": {"latitude": 41.4116829, "longitude": -71.748908}, "transactions": [], "price": "$$", "location": {"address1": "244 Ashaway Rd", "address2": "", "address3": "", "city": "Bradford", "zip_code": "02808", "country": "US", "state": "RI", "display_address": ["244 Ashaway Rd", "Bradford, RI 02808"]}, "phone": "+14013778109", "display_phone": "(401) 377-8109", "distance": 291.5444975757132}, {"id": "hrTEd1fkdXJdYRMT1C3aKg", "alias": "the-haversham-westerly-3", "name": "The Haversham", "image_url": "https://s3-media4.fl.yelpcdn.com/bphoto/XJtUPB1dwndNW62pWFnlGQ/o.jpg", "is_closed": false, "url": "https://www.yelp.com/biz/the-haversham-westerly-3?adjust_creative=pzvBKuEUl0Vl1jtHQqJaog&utm_campaign=yelp_api_v3&utm_medium=api_v3_business_search&utm_source=pzvBKuEUl0Vl1jtHQqJaog", "review_count": 143, "categories": [{"alias": "newamerican", "title": "American (New)"}, {"alias": "venues", "title": "Venues & Event Spaces"}], "rating": 3.5, "coordinates": {"latitude": 41.349493, "longitude": -71.745568}, "transactions": [], "price": "$$", "location": {"address1": "336 Post Rd", "address2": "", "address3": "", "city": "Westerly", "zip_code": "02891", "country": "US", "state": "RI", "display_address": ["336 Post Rd", "Westerly, RI 02891"]}, "phone": "+14013221717", "display_phone": "(401) 322-1717", "distance": 6809.281947812658}, {"id": "QStnq1AlCW_TlL0nN9dZdw", "alias": "noodle-revolution-westerly", "name": "Noodle Revolution", "image_url": "https://s3-media2.fl.yelpcdn.com/bphoto/qz5bAWugNdGbVHM-weiCWA/o.jpg", "is_closed": false, "url": "https://www.yelp.com/biz/noodle-revolution-westerly?adjust_creative=pzvBKuEUl0Vl1jtHQqJaog&utm_campaign=yelp_api_v3&utm_medium=api_v3_business_search&utm_source=pzvBKuEUl0Vl1jtHQqJaog", "review_count": 176, "categories": [{"alias": "asianfusion", "title": "Asian Fusion"}, {"alias": "thai", "title": "Thai"}, {"alias": "tradamerican", "title": "American (Traditional)"}], "rating": 4.5, "coordinates": {"latitude": 41.3835192242632, "longitude": -71.8153859674931}, "transactions": ["delivery"], "price": "$$", "location": {"address1": "87 Oak St", "address2": "", "address3": "", "city": "Westerly", "zip_code": "02891", "country": "US", "state": "RI", "display_address": ["87 Oak St", "Westerly, RI 02891"]}, "phone": "+14015969559", "display_phone": "(401) 596-9559", "distance": 6077.280048298}, {"id": "aJpADNlc7HsFLelDyU5sCw", "alias": "11th-green-restaurant-and-pub-hope-valley", "name": "11th Green Restaurant & Pub", "image_url": "https://s3-media1.fl.yelpcdn.com/bphoto/qEAM1gVez4sxGMZNc2c32w/o.jpg", "is_closed": false, "url": "https://www.yelp.com/biz/11th-green-restaurant-and-pub-hope-valley?adjust_creative=pzvBKuEUl0Vl1jtHQqJaog&utm_campaign=yelp_api_v3&utm_medium=api_v3_business_search&utm_source=pzvBKuEUl0Vl1jtHQqJaog", "review_count": 17, "categories": [{"alias": "pubs", "title": "Pubs"}, {"alias": "newamerican", "title": "American (New)"}], "rating": 4.5, "coordinates": {"latitude": 41.4482724, "longitude": -71.7235942}, "transactions": [], "price": "$$", "location": {"address1": "78 Woodville Alton Rd", "address2": null, "address3": null, "city": "Hope Valley", "zip_code": "02832", "country": "US", "state": "RI", "display_address": ["78 Woodville Alton Rd", "Hope Valley, RI 02832"]}, "phone": "+14013640700", "display_phone": "(401) 364-0700", "distance": 4979.490975442995}, {"id": "2_rt2rsG9S8Hbn7T87egxA", "alias": "phoenix-dining-and-entertainment-pawcatuck", "name": "Phoenix Dining & Entertainment", "image_url": "https://s3-media4.fl.yelpcdn.com/bphoto/mOf5qmR_o0_Yx8NDX53mpg/o.jpg", "is_closed": false, "url": "https://www.yelp.com/biz/phoenix-dining-and-entertainment-pawcatuck?adjust_creative=pzvBKuEUl0Vl1jtHQqJaog&utm_campaign=yelp_api_v3&utm_medium=api_v3_business_search&utm_source=pzvBKuEUl0Vl1jtHQqJaog", "review_count": 8, "categories": [{"alias": "musicvenues", "title": "Music Venues"}, {"alias": "comfortfood", "title": "Comfort Food"}, {"alias": "bars", "title": "Bars"}], "rating": 3.5, "coordinates": {"latitude": 41.3891825, "longitude": -71.8440696}, "transactions": [], "location": {"address1": "215 Liberty St", "address2": "", "address3": null, "city": "Pawcatuck", "zip_code": "06379", "country": "US", "state": "CT", "display_address": ["215 Liberty St", "Pawcatuck, CT 06379"]}, "phone": "+18333463888", "display_phone": "(833) 346-3888", "distance": 8033.951668070544}, {"id": "sODdKPCWnkYxQ9BxP0aNGw", "alias": "b-and-b-dockside-westerly-2", "name": "B & B Dockside", "image_url": "https://s3-media2.fl.yelpcdn.com/bphoto/Bm1Jce27uUiobwPCeJmaDA/o.jpg", "is_closed": false, "url": "https://www.yelp.com/biz/b-and-b-dockside-westerly-2?adjust_creative=pzvBKuEUl0Vl1jtHQqJaog&utm_campaign=yelp_api_v3&utm_medium=api_v3_business_search&utm_source=pzvBKuEUl0Vl1jtHQqJaog", "review_count": 94, "categories": [{"alias": "burgers", "title": "Burgers"}, {"alias": "breakfast_brunch", "title": "Breakfast & Brunch"}], "rating": 4.0, "coordinates": {"latitude": 41.3670539855957, "longitude": -71.8345336914062}, "transactions": ["delivery"], "price": "$$", "location": {"address1": "19 Margin St", "address2": "", "address3": "", "city": "Westerly", "zip_code": "02891", "country": "US", "state": "RI", "display_address": ["19 Margin St", "Westerly, RI 02891"]}, "phone": "+14013152520", "display_phone": "(401) 315-2520", "distance": 8398.888587658563}, {"id": "rfc5eBWj2OkRSTPd04YYPQ", "alias": "hoofs-restaurant-pawcatuck", "name": "Hoofs Restaurant", "image_url": "https://s3-media4.fl.yelpcdn.com/bphoto/BArdSR4wrGcPmx0QksJnEQ/o.jpg", "is_closed": false, "url": "https://www.yelp.com/biz/hoofs-restaurant-pawcatuck?adjust_creative=pzvBKuEUl0Vl1jtHQqJaog&utm_campaign=yelp_api_v3&utm_medium=api_v3_business_search&utm_source=pzvBKuEUl0Vl1jtHQqJaog", "review_count": 25, "categories": [{"alias": "italian", "title": "Italian"}], "rating": 4.0, "coordinates": {"latitude": 41.377739, "longitude": -71.832921}, "transactions": ["delivery"], "location": {"address1": "59 W Broad St", "address2": "", "address3": null, "city": "Pawcatuck", "zip_code": "06379", "country": "US", "state": "CT", "display_address": ["59 W Broad St", "Pawcatuck, CT 06379"]}, "phone": "+18604950148", "display_phone": "(860) 495-0148", "distance": 7679.695795667721}, {"id": "eKCl8jBzEdaqZBGUCEh3HA", "alias": "beijing-dumpling-westerly", "name": "Beijing Dumpling", "image_url": "https://s3-media3.fl.yelpcdn.com/bphoto/Wu1Wsro_JTtL7zFUfx35_A/o.jpg", "is_closed": false, "url": "https://www.yelp.com/biz/beijing-dumpling-westerly?adjust_creative=pzvBKuEUl0Vl1jtHQqJaog&utm_campaign=yelp_api_v3&utm_medium=api_v3_business_search&utm_source=pzvBKuEUl0Vl1jtHQqJaog", "review_count": 76, "categories": [{"alias": "chinese", "title": "Chinese"}], "rating": 4.5, "coordinates": {"latitude": 41.365239, "longitude": -71.83021}, "transactions": ["delivery"], "price": "$", "location": {"address1": "55 Beach St", "address2": "Ste 3", "address3": "", "city": "Westerly", "zip_code": "02891", "country": "US", "state": "RI", "display_address": ["55 Beach St", "Ste 3", "Westerly, RI 02891"]}, "phone": "+14013488883", "display_phone": "(401) 348-8883", "distance": 8239.14639413022}, {"id": "SosyaavezZ5us4UmOSa9Xg", "alias": "lucky-house-hopkinton", "name": "Lucky House", "image_url": "https://s3-media2.fl.yelpcdn.com/bphoto/_G9RX0tGNiGDTdQ5yB2RPQ/o.jpg", "is_closed": false, "url": "https://www.yelp.com/biz/lucky-house-hopkinton?adjust_creative=pzvBKuEUl0Vl1jtHQqJaog&utm_campaign=yelp_api_v3&utm_medium=api_v3_business_search&utm_source=pzvBKuEUl0Vl1jtHQqJaog", "review_count": 41, "categories": [{"alias": "chinese", "title": "Chinese"}], "rating": 3.5, "coordinates": {"latitude": 41.40332, "longitude": -71.79777}, "transactions": [], "price": "$$", "location": {"address1": "32 Main", "address2": "", "address3": "", "city": "Hopkinton", "zip_code": "02833", "country": "US", "state": "RI", "display_address": ["32 Main", "Hopkinton, RI 02833"]}, "phone": "+14015963922", "display_phone": "(401) 596-3922", "distance": 3880.8939197535465}, {"id": "AxGW4itHJXGh8oqZVsjRug", "alias": "bridge-restaurant-and-raw-bar-westerly", "name": "Bridge Restaurant and Raw Bar", "image_url": "https://s3-media2.fl.yelpcdn.com/bphoto/exn7uV-lThaCW1W8ISBD3Q/o.jpg", "is_closed": false, "url": "https://www.yelp.com/biz/bridge-restaurant-and-raw-bar-westerly?adjust_creative=pzvBKuEUl0Vl1jtHQqJaog&utm_campaign=yelp_api_v3&utm_medium=api_v3_business_search&utm_source=pzvBKuEUl0Vl1jtHQqJaog", "review_count": 329, "categories": [{"alias": "newamerican", "title": "American (New)"}, {"alias": "bars", "title": "Bars"}], "rating": 3.5, "coordinates": {"latitude": 41.37735, "longitude": -71.83143}, "transactions": ["delivery"], "price": "$$", "location": {"address1": "37 Main St", "address2": "", "address3": "", "city": "Westerly", "zip_code": "02891", "country": "US", "state": "RI", "display_address": ["37 Main St", "Westerly, RI 02891"]}, "phone": "+14013489700", "display_phone": "(401) 348-9700", "distance": 7632.089268671414}, {"id": "7oq4EY0WEO840xfLS6c9iQ", "alias": "main-street-pizza-ashaway-2", "name": "Main Street Pizza", "image_url": "https://s3-media2.fl.yelpcdn.com/bphoto/ToiwOdio3GbPiiOcDcPLkg/o.jpg", "is_closed": false, "url": "https://www.yelp.com/biz/main-street-pizza-ashaway-2?adjust_creative=pzvBKuEUl0Vl1jtHQqJaog&utm_campaign=yelp_api_v3&utm_medium=api_v3_business_search&utm_source=pzvBKuEUl0Vl1jtHQqJaog", "review_count": 28, "categories": [{"alias": "pizza", "title": "Pizza"}], "rating": 3.5, "coordinates": {"latitude": 41.427066, "longitude": -71.784767}, "transactions": [], "price": "$", "location": {"address1": "229 Main", "address2": null, "address3": null, "city": "Ashaway", "zip_code": "02804", "country": "US", "state": "RI", "display_address": ["229 Main", "Ashaway, RI 02804"]}, "phone": "+14013776860", "display_phone": "(401) 377-6860", "distance": 3289.2992006343675}, {"id": "oyjOxBcQkz5lOFj72uZIFg", "alias": "nam-khong-westerly-2", "name": "Nam Khong", "image_url": "https://s3-media3.fl.yelpcdn.com/bphoto/U08aeGHryFaxIY2qu7LfPg/o.jpg", "is_closed": false, "url": "https://www.yelp.com/biz/nam-khong-westerly-2?adjust_creative=pzvBKuEUl0Vl1jtHQqJaog&utm_campaign=yelp_api_v3&utm_medium=api_v3_business_search&utm_source=pzvBKuEUl0Vl1jtHQqJaog", "review_count": 76, "categories": [{"alias": "laotian", "title": "Laotian"}, {"alias": "thai", "title": "Thai"}], "rating": 4.5, "coordinates": {"latitude": 41.3598589008543, "longitude": -71.8126403912902}, "transactions": ["delivery"], "price": "$$", "location": {"address1": "105 Franklin St", "address2": "Ste 31", "address3": null, "city": "Westerly", "zip_code": "02891", "country": "US", "state": "RI", "display_address": ["105 Franklin St", "Ste 31", "Westerly, RI 02891"]}, "phone": "+14015960155", "display_phone": "(401) 596-0155", "distance": 7569.984862850983}, {"id": "-6yzBK_KobYBXCE3jLBJ4w", "alias": "brick-oven-hopkinton", "name": "Brick Oven", "image_url": "https://s3-media3.fl.yelpcdn.com/bphoto/OYYPsGwJC9qNAEJQjTzyHg/o.jpg", "is_closed": false, "url": "https://www.yelp.com/biz/brick-oven-hopkinton?adjust_creative=pzvBKuEUl0Vl1jtHQqJaog&utm_campaign=yelp_api_v3&utm_medium=api_v3_business_search&utm_source=pzvBKuEUl0Vl1jtHQqJaog", "review_count": 22, "categories": [{"alias": "breakfast_brunch", "title": "Breakfast & Brunch"}], "rating": 3.5, "coordinates": {"latitude": 41.42472, "longitude": -71.78527}, "transactions": ["delivery"], "price": "$", "location": {"address1": "209 Main", "address2": "", "address3": "", "city": "Hopkinton", "zip_code": "02833", "country": "US", "state": "RI", "display_address": ["209 Main", "Hopkinton, RI 02833"]}, "phone": "+14013772230", "display_phone": "(401) 377-2230", "distance": 3183.206637040779}, {"id": "Cc6mlkFThEqN3ktHxXZ3SQ", "alias": "guytannos-international-restaurant-westerly", "name": "Guytanno's International Restaurant", "image_url": "https://s3-media2.fl.yelpcdn.com/bphoto/NYvnz3JUcjsQKRMs72E9VA/o.jpg", "is_closed": false, "url": "https://www.yelp.com/biz/guytannos-international-restaurant-westerly?adjust_creative=pzvBKuEUl0Vl1jtHQqJaog&utm_campaign=yelp_api_v3&utm_medium=api_v3_business_search&utm_source=pzvBKuEUl0Vl1jtHQqJaog", "review_count": 74, "categories": [{"alias": "italian", "title": "Italian"}, {"alias": "tradamerican", "title": "American (Traditional)"}, {"alias": "mediterranean", "title": "Mediterranean"}], "rating": 4.0, "coordinates": {"latitude": 41.3639084, "longitude": -71.8143295}, "transactions": ["delivery"], "price": "$$", "location": {"address1": "62 Franklin St", "address2": "", "address3": "", "city": "Westerly", "zip_code": "02891", "country": "US", "state": "RI", "display_address": ["62 Franklin St", "Westerly, RI 02891"]}, "phone": "+14013486221", "display_phone": "(401) 348-6221", "distance": 7339.986425465944}, {"id": "2mRTVwcBuwKsXASmL4kokw", "alias": "brazen-hen-westerly", "name": "Brazen Hen", "image_url": "https://s3-media3.fl.yelpcdn.com/bphoto/g7nxlHKviGYNsr_ExDknlQ/o.jpg", "is_closed": false, "url": "https://www.yelp.com/biz/brazen-hen-westerly?adjust_creative=pzvBKuEUl0Vl1jtHQqJaog&utm_campaign=yelp_api_v3&utm_medium=api_v3_business_search&utm_source=pzvBKuEUl0Vl1jtHQqJaog", "review_count": 95, "categories": [{"alias": "irish", "title": "Irish"}, {"alias": "pubs", "title": "Pubs"}], "rating": 3.5, "coordinates": {"latitude": 41.37968, "longitude": -71.83035}, "transactions": [], "price": "$$", "location": {"address1": "4 Canal St", "address2": "", "address3": "", "city": "Westerly", "zip_code": "02891", "country": "US", "state": "RI", "display_address": ["4 Canal St", "Westerly, RI 02891"]}, "phone": "+14013488100", "display_phone": "(401) 348-8100", "distance": 7346.915020116696}, {"id": "zgNte7hf2UZsXpTBIoJkJQ", "alias": "casa-della-luce-westerly", "name": "Casa Della Luce", "image_url": "https://s3-media2.fl.yelpcdn.com/bphoto/1ue1kmYmIwnQN95UuzrVzw/o.jpg", "is_closed": false, "url": "https://www.yelp.com/biz/casa-della-luce-westerly?adjust_creative=pzvBKuEUl0Vl1jtHQqJaog&utm_campaign=yelp_api_v3&utm_medium=api_v3_business_search&utm_source=pzvBKuEUl0Vl1jtHQqJaog", "review_count": 124, "categories": [{"alias": "italian", "title": "Italian"}, {"alias": "pizza", "title": "Pizza"}], "rating": 4.0, "coordinates": {"latitude": 41.35996, "longitude": -71.812}, "transactions": ["delivery"], "price": "$$", "location": {"address1": "105 Franklin St", "address2": "", "address3": "", "city": "Westerly", "zip_code": "02891", "country": "US", "state": "RI", "display_address": ["105 Franklin St", "Westerly, RI 02891"]}, "phone": "+14016374575", "display_phone": "(401) 637-4575", "distance": 7569.982709528934}, {"id": "37mieC3J4TfBN9V9PP8Weg", "alias": "ellas-fine-food-and-drink-westerly", "name": "Ella's Fine Food & Drink", "image_url": "https://s3-media3.fl.yelpcdn.com/bphoto/6atDkJhHI4qx0VnCjxWjcg/o.jpg", "is_closed": false, "url": "https://www.yelp.com/biz/ellas-fine-food-and-drink-westerly?adjust_creative=pzvBKuEUl0Vl1jtHQqJaog&utm_campaign=yelp_api_v3&utm_medium=api_v3_business_search&utm_source=pzvBKuEUl0Vl1jtHQqJaog", "review_count": 179, "categories": [{"alias": "french", "title": "French"}, {"alias": "newamerican", "title": "American (New)"}], "rating": 4.0, "coordinates": {"latitude": 41.37424, "longitude": -71.82034}, "transactions": ["delivery"], "price": "$$$", "location": {"address1": "2 Tower St", "address2": null, "address3": "", "city": "Westerly", "zip_code": "02891", "country": "US", "state": "RI", "display_address": ["2 Tower St", "Westerly, RI 02891"]}, "phone": "+14013150606", "display_phone": "(401) 315-0606", "distance": 6981.061067105353}, {"id": "ri6VjRTr6JXpKZ91Mv54Zg", "alias": "christinas-place-westerly", "name": "Christina's Place", "image_url": "https://s3-media4.fl.yelpcdn.com/bphoto/V4GUOR7SVfZ7MjOyf8j_Gw/o.jpg", "is_closed": false, "url": "https://www.yelp.com/biz/christinas-place-westerly?adjust_creative=pzvBKuEUl0Vl1jtHQqJaog&utm_campaign=yelp_api_v3&utm_medium=api_v3_business_search&utm_source=pzvBKuEUl0Vl1jtHQqJaog", "review_count": 44, "categories": [{"alias": "breakfast_brunch", "title": "Breakfast & Brunch"}], "rating": 4.5, "coordinates": {"latitude": 41.38342, "longitude": -71.81672}, "transactions": [], "price": "$", "location": {"address1": "75 Oak St", "address2": "", "address3": "", "city": "Westerly", "zip_code": "02891", "country": "US", "state": "RI", "display_address": ["75 Oak St", "Westerly, RI 02891"]}, "phone": "+14015963406", "display_phone": "(401) 596-3406", "distance": 6176.975761399783}, {"id": "SEUBkQCAhdkKRUjXUdVO2w", "alias": "graze-burgers-westerly", "name": "Graze Burgers", "image_url": "https://s3-media3.fl.yelpcdn.com/bphoto/1XCzJ6p0tKpMmNV4zTC5Lw/o.jpg", "is_closed": false, "url": "https://www.yelp.com/biz/graze-burgers-westerly?adjust_creative=pzvBKuEUl0Vl1jtHQqJaog&utm_campaign=yelp_api_v3&utm_medium=api_v3_business_search&utm_source=pzvBKuEUl0Vl1jtHQqJaog", "review_count": 84, "categories": [{"alias": "burgers", "title": "Burgers"}, {"alias": "newamerican", "title": "American (New)"}, {"alias": "bars", "title": "Bars"}], "rating": 3.5, "coordinates": {"latitude": 41.37089, "longitude": -71.82042}, "transactions": ["delivery"], "location": {"address1": "127 Granite St", "address2": null, "address3": "", "city": "Westerly", "zip_code": "02891", "country": "US", "state": "RI", "display_address": ["127 Granite St", "Westerly, RI 02891"]}, "phone": "+14019928223", "display_phone": "(401) 992-8223", "distance": 7199.187318523903}, {"id": "kYMVblB8cYWUOG6oSfewqg", "alias": "lady-copacabana-westerly-2", "name": "Lady Copacabana", "image_url": "https://s3-media2.fl.yelpcdn.com/bphoto/5Eu6JCGzmCNceDMcXJYx5A/o.jpg", "is_closed": false, "url": "https://www.yelp.com/biz/lady-copacabana-westerly-2?adjust_creative=pzvBKuEUl0Vl1jtHQqJaog&utm_campaign=yelp_api_v3&utm_medium=api_v3_business_search&utm_source=pzvBKuEUl0Vl1jtHQqJaog", "review_count": 6, "categories": [{"alias": "foodtrucks", "title": "Food Trucks"}, {"alias": "brazilian", "title": "Brazilian"}, {"alias": "empanadas", "title": "Empanadas"}], "rating": 4.5, "coordinates": {"latitude": 41.376880645752, "longitude": -71.8292236328125}, "transactions": [], "price": "$", "location": {"address1": "", "address2": "", "address3": "", "city": "Westerly", "zip_code": "02981", "country": "US", "state": "RI", "display_address": ["Westerly, RI 02981"]}, "phone": "+14014005839", "display_phone": "(401) 400-5839", "distance": 7266.346832895089}, {"id": "pUiBFF0nycdVkR7x6GHYPQ", "alias": "thong-thai-westerly", "name": "Thong Thai", "image_url": "https://s3-media3.fl.yelpcdn.com/bphoto/2vzsbpOtipCza_F7zthjmw/o.jpg", "is_closed": false, "url": "https://www.yelp.com/biz/thong-thai-westerly?adjust_creative=pzvBKuEUl0Vl1jtHQqJaog&utm_campaign=yelp_api_v3&utm_medium=api_v3_business_search&utm_source=pzvBKuEUl0Vl1jtHQqJaog", "review_count": 87, "categories": [{"alias": "thai", "title": "Thai"}], "rating": 4.5, "coordinates": {"latitude": 41.3807508097305, "longitude": -71.8297038668472}, "transactions": ["delivery"], "price": "$$", "location": {"address1": "15 Railroad Ave", "address2": "", "address3": "", "city": "Westerly", "zip_code": "02891", "country": "US", "state": "RI", "display_address": ["15 Railroad Ave", "Westerly, RI 02891"]}, "phone": "+14013480511", "display_phone": "(401) 348-0511", "distance": 7260.258100849252}, {"id": "8JpeODwD-fsDlx5pWZXOdA", "alias": "loveridge-place-pawcatuck", "name": "Loveridge Place", "image_url": "https://s3-media2.fl.yelpcdn.com/bphoto/QsXk42M2f3X3LOsAmTWGPw/o.jpg", "is_closed": false, "url": "https://www.yelp.com/biz/loveridge-place-pawcatuck?adjust_creative=pzvBKuEUl0Vl1jtHQqJaog&utm_campaign=yelp_api_v3&utm_medium=api_v3_business_search&utm_source=pzvBKuEUl0Vl1jtHQqJaog", "review_count": 12, "categories": [{"alias": "breakfast_brunch", "title": "Breakfast & Brunch"}, {"alias": "bakeries", "title": "Bakeries"}, {"alias": "cafes", "title": "Cafes"}], "rating": 4.5, "coordinates": {"latitude": 41.37216, "longitude": -71.83485}, "transactions": ["delivery"], "location": {"address1": "2 Prospect St", "address2": "", "address3": null, "city": "Pawcatuck", "zip_code": "06379", "country": "US", "state": "CT", "display_address": ["2 Prospect St", "Pawcatuck, CT 06379"]}, "phone": "+18604952664", "display_phone": "(860) 495-2664", "distance": 8117.859423472305}, {"id": "VagHPaOSlmrUCowH7lzWmw", "alias": "vittorias-ny-pizza-westerly", "name": "Vittoria's NY Pizza", "image_url": "https://s3-media1.fl.yelpcdn.com/bphoto/kr-pjgXV5qdSC3RE9MSE4w/o.jpg", "is_closed": false, "url": "https://www.yelp.com/biz/vittorias-ny-pizza-westerly?adjust_creative=pzvBKuEUl0Vl1jtHQqJaog&utm_campaign=yelp_api_v3&utm_medium=api_v3_business_search&utm_source=pzvBKuEUl0Vl1jtHQqJaog", "review_count": 50, "categories": [{"alias": "pizza", "title": "Pizza"}], "rating": 4.0, "coordinates": {"latitude": 41.351879, "longitude": -71.7709944}, "transactions": ["delivery"], "price": "$$", "location": {"address1": "224 Post Rd", "address2": "Ste 3", "address3": "", "city": "Westerly", "zip_code": "02891", "country": "US", "state": "RI", "display_address": ["224 Post Rd", "Ste 3", "Westerly, RI 02891"]}, "phone": "+14013221901", "display_phone": "(401) 322-1901", "distance": 6711.17800006429}, {"id": "4jvVK1zvT2GVW6v3evB_PQ", "alias": "simply-delicious-westerly", "name": "Simply Delicious", "image_url": "https://s3-media2.fl.yelpcdn.com/bphoto/R_j4uuBXw2Jbv34q6vRw5g/o.jpg", "is_closed": false, "url": "https://www.yelp.com/biz/simply-delicious-westerly?adjust_creative=pzvBKuEUl0Vl1jtHQqJaog&utm_campaign=yelp_api_v3&utm_medium=api_v3_business_search&utm_source=pzvBKuEUl0Vl1jtHQqJaog", "review_count": 22, "categories": [{"alias": "tradamerican", "title": "American (Traditional)"}, {"alias": "sandwiches", "title": "Sandwiches"}, {"alias": "breakfast_brunch", "title": "Breakfast & Brunch"}], "rating": 4.5, "coordinates": {"latitude": 41.38202, "longitude": -71.83141}, "transactions": ["delivery"], "price": "$$", "location": {"address1": "8 Industrial Dr", "address2": "", "address3": null, "city": "Westerly", "zip_code": "02891", "country": "US", "state": "RI", "display_address": ["8 Industrial Dr", "Westerly, RI 02891"]}, "phone": "+14015966200", "display_phone": "(401) 596-6200", "distance": 7338.766681547454}, {"id": "RcRQKDFhnGDGHB8nBb9Q6Q", "alias": "golden-chopstix-westerly", "name": "Golden Chopstix", "image_url": "https://s3-media1.fl.yelpcdn.com/bphoto/ldHQcc2x_rSUh_83pY0WlQ/o.jpg", "is_closed": false, "url": "https://www.yelp.com/biz/golden-chopstix-westerly?adjust_creative=pzvBKuEUl0Vl1jtHQqJaog&utm_campaign=yelp_api_v3&utm_medium=api_v3_business_search&utm_source=pzvBKuEUl0Vl1jtHQqJaog", "review_count": 78, "categories": [{"alias": "dimsum", "title": "Dim Sum"}, {"alias": "cantonese", "title": "Cantonese"}, {"alias": "seafood", "title": "Seafood"}], "rating": 4.0, "coordinates": {"latitude": 41.364208, "longitude": -71.814193}, "transactions": [], "price": "$$", "location": {"address1": "62 Franklin St", "address2": "", "address3": "", "city": "Westerly", "zip_code": "02891", "country": "US", "state": "RI", "display_address": ["62 Franklin St", "Westerly, RI 02891"]}, "phone": "+14013486666", "display_phone": "(401) 348-6666", "distance": 7308.4016604814915}, {"id": "GWSlOTVbgxQa575mTexBQQ", "alias": "corner-thai-cafe-westerly", "name": "Corner Thai Cafe", "image_url": "https://s3-media4.fl.yelpcdn.com/bphoto/L00LMBXWPTjLp4g5kx4tLA/o.jpg", "is_closed": false, "url": "https://www.yelp.com/biz/corner-thai-cafe-westerly?adjust_creative=pzvBKuEUl0Vl1jtHQqJaog&utm_campaign=yelp_api_v3&utm_medium=api_v3_business_search&utm_source=pzvBKuEUl0Vl1jtHQqJaog", "review_count": 142, "categories": [{"alias": "thai", "title": "Thai"}], "rating": 4.5, "coordinates": {"latitude": 41.365193, "longitude": -71.830142}, "transactions": ["delivery"], "price": "$$", "location": {"address1": "55 Beach St", "address2": null, "address3": "", "city": "Westerly", "zip_code": "02891", "country": "US", "state": "RI", "display_address": ["55 Beach St", "Westerly, RI 02891"]}, "phone": "+14013480009", "display_phone": "(401) 348-0009", "distance": 8237.78928428614}, {"id": "Z_eBURiEp1wOrNWeF_2xLA", "alias": "aroy-fine-thai-cuisine-pawcatuck", "name": "Aroy Fine Thai Cuisine", "image_url": "https://s3-media2.fl.yelpcdn.com/bphoto/VT6ejys54S4qE4ugaD9wMw/o.jpg", "is_closed": false, "url": "https://www.yelp.com/biz/aroy-fine-thai-cuisine-pawcatuck?adjust_creative=pzvBKuEUl0Vl1jtHQqJaog&utm_campaign=yelp_api_v3&utm_medium=api_v3_business_search&utm_source=pzvBKuEUl0Vl1jtHQqJaog", "review_count": 37, "categories": [{"alias": "thai", "title": "Thai"}], "rating": 4.0, "coordinates": {"latitude": 41.373052, "longitude": -71.851279}, "transactions": ["delivery"], "location": {"address1": "76 S Broad St", "address2": "", "address3": null, "city": "Pawcatuck", "zip_code": "06379", "country": "US", "state": "CT", "display_address": ["76 S Broad St", "Pawcatuck, CT 06379"]}, "phone": "+18604952540", "display_phone": "(860) 495-2540", "distance": 9267.597754416309}, {"id": "aSb1Q-sVJm-5vfN0LQYRzA", "alias": "t-quinn-vietnamese-cuisine-pawcatuck-3", "name": "T Quinn  Vietnamese Cuisine", "image_url": "https://s3-media2.fl.yelpcdn.com/bphoto/mdZuEZVzvjgJoYyWXtlDzg/o.jpg", "is_closed": false, "url": "https://www.yelp.com/biz/t-quinn-vietnamese-cuisine-pawcatuck-3?adjust_creative=pzvBKuEUl0Vl1jtHQqJaog&utm_campaign=yelp_api_v3&utm_medium=api_v3_business_search&utm_source=pzvBKuEUl0Vl1jtHQqJaog", "review_count": 2, "categories": [{"alias": "vietnamese", "title": "Vietnamese"}, {"alias": "bars", "title": "Bars"}], "rating": 4.0, "coordinates": {"latitude": 41.376351, "longitude": -71.83318}, "transactions": [], "location": {"address1": "20 Mechanic St", "address2": null, "address3": "", "city": "Pawcatuck", "zip_code": "06379", "country": "US", "state": "CT", "display_address": ["20 Mechanic St", "Pawcatuck, CT 06379"]}, "phone": "+18604950385", "display_phone": "(860) 495-0385", "distance": 7766.728298948793}, {"id": "rv9xUekrM2_d_pwwWuImfw", "alias": "amigos-taqueria-y-tequila-westerly", "name": "Amigos Taqueria Y Tequila", "image_url": "https://s3-media2.fl.yelpcdn.com/bphoto/rLbV7vDiWhzW05atrxtfZQ/o.jpg", "is_closed": false, "url": "https://www.yelp.com/biz/amigos-taqueria-y-tequila-westerly?adjust_creative=pzvBKuEUl0Vl1jtHQqJaog&utm_campaign=yelp_api_v3&utm_medium=api_v3_business_search&utm_source=pzvBKuEUl0Vl1jtHQqJaog", "review_count": 168, "categories": [{"alias": "mexican", "title": "Mexican"}, {"alias": "bars", "title": "Bars"}], "rating": 3.0, "coordinates": {"latitude": 41.379608, "longitude": -71.830005}, "transactions": ["delivery"], "price": "$$", "location": {"address1": "2 Canal St", "address2": "", "address3": "", "city": "Westerly", "zip_code": "02891", "country": "US", "state": "RI", "display_address": ["2 Canal St", "Westerly, RI 02891"]}, "phone": "+14013155800", "display_phone": "(401) 315-5800", "distance": 7355.872371834484}, {"id": "nW3R-163mrio7zxBLL2dAA", "alias": "kelleys-deli-westerly", "name": "Kelley's Deli", "image_url": "https://s3-media4.fl.yelpcdn.com/bphoto/DqHdANBNMMDVAv5-S0_TeA/o.jpg", "is_closed": false, "url": "https://www.yelp.com/biz/kelleys-deli-westerly?adjust_creative=pzvBKuEUl0Vl1jtHQqJaog&utm_campaign=yelp_api_v3&utm_medium=api_v3_business_search&utm_source=pzvBKuEUl0Vl1jtHQqJaog", "review_count": 56, "categories": [{"alias": "diners", "title": "Diners"}, {"alias": "breakfast_brunch", "title": "Breakfast & Brunch"}], "rating": 4.5, "coordinates": {"latitude": 41.3721986185733, "longitude": -71.8200779251375}, "transactions": ["delivery"], "price": "$", "location": {"address1": "116 Granite St", "address2": "", "address3": "", "city": "Westerly", "zip_code": "02891", "country": "US", "state": "RI", "display_address": ["116 Granite St", "Westerly, RI 02891"]}, "phone": "+14015969896", "display_phone": "(401) 596-9896", "distance": 7097.539222613586}, {"id": "kvio_-h47LNsA6-NoQuN8g", "alias": "venice-restaurant-westerly", "name": "Venice Restaurant", "image_url": "https://s3-media2.fl.yelpcdn.com/bphoto/2WdT7eXXxC6ophcpnXDUaA/o.jpg", "is_closed": false, "url": "https://www.yelp.com/biz/venice-restaurant-westerly?adjust_creative=pzvBKuEUl0Vl1jtHQqJaog&utm_campaign=yelp_api_v3&utm_medium=api_v3_business_search&utm_source=pzvBKuEUl0Vl1jtHQqJaog", "review_count": 58, "categories": [{"alias": "tradamerican", "title": "American (Traditional)"}, {"alias": "seafood", "title": "Seafood"}, {"alias": "italian", "title": "Italian"}], "rating": 3.0, "coordinates": {"latitude": 41.33562, "longitude": -71.79681}, "transactions": ["delivery", "pickup"], "price": "$$", "location": {"address1": "165 Shore Rd", "address2": "", "address3": "", "city": "Westerly", "zip_code": "02891", "country": "US", "state": "RI", "display_address": ["165 Shore Rd", "Westerly, RI 02891"]}, "phone": "+14013480055", "display_phone": "(401) 348-0055", "distance": 9061.470659775689}, {"id": "7gUf70LOzjZ9SG9r7-25qA", "alias": "k-and-s-pizza-charlestown", "name": "K & S Pizza", "image_url": "https://s3-media2.fl.yelpcdn.com/bphoto/VRNgydNfbBKHDnjy7nNf3g/o.jpg", "is_closed": false, "url": "https://www.yelp.com/biz/k-and-s-pizza-charlestown?adjust_creative=pzvBKuEUl0Vl1jtHQqJaog&utm_campaign=yelp_api_v3&utm_medium=api_v3_business_search&utm_source=pzvBKuEUl0Vl1jtHQqJaog", "review_count": 26, "categories": [{"alias": "pizza", "title": "Pizza"}], "rating": 3.5, "coordinates": {"latitude": 41.4546752868335, "longitude": -71.6611065036563}, "transactions": [], "price": "$$", "location": {"address1": "469 Carolina Back Rd", "address2": "", "address3": "", "city": "Charlestown", "zip_code": "02813", "country": "US", "state": "RI", "display_address": ["469 Carolina Back Rd", "Charlestown, RI 02813"]}, "phone": "+14013640040", "display_phone": "(401) 364-0040", "distance": 9031.747310522045}, {"id": "9yXbtKS_pszWG4SnKZpxnw", "alias": "mias-cafe-pawcatuck-4", "name": "Mia's Cafe", "image_url": "https://s3-media2.fl.yelpcdn.com/bphoto/0fsp2RlRHJTCAFnUEP-xXw/o.jpg", "is_closed": false, "url": "https://www.yelp.com/biz/mias-cafe-pawcatuck-4?adjust_creative=pzvBKuEUl0Vl1jtHQqJaog&utm_campaign=yelp_api_v3&utm_medium=api_v3_business_search&utm_source=pzvBKuEUl0Vl1jtHQqJaog", "review_count": 154, "categories": [{"alias": "breakfast_brunch", "title": "Breakfast & Brunch"}, {"alias": "cafes", "title": "Cafes"}], "rating": 4.0, "coordinates": {"latitude": 41.3774172, "longitude": -71.8331364}, "transactions": ["delivery", "pickup"], "price": "$$", "location": {"address1": "1 W Broad St", "address2": "", "address3": "", "city": "Pawcatuck", "zip_code": "06379", "country": "US", "state": "CT", "display_address": ["1 W Broad St", "Pawcatuck, CT 06379"]}, "phone": "+18605993840", "display_phone": "(860) 599-3840", "distance": 7701.329289882455}, {"id": "L2lMUt4m_96XItYbxCZkQQ", "alias": "hitching-post-charlestown", "name": "Hitching Post", "image_url": "https://s3-media4.fl.yelpcdn.com/bphoto/hroK0zgUhCkwvIgMkIlbNA/o.jpg", "is_closed": false, "url": "https://www.yelp.com/biz/hitching-post-charlestown?adjust_creative=pzvBKuEUl0Vl1jtHQqJaog&utm_campaign=yelp_api_v3&utm_medium=api_v3_business_search&utm_source=pzvBKuEUl0Vl1jtHQqJaog", "review_count": 61, "categories": [{"alias": "seafood", "title": "Seafood"}, {"alias": "burgers", "title": "Burgers"}, {"alias": "hotdogs", "title": "Fast Food"}], "rating": 3.0, "coordinates": {"latitude": 41.3636957108974, "longitude": -71.684797257185}, "transactions": [], "price": "$$", "location": {"address1": "5402 Post Rd", "address2": "", "address3": "", "city": "Charlestown", "zip_code": "02813", "country": "US", "state": "RI", "display_address": ["5402 Post Rd", "Charlestown, RI 02813"]}, "phone": "+14013647495", "display_phone": "(401) 364-7495", "distance": 7698.7585225108805}, {"id": "K-J1GXPvYtLMZDhT97eQBg", "alias": "longo-ristorante-and-pizzeria-westerly", "name": "Longo Ristorante & Pizzeria", "image_url": "https://s3-media2.fl.yelpcdn.com/bphoto/0s0MNSaj_E21J3VmFPeg1g/o.jpg", "is_closed": false, "url": "https://www.yelp.com/biz/longo-ristorante-and-pizzeria-westerly?adjust_creative=pzvBKuEUl0Vl1jtHQqJaog&utm_campaign=yelp_api_v3&utm_medium=api_v3_business_search&utm_source=pzvBKuEUl0Vl1jtHQqJaog", "review_count": 40, "categories": [{"alias": "pizza", "title": "Pizza"}, {"alias": "italian", "title": "Italian"}, {"alias": "bars", "title": "Bars"}], "rating": 3.5, "coordinates": {"latitude": 41.379771, "longitude": -71.829123}, "transactions": ["delivery"], "price": "$$", "location": {"address1": "84 High St", "address2": "", "address3": "", "city": "Westerly", "zip_code": "02891", "country": "US", "state": "RI", "display_address": ["84 High St", "Westerly, RI 02891"]}, "phone": "+14013150881", "display_phone": "(401) 315-0881", "distance": 7285.257064072464}, {"id": "kNOjDM10zI0RvNEmThKmrA", "alias": "pizzaplace-westerly-2", "name": "PizzaPlace", "image_url": "https://s3-media2.fl.yelpcdn.com/bphoto/1AoluoG47zfERa99sHSd4g/o.jpg", "is_closed": false, "url": "https://www.yelp.com/biz/pizzaplace-westerly-2?adjust_creative=pzvBKuEUl0Vl1jtHQqJaog&utm_campaign=yelp_api_v3&utm_medium=api_v3_business_search&utm_source=pzvBKuEUl0Vl1jtHQqJaog", "review_count": 110, "categories": [{"alias": "pizza", "title": "Pizza"}], "rating": 4.0, "coordinates": {"latitude": 41.376953, "longitude": -71.830095}, "transactions": ["delivery"], "price": "$$", "location": {"address1": "43 Broad St", "address2": "", "address3": "", "city": "Westerly", "zip_code": "02891", "country": "US", "state": "RI", "display_address": ["43 Broad St", "Westerly, RI 02891"]}, "phone": "+14013481803", "display_phone": "(401) 348-1803", "distance": 7497.507888428414}, {"id": "fWNgHgbkXtJQTF54c7iGGw", "alias": "wilcox-tavern-charlestown-3", "name": "Wilcox Tavern", "image_url": "https://s3-media2.fl.yelpcdn.com/bphoto/NsRzWEkBE2NVwTtTHyPuOA/o.jpg", "is_closed": false, "url": "https://www.yelp.com/biz/wilcox-tavern-charlestown-3?adjust_creative=pzvBKuEUl0Vl1jtHQqJaog&utm_campaign=yelp_api_v3&utm_medium=api_v3_business_search&utm_source=pzvBKuEUl0Vl1jtHQqJaog", "review_count": 40, "categories": [{"alias": "seafood", "title": "Seafood"}, {"alias": "tradamerican", "title": "American (Traditional)"}, {"alias": "tapasmallplates", "title": "Tapas/Small Plates"}], "rating": 4.0, "coordinates": {"latitude": 41.355496, "longitude": -71.713079}, "transactions": [], "price": "$$", "location": {"address1": "5153 Old Post Rd", "address2": "", "address3": null, "city": "Charlestown", "zip_code": "02813", "country": "US", "state": "RI", "display_address": ["5153 Old Post Rd", "Charlestown, RI 02813"]}, "phone": "+14013221829", "display_phone": "(401) 322-1829", "distance": 6930.374518907519}, {"id": "h3S-G-5syTG90ppEEQKVxQ", "alias": "small-axe-cafe-charlestown", "name": "Small Axe Cafe", "image_url": "https://s3-media4.fl.yelpcdn.com/bphoto/_jPOGKUeBYG1Hk5u-fcoUw/o.jpg", "is_closed": false, "url": "https://www.yelp.com/biz/small-axe-cafe-charlestown?adjust_creative=pzvBKuEUl0Vl1jtHQqJaog&utm_campaign=yelp_api_v3&utm_medium=api_v3_business_search&utm_source=pzvBKuEUl0Vl1jtHQqJaog", "review_count": 25, "categories": [{"alias": "cafes", "title": "Cafes"}, {"alias": "newamerican", "title": "American (New)"}], "rating": 3.5, "coordinates": {"latitude": 41.377494, "longitude": -71.661696}, "transactions": [], "price": "$$", "location": {"address1": "4820 Old Post Rd", "address2": "", "address3": "", "city": "Charlestown", "zip_code": "02813", "country": "US", "state": "RI", "display_address": ["4820 Old Post Rd", "Charlestown, RI 02813"]}, "phone": "+14013643638", "display_phone": "(401) 364-3638", "distance": 8385.02530443802}, {"id": "o_imtmjJM2EA3XCw6b_xZA", "alias": "sunny-side-up-westerly", "name": "Sunny Side Up", "image_url": "https://s3-media1.fl.yelpcdn.com/bphoto/wZovlErkwdY5Lj6b0J_-xg/o.jpg", "is_closed": false, "url": "https://www.yelp.com/biz/sunny-side-up-westerly?adjust_creative=pzvBKuEUl0Vl1jtHQqJaog&utm_campaign=yelp_api_v3&utm_medium=api_v3_business_search&utm_source=pzvBKuEUl0Vl1jtHQqJaog", "review_count": 72, "categories": [{"alias": "bakeries", "title": "Bakeries"}, {"alias": "breakfast_brunch", "title": "Breakfast & Brunch"}], "rating": 4.0, "coordinates": {"latitude": 41.35127, "longitude": -71.76678}, "transactions": [], "price": "$$", "location": {"address1": "253 Post Rd", "address2": "", "address3": "", "city": "Westerly", "zip_code": "02891", "country": "US", "state": "RI", "display_address": ["253 Post Rd", "Westerly, RI 02891"]}, "phone": "+14016374999", "display_phone": "(401) 637-4999", "distance": 6693.038628621576}, {"id": "PYf4vXKbonyAgHwCIseDgA", "alias": "koi-japanese-cuisine-westerly-2", "name": "Koi Japanese Cuisine", "image_url": "https://s3-media3.fl.yelpcdn.com/bphoto/hrt_bxNAxc6sGw8B7J9eKg/o.jpg", "is_closed": false, "url": "https://www.yelp.com/biz/koi-japanese-cuisine-westerly-2?adjust_creative=pzvBKuEUl0Vl1jtHQqJaog&utm_campaign=yelp_api_v3&utm_medium=api_v3_business_search&utm_source=pzvBKuEUl0Vl1jtHQqJaog", "review_count": 70, "categories": [{"alias": "japanese", "title": "Japanese"}, {"alias": "sushi", "title": "Sushi Bars"}, {"alias": "seafood", "title": "Seafood"}], "rating": 4.0, "coordinates": {"latitude": 41.37923, "longitude": -71.82962}, "transactions": ["delivery"], "price": "$$", "location": {"address1": "65 High St", "address2": "", "address3": "", "city": "Westerly", "zip_code": "02891", "country": "US", "state": "RI", "display_address": ["65 High St", "Westerly, RI 02891"]}, "phone": "+14013488886", "display_phone": "(401) 348-8886", "distance": 7350.416973202412}, {"id": "CLOJF8y35VDcUbSQI3rF0A", "alias": "pizza-vita-westerly", "name": "Pizza Vita", "image_url": "https://s3-media1.fl.yelpcdn.com/bphoto/3P1DXj-uk8tcpjRxj3d0mA/o.jpg", "is_closed": false, "url": "https://www.yelp.com/biz/pizza-vita-westerly?adjust_creative=pzvBKuEUl0Vl1jtHQqJaog&utm_campaign=yelp_api_v3&utm_medium=api_v3_business_search&utm_source=pzvBKuEUl0Vl1jtHQqJaog", "review_count": 20, "categories": [{"alias": "pizza", "title": "Pizza"}, {"alias": "salad", "title": "Salad"}, {"alias": "wraps", "title": "Wraps"}], "rating": 4.0, "coordinates": {"latitude": 41.364714, "longitude": -71.830466}, "transactions": ["delivery", "pickup"], "price": "$$", "location": {"address1": "55 Beach St", "address2": "Ste 12", "address3": null, "city": "Westerly", "zip_code": "02891", "country": "US", "state": "RI", "display_address": ["55 Beach St", "Ste 12", "Westerly, RI 02891"]}, "phone": "+14013487036", "display_phone": "(401) 348-7036", "distance": 8291.822507610163}, {"id": "ea9KHl-fg3S-3KI9aZ3ISg", "alias": "salvatos-bagels-and-more-westerly", "name": "Salvato's Bagels & More", "image_url": "https://s3-media1.fl.yelpcdn.com/bphoto/UvB-zL7w4J-UOihP2zh5UQ/o.jpg", "is_closed": false, "url": "https://www.yelp.com/biz/salvatos-bagels-and-more-westerly?adjust_creative=pzvBKuEUl0Vl1jtHQqJaog&utm_campaign=yelp_api_v3&utm_medium=api_v3_business_search&utm_source=pzvBKuEUl0Vl1jtHQqJaog", "review_count": 1, "categories": [{"alias": "breakfast_brunch", "title": "Breakfast & Brunch"}, {"alias": "bagels", "title": "Bagels"}], "rating": 3.0, "coordinates": {"latitude": 41.359972, "longitude": -71.81223}, "transactions": ["delivery", "pickup"], "location": {"address1": "105 Franklin St", "address2": null, "address3": "", "city": "Westerly", "zip_code": "02891", "country": "US", "state": "RI", "display_address": ["105 Franklin St", "Westerly, RI 02891"]}, "phone": "+14013483030", "display_phone": "(401) 348-3030", "distance": 7569.982709528934}, {"id": "S9ZxlbIC9vAFeegjpSdNQA", "alias": "ju-sushi-westerly", "name": "Ju Sushi", "image_url": "https://s3-media1.fl.yelpcdn.com/bphoto/Y3iB_GOOGP3xjMZ96ULTbg/o.jpg", "is_closed": false, "url": "https://www.yelp.com/biz/ju-sushi-westerly?adjust_creative=pzvBKuEUl0Vl1jtHQqJaog&utm_campaign=yelp_api_v3&utm_medium=api_v3_business_search&utm_source=pzvBKuEUl0Vl1jtHQqJaog", "review_count": 44, "categories": [{"alias": "sushi", "title": "Sushi Bars"}, {"alias": "salad", "title": "Salad"}, {"alias": "soup", "title": "Soup"}], "rating": 4.5, "coordinates": {"latitude": 41.3719044312416, "longitude": -71.8181829993694}, "transactions": ["delivery"], "price": "$$", "location": {"address1": "114 Granite St", "address2": "", "address3": "", "city": "Westerly", "zip_code": "02891", "country": "US", "state": "RI", "display_address": ["114 Granite St", "Westerly, RI 02891"]}, "phone": "+14015965500", "display_phone": "(401) 596-5500", "distance": 6991.861732038849}, {"id": "HB6DPAR6s7QA0a0ZDFk8Fw", "alias": "ritaccos-market-westerly", "name": "Ritacco's Market", "image_url": "https://s3-media3.fl.yelpcdn.com/bphoto/Psznanfc3KhVXeueRM4ilw/o.jpg", "is_closed": false, "url": "https://www.yelp.com/biz/ritaccos-market-westerly?adjust_creative=pzvBKuEUl0Vl1jtHQqJaog&utm_campaign=yelp_api_v3&utm_medium=api_v3_business_search&utm_source=pzvBKuEUl0Vl1jtHQqJaog", "review_count": 7, "categories": [{"alias": "grocery", "title": "Grocery"}, {"alias": "italian", "title": "Italian"}, {"alias": "pizza", "title": "Pizza"}], "rating": 5.0, "coordinates": {"latitude": 41.383861, "longitude": -71.815867}, "transactions": [], "price": "$$", "location": {"address1": "84 Oak St", "address2": "", "address3": "", "city": "Westerly", "zip_code": "02891", "country": "US", "state": "RI", "display_address": ["84 Oak St", "Westerly, RI 02891"]}, "phone": "+14015961835", "display_phone": "(401) 596-1835", "distance": 6096.227495193541}, {"id": "X2XCQC8xpRIPkTXfk4GKIg", "alias": "pick-pockets-deli-westerly", "name": "Pick Pockets Deli", "image_url": "https://s3-media2.fl.yelpcdn.com/bphoto/68Z9_btS5qmqbr70uvoK5Q/o.jpg", "is_closed": false, "url": "https://www.yelp.com/biz/pick-pockets-deli-westerly?adjust_creative=pzvBKuEUl0Vl1jtHQqJaog&utm_campaign=yelp_api_v3&utm_medium=api_v3_business_search&utm_source=pzvBKuEUl0Vl1jtHQqJaog", "review_count": 67, "categories": [{"alias": "healthmarkets", "title": "Health Markets"}, {"alias": "wraps", "title": "Wraps"}, {"alias": "delis", "title": "Delis"}], "rating": 4.5, "coordinates": {"latitude": 41.368275, "longitude": -71.818866}, "transactions": ["delivery"], "price": "$", "location": {"address1": "160 Granite St", "address2": "", "address3": "", "city": "Westerly", "zip_code": "02891", "country": "US", "state": "RI", "display_address": ["160 Granite St", "Westerly, RI 02891"]}, "phone": "+14016377900", "display_phone": "(401) 637-7900", "distance": 7289.472143076986}, {"id": "Ck4wvlxKt0lF4-6SyP0SpA", "alias": "back-track-bar-and-grill-westerly", "name": "Back Track Bar & Grill", "image_url": "https://s3-media3.fl.yelpcdn.com/bphoto/wVKexohyYyDvHfiDJXGP4Q/o.jpg", "is_closed": false, "url": "https://www.yelp.com/biz/back-track-bar-and-grill-westerly?adjust_creative=pzvBKuEUl0Vl1jtHQqJaog&utm_campaign=yelp_api_v3&utm_medium=api_v3_business_search&utm_source=pzvBKuEUl0Vl1jtHQqJaog", "review_count": 2, "categories": [{"alias": "tradamerican", "title": "American (Traditional)"}], "rating": 5.0, "coordinates": {"latitude": 41.38177, "longitude": -71.83125}, "transactions": ["delivery"], "location": {"address1": "9 Industrial Dr", "address2": "", "address3": "", "city": "Westerly", "zip_code": "02891", "country": "US", "state": "RI", "display_address": ["9 Industrial Dr", "Westerly, RI 02891"]}, "phone": "+14013480150", "display_phone": "(401) 348-0150", "distance": 7286.712922874716}, {"id": "SSZKvYqDhKy66QMqpVazrw", "alias": "55-beach-street-cafe-westerly", "name": "55 Beach Street Cafe", "image_url": "https://s3-media2.fl.yelpcdn.com/bphoto/fTZaEqy56XnaHPixGbQUyw/o.jpg", "is_closed": false, "url": "https://www.yelp.com/biz/55-beach-street-cafe-westerly?adjust_creative=pzvBKuEUl0Vl1jtHQqJaog&utm_campaign=yelp_api_v3&utm_medium=api_v3_business_search&utm_source=pzvBKuEUl0Vl1jtHQqJaog", "review_count": 60, "categories": [{"alias": "cafes", "title": "Cafes"}, {"alias": "breakfast_brunch", "title": "Breakfast & Brunch"}], "rating": 4.0, "coordinates": {"latitude": 41.36498, "longitude": -71.82996}, "transactions": ["delivery"], "price": "$", "location": {"address1": "55 Beach St", "address2": null, "address3": "", "city": "Westerly", "zip_code": "02891", "country": "US", "state": "RI", "display_address": ["55 Beach St", "Westerly, RI 02891"]}, "phone": "", "display_phone": "", "distance": 8272.769705218678}, {"id": "u__mSFlIv-vku3PgUgSyOw", "alias": "daves-coffee-charlestown", "name": "Dave's Coffee", "image_url": "https://s3-media1.fl.yelpcdn.com/bphoto/5F6OQjKNTN6UIECCPII7KQ/o.jpg", "is_closed": false, "url": "https://www.yelp.com/biz/daves-coffee-charlestown?adjust_creative=pzvBKuEUl0Vl1jtHQqJaog&utm_campaign=yelp_api_v3&utm_medium=api_v3_business_search&utm_source=pzvBKuEUl0Vl1jtHQqJaog", "review_count": 159, "categories": [{"alias": "coffee", "title": "Coffee & Tea"}, {"alias": "cafes", "title": "Cafes"}], "rating": 4.5, "coordinates": {"latitude": 41.355147, "longitude": -71.714839}, "transactions": [], "price": "$", "location": {"address1": "5193 Post Rd", "address2": "", "address3": "", "city": "Charlestown", "zip_code": "02813", "country": "US", "state": "RI", "display_address": ["5193 Post Rd", "Charlestown, RI 02813"]}, "phone": "+14013220006", "display_phone": "(401) 322-0006", "distance": 6897.342189979409}, {"id": "vqA79OAlZgCq0TXNCTxExw", "alias": "tops-china-pawcatuck-2", "name": "Top's China", "image_url": "https://s3-media1.fl.yelpcdn.com/bphoto/hHrcBdV-vRmNKBhJZblS7A/o.jpg", "is_closed": false, "url": "https://www.yelp.com/biz/tops-china-pawcatuck-2?adjust_creative=pzvBKuEUl0Vl1jtHQqJaog&utm_campaign=yelp_api_v3&utm_medium=api_v3_business_search&utm_source=pzvBKuEUl0Vl1jtHQqJaog", "review_count": 11, "categories": [{"alias": "chinese", "title": "Chinese"}], "rating": 3.5, "coordinates": {"latitude": 41.3755064, "longitude": -71.8475903}, "transactions": ["delivery"], "price": "$$$$", "location": {"address1": "37 South Broad St", "address2": "", "address3": "", "city": "Pawcatuck", "zip_code": "06378", "country": "US", "state": "CT", "display_address": ["37 South Broad St", "Pawcatuck, CT 06378"]}, "phone": "+18605995358", "display_phone": "(860) 599-5358", "distance": 8870.513646143569}, {"id": "muJEa-bjMNA5dtNmpQOXQw", "alias": "vetranos-restaurant-westerly", "name": "Vetrano's Restaurant", "image_url": "https://s3-media2.fl.yelpcdn.com/bphoto/qaAO_HODf-BZYpWe0f_ZMA/o.jpg", "is_closed": false, "url": "https://www.yelp.com/biz/vetranos-restaurant-westerly?adjust_creative=pzvBKuEUl0Vl1jtHQqJaog&utm_campaign=yelp_api_v3&utm_medium=api_v3_business_search&utm_source=pzvBKuEUl0Vl1jtHQqJaog", "review_count": 88, "categories": [{"alias": "italian", "title": "Italian"}, {"alias": "pizza", "title": "Pizza"}, {"alias": "bars", "title": "Bars"}], "rating": 3.5, "coordinates": {"latitude": 41.370545, "longitude": -71.819344}, "transactions": ["delivery"], "price": "$$", "location": {"address1": "130 Granite St", "address2": "Ste F", "address3": "", "city": "Westerly", "zip_code": "02891", "country": "US", "state": "RI", "display_address": ["130 Granite St", "Ste F", "Westerly, RI 02891"]}, "phone": "+14013485050", "display_phone": "(401) 348-5050", "distance": 7161.444378269926}, {"id": "nVhIlC6gLW2iY66agtKhKw", "alias": "johnny-pastrami-north-stonington", "name": "Johnny Pastrami", "image_url": "", "is_closed": false, "url": "https://www.yelp.com/biz/johnny-pastrami-north-stonington?adjust_creative=pzvBKuEUl0Vl1jtHQqJaog&utm_campaign=yelp_api_v3&utm_medium=api_v3_business_search&utm_source=pzvBKuEUl0Vl1jtHQqJaog", "review_count": 4, "categories": [{"alias": "tradamerican", "title": "American (Traditional)"}], "rating": 2.0, "coordinates": {"latitude": 41.4424625, "longitude": -71.8015894}, "transactions": [], "price": "$", "location": {"address1": "273 Clarks Falls Rd", "address2": "", "address3": "", "city": "North Stonington", "zip_code": "06359", "country": "US", "state": "CT", "display_address": ["273 Clarks Falls Rd", "North Stonington, CT 06359"]}, "phone": "+18605992020", "display_phone": "(860) 599-2020", "distance": 5446.1208339527675}, {"id": "Fv09E7IoSTASwriHg0aBLQ", "alias": "new-china-pavilion-westerly", "name": "New China Pavilion", "image_url": "https://s3-media2.fl.yelpcdn.com/bphoto/VY44vqCwy25SHfNXpGpjwg/o.jpg", "is_closed": false, "url": "https://www.yelp.com/biz/new-china-pavilion-westerly?adjust_creative=pzvBKuEUl0Vl1jtHQqJaog&utm_campaign=yelp_api_v3&utm_medium=api_v3_business_search&utm_source=pzvBKuEUl0Vl1jtHQqJaog", "review_count": 16, "categories": [{"alias": "chinese", "title": "Chinese"}, {"alias": "japanese", "title": "Japanese"}], "rating": 3.0, "coordinates": {"latitude": 41.359623, "longitude": -71.811871}, "transactions": ["delivery"], "price": "$$", "location": {"address1": "105 Franklin St", "address2": "#21", "address3": "", "city": "Westerly", "zip_code": "02891", "country": "US", "state": "RI", "display_address": ["105 Franklin St", "#21", "Westerly, RI 02891"]}, "phone": "+14015969888", "display_phone": "(401) 596-9888", "distance": 7546.939233032728}, {"id": "ZZzBRQiQGf_vjah0MKSmNw", "alias": "chens-village-restaurant-westerly", "name": "Chen's Village Restaurant", "image_url": "https://s3-media4.fl.yelpcdn.com/bphoto/CgxnZhlcPnVXx0js6L3edQ/o.jpg", "is_closed": false, "url": "https://www.yelp.com/biz/chens-village-restaurant-westerly?adjust_creative=pzvBKuEUl0Vl1jtHQqJaog&utm_campaign=yelp_api_v3&utm_medium=api_v3_business_search&utm_source=pzvBKuEUl0Vl1jtHQqJaog", "review_count": 54, "categories": [{"alias": "chinese", "title": "Chinese"}], "rating": 2.5, "coordinates": {"latitude": 41.36857, "longitude": -71.81939}, "transactions": [], "price": "$$", "location": {"address1": "156 Granite St", "address2": "", "address3": "", "city": "Westerly", "zip_code": "02891", "country": "US", "state": "RI", "display_address": ["156 Granite St", "Westerly, RI 02891"]}, "phone": "+14015968339", "display_phone": "(401) 596-8339", "distance": 7280.247032251644}, {"id": "Io4C5tUwnb_YzeaMXHBqBA", "alias": "shuckin-truck-narragansett-2", "name": "Shuckin Truck", "image_url": "https://s3-media2.fl.yelpcdn.com/bphoto/r7QRORfe9UYVS7GGzUm9DQ/o.jpg", "is_closed": false, "url": "https://www.yelp.com/biz/shuckin-truck-narragansett-2?adjust_creative=pzvBKuEUl0Vl1jtHQqJaog&utm_campaign=yelp_api_v3&utm_medium=api_v3_business_search&utm_source=pzvBKuEUl0Vl1jtHQqJaog", "review_count": 24, "categories": [{"alias": "foodtrucks", "title": "Food Trucks"}, {"alias": "seafood", "title": "Seafood"}], "rating": 4.5, "coordinates": {"latitude": 41.4274482727051, "longitude": -71.4597778320313}, "transactions": [], "price": "$$", "location": {"address1": "", "address2": "", "address3": "", "city": "Narragansett", "zip_code": "02882", "country": "US", "state": "RI", "display_address": ["Narragansett, RI 02882"]}, "phone": "+14017415953", "display_phone": "(401) 741-5953", "distance": 21956.074422425867}, {"id": "_Sz4eAoEOJzQ3nCoCo2WWw", "alias": "knickerbocker-music-center-westerly", "name": "Knickerbocker Music Center", "image_url": "https://s3-media3.fl.yelpcdn.com/bphoto/20PCsy_9WhY1bqdDz4EcfQ/o.jpg", "is_closed": false, "url": "https://www.yelp.com/biz/knickerbocker-music-center-westerly?adjust_creative=pzvBKuEUl0Vl1jtHQqJaog&utm_campaign=yelp_api_v3&utm_medium=api_v3_business_search&utm_source=pzvBKuEUl0Vl1jtHQqJaog", "review_count": 10, "categories": [{"alias": "musicvenues", "title": "Music Venues"}, {"alias": "cafes", "title": "Cafes"}, {"alias": "bars", "title": "Bars"}], "rating": 4.5, "coordinates": {"latitude": 41.38139, "longitude": -71.82837}, "transactions": [], "price": "$$", "location": {"address1": "35 Railroad Ave", "address2": "", "address3": "", "city": "Westerly", "zip_code": "02891", "country": "US", "state": "RI", "display_address": ["35 Railroad Ave", "Westerly, RI 02891"]}, "phone": "+14013155070", "display_phone": "(401) 315-5070", "distance": 7143.099299703461}, {"id": "j_K1X7LiL1TaI1wvoQzPjg", "alias": "cimini-and-associates-westerly", "name": "Cimini & Associates", "image_url": "", "is_closed": false, "url": "https://www.yelp.com/biz/cimini-and-associates-westerly?adjust_creative=pzvBKuEUl0Vl1jtHQqJaog&utm_campaign=yelp_api_v3&utm_medium=api_v3_business_search&utm_source=pzvBKuEUl0Vl1jtHQqJaog", "review_count": 1, "categories": [{"alias": "restaurants", "title": "Restaurants"}], "rating": 5.0, "coordinates": {"latitude": 41.3499098271132, "longitude": -71.8107095360756}, "transactions": [], "location": {"address1": "46 Airport Rd", "address2": "", "address3": "", "city": "Westerly", "zip_code": "02891", "country": "US", "state": "RI", "display_address": ["46 Airport Rd", "Westerly, RI 02891"]}, "phone": "+14013480388", "display_phone": "(401) 348-0388", "distance": 8291.381557737162}, {"id": "DQNFUwTME6MOyVsxO4zAnQ", "alias": "amandas-pantry-westerly", "name": "Amanda's Pantry", "image_url": "https://s3-media4.fl.yelpcdn.com/bphoto/XGOWSBJvNKQyAHsJiGjcSA/o.jpg", "is_closed": false, "url": "https://www.yelp.com/biz/amandas-pantry-westerly?adjust_creative=pzvBKuEUl0Vl1jtHQqJaog&utm_campaign=yelp_api_v3&utm_medium=api_v3_business_search&utm_source=pzvBKuEUl0Vl1jtHQqJaog", "review_count": 46, "categories": [{"alias": "diners", "title": "Diners"}, {"alias": "breakfast_brunch", "title": "Breakfast & Brunch"}], "rating": 4.0, "coordinates": {"latitude": 41.37148, "longitude": -71.831304}, "transactions": ["delivery"], "price": "$", "location": {"address1": "169 Main St", "address2": "", "address3": "", "city": "Westerly", "zip_code": "02891", "country": "US", "state": "RI", "display_address": ["169 Main St", "Westerly, RI 02891"]}, "phone": "+14015967180", "display_phone": "(401) 596-7180", "distance": 7910.028357966393}, {"id": "nTvimo4mrloFkMz2A-9vwQ", "alias": "sbarro-north-stonington", "name": "Sbarro", "image_url": "https://s3-media4.fl.yelpcdn.com/bphoto/dwluJOAAnczIQ86IjjNisQ/o.jpg", "is_closed": false, "url": "https://www.yelp.com/biz/sbarro-north-stonington?adjust_creative=pzvBKuEUl0Vl1jtHQqJaog&utm_campaign=yelp_api_v3&utm_medium=api_v3_business_search&utm_source=pzvBKuEUl0Vl1jtHQqJaog", "review_count": 5, "categories": [{"alias": "hotdogs", "title": "Fast Food"}, {"alias": "pizza", "title": "Pizza"}], "rating": 4.0, "coordinates": {"latitude": 41.4417130115424, "longitude": -71.8002784252167}, "transactions": [], "price": "$", "location": {"address1": "247-285 Clarks Falls Rd", "address2": "", "address3": "", "city": "North Stonington", "zip_code": "06359", "country": "US", "state": "CT", "display_address": ["247-285 Clarks Falls Rd", "North Stonington, CT 06359"]}, "phone": "+18605992020", "display_phone": "(860) 599-2020", "distance": 5308.930905122313}, {"id": "LPk-F8l1-lntnvsDOdSEuQ", "alias": "sandys-fine-food-emporium-westerly-2", "name": "Sandy's Fine Food Emporium", "image_url": "https://s3-media3.fl.yelpcdn.com/bphoto/niUW-2odk505zk17IojxVA/o.jpg", "is_closed": false, "url": "https://www.yelp.com/biz/sandys-fine-food-emporium-westerly-2?adjust_creative=pzvBKuEUl0Vl1jtHQqJaog&utm_campaign=yelp_api_v3&utm_medium=api_v3_business_search&utm_source=pzvBKuEUl0Vl1jtHQqJaog", "review_count": 46, "categories": [{"alias": "grocery", "title": "Grocery"}, {"alias": "gourmet", "title": "Specialty Food"}, {"alias": "sandwiches", "title": "Sandwiches"}], "rating": 4.0, "coordinates": {"latitude": 41.3563893735409, "longitude": -71.8054684996605}, "transactions": ["delivery"], "price": "$$", "location": {"address1": "15 Post Rd", "address2": "", "address3": "", "city": "Westerly", "zip_code": "02891", "country": "US", "state": "RI", "display_address": ["15 Post Rd", "Westerly, RI 02891"]}, "phone": "+14015962004", "display_phone": "(401) 596-2004", "distance": 7490.778368713053}, {"id": "3JJu2CQjsR-a5Pgo3JcBFw", "alias": "vocs-dunns-corners-pizza-and-pub-westerly", "name": "Voc's Dunns Corners Pizza & Pub", "image_url": "https://s3-media2.fl.yelpcdn.com/bphoto/BbGfgzEu070eK0sB9utXiA/o.jpg", "is_closed": false, "url": "https://www.yelp.com/biz/vocs-dunns-corners-pizza-and-pub-westerly?adjust_creative=pzvBKuEUl0Vl1jtHQqJaog&utm_campaign=yelp_api_v3&utm_medium=api_v3_business_search&utm_source=pzvBKuEUl0Vl1jtHQqJaog", "review_count": 24, "categories": [{"alias": "pizza", "title": "Pizza"}, {"alias": "pubs", "title": "Pubs"}, {"alias": "italian", "title": "Italian"}], "rating": 3.5, "coordinates": {"latitude": 41.351062, "longitude": -71.763752}, "transactions": [], "price": "$", "location": {"address1": "271 Post Rd Spindrift Vlg", "address2": "Ste 16", "address3": "", "city": "Westerly", "zip_code": "02891", "country": "US", "state": "RI", "display_address": ["271 Post Rd Spindrift Vlg", "Ste 16", "Westerly, RI 02891"]}, "phone": "+14013220221", "display_phone": "(401) 322-0221", "distance": 6684.943497908637}, {"id": "U1UMf7k2XALzHJsHH_4UzQ", "alias": "bogues-alley-pawcatuck", "name": "Bogue's Alley", "image_url": "https://s3-media2.fl.yelpcdn.com/bphoto/sMdTTp-XZlRqsx4v27h6Xw/o.jpg", "is_closed": false, "url": "https://www.yelp.com/biz/bogues-alley-pawcatuck?adjust_creative=pzvBKuEUl0Vl1jtHQqJaog&utm_campaign=yelp_api_v3&utm_medium=api_v3_business_search&utm_source=pzvBKuEUl0Vl1jtHQqJaog", "review_count": 22, "categories": [{"alias": "delis", "title": "Delis"}, {"alias": "sandwiches", "title": "Sandwiches"}], "rating": 4.5, "coordinates": {"latitude": 41.3779796, "longitude": -71.8315418}, "transactions": [], "price": "$", "location": {"address1": "11 W Broad St", "address2": null, "address3": null, "city": "Pawcatuck", "zip_code": "06379", "country": "US", "state": "CT", "display_address": ["11 W Broad St", "Pawcatuck, CT 06379"]}, "phone": "+18605995883", "display_phone": "(860) 599-5883", "distance": 7559.536450681388}, {"id": "_iYvpGfCwqMa3iMMIypT1Q", "alias": "supreme-cheese-pizzeria-and-ristorante-westerly-2", "name": "Supreme Cheese Pizzeria & Ristorante", "image_url": "https://s3-media4.fl.yelpcdn.com/bphoto/22yh-89rfTe7kZ_7s43N7Q/o.jpg", "is_closed": false, "url": "https://www.yelp.com/biz/supreme-cheese-pizzeria-and-ristorante-westerly-2?adjust_creative=pzvBKuEUl0Vl1jtHQqJaog&utm_campaign=yelp_api_v3&utm_medium=api_v3_business_search&utm_source=pzvBKuEUl0Vl1jtHQqJaog", "review_count": 38, "categories": [{"alias": "pizza", "title": "Pizza"}, {"alias": "newamerican", "title": "American (New)"}, {"alias": "burgers", "title": "Burgers"}], "rating": 3.5, "coordinates": {"latitude": 41.36834, "longitude": -71.81974}, "transactions": ["delivery"], "price": "$$", "location": {"address1": "157 Granite St", "address2": "", "address3": "", "city": "Westerly", "zip_code": "02891", "country": "US", "state": "RI", "display_address": ["157 Granite St", "Westerly, RI 02891"]}, "phone": "+14015961001", "display_phone": "(401) 596-1001", "distance": 7340.328796928409}, {"id": "Zyfo5HuK1i1YZCv3U-GvwQ", "alias": "the-pizza-lady-pawcatuck", "name": "The Pizza Lady", "image_url": "https://s3-media4.fl.yelpcdn.com/bphoto/XS3k54QQNuX60G74NJK1dw/o.jpg", "is_closed": false, "url": "https://www.yelp.com/biz/the-pizza-lady-pawcatuck?adjust_creative=pzvBKuEUl0Vl1jtHQqJaog&utm_campaign=yelp_api_v3&utm_medium=api_v3_business_search&utm_source=pzvBKuEUl0Vl1jtHQqJaog", "review_count": 30, "categories": [{"alias": "pizza", "title": "Pizza"}, {"alias": "newamerican", "title": "American (New)"}, {"alias": "italian", "title": "Italian"}], "rating": 4.0, "coordinates": {"latitude": 41.37952, "longitude": -71.83637}, "transactions": [], "price": "$", "location": {"address1": "50 Liberty St", "address2": null, "address3": null, "city": "Pawcatuck", "zip_code": "06379", "country": "US", "state": "CT", "display_address": ["50 Liberty St", "Pawcatuck, CT 06379"]}, "phone": "+18605991113", "display_phone": "(860) 599-1113", "distance": 7823.6672398966975}, {"id": "WIW3FD4EJDFFe3Qkfde6KQ", "alias": "hilltop-cafe-podss-pizza-westerly", "name": "Hilltop Cafe Pods's Pizza", "image_url": "https://s3-media4.fl.yelpcdn.com/bphoto/Ph-g-atXmAeaQcHKUolw4w/o.jpg", "is_closed": false, "url": "https://www.yelp.com/biz/hilltop-cafe-podss-pizza-westerly?adjust_creative=pzvBKuEUl0Vl1jtHQqJaog&utm_campaign=yelp_api_v3&utm_medium=api_v3_business_search&utm_source=pzvBKuEUl0Vl1jtHQqJaog", "review_count": 10, "categories": [{"alias": "pizza", "title": "Pizza"}], "rating": 3.5, "coordinates": {"latitude": 41.3814964294434, "longitude": -71.8318099975586}, "transactions": ["delivery"], "price": "$$", "location": {"address1": "23 Canal St", "address2": "Unit 1", "address3": null, "city": "Westerly", "zip_code": "02891", "country": "US", "state": "RI", "display_address": ["23 Canal St", "Unit 1", "Westerly, RI 02891"]}, "phone": "+14015969299", "display_phone": "(401) 596-9299", "distance": 7396.248659374203}, {"id": "myS5fCADP_Lf-JoC3V2lcA", "alias": "alley-katz-bowling-center-westerly-2", "name": "Alley Katz Bowling Center", "image_url": "https://s3-media2.fl.yelpcdn.com/bphoto/CebbalyJRFMfrbVuOGT5Cw/o.jpg", "is_closed": false, "url": "https://www.yelp.com/biz/alley-katz-bowling-center-westerly-2?adjust_creative=pzvBKuEUl0Vl1jtHQqJaog&utm_campaign=yelp_api_v3&utm_medium=api_v3_business_search&utm_source=pzvBKuEUl0Vl1jtHQqJaog", "review_count": 8, "categories": [{"alias": "bowling", "title": "Bowling"}, {"alias": "newamerican", "title": "American (New)"}, {"alias": "sportsbars", "title": "Sports Bars"}], "rating": 4.0, "coordinates": {"latitude": 41.371688, "longitude": -71.818873}, "transactions": [], "price": "$$", "location": {"address1": "116 Granite St", "address2": "", "address3": "", "city": "Westerly", "zip_code": "02891", "country": "US", "state": "RI", "display_address": ["116 Granite St", "Westerly, RI 02891"]}, "phone": "+14015967474", "display_phone": "(401) 596-7474", "distance": 7052.088739069672}, {"id": "6KeCfhU8-DPfO8xlCKi-Gg", "alias": "donnas-cucina-pawcatuck", "name": "Donna's Cucina", "image_url": "", "is_closed": false, "url": "https://www.yelp.com/biz/donnas-cucina-pawcatuck?adjust_creative=pzvBKuEUl0Vl1jtHQqJaog&utm_campaign=yelp_api_v3&utm_medium=api_v3_business_search&utm_source=pzvBKuEUl0Vl1jtHQqJaog", "review_count": 3, "categories": [{"alias": "tradamerican", "title": "American (Traditional)"}], "rating": 4.0, "coordinates": {"latitude": 41.378544, "longitude": -71.831721}, "transactions": [], "location": {"address1": "5 Coggswell St", "address2": "", "address3": "", "city": "Pawcatuck", "zip_code": "06379", "country": "US", "state": "CT", "display_address": ["5 Coggswell St", "Pawcatuck, CT 06379"]}, "phone": "+18604955577", "display_phone": "(860) 495-5577", "distance": 7541.112575468075}, {"id": "Q2ooL3NhHX7XNlSNxjlaxA", "alias": "wendys-westerly", "name": "Wendy's", "image_url": "https://s3-media3.fl.yelpcdn.com/bphoto/FbYz8KwjyS43pkTjl5fxyQ/o.jpg", "is_closed": false, "url": "https://www.yelp.com/biz/wendys-westerly?adjust_creative=pzvBKuEUl0Vl1jtHQqJaog&utm_campaign=yelp_api_v3&utm_medium=api_v3_business_search&utm_source=pzvBKuEUl0Vl1jtHQqJaog", "review_count": 33, "categories": [{"alias": "burgers", "title": "Burgers"}, {"alias": "hotdogs", "title": "Fast Food"}], "rating": 1.5, "coordinates": {"latitude": 41.3558397270931, "longitude": -71.8051022163291}, "transactions": ["delivery"], "price": "$", "location": {"address1": "19 Post Rd", "address2": "", "address3": "", "city": "Westerly", "zip_code": "02891", "country": "US", "state": "RI", "display_address": ["19 Post Rd", "Westerly, RI 02891"]}, "phone": "+14013482935", "display_phone": "(401) 348-2935", "distance": 7521.980766266166}, {"id": "S7dVz9dp8EwI_FlJmGhEdg", "alias": "applebees-grill-bar-westerly", "name": "Applebee's Grill + Bar", "image_url": "https://s3-media3.fl.yelpcdn.com/bphoto/lSrB26oj18uEM9d6mZez4w/o.jpg", "is_closed": false, "url": "https://www.yelp.com/biz/applebees-grill-bar-westerly?adjust_creative=pzvBKuEUl0Vl1jtHQqJaog&utm_campaign=yelp_api_v3&utm_medium=api_v3_business_search&utm_source=pzvBKuEUl0Vl1jtHQqJaog", "review_count": 23, "categories": [{"alias": "tradamerican", "title": "American (Traditional)"}, {"alias": "sportsbars", "title": "Sports Bars"}, {"alias": "burgers", "title": "Burgers"}], "rating": 2.5, "coordinates": {"latitude": 41.351757, "longitude": -71.771337}, "transactions": [], "price": "$$", "location": {"address1": "224 Post Rd", "address2": "Cross Roads Shopping Center", "address3": null, "city": "Westerly", "zip_code": "02891", "country": "US", "state": "RI", "display_address": ["224 Post Rd", "Cross Roads Shopping Center", "Westerly, RI 02891"]}, "phone": "+14013222045", "display_phone": "(401) 322-2045", "distance": 6731.138651796146}, {"id": "QRrCR0xAc1-c-y635OtUWg", "alias": "mcdonalds-westerly-2", "name": "McDonald's", "image_url": "https://s3-media2.fl.yelpcdn.com/bphoto/WP07vyKH8V7nY2lxz9MKSw/o.jpg", "is_closed": false, "url": "https://www.yelp.com/biz/mcdonalds-westerly-2?adjust_creative=pzvBKuEUl0Vl1jtHQqJaog&utm_campaign=yelp_api_v3&utm_medium=api_v3_business_search&utm_source=pzvBKuEUl0Vl1jtHQqJaog", "review_count": 16, "categories": [{"alias": "hotdogs", "title": "Fast Food"}, {"alias": "burgers", "title": "Burgers"}, {"alias": "coffee", "title": "Coffee & Tea"}], "rating": 2.5, "coordinates": {"latitude": 41.3703304567745, "longitude": -71.820515692234}, "transactions": ["delivery"], "price": "$", "location": {"address1": "135 Granite St", "address2": "", "address3": "", "city": "Westerly", "zip_code": "02891", "country": "US", "state": "RI", "display_address": ["135 Granite St", "Westerly, RI 02891"]}, "phone": "+14015969086", "display_phone": "(401) 596-9086", "distance": 7253.002987567686}, {"id": "ptDQh4fgys1UXXdpnYNTGQ", "alias": "marios-northend-pizzaria-westerly", "name": "Mario's Northend Pizzaria", "image_url": "https://s3-media3.fl.yelpcdn.com/bphoto/gIeYKhF_kF4nxqu6srG9lA/o.jpg", "is_closed": false, "url": "https://www.yelp.com/biz/marios-northend-pizzaria-westerly?adjust_creative=pzvBKuEUl0Vl1jtHQqJaog&utm_campaign=yelp_api_v3&utm_medium=api_v3_business_search&utm_source=pzvBKuEUl0Vl1jtHQqJaog", "review_count": 16, "categories": [{"alias": "pizza", "title": "Pizza"}, {"alias": "italian", "title": "Italian"}], "rating": 3.5, "coordinates": {"latitude": 41.38323, "longitude": -71.82628}, "transactions": ["delivery"], "price": "$$", "location": {"address1": "61 Friendship St", "address2": "", "address3": "", "city": "Westerly", "zip_code": "02891", "country": "US", "state": "RI", "display_address": ["61 Friendship St", "Westerly, RI 02891"]}, "phone": "+14015963883", "display_phone": "(401) 596-3883", "distance": 6917.006906616882}, {"id": "kGoJZBJwUJOGc9zBx--TjQ", "alias": "michaels-food-mart-and-deli-charlestown", "name": "Michael's Food Mart & Deli", "image_url": "https://s3-media3.fl.yelpcdn.com/bphoto/pRkQzp1wS0nzW8DzD4fspA/o.jpg", "is_closed": false, "url": "https://www.yelp.com/biz/michaels-food-mart-and-deli-charlestown?adjust_creative=pzvBKuEUl0Vl1jtHQqJaog&utm_campaign=yelp_api_v3&utm_medium=api_v3_business_search&utm_source=pzvBKuEUl0Vl1jtHQqJaog", "review_count": 1, "categories": [{"alias": "delis", "title": "Delis"}], "rating": 3.0, "coordinates": {"latitude": 41.3557739, "longitude": -71.706557}, "transactions": [], "price": "$", "location": {"address1": "5680 Post Rd", "address2": "", "address3": "", "city": "Charlestown", "zip_code": "02813", "country": "US", "state": "RI", "display_address": ["5680 Post Rd", "Charlestown, RI 02813"]}, "phone": "+14013221889", "display_phone": "(401) 322-1889", "distance": 7175.469784987649}, {"id": "dVAAh_ia1QlYYkI3asgP7A", "alias": "subway-north-stonington-2", "name": "Subway", "image_url": "https://s3-media3.fl.yelpcdn.com/bphoto/JDywlxgLBkBbnKzRynv-OA/o.jpg", "is_closed": false, "url": "https://www.yelp.com/biz/subway-north-stonington-2?adjust_creative=pzvBKuEUl0Vl1jtHQqJaog&utm_campaign=yelp_api_v3&utm_medium=api_v3_business_search&utm_source=pzvBKuEUl0Vl1jtHQqJaog", "review_count": 1, "categories": [{"alias": "sandwiches", "title": "Sandwiches"}], "rating": 4.0, "coordinates": {"latitude": 41.4389453238396, "longitude": -71.7978903172862}, "transactions": [], "price": "$", "location": {"address1": "323 Clarks Falls Rd", "address2": null, "address3": null, "city": "North Stonington", "zip_code": "06359", "country": "US", "state": "CT", "display_address": ["323 Clarks Falls Rd", "North Stonington, CT 06359"]}, "phone": "+18605995512", "display_phone": "(860) 599-5512", "distance": 4958.309105377655}, {"id": "FOrHZO7wGA-yEuovj1WwcA", "alias": "the-whistle-stop-restaurant-pawcatuck", "name": "The Whistle Stop Restaurant", "image_url": "", "is_closed": false, "url": "https://www.yelp.com/biz/the-whistle-stop-restaurant-pawcatuck?adjust_creative=pzvBKuEUl0Vl1jtHQqJaog&utm_campaign=yelp_api_v3&utm_medium=api_v3_business_search&utm_source=pzvBKuEUl0Vl1jtHQqJaog", "review_count": 1, "categories": [{"alias": "breakfast_brunch", "title": "Breakfast & Brunch"}, {"alias": "pizza", "title": "Pizza"}], "rating": 4.0, "coordinates": {"latitude": 41.372537, "longitude": -71.835223}, "transactions": [], "location": {"address1": "15 Palmer St", "address2": null, "address3": null, "city": "Pawcatuck", "zip_code": "06379", "country": "US", "state": "CT", "display_address": ["15 Palmer St", "Pawcatuck, CT 06379"]}, "phone": "+18604950599", "display_phone": "(860) 495-0599", "distance": 8123.439955674206}, {"id": "XNa98RgeITQ_XyloctPR5Q", "alias": "better-daze-cafe-pawcatuck", "name": "Better Daze Cafe", "image_url": "", "is_closed": false, "url": "https://www.yelp.com/biz/better-daze-cafe-pawcatuck?adjust_creative=pzvBKuEUl0Vl1jtHQqJaog&utm_campaign=yelp_api_v3&utm_medium=api_v3_business_search&utm_source=pzvBKuEUl0Vl1jtHQqJaog", "review_count": 2, "categories": [{"alias": "cafes", "title": "Cafes"}], "rating": 2.0, "coordinates": {"latitude": 41.3730507, "longitude": -71.8512802}, "transactions": [], "price": "$", "location": {"address1": "76 South Broad St", "address2": "", "address3": "", "city": "Pawcatuck", "zip_code": "06379", "country": "US", "state": "CT", "display_address": ["76 South Broad St", "Pawcatuck, CT 06379"]}, "phone": "+18604952044", "display_phone": "(860) 495-2044", "distance": 9268.226711943536}, {"id": "UymrSkqr076H7Mc20qvdVQ", "alias": "marios-pizza-westerly", "name": "Mario's Pizza", "image_url": "", "is_closed": false, "url": "https://www.yelp.com/biz/marios-pizza-westerly?adjust_creative=pzvBKuEUl0Vl1jtHQqJaog&utm_campaign=yelp_api_v3&utm_medium=api_v3_business_search&utm_source=pzvBKuEUl0Vl1jtHQqJaog", "review_count": 2, "categories": [{"alias": "restaurants", "title": "Restaurants"}], "rating": 3.5, "coordinates": {"latitude": 41.3832283, "longitude": -71.8262787}, "transactions": [], "location": {"address1": "61 Friendship St", "address2": "", "address3": "", "city": "Westerly", "zip_code": "02891", "country": "US", "state": "RI", "display_address": ["61 Friendship St", "Westerly, RI 02891"]}, "phone": "+14015969393", "display_phone": "(401) 596-9393", "distance": 6917.006906616882}, {"id": "qpbOpYQmmijjM-tZl-l4ow", "alias": "providence-coal-fired-pizza-westerly", "name": "Providence Coal Fired Pizza", "image_url": "https://s3-media2.fl.yelpcdn.com/bphoto/j0MROQ8_Lit6JCSIvIVc8Q/o.jpg", "is_closed": false, "url": "https://www.yelp.com/biz/providence-coal-fired-pizza-westerly?adjust_creative=pzvBKuEUl0Vl1jtHQqJaog&utm_campaign=yelp_api_v3&utm_medium=api_v3_business_search&utm_source=pzvBKuEUl0Vl1jtHQqJaog", "review_count": 55, "categories": [{"alias": "pizza", "title": "Pizza"}, {"alias": "italian", "title": "Italian"}, {"alias": "sandwiches", "title": "Sandwiches"}], "rating": 3.5, "coordinates": {"latitude": 41.3681255687374, "longitude": -71.8187813088298}, "transactions": ["delivery"], "price": "$$", "location": {"address1": "162 Granite St", "address2": "", "address3": null, "city": "Westerly", "zip_code": "02891", "country": "US", "state": "RI", "display_address": ["162 Granite St", "Westerly, RI 02891"]}, "phone": "+14015961842", "display_phone": "(401) 596-1842", "distance": 7295.731251128352}, {"id": "AsgXKlsP4NYfaguFV7g-6Q", "alias": "99-restaurants-westerly-2", "name": "99 Restaurants", "image_url": "https://s3-media3.fl.yelpcdn.com/bphoto/KSdy6RMnLYgesh8st6-oFw/o.jpg", "is_closed": false, "url": "https://www.yelp.com/biz/99-restaurants-westerly-2?adjust_creative=pzvBKuEUl0Vl1jtHQqJaog&utm_campaign=yelp_api_v3&utm_medium=api_v3_business_search&utm_source=pzvBKuEUl0Vl1jtHQqJaog", "review_count": 28, "categories": [{"alias": "pubs", "title": "Pubs"}, {"alias": "tradamerican", "title": "American (Traditional)"}, {"alias": "steak", "title": "Steakhouses"}], "rating": 3.0, "coordinates": {"latitude": 41.3570750896787, "longitude": -71.8082557464885}, "transactions": [], "price": "$$", "location": {"address1": "7 Airport Rd", "address2": "", "address3": "", "city": "Westerly", "zip_code": "02891", "country": "US", "state": "RI", "display_address": ["7 Airport Rd", "Westerly, RI 02891"]}, "phone": "+14013488299", "display_phone": "(401) 348-8299", "distance": 7571.384875755957}, {"id": "F86I9r5zghCy-FDa2IkWnA", "alias": "christos-pizza-and-more-pawcatuck", "name": "Christo's Pizza and More", "image_url": "https://s3-media2.fl.yelpcdn.com/bphoto/esRuWyjaf6S0cZbaBygnTg/o.jpg", "is_closed": false, "url": "https://www.yelp.com/biz/christos-pizza-and-more-pawcatuck?adjust_creative=pzvBKuEUl0Vl1jtHQqJaog&utm_campaign=yelp_api_v3&utm_medium=api_v3_business_search&utm_source=pzvBKuEUl0Vl1jtHQqJaog", "review_count": 8, "categories": [{"alias": "italian", "title": "Italian"}, {"alias": "pizza", "title": "Pizza"}], "rating": 4.0, "coordinates": {"latitude": 41.375489, "longitude": -71.847473}, "transactions": ["delivery"], "location": {"address1": "37 S Broad St", "address2": null, "address3": null, "city": "Pawcatuck", "zip_code": "06379", "country": "US", "state": "CT", "display_address": ["37 S Broad St", "Pawcatuck, CT 06379"]}, "phone": "+18605993000", "display_phone": "(860) 599-3000", "distance": 8862.575251230295}, {"id": "epe0IxYIIMPwlwlq6WYYdg", "alias": "dairy-queen-pawcatuck", "name": "Dairy Queen", "image_url": "https://s3-media4.fl.yelpcdn.com/bphoto/qRCr4eltMri_d0qTkgPVkw/o.jpg", "is_closed": false, "url": "https://www.yelp.com/biz/dairy-queen-pawcatuck?adjust_creative=pzvBKuEUl0Vl1jtHQqJaog&utm_campaign=yelp_api_v3&utm_medium=api_v3_business_search&utm_source=pzvBKuEUl0Vl1jtHQqJaog", "review_count": 13, "categories": [{"alias": "icecream", "title": "Ice Cream & Frozen Yogurt"}, {"alias": "hotdogs", "title": "Fast Food"}, {"alias": "burgers", "title": "Burgers"}], "rating": 4.0, "coordinates": {"latitude": 41.378394, "longitude": -71.834768}, "transactions": [], "price": "$", "location": {"address1": "22 Liberty St", "address2": "", "address3": "", "city": "Pawcatuck", "zip_code": "06379", "country": "US", "state": "CT", "display_address": ["22 Liberty St", "Pawcatuck, CT 06379"]}, "phone": "+18605993380", "display_phone": "(860) 599-3380", "distance": 7770.533392696299}, {"id": "UbImQIb4N-RgPqTSjq7VMA", "alias": "longo-pizzeria-westerly", "name": "Longo Pizzeria", "image_url": "https://s3-media2.fl.yelpcdn.com/bphoto/6KnQPEtsdaxQoASr_exi9Q/o.jpg", "is_closed": false, "url": "https://www.yelp.com/biz/longo-pizzeria-westerly?adjust_creative=pzvBKuEUl0Vl1jtHQqJaog&utm_campaign=yelp_api_v3&utm_medium=api_v3_business_search&utm_source=pzvBKuEUl0Vl1jtHQqJaog", "review_count": 9, "categories": [{"alias": "pizza", "title": "Pizza"}, {"alias": "sportsbars", "title": "Sports Bars"}], "rating": 4.0, "coordinates": {"latitude": 41.379778, "longitude": -71.829163}, "transactions": [], "price": "$$", "location": {"address1": "66-76 High St", "address2": "", "address3": "", "city": "Westerly", "zip_code": "02891", "country": "US", "state": "RI", "display_address": ["66-76 High St", "Westerly, RI 02891"]}, "phone": "", "display_phone": "", "distance": 7284.958763243884}, {"id": "w4H5sQB4CnX65I-c6guGpQ", "alias": "joyces-everyday-gourmet-westerly", "name": "Joyce's Everyday Gourmet", "image_url": "https://s3-media4.fl.yelpcdn.com/bphoto/DiBcb6l2l6A_2HhqYSEvjQ/o.jpg", "is_closed": false, "url": "https://www.yelp.com/biz/joyces-everyday-gourmet-westerly?adjust_creative=pzvBKuEUl0Vl1jtHQqJaog&utm_campaign=yelp_api_v3&utm_medium=api_v3_business_search&utm_source=pzvBKuEUl0Vl1jtHQqJaog", "review_count": 11, "categories": [{"alias": "comfortfood", "title": "Comfort Food"}, {"alias": "catering", "title": "Caterers"}], "rating": 4.5, "coordinates": {"latitude": 41.35996, "longitude": -71.812}, "transactions": ["delivery"], "price": "$$", "location": {"address1": "105 Franklin St", "address2": null, "address3": null, "city": "Westerly", "zip_code": "02891", "country": "US", "state": "RI", "display_address": ["105 Franklin St", "Westerly, RI 02891"]}, "phone": "+14015968700", "display_phone": "(401) 596-8700", "distance": 7569.982709528934}, {"id": "1qM3bO2zfae-3axjK9wo2w", "alias": "midway-pizza-house-westerly", "name": "Midway Pizza House", "image_url": "https://s3-media2.fl.yelpcdn.com/bphoto/EXV96AdHNj5yd79tGDMI3A/o.jpg", "is_closed": false, "url": "https://www.yelp.com/biz/midway-pizza-house-westerly?adjust_creative=pzvBKuEUl0Vl1jtHQqJaog&utm_campaign=yelp_api_v3&utm_medium=api_v3_business_search&utm_source=pzvBKuEUl0Vl1jtHQqJaog", "review_count": 21, "categories": [{"alias": "pizza", "title": "Pizza"}], "rating": 3.0, "coordinates": {"latitude": 41.3738145, "longitude": -71.8310995}, "transactions": ["delivery"], "price": "$", "location": {"address1": "125 Main St", "address2": "", "address3": "", "city": "Westerly", "zip_code": "02891", "country": "US", "state": "RI", "display_address": ["125 Main St", "Westerly, RI 02891"]}, "phone": "+14015961357", "display_phone": "(401) 596-1357", "distance": 7788.127104121405}, {"id": "BnMHQhnJSl3pkW01oAfr8A", "alias": "tony-ts-westerly", "name": "Tony T's", "image_url": "", "is_closed": false, "url": "https://www.yelp.com/biz/tony-ts-westerly?adjust_creative=pzvBKuEUl0Vl1jtHQqJaog&utm_campaign=yelp_api_v3&utm_medium=api_v3_business_search&utm_source=pzvBKuEUl0Vl1jtHQqJaog", "review_count": 5, "categories": [{"alias": "pizza", "title": "Pizza"}, {"alias": "italian", "title": "Italian"}, {"alias": "burgers", "title": "Burgers"}], "rating": 4.0, "coordinates": {"latitude": 41.36614, "longitude": -71.83033}, "transactions": ["delivery"], "location": {"address1": "49 Beach St", "address2": "", "address3": null, "city": "Westerly", "zip_code": "02891", "country": "US", "state": "RI", "display_address": ["49 Beach St", "Westerly, RI 02891"]}, "phone": "+14013486898", "display_phone": "(401) 348-6898", "distance": 8190.231020211666}, {"id": "ScWo9UTVDqOiQMQ5_MLGgw", "alias": "d-angelos-sandwich-shop-westerly", "name": "D'angelo's Sandwich Shop", "image_url": "https://s3-media4.fl.yelpcdn.com/bphoto/UjbhFaPMdF-pftzYXMRnvg/o.jpg", "is_closed": false, "url": "https://www.yelp.com/biz/d-angelos-sandwich-shop-westerly?adjust_creative=pzvBKuEUl0Vl1jtHQqJaog&utm_campaign=yelp_api_v3&utm_medium=api_v3_business_search&utm_source=pzvBKuEUl0Vl1jtHQqJaog", "review_count": 4, "categories": [{"alias": "sandwiches", "title": "Sandwiches"}], "rating": 3.5, "coordinates": {"latitude": 41.37385, "longitude": -71.82076}, "transactions": ["delivery"], "price": "$$", "location": {"address1": "85 Granite St", "address2": "", "address3": "", "city": "Westerly", "zip_code": "02891", "country": "US", "state": "RI", "display_address": ["85 Granite St", "Westerly, RI 02891"]}, "phone": "+14015966363", "display_phone": "(401) 596-6363", "distance": 7062.304471189569}, {"id": "wUhoME2HSSezskEJK5y0_A", "alias": "reales-grocery-westerly", "name": "Reale's Grocery", "image_url": "https://s3-media1.fl.yelpcdn.com/bphoto/7XS9tNsERr0ZRA_lq2bvNA/o.jpg", "is_closed": false, "url": "https://www.yelp.com/biz/reales-grocery-westerly?adjust_creative=pzvBKuEUl0Vl1jtHQqJaog&utm_campaign=yelp_api_v3&utm_medium=api_v3_business_search&utm_source=pzvBKuEUl0Vl1jtHQqJaog", "review_count": 19, "categories": [{"alias": "grocery", "title": "Grocery"}, {"alias": "delis", "title": "Delis"}], "rating": 3.5, "coordinates": {"latitude": 41.38251, "longitude": -71.82535}, "transactions": ["delivery"], "price": "$", "location": {"address1": "122 High St", "address2": "", "address3": "", "city": "Westerly", "zip_code": "02891", "country": "US", "state": "RI", "display_address": ["122 High St", "Westerly, RI 02891"]}, "phone": "+14015962323", "display_phone": "(401) 596-2323", "distance": 6869.661198257218}, {"id": "_qQD9hSPFhTgzRd4X0Kvhg", "alias": "cc-o-briens-pawcatuck", "name": "CC O'Brien's", "image_url": "https://s3-media1.fl.yelpcdn.com/bphoto/GZtGCNMSkUycukehl1rumQ/o.jpg", "is_closed": false, "url": "https://www.yelp.com/biz/cc-o-briens-pawcatuck?adjust_creative=pzvBKuEUl0Vl1jtHQqJaog&utm_campaign=yelp_api_v3&utm_medium=api_v3_business_search&utm_source=pzvBKuEUl0Vl1jtHQqJaog", "review_count": 44, "categories": [{"alias": "newamerican", "title": "American (New)"}, {"alias": "sportsbars", "title": "Sports Bars"}, {"alias": "cafes", "title": "Cafes"}], "rating": 3.5, "coordinates": {"latitude": 41.3768699, "longitude": -71.83311}, "transactions": ["delivery"], "price": "$$", "location": {"address1": "8 Mechanic St", "address2": "", "address3": "", "city": "Pawcatuck", "zip_code": "06379", "country": "US", "state": "CT", "display_address": ["8 Mechanic St", "Pawcatuck, CT 06379"]}, "phone": "+18605992034", "display_phone": "(860) 599-2034", "distance": 7720.03606143023}, {"id": "R5lqc3m3nSoTpiV2zwTzYg", "alias": "mcdonalds-pawcatuck", "name": "McDonald's", "image_url": "https://s3-media1.fl.yelpcdn.com/bphoto/ZQeWhkt8vlkjMxWF_ALRng/o.jpg", "is_closed": false, "url": "https://www.yelp.com/biz/mcdonalds-pawcatuck?adjust_creative=pzvBKuEUl0Vl1jtHQqJaog&utm_campaign=yelp_api_v3&utm_medium=api_v3_business_search&utm_source=pzvBKuEUl0Vl1jtHQqJaog", "review_count": 18, "categories": [{"alias": "hotdogs", "title": "Fast Food"}, {"alias": "burgers", "title": "Burgers"}, {"alias": "coffee", "title": "Coffee & Tea"}], "rating": 2.0, "coordinates": {"latitude": 41.4058873934944, "longitude": -71.8501883000135}, "transactions": ["delivery"], "price": "$", "location": {"address1": "465 Liberty St", "address2": "", "address3": "", "city": "Pawcatuck", "zip_code": "06379", "country": "US", "state": "CT", "display_address": ["465 Liberty St", "Pawcatuck, CT 06379"]}, "phone": "+18605999903", "display_phone": "(860) 599-9903", "distance": 8200.649043791745}, {"id": "Lx6EeL5mwVtNdBf9uUEVQA", "alias": "dominos-pizza-westerly", "name": "Domino's Pizza", "image_url": "https://s3-media2.fl.yelpcdn.com/bphoto/jV89ZzQeP15fUGUHVTSahg/o.jpg", "is_closed": false, "url": "https://www.yelp.com/biz/dominos-pizza-westerly?adjust_creative=pzvBKuEUl0Vl1jtHQqJaog&utm_campaign=yelp_api_v3&utm_medium=api_v3_business_search&utm_source=pzvBKuEUl0Vl1jtHQqJaog", "review_count": 11, "categories": [{"alias": "pizza", "title": "Pizza"}, {"alias": "chicken_wings", "title": "Chicken Wings"}, {"alias": "sandwiches", "title": "Sandwiches"}], "rating": 3.5, "coordinates": {"latitude": 41.37312, "longitude": -71.8207}, "transactions": [], "price": "$", "location": {"address1": "93 Granite St", "address2": "", "address3": "", "city": "Westerly", "zip_code": "02891", "country": "US", "state": "RI", "display_address": ["93 Granite St", "Westerly, RI 02891"]}, "phone": "+14015968850", "display_phone": "(401) 596-8850", "distance": 7086.135137700071}, {"id": "9A4deCF-GUd-FwP9h5Eg1w", "alias": "fresh-cup-cafe-westerly", "name": "Fresh Cup Cafe", "image_url": "https://s3-media1.fl.yelpcdn.com/bphoto/PmIZ0v-tdDB5-d3Y1xGfYw/o.jpg", "is_closed": false, "url": "https://www.yelp.com/biz/fresh-cup-cafe-westerly?adjust_creative=pzvBKuEUl0Vl1jtHQqJaog&utm_campaign=yelp_api_v3&utm_medium=api_v3_business_search&utm_source=pzvBKuEUl0Vl1jtHQqJaog", "review_count": 10, "categories": [{"alias": "cafes", "title": "Cafes"}], "rating": 4.5, "coordinates": {"latitude": 41.36684, "longitude": -71.81967}, "transactions": ["delivery"], "location": {"address1": "9 East Ave", "address2": "Unit J", "address3": null, "city": "Westerly", "zip_code": "02891", "country": "US", "state": "RI", "display_address": ["9 East Ave", "Unit J", "Westerly, RI 02891"]}, "phone": "+16038609415", "display_phone": "(603) 860-9415", "distance": 7443.42140790173}, {"id": "Lhz_cnHVHw_vKSqoK2PNLA", "alias": "subway-westerly-6", "name": "Subway", "image_url": "https://s3-media2.fl.yelpcdn.com/bphoto/D-h5VcahjiUFKoiEAsIg6A/o.jpg", "is_closed": false, "url": "https://www.yelp.com/biz/subway-westerly-6?adjust_creative=pzvBKuEUl0Vl1jtHQqJaog&utm_campaign=yelp_api_v3&utm_medium=api_v3_business_search&utm_source=pzvBKuEUl0Vl1jtHQqJaog", "review_count": 1, "categories": [{"alias": "sandwiches", "title": "Sandwiches"}], "rating": 1.0, "coordinates": {"latitude": 41.3542688, "longitude": -71.7667708}, "transactions": [], "price": "$", "location": {"address1": "258 Post Rd", "address2": null, "address3": null, "city": "Westerly", "zip_code": "02840", "country": "US", "state": "RI", "display_address": ["258 Post Rd", "Westerly, RI 02840"]}, "phone": "+14013221500", "display_phone": "(401) 322-1500", "distance": 6376.078008580397}, {"id": "eq5JhKEVOfxY6zV9ZlRGsA", "alias": "subway-westerly-7", "name": "Subway", "image_url": "https://s3-media2.fl.yelpcdn.com/bphoto/nMjoO6YrfAodKZ1t2_cpKw/o.jpg", "is_closed": false, "url": "https://www.yelp.com/biz/subway-westerly-7?adjust_creative=pzvBKuEUl0Vl1jtHQqJaog&utm_campaign=yelp_api_v3&utm_medium=api_v3_business_search&utm_source=pzvBKuEUl0Vl1jtHQqJaog", "review_count": 7, "categories": [{"alias": "sandwiches", "title": "Sandwiches"}], "rating": 3.0, "coordinates": {"latitude": 41.363883674876, "longitude": -71.8149623937351}, "transactions": [], "price": "$", "location": {"address1": "62 Franklin St", "address2": "Units 1 & 2", "address3": "", "city": "Westerly", "zip_code": "02891", "country": "US", "state": "RI", "display_address": ["62 Franklin St", "Units 1 & 2", "Westerly, RI 02891"]}, "phone": "+14015969220", "display_phone": "(401) 596-9220", "distance": 7379.386639992783}, {"id": "y-j-6uE793oUwm9b5LG58A", "alias": "burger-king-westerly", "name": "Burger King", "image_url": "https://s3-media4.fl.yelpcdn.com/bphoto/PMdJm3uRWz1HOyY8dSmEQQ/o.jpg", "is_closed": false, "url": "https://www.yelp.com/biz/burger-king-westerly?adjust_creative=pzvBKuEUl0Vl1jtHQqJaog&utm_campaign=yelp_api_v3&utm_medium=api_v3_business_search&utm_source=pzvBKuEUl0Vl1jtHQqJaog", "review_count": 5, "categories": [{"alias": "burgers", "title": "Burgers"}, {"alias": "hotdogs", "title": "Fast Food"}], "rating": 1.5, "coordinates": {"latitude": 41.360947, "longitude": -71.812418}, "transactions": [], "price": "$", "location": {"address1": "99 Franklin Street", "address2": "", "address3": "", "city": "Westerly", "zip_code": "02891", "country": "US", "state": "RI", "display_address": ["99 Franklin Street", "Westerly, RI 02891"]}, "phone": "", "display_phone": "", "distance": 7467.997208416143}, {"id": "qqA8YX58xnmEXLyanHfdUg", "alias": "stufd-food-truck-brooklyn", "name": "Stuf'd Food Truck", "image_url": "https://s3-media2.fl.yelpcdn.com/bphoto/_Wn0i-tLIOFinw8BPAqxPA/o.jpg", "is_closed": false, "url": "https://www.yelp.com/biz/stufd-food-truck-brooklyn?adjust_creative=pzvBKuEUl0Vl1jtHQqJaog&utm_campaign=yelp_api_v3&utm_medium=api_v3_business_search&utm_source=pzvBKuEUl0Vl1jtHQqJaog", "review_count": 4, "categories": [{"alias": "sandwiches", "title": "Sandwiches"}, {"alias": "foodtrucks", "title": "Food Trucks"}], "rating": 4.0, "coordinates": {"latitude": 40.7124539, "longitude": -73.9287374}, "transactions": [], "location": {"address1": "178 Varick Ave", "address2": "", "address3": null, "city": "Brooklyn", "zip_code": "11237", "country": "US", "state": "NY", "display_address": ["178 Varick Ave", "Brooklyn, NY 11237"]}, "phone": "+18457091808", "display_phone": "(845) 709-1808", "distance": 198310.9183562547}]