[{"id": "2YGe6lz0ReGsrAIPAyFEKA", "alias": "black-oak-kitchen-and-drinks-coventry-2", "name": "Black Oak Kitchen & Drinks", "image_url": "https://s3-media3.fl.yelpcdn.com/bphoto/B0yNi2mE3VdZkY1vfNEXBQ/o.jpg", "is_closed": false, "url": "https://www.yelp.com/biz/black-oak-kitchen-and-drinks-coventry-2?adjust_creative=pzvBKuEUl0Vl1jtHQqJaog&utm_campaign=yelp_api_v3&utm_medium=api_v3_business_search&utm_source=pzvBKuEUl0Vl1jtHQqJaog", "review_count": 65, "categories": [{"alias": "comfortfood", "title": "Comfort Food"}, {"alias": "salad", "title": "Salad"}, {"alias": "cocktailbars", "title": "Cocktail Bars"}], "rating": 4.0, "coordinates": {"latitude": 41.681868, "longitude": -71.561252}, "transactions": ["pickup", "delivery"], "price": "$$", "location": {"address1": "760 Tiogue Ave", "address2": "", "address3": null, "city": "Coventry", "zip_code": "02816", "country": "US", "state": "RI", "display_address": ["760 Tiogue Ave", "Coventry, RI 02816"]}, "phone": "+14016152500", "display_phone": "(401) 615-2500", "distance": 6498.123373987376}, {"id": "dhtbQqd5oWmRmwa80TzTYQ", "alias": "braza-brazilian-bbq-coventry", "name": "Braza Brazilian BBQ", "image_url": "https://s3-media4.fl.yelpcdn.com/bphoto/xHinLRK-sGZXhA7ySg2xkQ/o.jpg", "is_closed": false, "url": "https://www.yelp.com/biz/braza-brazilian-bbq-coventry?adjust_creative=pzvBKuEUl0Vl1jtHQqJaog&utm_campaign=yelp_api_v3&utm_medium=api_v3_business_search&utm_source=pzvBKuEUl0Vl1jtHQqJaog", "review_count": 19, "categories": [{"alias": "brazilian", "title": "Brazilian"}], "rating": 4.5, "coordinates": {"latitude": 41.689639, "longitude": -71.561516}, "transactions": [], "location": {"address1": "15 Sandy Bottom Rd", "address2": "", "address3": null, "city": "Coventry", "zip_code": "02816", "country": "US", "state": "RI", "display_address": ["15 Sandy Bottom Rd", "Coventry, RI 02816"]}, "phone": "+14012623639", "display_phone": "(401) 262-3639", "distance": 6373.8877374947615}, {"id": "1qBt0IYWCkFuvLhQKda1IQ", "alias": "the-pond-pub-and-pizza-coventry", "name": "The Pond Pub & Pizza", "image_url": "https://s3-media2.fl.yelpcdn.com/bphoto/AkPs7Oe6QryZHlQgS2FQXw/o.jpg", "is_closed": false, "url": "https://www.yelp.com/biz/the-pond-pub-and-pizza-coventry?adjust_creative=pzvBKuEUl0Vl1jtHQqJaog&utm_campaign=yelp_api_v3&utm_medium=api_v3_business_search&utm_source=pzvBKuEUl0Vl1jtHQqJaog", "review_count": 12, "categories": [{"alias": "pizza", "title": "Pizza"}, {"alias": "bars", "title": "Bars"}], "rating": 4.5, "coordinates": {"latitude": 41.7047131061554, "longitude": -71.6166108101606}, "transactions": ["pickup", "delivery"], "location": {"address1": "2260 Flat RIver Rd", "address2": null, "address3": "", "city": "Coventry", "zip_code": "02816", "country": "US", "state": "RI", "display_address": ["2260 Flat RIver Rd", "Coventry, RI 02816"]}, "phone": "+14013970001", "display_phone": "(401) 397-0001", "distance": 2117.1098962725005}, {"id": "0VIQA1-TtXvpQLxld6-5Iw", "alias": "pats-italian-restaurant-coventry", "name": "Pat's Italian Restaurant", "image_url": "https://s3-media4.fl.yelpcdn.com/bphoto/eqajkG_duDizESh4jQCYbg/o.jpg", "is_closed": false, "url": "https://www.yelp.com/biz/pats-italian-restaurant-coventry?adjust_creative=pzvBKuEUl0Vl1jtHQqJaog&utm_campaign=yelp_api_v3&utm_medium=api_v3_business_search&utm_source=pzvBKuEUl0Vl1jtHQqJaog", "review_count": 4, "categories": [{"alias": "italian", "title": "Italian"}], "rating": 4.0, "coordinates": {"latitude": 41.672371, "longitude": -71.595883}, "transactions": [], "location": {"address1": "1650 Nooseneck Hill Rd", "address2": "", "address3": null, "city": "Coventry", "zip_code": "02816", "country": "US", "state": "RI", "display_address": ["1650 Nooseneck Hill Rd", "Coventry, RI 02816"]}, "phone": "+14013208787", "display_phone": "(401) 320-8787", "distance": 4241.263997078662}, {"id": "OY2M6cvH5PynYYROW320zA", "alias": "tavern-on-the-hill-west-greenwich", "name": "Tavern On the Hill", "image_url": "https://s3-media3.fl.yelpcdn.com/bphoto/tCdEJaTfqw9Yk85eVbGkqQ/o.jpg", "is_closed": false, "url": "https://www.yelp.com/biz/tavern-on-the-hill-west-greenwich?adjust_creative=pzvBKuEUl0Vl1jtHQqJaog&utm_campaign=yelp_api_v3&utm_medium=api_v3_business_search&utm_source=pzvBKuEUl0Vl1jtHQqJaog", "review_count": 31, "categories": [{"alias": "bars", "title": "Bars"}, {"alias": "tradamerican", "title": "American (Traditional)"}], "rating": 4.0, "coordinates": {"latitude": 41.616128, "longitude": -71.635625}, "transactions": [], "price": "$$", "location": {"address1": "809 Nooseneck Hill Rd", "address2": "", "address3": "", "city": "West Greenwich", "zip_code": "02817", "country": "US", "state": "RI", "display_address": ["809 Nooseneck Hill Rd", "West Greenwich, RI 02817"]}, "phone": "+14013853835", "display_phone": "(401) 385-3835", "distance": 8690.26412710244}, {"id": "8GHVCY6do91BJnrjPzD0-g", "alias": "fresco-west-warwick", "name": "Fresco", "image_url": "https://s3-media4.fl.yelpcdn.com/bphoto/Mnmz8OH5V1Z3IWeCrQzS_g/o.jpg", "is_closed": false, "url": "https://www.yelp.com/biz/fresco-west-warwick?adjust_creative=pzvBKuEUl0Vl1jtHQqJaog&utm_campaign=yelp_api_v3&utm_medium=api_v3_business_search&utm_source=pzvBKuEUl0Vl1jtHQqJaog", "review_count": 40, "categories": [{"alias": "italian", "title": "Italian"}, {"alias": "seafood", "title": "Seafood"}, {"alias": "pizza", "title": "Pizza"}], "rating": 4.0, "coordinates": {"latitude": 41.684477, "longitude": -71.516706}, "transactions": ["restaurant_reservation", "delivery"], "price": "$$", "location": {"address1": "115 Cowesett Ave", "address2": "", "address3": null, "city": "West Warwick", "zip_code": "02893", "country": "US", "state": "RI", "display_address": ["115 Cowesett Ave", "West Warwick, RI 02893"]}, "phone": "+14013810400", "display_phone": "(401) 381-0400", "distance": 10114.26589251605}, {"id": "rqc8vJ80L6DI8J3pJjh-fA", "alias": "morse-tavern-coventry-3", "name": "Morse Tavern", "image_url": "https://s3-media2.fl.yelpcdn.com/bphoto/PWc9awivBLp9aE1Ocv6UBw/o.jpg", "is_closed": false, "url": "https://www.yelp.com/biz/morse-tavern-coventry-3?adjust_creative=pzvBKuEUl0Vl1jtHQqJaog&utm_campaign=yelp_api_v3&utm_medium=api_v3_business_search&utm_source=pzvBKuEUl0Vl1jtHQqJaog", "review_count": 78, "categories": [{"alias": "newamerican", "title": "American (New)"}], "rating": 3.0, "coordinates": {"latitude": 41.6848204225557, "longitude": -71.5478678047657}, "transactions": ["delivery"], "location": {"address1": "446 Tiogue Ave", "address2": "", "address3": null, "city": "Coventry", "zip_code": "02816", "country": "US", "state": "RI", "display_address": ["446 Tiogue Ave", "Coventry, RI 02816"]}, "phone": "+14018257300", "display_phone": "(401) 825-7300", "distance": 7534.986748189176}, {"id": "9f35VLW9hBn7Rsrsq9AsPQ", "alias": "seven-moons-coventry-coventry", "name": "Seven Moons Coventry", "image_url": "https://s3-media2.fl.yelpcdn.com/bphoto/UR3lp76Iq2-555-rXPzQRg/o.jpg", "is_closed": false, "url": "https://www.yelp.com/biz/seven-moons-coventry-coventry?adjust_creative=pzvBKuEUl0Vl1jtHQqJaog&utm_campaign=yelp_api_v3&utm_medium=api_v3_business_search&utm_source=pzvBKuEUl0Vl1jtHQqJaog", "review_count": 46, "categories": [{"alias": "chinese", "title": "Chinese"}, {"alias": "seafood", "title": "Seafood"}, {"alias": "asianfusion", "title": "Asian Fusion"}], "rating": 3.5, "coordinates": {"latitude": 41.6806771017338, "longitude": -71.5667840838432}, "transactions": ["delivery"], "location": {"address1": "856 Tiogue Ave", "address2": "", "address3": null, "city": "Coventry", "zip_code": "02816", "country": "US", "state": "RI", "display_address": ["856 Tiogue Ave", "Coventry, RI 02816"]}, "phone": "+14018289998", "display_phone": "(401) 828-9998", "distance": 6081.587060700183}, {"id": "c9HB4HyuXa9djtAjc76gYw", "alias": "boneheads-wing-bar-west-warwick", "name": "Boneheads Wing Bar", "image_url": "https://s3-media4.fl.yelpcdn.com/bphoto/4IOWdznDMEr4oD-vjfUg6Q/o.jpg", "is_closed": false, "url": "https://www.yelp.com/biz/boneheads-wing-bar-west-warwick?adjust_creative=pzvBKuEUl0Vl1jtHQqJaog&utm_campaign=yelp_api_v3&utm_medium=api_v3_business_search&utm_source=pzvBKuEUl0Vl1jtHQqJaog", "review_count": 750, "categories": [{"alias": "burgers", "title": "Burgers"}, {"alias": "chicken_wings", "title": "Chicken Wings"}, {"alias": "tradamerican", "title": "American (Traditional)"}], "rating": 4.0, "coordinates": {"latitude": 41.70248, "longitude": -71.52653}, "transactions": ["delivery"], "price": "$$", "location": {"address1": "131 Washington St", "address2": null, "address3": "", "city": "West Warwick", "zip_code": "02893", "country": "US", "state": "RI", "display_address": ["131 Washington St", "West Warwick, RI 02893"]}, "phone": "+14018289464", "display_phone": "(401) 828-9464", "distance": 9276.925825718728}, {"id": "rNyNrOfeYavjaODmG_JMgg", "alias": "sherris-come-along-inn-coventry", "name": "Sherri's Come Along Inn", "image_url": "https://s3-media4.fl.yelpcdn.com/bphoto/BFimnJMYGM9UjmXib4b6MA/o.jpg", "is_closed": false, "url": "https://www.yelp.com/biz/sherris-come-along-inn-coventry?adjust_creative=pzvBKuEUl0Vl1jtHQqJaog&utm_campaign=yelp_api_v3&utm_medium=api_v3_business_search&utm_source=pzvBKuEUl0Vl1jtHQqJaog", "review_count": 22, "categories": [{"alias": "tradamerican", "title": "American (Traditional)"}, {"alias": "italian", "title": "Italian"}, {"alias": "burgers", "title": "Burgers"}], "rating": 4.5, "coordinates": {"latitude": 41.6954474, "longitude": -71.5334644}, "transactions": ["pickup", "delivery"], "location": {"address1": "402 Washington St", "address2": "", "address3": "", "city": "Coventry", "zip_code": "02816", "country": "US", "state": "RI", "display_address": ["402 Washington St", "Coventry, RI 02816"]}, "phone": "+14018288300", "display_phone": "(401) 828-8300", "distance": 8657.068219107012}, {"id": "HJLmaofmJzy7bGebY1a22Q", "alias": "la-casita-west-warwick", "name": "La Casita", "image_url": "https://s3-media3.fl.yelpcdn.com/bphoto/cCl7Q3EA1zc6OTOugP8qlA/o.jpg", "is_closed": false, "url": "https://www.yelp.com/biz/la-casita-west-warwick?adjust_creative=pzvBKuEUl0Vl1jtHQqJaog&utm_campaign=yelp_api_v3&utm_medium=api_v3_business_search&utm_source=pzvBKuEUl0Vl1jtHQqJaog", "review_count": 29, "categories": [{"alias": "dominican", "title": "Dominican"}, {"alias": "latin", "title": "Latin American"}, {"alias": "hotdogs", "title": "Fast Food"}], "rating": 4.5, "coordinates": {"latitude": 41.71011, "longitude": -71.52046}, "transactions": ["pickup", "delivery"], "price": "$", "location": {"address1": "53 Providence St", "address2": null, "address3": "", "city": "West Warwick", "zip_code": "02893", "country": "US", "state": "RI", "display_address": ["53 Providence St", "West Warwick, RI 02893"]}, "phone": "+14012623524", "display_phone": "(401) 262-3524", "distance": 9915.310643211244}, {"id": "shy0Y85GWw49WVzsdkK52Q", "alias": "the-woods-tavern-west-greenwich-2", "name": "The Woods Tavern", "image_url": "https://s3-media2.fl.yelpcdn.com/bphoto/wtrQZnQURg0cp6RZge1LYg/o.jpg", "is_closed": false, "url": "https://www.yelp.com/biz/the-woods-tavern-west-greenwich-2?adjust_creative=pzvBKuEUl0Vl1jtHQqJaog&utm_campaign=yelp_api_v3&utm_medium=api_v3_business_search&utm_source=pzvBKuEUl0Vl1jtHQqJaog", "review_count": 37, "categories": [{"alias": "soup", "title": "Soup"}, {"alias": "sandwiches", "title": "Sandwiches"}, {"alias": "burgers", "title": "Burgers"}], "rating": 3.5, "coordinates": {"latitude": 41.6572113, "longitude": -71.604126}, "transactions": ["delivery"], "price": "$$", "location": {"address1": "45 Nooseneck Hill Rd", "address2": null, "address3": "", "city": "West Greenwich", "zip_code": "02817", "country": "US", "state": "RI", "display_address": ["45 Nooseneck Hill Rd", "West Greenwich, RI 02817"]}, "phone": "+14013921314", "display_phone": "(401) 392-1314", "distance": 4965.988368366264}, {"id": "mZHm6Sd-aSMaSz_LYy38eg", "alias": "masala-west-warwick-2", "name": "Masala", "image_url": "https://s3-media4.fl.yelpcdn.com/bphoto/b9-oLXBcmccvgz_2jKeEnA/o.jpg", "is_closed": false, "url": "https://www.yelp.com/biz/masala-west-warwick-2?adjust_creative=pzvBKuEUl0Vl1jtHQqJaog&utm_campaign=yelp_api_v3&utm_medium=api_v3_business_search&utm_source=pzvBKuEUl0Vl1jtHQqJaog", "review_count": 75, "categories": [{"alias": "pakistani", "title": "Pakistani"}, {"alias": "halal", "title": "Halal"}, {"alias": "indpak", "title": "Indian"}], "rating": 4.5, "coordinates": {"latitude": 41.69527, "longitude": -71.50173}, "transactions": ["pickup", "delivery"], "price": "$$", "location": {"address1": "35 Quaker Ln", "address2": null, "address3": "", "city": "West Warwick", "zip_code": "02893", "country": "US", "state": "RI", "display_address": ["35 Quaker Ln", "West Warwick, RI 02893"]}, "phone": "+14016150623", "display_phone": "(401) 615-0623", "distance": 11272.932408520643}, {"id": "-ywXNp1-Pw_cH4KRb9W_Bg", "alias": "rufinos-pizzeria-scituate", "name": "Rufinos Pizzeria", "image_url": "https://s3-media1.fl.yelpcdn.com/bphoto/a1LrkZE-JOUjFnMEF1LCFg/o.jpg", "is_closed": false, "url": "https://www.yelp.com/biz/rufinos-pizzeria-scituate?adjust_creative=pzvBKuEUl0Vl1jtHQqJaog&utm_campaign=yelp_api_v3&utm_medium=api_v3_business_search&utm_source=pzvBKuEUl0Vl1jtHQqJaog", "review_count": 15, "categories": [{"alias": "pizza", "title": "Pizza"}], "rating": 3.5, "coordinates": {"latitude": 41.7304469480088, "longitude": -71.5635037782368}, "transactions": ["pickup", "delivery"], "location": {"address1": "4 Hope Furnace Rd", "address2": "", "address3": null, "city": "Scituate", "zip_code": "02831", "country": "US", "state": "RI", "display_address": ["4 Hope Furnace Rd", "Scituate, RI 02831"]}, "phone": "+14018261444", "display_phone": "(401) 826-1444", "distance": 7358.159780518447}, {"id": "iow1dtaQahyqm5grWvjKdQ", "alias": "circe-restaurant-and-bar-east-greenwich-east-greenwich", "name": "Circe Restaurant and Bar - East Greenwich", "image_url": "https://s3-media4.fl.yelpcdn.com/bphoto/Z443VCzsDgDMpqLPUtKfBA/o.jpg", "is_closed": false, "url": "https://www.yelp.com/biz/circe-restaurant-and-bar-east-greenwich-east-greenwich?adjust_creative=pzvBKuEUl0Vl1jtHQqJaog&utm_campaign=yelp_api_v3&utm_medium=api_v3_business_search&utm_source=pzvBKuEUl0Vl1jtHQqJaog", "review_count": 49, "categories": [{"alias": "bars", "title": "Bars"}, {"alias": "mediterranean", "title": "Mediterranean"}, {"alias": "newamerican", "title": "American (New)"}], "rating": 4.0, "coordinates": {"latitude": 41.66181, "longitude": -71.51053}, "transactions": ["delivery"], "location": {"address1": "1646 Division Rd", "address2": "", "address3": null, "city": "East Greenwich", "zip_code": "02818", "country": "US", "state": "RI", "display_address": ["1646 Division Rd", "East Greenwich, RI 02818"]}, "phone": "+14013980431", "display_phone": "(401) 398-0431", "distance": 11196.019489954559}, {"id": "Rt1GaN8fCmq0lnshOMjL2Q", "alias": "bean-barn-ri-coventry", "name": "Bean Barn RI", "image_url": "https://s3-media1.fl.yelpcdn.com/bphoto/DiYgds-g-rV-djDqf4usBQ/o.jpg", "is_closed": false, "url": "https://www.yelp.com/biz/bean-barn-ri-coventry?adjust_creative=pzvBKuEUl0Vl1jtHQqJaog&utm_campaign=yelp_api_v3&utm_medium=api_v3_business_search&utm_source=pzvBKuEUl0Vl1jtHQqJaog", "review_count": 31, "categories": [{"alias": "coffee", "title": "Coffee & Tea"}, {"alias": "breakfast_brunch", "title": "Breakfast & Brunch"}], "rating": 4.5, "coordinates": {"latitude": 41.68431, "longitude": -71.55421}, "transactions": ["delivery"], "location": {"address1": "599 Tiogue Ave", "address2": null, "address3": "", "city": "Coventry", "zip_code": "02816", "country": "US", "state": "RI", "display_address": ["599 Tiogue Ave", "Coventry, RI 02816"]}, "phone": "+14016152662", "display_phone": "(401) 615-2662", "distance": 7001.858870864655}, {"id": "Z7dFSdqwu66VOduhtPhMLg", "alias": "arcadia-pizza-west-greenwich", "name": "Arcadia Pizza", "image_url": "https://s3-media1.fl.yelpcdn.com/bphoto/QPEDWSvs5oiXCPP9nj0dTA/o.jpg", "is_closed": false, "url": "https://www.yelp.com/biz/arcadia-pizza-west-greenwich?adjust_creative=pzvBKuEUl0Vl1jtHQqJaog&utm_campaign=yelp_api_v3&utm_medium=api_v3_business_search&utm_source=pzvBKuEUl0Vl1jtHQqJaog", "review_count": 49, "categories": [{"alias": "pizza", "title": "Pizza"}, {"alias": "burgers", "title": "Burgers"}, {"alias": "sandwiches", "title": "Sandwiches"}], "rating": 4.5, "coordinates": {"latitude": 41.612208, "longitude": -71.665471}, "transactions": [], "price": "$$", "location": {"address1": "780 Victory Hwy", "address2": "Unit 10", "address3": "", "city": "West Greenwich", "zip_code": "02817", "country": "US", "state": "RI", "display_address": ["780 Victory Hwy", "Unit 10", "West Greenwich, RI 02817"]}, "phone": "+14013923130", "display_phone": "(401) 392-3130", "distance": 9411.070963474544}, {"id": "kAba61pAXVA8TgN5lFDxFA", "alias": "big-daddys-pizza-coventry", "name": "Big Daddy's Pizza", "image_url": "", "is_closed": false, "url": "https://www.yelp.com/biz/big-daddys-pizza-coventry?adjust_creative=pzvBKuEUl0Vl1jtHQqJaog&utm_campaign=yelp_api_v3&utm_medium=api_v3_business_search&utm_source=pzvBKuEUl0Vl1jtHQqJaog", "review_count": 1, "categories": [{"alias": "restaurants", "title": "Restaurants"}], "rating": 5.0, "coordinates": {"latitude": 41.7046809196472, "longitude": -71.6160059720278}, "transactions": [], "location": {"address1": "2246 Flat River Rd", "address2": null, "address3": null, "city": "Coventry", "zip_code": "02816", "country": "US", "state": "RI", "display_address": ["2246 Flat River Rd", "Coventry, RI 02816"]}, "phone": "+14013853660", "display_phone": "(401) 385-3660", "distance": 2153.7884966569572}, {"id": "3sr6IW9LtceWJFE1E11mvQ", "alias": "the-knotty-oak-room-coventry", "name": "The Knotty Oak Room", "image_url": "https://s3-media4.fl.yelpcdn.com/bphoto/9VC-RHtfXgyOR5Xz12HRFQ/o.jpg", "is_closed": false, "url": "https://www.yelp.com/biz/the-knotty-oak-room-coventry?adjust_creative=pzvBKuEUl0Vl1jtHQqJaog&utm_campaign=yelp_api_v3&utm_medium=api_v3_business_search&utm_source=pzvBKuEUl0Vl1jtHQqJaog", "review_count": 2, "categories": [{"alias": "cookingschools", "title": "Cooking Schools"}, {"alias": "breakfast_brunch", "title": "Breakfast & Brunch"}], "rating": 5.0, "coordinates": {"latitude": 41.6833224892616, "longitude": -71.5879359841347}, "transactions": [], "location": {"address1": "40 Reservoir Rd", "address2": "", "address3": null, "city": "Coventry", "zip_code": "02816", "country": "US", "state": "RI", "display_address": ["40 Reservoir Rd", "Coventry, RI 02816"]}, "phone": "+14018229499", "display_phone": "(401) 822-9499", "distance": 4317.066403475196}, {"id": "8hbVqav2A52SAU_wmliIhg", "alias": "gentleman-farmer-coventry", "name": "Gentleman Farmer", "image_url": "https://s3-media2.fl.yelpcdn.com/bphoto/AJ6ymqCFyxprsr9UAaj9iw/o.jpg", "is_closed": false, "url": "https://www.yelp.com/biz/gentleman-farmer-coventry?adjust_creative=pzvBKuEUl0Vl1jtHQqJaog&utm_campaign=yelp_api_v3&utm_medium=api_v3_business_search&utm_source=pzvBKuEUl0Vl1jtHQqJaog", "review_count": 24, "categories": [{"alias": "tradamerican", "title": "American (Traditional)"}], "rating": 3.0, "coordinates": {"latitude": 41.6635599, "longitude": -71.60211}, "transactions": ["delivery"], "price": "$", "location": {"address1": "2405 Nooseneck Hill Rd", "address2": "", "address3": "", "city": "Coventry", "zip_code": "02816", "country": "US", "state": "RI", "display_address": ["2405 Nooseneck Hill Rd", "Coventry, RI 02816"]}, "phone": "+14013920130", "display_phone": "(401) 392-0130", "distance": 4534.0067930732}, {"id": "0UiNdCaKHvPFn8iwinKXHw", "alias": "summit-general-store-greene", "name": "Summit General Store", "image_url": "https://s3-media3.fl.yelpcdn.com/bphoto/U7Q15gyI951FYEabX7cJyA/o.jpg", "is_closed": false, "url": "https://www.yelp.com/biz/summit-general-store-greene?adjust_creative=pzvBKuEUl0Vl1jtHQqJaog&utm_campaign=yelp_api_v3&utm_medium=api_v3_business_search&utm_source=pzvBKuEUl0Vl1jtHQqJaog", "review_count": 11, "categories": [{"alias": "livestocksupply", "title": "Livestock Feed & Supply"}, {"alias": "delis", "title": "Delis"}], "rating": 4.5, "coordinates": {"latitude": 41.6914606, "longitude": -71.6994328}, "transactions": [], "location": {"address1": "25 Old Summit Rd", "address2": "", "address3": "", "city": "Greene", "zip_code": "02827", "country": "US", "state": "RI", "display_address": ["25 Old Summit Rd", "Greene, RI 02827"]}, "phone": "+14013973366", "display_phone": "(401) 397-3366", "distance": 5092.019726341358}, {"id": "iKeG-OHNhzsx_F0qbyzM1A", "alias": "the-olde-theater-diner-coventry", "name": "The Olde Theater Diner", "image_url": "https://s3-media3.fl.yelpcdn.com/bphoto/n0zYBiELUZ_dC-B4JgXNlA/o.jpg", "is_closed": false, "url": "https://www.yelp.com/biz/the-olde-theater-diner-coventry?adjust_creative=pzvBKuEUl0Vl1jtHQqJaog&utm_campaign=yelp_api_v3&utm_medium=api_v3_business_search&utm_source=pzvBKuEUl0Vl1jtHQqJaog", "review_count": 105, "categories": [{"alias": "diners", "title": "Diners"}], "rating": 3.5, "coordinates": {"latitude": 41.6894233, "longitude": -71.5606689}, "transactions": ["delivery"], "price": "$$", "location": {"address1": "33 Sandy Bottom Rd", "address2": "", "address3": "", "city": "Coventry", "zip_code": "02816", "country": "US", "state": "RI", "display_address": ["33 Sandy Bottom Rd", "Coventry, RI 02816"]}, "phone": "+14018281810", "display_phone": "(401) 828-1810", "distance": 6316.707030400734}, {"id": "4Qlr65qCZoFYp9AEIWsqBg", "alias": "dans-place-west-greenwich", "name": "Dan's Place", "image_url": "https://s3-media1.fl.yelpcdn.com/bphoto/5GzxYiDUiztlyQc8eO1T1w/o.jpg", "is_closed": false, "url": "https://www.yelp.com/biz/dans-place-west-greenwich?adjust_creative=pzvBKuEUl0Vl1jtHQqJaog&utm_campaign=yelp_api_v3&utm_medium=api_v3_business_search&utm_source=pzvBKuEUl0Vl1jtHQqJaog", "review_count": 198, "categories": [{"alias": "pizza", "title": "Pizza"}, {"alias": "tradamerican", "title": "American (Traditional)"}, {"alias": "bars", "title": "Bars"}], "rating": 4.0, "coordinates": {"latitude": 41.607883, "longitude": -71.661329}, "transactions": [], "price": "$$", "location": {"address1": "880 Victory Hwy", "address2": "", "address3": "", "city": "West Greenwich", "zip_code": "02817", "country": "US", "state": "RI", "display_address": ["880 Victory Hwy", "West Greenwich, RI 02817"]}, "phone": "+14013923092", "display_phone": "(401) 392-3092", "distance": 9803.461400416187}, {"id": "aFGWW2iPXj3OWP45_Git2A", "alias": "nacho-mamis-taco-shop-west-warwick", "name": "Nacho Mamis Taco Shop", "image_url": "https://s3-media4.fl.yelpcdn.com/bphoto/YvPBZU7w9LLLg4JZqrWcCQ/o.jpg", "is_closed": false, "url": "https://www.yelp.com/biz/nacho-mamis-taco-shop-west-warwick?adjust_creative=pzvBKuEUl0Vl1jtHQqJaog&utm_campaign=yelp_api_v3&utm_medium=api_v3_business_search&utm_source=pzvBKuEUl0Vl1jtHQqJaog", "review_count": 3, "categories": [{"alias": "tex-mex", "title": "Tex-Mex"}, {"alias": "tacos", "title": "Tacos"}, {"alias": "salad", "title": "Salad"}], "rating": 4.5, "coordinates": {"latitude": 41.7009268, "longitude": -71.5284657}, "transactions": ["pickup", "delivery"], "location": {"address1": "231 Washington St", "address2": "", "address3": null, "city": "West Warwick", "zip_code": "02893", "country": "US", "state": "RI", "display_address": ["231 Washington St", "West Warwick, RI 02893"]}, "phone": "+14018228226", "display_phone": "(401) 822-8226", "distance": 9101.551901523044}, {"id": "JzzOQvIrC6jq6rYL0eIzTA", "alias": "jws-pub-coventry", "name": "Jw's Pub", "image_url": "https://s3-media2.fl.yelpcdn.com/bphoto/zU2UuWxz9GW7i2O-GKb3pg/o.jpg", "is_closed": false, "url": "https://www.yelp.com/biz/jws-pub-coventry?adjust_creative=pzvBKuEUl0Vl1jtHQqJaog&utm_campaign=yelp_api_v3&utm_medium=api_v3_business_search&utm_source=pzvBKuEUl0Vl1jtHQqJaog", "review_count": 31, "categories": [{"alias": "chicken_wings", "title": "Chicken Wings"}, {"alias": "burgers", "title": "Burgers"}, {"alias": "cocktailbars", "title": "Cocktail Bars"}], "rating": 4.5, "coordinates": {"latitude": 41.6956, "longitude": -71.53568}, "transactions": ["delivery"], "price": "$$", "location": {"address1": "433 Washington St", "address2": null, "address3": "", "city": "Coventry", "zip_code": "02816", "country": "US", "state": "RI", "display_address": ["433 Washington St", "Coventry, RI 02816"]}, "phone": "+14012623350", "display_phone": "(401) 262-3350", "distance": 8478.739339077201}, {"id": "ETEkkS4q7--Fko812VFWdw", "alias": "the-cozy-grill-coventry", "name": "The Cozy Grill", "image_url": "https://s3-media1.fl.yelpcdn.com/bphoto/b901C9H6hPzMgtz2wsmODw/o.jpg", "is_closed": false, "url": "https://www.yelp.com/biz/the-cozy-grill-coventry?adjust_creative=pzvBKuEUl0Vl1jtHQqJaog&utm_campaign=yelp_api_v3&utm_medium=api_v3_business_search&utm_source=pzvBKuEUl0Vl1jtHQqJaog", "review_count": 60, "categories": [{"alias": "tradamerican", "title": "American (Traditional)"}], "rating": 3.5, "coordinates": {"latitude": 41.68542, "longitude": -71.54853}, "transactions": ["delivery"], "price": "$", "location": {"address1": "473 Tiogue Ave", "address2": "", "address3": "", "city": "Coventry", "zip_code": "02816", "country": "US", "state": "RI", "display_address": ["473 Tiogue Ave", "Coventry, RI 02816"]}, "phone": "+14018213440", "display_phone": "(401) 821-3440", "distance": 7465.975643016235}, {"id": "5eMxaIRXjDJwIFpItdUEkg", "alias": "filippous-twisted-pizza-coventry-2", "name": "Filippou's Twisted Pizza", "image_url": "https://s3-media2.fl.yelpcdn.com/bphoto/noeMBbfqrTWGue3MDRLDuQ/o.jpg", "is_closed": false, "url": "https://www.yelp.com/biz/filippous-twisted-pizza-coventry-2?adjust_creative=pzvBKuEUl0Vl1jtHQqJaog&utm_campaign=yelp_api_v3&utm_medium=api_v3_business_search&utm_source=pzvBKuEUl0Vl1jtHQqJaog", "review_count": 64, "categories": [{"alias": "pizza", "title": "Pizza"}, {"alias": "italian", "title": "Italian"}, {"alias": "greek", "title": "Greek"}], "rating": 2.5, "coordinates": {"latitude": 41.6804008, "longitude": -71.5721207}, "transactions": ["delivery"], "price": "$$", "location": {"address1": "915 Tiogue Ave", "address2": "", "address3": "", "city": "Coventry", "zip_code": "02816", "country": "US", "state": "RI", "display_address": ["915 Tiogue Ave", "Coventry, RI 02816"]}, "phone": "+14016153684", "display_phone": "(401) 615-3684", "distance": 5732.098730599899}, {"id": "mdgpnKPit_lH0WE21gnLtw", "alias": "skips-countryside-cafe-coventry", "name": "Skip's Countryside Cafe", "image_url": "https://s3-media4.fl.yelpcdn.com/bphoto/vXCHSipqlnV5haVoyGoHow/o.jpg", "is_closed": false, "url": "https://www.yelp.com/biz/skips-countryside-cafe-coventry?adjust_creative=pzvBKuEUl0Vl1jtHQqJaog&utm_campaign=yelp_api_v3&utm_medium=api_v3_business_search&utm_source=pzvBKuEUl0Vl1jtHQqJaog", "review_count": 8, "categories": [{"alias": "breakfast_brunch", "title": "Breakfast & Brunch"}], "rating": 3.5, "coordinates": {"latitude": 41.7046810051239, "longitude": -71.6160058425064}, "transactions": ["delivery"], "location": {"address1": "2246 Flat River Rd", "address2": "", "address3": null, "city": "Coventry", "zip_code": "02816", "country": "US", "state": "RI", "display_address": ["2246 Flat River Rd", "Coventry, RI 02816"]}, "phone": "", "display_phone": "", "distance": 2153.7884966569572}, {"id": "UJb76vmzm10X24E9wRpLwQ", "alias": "fresco-cranston", "name": "Fresco", "image_url": "https://s3-media1.fl.yelpcdn.com/bphoto/ocejA6CGy4-fG6BHhcEGdg/o.jpg", "is_closed": false, "url": "https://www.yelp.com/biz/fresco-cranston?adjust_creative=pzvBKuEUl0Vl1jtHQqJaog&utm_campaign=yelp_api_v3&utm_medium=api_v3_business_search&utm_source=pzvBKuEUl0Vl1jtHQqJaog", "review_count": 110, "categories": [{"alias": "italian", "title": "Italian"}, {"alias": "steak", "title": "Steakhouses"}, {"alias": "seafood", "title": "Seafood"}], "rating": 4.0, "coordinates": {"latitude": 41.7849371007593, "longitude": -71.5154170904907}, "transactions": ["restaurant_reservation"], "price": "$$", "location": {"address1": "140 Comstock Pkwy", "address2": "", "address3": "", "city": "Cranston", "zip_code": "02921", "country": "US", "state": "RI", "display_address": ["140 Comstock Pkwy", "Cranston, RI 02921"]}, "phone": "+14012283901", "display_phone": "(401) 228-3901", "distance": 14305.040268972054}, {"id": "rWY-Ziti_mnkZT4fg5CFrw", "alias": "popeyes-louisiana-kitchen-w-greenwich", "name": "Popeyes Louisiana Kitchen", "image_url": "https://s3-media3.fl.yelpcdn.com/bphoto/VTwWpdLUaZTpShJF6gMYXA/o.jpg", "is_closed": false, "url": "https://www.yelp.com/biz/popeyes-louisiana-kitchen-w-greenwich?adjust_creative=pzvBKuEUl0Vl1jtHQqJaog&utm_campaign=yelp_api_v3&utm_medium=api_v3_business_search&utm_source=pzvBKuEUl0Vl1jtHQqJaog", "review_count": 20, "categories": [{"alias": "hotdogs", "title": "Fast Food"}, {"alias": "chicken_wings", "title": "Chicken Wings"}], "rating": 3.5, "coordinates": {"latitude": 41.608992, "longitude": -71.665454}, "transactions": [], "price": "$", "location": {"address1": "849 Victory Hwy", "address2": "", "address3": "", "city": "W Greenwich", "zip_code": "02817", "country": "US", "state": "RI", "display_address": ["849 Victory Hwy", "W Greenwich, RI 02817"]}, "phone": "+14013977774", "display_phone": "(401) 397-7774", "distance": 9757.853450271263}, {"id": "YsQQIldnQZOGMszUDWR-yQ", "alias": "jesses-ny-system-johnston", "name": "Jesse's NY System", "image_url": "https://s3-media2.fl.yelpcdn.com/bphoto/WiEgjunBL6JKb84m3F8rMg/o.jpg", "is_closed": false, "url": "https://www.yelp.com/biz/jesses-ny-system-johnston?adjust_creative=pzvBKuEUl0Vl1jtHQqJaog&utm_campaign=yelp_api_v3&utm_medium=api_v3_business_search&utm_source=pzvBKuEUl0Vl1jtHQqJaog", "review_count": 9, "categories": [{"alias": "diners", "title": "Diners"}], "rating": 3.5, "coordinates": {"latitude": 41.791481, "longitude": -71.551728}, "transactions": [], "price": "$", "location": {"address1": "2238 Plainfield Pike", "address2": "", "address3": "", "city": "Johnston", "zip_code": "02919", "country": "US", "state": "RI", "display_address": ["2238 Plainfield Pike", "Johnston, RI 02919"]}, "phone": "+14019421960", "display_phone": "(401) 942-1960", "distance": 12952.230037647609}, {"id": "PhrJqQuEUNMHmYEVUQ8zrw", "alias": "babys-bonetown-bbq-clayville-3", "name": "Baby's Bonetown  BBQ", "image_url": "https://s3-media3.fl.yelpcdn.com/bphoto/3GL2sq98twYjfjH_J_mhvQ/o.jpg", "is_closed": false, "url": "https://www.yelp.com/biz/babys-bonetown-bbq-clayville-3?adjust_creative=pzvBKuEUl0Vl1jtHQqJaog&utm_campaign=yelp_api_v3&utm_medium=api_v3_business_search&utm_source=pzvBKuEUl0Vl1jtHQqJaog", "review_count": 18, "categories": [{"alias": "foodtrucks", "title": "Food Trucks"}, {"alias": "bbq", "title": "Barbeque"}], "rating": 3.5, "coordinates": {"latitude": 41.77466, "longitude": -71.67334}, "transactions": [], "price": "$$", "location": {"address1": "", "address2": null, "address3": "", "city": "Clayville", "zip_code": "02815", "country": "US", "state": "RI", "display_address": ["Clayville, RI 02815"]}, "phone": "+15089443219", "display_phone": "(508) 944-3219", "distance": 8605.512544894802}, {"id": "BKZJqQX8IGDqEg2kGNHCzQ", "alias": "harris-bar-and-grill-coventry", "name": "Harris Bar & Grill", "image_url": "https://s3-media2.fl.yelpcdn.com/bphoto/Bxsh-4B0QwUiaqsi9gpwbg/o.jpg", "is_closed": false, "url": "https://www.yelp.com/biz/harris-bar-and-grill-coventry?adjust_creative=pzvBKuEUl0Vl1jtHQqJaog&utm_campaign=yelp_api_v3&utm_medium=api_v3_business_search&utm_source=pzvBKuEUl0Vl1jtHQqJaog", "review_count": 26, "categories": [{"alias": "bars", "title": "Bars"}, {"alias": "italian", "title": "Italian"}, {"alias": "newamerican", "title": "American (New)"}], "rating": 4.0, "coordinates": {"latitude": 41.7234, "longitude": -71.53452}, "transactions": ["delivery"], "price": "$$", "location": {"address1": "666 Main St", "address2": "", "address3": "", "city": "Coventry", "zip_code": "02816", "country": "US", "state": "RI", "display_address": ["666 Main St", "Coventry, RI 02816"]}, "phone": "+14018239178", "display_phone": "(401) 823-9178", "distance": 9161.296031788965}, {"id": "A6z565n125C9LeO0V5-B1g", "alias": "harris-deli-and-catering-coventry", "name": "Harris Deli & Catering", "image_url": "https://s3-media3.fl.yelpcdn.com/bphoto/yEHhKwA6IWbnsGElp8DzFQ/o.jpg", "is_closed": false, "url": "https://www.yelp.com/biz/harris-deli-and-catering-coventry?adjust_creative=pzvBKuEUl0Vl1jtHQqJaog&utm_campaign=yelp_api_v3&utm_medium=api_v3_business_search&utm_source=pzvBKuEUl0Vl1jtHQqJaog", "review_count": 1, "categories": [{"alias": "catering", "title": "Caterers"}, {"alias": "delis", "title": "Delis"}], "rating": 4.0, "coordinates": {"latitude": 41.7241005867093, "longitude": -71.5352952447634}, "transactions": [], "location": {"address1": "656 Main St", "address2": "", "address3": "", "city": "Coventry", "zip_code": "02816", "country": "US", "state": "RI", "display_address": ["656 Main St", "Coventry, RI 02816"]}, "phone": "+14018256044", "display_phone": "(401) 825-6044", "distance": 9127.068482030736}, {"id": "3H4ydLsuGmpZH3jwBr1i5w", "alias": "cowesett-inn-west-warwick", "name": "Cowesett Inn", "image_url": "https://s3-media2.fl.yelpcdn.com/bphoto/dZORRfsWmbnA08CmkURfZA/o.jpg", "is_closed": false, "url": "https://www.yelp.com/biz/cowesett-inn-west-warwick?adjust_creative=pzvBKuEUl0Vl1jtHQqJaog&utm_campaign=yelp_api_v3&utm_medium=api_v3_business_search&utm_source=pzvBKuEUl0Vl1jtHQqJaog", "review_count": 63, "categories": [{"alias": "newamerican", "title": "American (New)"}], "rating": 3.0, "coordinates": {"latitude": 41.684877499938, "longitude": -71.5098253637552}, "transactions": ["pickup", "delivery"], "price": "$$", "location": {"address1": "226 Cowesett Ave", "address2": "", "address3": "", "city": "West Warwick", "zip_code": "02893", "country": "US", "state": "RI", "display_address": ["226 Cowesett Ave", "West Warwick, RI 02893"]}, "phone": "+14018284726", "display_phone": "(401) 828-4726", "distance": 10685.034740599735}, {"id": "vPJDDjIf25g2g084t1sodg", "alias": "silver-crystal-restaurant-west-warwick", "name": "Silver Crystal Restaurant", "image_url": "https://s3-media1.fl.yelpcdn.com/bphoto/URvLYHC5vaGJcEvKO2qkMg/o.jpg", "is_closed": false, "url": "https://www.yelp.com/biz/silver-crystal-restaurant-west-warwick?adjust_creative=pzvBKuEUl0Vl1jtHQqJaog&utm_campaign=yelp_api_v3&utm_medium=api_v3_business_search&utm_source=pzvBKuEUl0Vl1jtHQqJaog", "review_count": 126, "categories": [{"alias": "dimsum", "title": "Dim Sum"}], "rating": 4.0, "coordinates": {"latitude": 41.6845968247556, "longitude": -71.5064960718155}, "transactions": ["delivery"], "price": "$$", "location": {"address1": "289-1 Cowesett Ave", "address2": null, "address3": null, "city": "West Warwick", "zip_code": "02893", "country": "US", "state": "RI", "display_address": ["289-1 Cowesett Ave", "West Warwick, RI 02893"]}, "phone": "+14018221818", "display_phone": "(401) 822-1818", "distance": 10949.694478702555}, {"id": "KteX1CYSyHNhiambfEX1Kg", "alias": "bill-s-place-west-warwick", "name": "Bill\u2019s Place", "image_url": "https://s3-media4.fl.yelpcdn.com/bphoto/0B2lK_5AUHMGa6Hw2KnvqQ/o.jpg", "is_closed": false, "url": "https://www.yelp.com/biz/bill-s-place-west-warwick?adjust_creative=pzvBKuEUl0Vl1jtHQqJaog&utm_campaign=yelp_api_v3&utm_medium=api_v3_business_search&utm_source=pzvBKuEUl0Vl1jtHQqJaog", "review_count": 62, "categories": [{"alias": "pizza", "title": "Pizza"}, {"alias": "tradamerican", "title": "American (Traditional)"}], "rating": 4.0, "coordinates": {"latitude": 41.72237, "longitude": -71.53388}, "transactions": ["delivery"], "price": "$$", "location": {"address1": "707 Main St", "address2": "", "address3": "", "city": "West Warwick", "zip_code": "02893", "country": "US", "state": "RI", "display_address": ["707 Main St", "West Warwick, RI 02893"]}, "phone": "+14018282300", "display_phone": "(401) 828-2300", "distance": 9161.882903523114}, {"id": "xa6Ysy_MN0gMmfMzbZOz_g", "alias": "hash-ny-system-coventry", "name": "Hash Ny System", "image_url": "https://s3-media2.fl.yelpcdn.com/bphoto/TyhuQl_lu6oSuryltZ4kvw/o.jpg", "is_closed": false, "url": "https://www.yelp.com/biz/hash-ny-system-coventry?adjust_creative=pzvBKuEUl0Vl1jtHQqJaog&utm_campaign=yelp_api_v3&utm_medium=api_v3_business_search&utm_source=pzvBKuEUl0Vl1jtHQqJaog", "review_count": 3, "categories": [{"alias": "breakfast_brunch", "title": "Breakfast & Brunch"}, {"alias": "diners", "title": "Diners"}], "rating": 4.5, "coordinates": {"latitude": 41.7236, "longitude": -71.53469}, "transactions": [], "location": {"address1": "656 Main St", "address2": null, "address3": "", "city": "Coventry", "zip_code": "02816", "country": "US", "state": "RI", "display_address": ["656 Main St", "Coventry, RI 02816"]}, "phone": "+14013208476", "display_phone": "(401) 320-8476", "distance": 9136.20193959013}, {"id": "naEyZsIhWLJdGScpIArZVA", "alias": "pagliarinis-family-restaurant-and-pizza-coventry", "name": "Pagliarini's Family Restaurant & Pizza", "image_url": "https://s3-media2.fl.yelpcdn.com/bphoto/PwXbbp6DtCyZ21fZdZbgrA/o.jpg", "is_closed": false, "url": "https://www.yelp.com/biz/pagliarinis-family-restaurant-and-pizza-coventry?adjust_creative=pzvBKuEUl0Vl1jtHQqJaog&utm_campaign=yelp_api_v3&utm_medium=api_v3_business_search&utm_source=pzvBKuEUl0Vl1jtHQqJaog", "review_count": 32, "categories": [{"alias": "pizza", "title": "Pizza"}], "rating": 4.0, "coordinates": {"latitude": 41.6966631, "longitude": -71.5474068}, "transactions": ["delivery"], "price": "$$", "location": {"address1": "637 Washington St", "address2": "", "address3": "", "city": "Coventry", "zip_code": "02816", "country": "US", "state": "RI", "display_address": ["637 Washington St", "Coventry, RI 02816"]}, "phone": "+14018285555", "display_phone": "(401) 828-5555", "distance": 7421.245420392178}, {"id": "KaFVuy14xgPM_3jkp2ngPA", "alias": "big-dawggs-griswold", "name": "Big Dawggs", "image_url": "https://s3-media2.fl.yelpcdn.com/bphoto/Cz3hfpM0JRXf2_4arj1dgQ/o.jpg", "is_closed": false, "url": "https://www.yelp.com/biz/big-dawggs-griswold?adjust_creative=pzvBKuEUl0Vl1jtHQqJaog&utm_campaign=yelp_api_v3&utm_medium=api_v3_business_search&utm_source=pzvBKuEUl0Vl1jtHQqJaog", "review_count": 8, "categories": [{"alias": "hotdog", "title": "Hot Dogs"}, {"alias": "foodtrucks", "title": "Food Trucks"}], "rating": 4.0, "coordinates": {"latitude": 41.5824783917777, "longitude": -71.9147496200406}, "transactions": [], "price": "$", "location": {"address1": "1111 Voluntown Rd", "address2": "", "address3": "", "city": "Griswold", "zip_code": "06351", "country": "US", "state": "CT", "display_address": ["1111 Voluntown Rd", "Griswold, CT 06351"]}, "phone": "+18603349778", "display_phone": "(860) 334-9778", "distance": 26162.62046534196}, {"id": "y1Ot4lNCCbl0AivjxnDAbg", "alias": "dragon-palace-coventry", "name": "Dragon Palace", "image_url": "https://s3-media2.fl.yelpcdn.com/bphoto/Uz7fYCw4eaSqKWosTjNiTg/o.jpg", "is_closed": false, "url": "https://www.yelp.com/biz/dragon-palace-coventry?adjust_creative=pzvBKuEUl0Vl1jtHQqJaog&utm_campaign=yelp_api_v3&utm_medium=api_v3_business_search&utm_source=pzvBKuEUl0Vl1jtHQqJaog", "review_count": 84, "categories": [{"alias": "chinese", "title": "Chinese"}, {"alias": "sushi", "title": "Sushi Bars"}, {"alias": "japanese", "title": "Japanese"}], "rating": 3.5, "coordinates": {"latitude": 41.68498, "longitude": -71.55182}, "transactions": ["delivery"], "price": "$$", "location": {"address1": "577 Tiogue Ave", "address2": "", "address3": "", "city": "Coventry", "zip_code": "02816", "country": "US", "state": "RI", "display_address": ["577 Tiogue Ave", "Coventry, RI 02816"]}, "phone": "+14018280100", "display_phone": "(401) 828-0100", "distance": 7072.6419013148325}, {"id": "_DAFln0Oz6DVxSnYeK2LEg", "alias": "depetrillos-pizza-and-bakery-coventry", "name": "Depetrillo's Pizza & Bakery", "image_url": "https://s3-media2.fl.yelpcdn.com/bphoto/qW76wpQ6naCrGEob3dP8tA/o.jpg", "is_closed": false, "url": "https://www.yelp.com/biz/depetrillos-pizza-and-bakery-coventry?adjust_creative=pzvBKuEUl0Vl1jtHQqJaog&utm_campaign=yelp_api_v3&utm_medium=api_v3_business_search&utm_source=pzvBKuEUl0Vl1jtHQqJaog", "review_count": 22, "categories": [{"alias": "pizza", "title": "Pizza"}], "rating": 4.0, "coordinates": {"latitude": 41.6818447, "longitude": -71.5643141}, "transactions": ["delivery"], "price": "$", "location": {"address1": "797 Tiogue Ave", "address2": "", "address3": "", "city": "Coventry", "zip_code": "02816", "country": "US", "state": "RI", "display_address": ["797 Tiogue Ave", "Coventry, RI 02816"]}, "phone": "+14018284300", "display_phone": "(401) 828-4300", "distance": 6234.921476456947}, {"id": "kwf_J_u0peu0a6tt6j60LQ", "alias": "enjoy-restaurant-west-warwick", "name": "Enjoy Restaurant", "image_url": "https://s3-media2.fl.yelpcdn.com/bphoto/0U6TDLo5nw4flJ5h4CsNkg/o.jpg", "is_closed": false, "url": "https://www.yelp.com/biz/enjoy-restaurant-west-warwick?adjust_creative=pzvBKuEUl0Vl1jtHQqJaog&utm_campaign=yelp_api_v3&utm_medium=api_v3_business_search&utm_source=pzvBKuEUl0Vl1jtHQqJaog", "review_count": 1, "categories": [{"alias": "breakfast_brunch", "title": "Breakfast & Brunch"}, {"alias": "tradamerican", "title": "American (Traditional)"}], "rating": 2.0, "coordinates": {"latitude": 41.716938, "longitude": -71.523637}, "transactions": [], "location": {"address1": "943 Main St", "address2": "", "address3": null, "city": "West Warwick", "zip_code": "02893", "country": "US", "state": "RI", "display_address": ["943 Main St", "West Warwick, RI 02893"]}, "phone": "+14013208063", "display_phone": "(401) 320-8063", "distance": 9800.875551007579}, {"id": "XBNvv5TmctLFauyOvSA5BQ", "alias": "hunan-balcony-coventry", "name": "Hunan Balcony", "image_url": "https://s3-media1.fl.yelpcdn.com/bphoto/at0dv7GAsatur6jG7DPBXg/o.jpg", "is_closed": false, "url": "https://www.yelp.com/biz/hunan-balcony-coventry?adjust_creative=pzvBKuEUl0Vl1jtHQqJaog&utm_campaign=yelp_api_v3&utm_medium=api_v3_business_search&utm_source=pzvBKuEUl0Vl1jtHQqJaog", "review_count": 22, "categories": [{"alias": "chinese", "title": "Chinese"}], "rating": 4.0, "coordinates": {"latitude": 41.69493, "longitude": -71.55028}, "transactions": ["delivery"], "price": "$", "location": {"address1": "687 Washington St", "address2": "", "address3": "", "city": "Coventry", "zip_code": "02816", "country": "US", "state": "RI", "display_address": ["687 Washington St", "Coventry, RI 02816"]}, "phone": "+14018263833", "display_phone": "(401) 826-3833", "distance": 7248.433569325322}, {"id": "QfH8gfhXwfP8mQ_YRSX-CA", "alias": "phenix-square-restaurant-west-warwick", "name": "Phenix Square Restaurant", "image_url": "https://s3-media3.fl.yelpcdn.com/bphoto/xCym9lRhAfCzyesfDZx9cg/o.jpg", "is_closed": false, "url": "https://www.yelp.com/biz/phenix-square-restaurant-west-warwick?adjust_creative=pzvBKuEUl0Vl1jtHQqJaog&utm_campaign=yelp_api_v3&utm_medium=api_v3_business_search&utm_source=pzvBKuEUl0Vl1jtHQqJaog", "review_count": 10, "categories": [{"alias": "restaurants", "title": "Restaurants"}], "rating": 3.5, "coordinates": {"latitude": 41.72131, "longitude": -71.531845}, "transactions": [], "price": "$", "location": {"address1": "9 Pleasant St", "address2": "", "address3": "", "city": "West Warwick", "zip_code": "02893", "country": "US", "state": "RI", "display_address": ["9 Pleasant St", "West Warwick, RI 02893"]}, "phone": "+14018288110", "display_phone": "(401) 828-8110", "distance": 9289.603935977531}, {"id": "1I6QwzIco9yhPDGRie6vUg", "alias": "hong-kong-restaurant-west-warwick", "name": "Hong Kong Restaurant", "image_url": "https://s3-media4.fl.yelpcdn.com/bphoto/fTucSX43Oeo_DE0TiaeeeA/o.jpg", "is_closed": false, "url": "https://www.yelp.com/biz/hong-kong-restaurant-west-warwick?adjust_creative=pzvBKuEUl0Vl1jtHQqJaog&utm_campaign=yelp_api_v3&utm_medium=api_v3_business_search&utm_source=pzvBKuEUl0Vl1jtHQqJaog", "review_count": 27, "categories": [{"alias": "chinese", "title": "Chinese"}], "rating": 4.0, "coordinates": {"latitude": 41.7029743641615, "longitude": -71.5258750319481}, "transactions": ["pickup", "delivery"], "price": "$", "location": {"address1": "77 Washington St", "address2": "", "address3": "", "city": "West Warwick", "zip_code": "02893", "country": "US", "state": "RI", "display_address": ["77 Washington St", "West Warwick, RI 02893"]}, "phone": "+14018213553", "display_phone": "(401) 821-3553", "distance": 9336.659738360631}, {"id": "AFDjrxc-nWG_ZO53jKYZ5w", "alias": "famous-pizza-johnston", "name": "Famous Pizza", "image_url": "https://s3-media1.fl.yelpcdn.com/bphoto/xpq8xyvKrJKYvTJswRbQIQ/o.jpg", "is_closed": false, "url": "https://www.yelp.com/biz/famous-pizza-johnston?adjust_creative=pzvBKuEUl0Vl1jtHQqJaog&utm_campaign=yelp_api_v3&utm_medium=api_v3_business_search&utm_source=pzvBKuEUl0Vl1jtHQqJaog", "review_count": 14, "categories": [{"alias": "pizza", "title": "Pizza"}], "rating": 3.5, "coordinates": {"latitude": 41.7903060913086, "longitude": -71.5231246948242}, "transactions": ["delivery"], "price": "$", "location": {"address1": "2071 Plainfield Pike", "address2": "Unit 4", "address3": null, "city": "Johnston", "zip_code": "02919", "country": "US", "state": "RI", "display_address": ["2071 Plainfield Pike", "Unit 4", "Johnston, RI 02919"]}, "phone": "+14019462337", "display_phone": "(401) 946-2337", "distance": 14296.198359354317}, {"id": "rcSxArmJ2uhv4gOYUOZYvA", "alias": "oriental-taste-cranston", "name": "Oriental Taste", "image_url": "https://s3-media2.fl.yelpcdn.com/bphoto/hk0cnVrGCGs5TO3nJmRRhw/o.jpg", "is_closed": false, "url": "https://www.yelp.com/biz/oriental-taste-cranston?adjust_creative=pzvBKuEUl0Vl1jtHQqJaog&utm_campaign=yelp_api_v3&utm_medium=api_v3_business_search&utm_source=pzvBKuEUl0Vl1jtHQqJaog", "review_count": 40, "categories": [{"alias": "chinese", "title": "Chinese"}], "rating": 4.5, "coordinates": {"latitude": 41.7884521484375, "longitude": -71.5185775756836}, "transactions": ["delivery"], "price": "$", "location": {"address1": "2244 Plainfield Pike", "address2": null, "address3": null, "city": "Cranston", "zip_code": "02921", "country": "US", "state": "RI", "display_address": ["2244 Plainfield Pike", "Cranston, RI 02921"]}, "phone": "+14019426388", "display_phone": "(401) 942-6388", "distance": 14404.874603927632}, {"id": "v6v4QHrH2DDYC-0S4Y7clg", "alias": "china-star-coventry", "name": "China Star", "image_url": "https://s3-media3.fl.yelpcdn.com/bphoto/buHJuhAKLmU9t79sNfFFHA/o.jpg", "is_closed": false, "url": "https://www.yelp.com/biz/china-star-coventry?adjust_creative=pzvBKuEUl0Vl1jtHQqJaog&utm_campaign=yelp_api_v3&utm_medium=api_v3_business_search&utm_source=pzvBKuEUl0Vl1jtHQqJaog", "review_count": 7, "categories": [{"alias": "chinese", "title": "Chinese"}], "rating": 2.5, "coordinates": {"latitude": 41.6799255514718, "longitude": -71.5751858933867}, "transactions": ["delivery"], "price": "$", "location": {"address1": "1028 Tiogue Ave", "address2": "", "address3": "", "city": "Coventry", "zip_code": "02816", "country": "US", "state": "RI", "display_address": ["1028 Tiogue Ave", "Coventry, RI 02816"]}, "phone": "+14018283127", "display_phone": "(401) 828-3127", "distance": 5309.212963218212}, {"id": "7rRck0Vo7_E75o_Wcqngjg", "alias": "wicked-good-pizza-west-greenwich", "name": "Wicked Good Pizza", "image_url": "https://s3-media3.fl.yelpcdn.com/bphoto/NtADSOUurPQZWLLpWy0XcA/o.jpg", "is_closed": false, "url": "https://www.yelp.com/biz/wicked-good-pizza-west-greenwich?adjust_creative=pzvBKuEUl0Vl1jtHQqJaog&utm_campaign=yelp_api_v3&utm_medium=api_v3_business_search&utm_source=pzvBKuEUl0Vl1jtHQqJaog", "review_count": 13, "categories": [{"alias": "pizza", "title": "Pizza"}], "rating": 3.5, "coordinates": {"latitude": 41.6592645, "longitude": -71.6032579}, "transactions": ["delivery"], "location": {"address1": "12 Nooseneck Hill Rd", "address2": "", "address3": "", "city": "West Greenwich", "zip_code": "02817", "country": "US", "state": "RI", "display_address": ["12 Nooseneck Hill Rd", "West Greenwich, RI 02817"]}, "phone": "+14013853851", "display_phone": "(401) 385-3851", "distance": 4831.359347034376}, {"id": "I80aA8RQSIxAXND9bZdPjg", "alias": "sognalo-italian-deli-and-cafe-cranston", "name": "Sognalo Italian Deli & Cafe", "image_url": "https://s3-media3.fl.yelpcdn.com/bphoto/8i_hYy3VPi8PZcHRY6pcHQ/o.jpg", "is_closed": false, "url": "https://www.yelp.com/biz/sognalo-italian-deli-and-cafe-cranston?adjust_creative=pzvBKuEUl0Vl1jtHQqJaog&utm_campaign=yelp_api_v3&utm_medium=api_v3_business_search&utm_source=pzvBKuEUl0Vl1jtHQqJaog", "review_count": 5, "categories": [{"alias": "italian", "title": "Italian"}, {"alias": "delis", "title": "Delis"}, {"alias": "spanish", "title": "Spanish"}], "rating": 5.0, "coordinates": {"latitude": 41.790721, "longitude": -71.526953}, "transactions": [], "location": {"address1": "1 Starline Way", "address2": "", "address3": null, "city": "Cranston", "zip_code": "02921", "country": "US", "state": "RI", "display_address": ["1 Starline Way", "Cranston, RI 02921"]}, "phone": "+14013833997", "display_phone": "(401) 383-3997", "distance": 14124.389956051471}, {"id": "Oy779ydTRRhReTcSkq0M5A", "alias": "gels-kitchen-west-warwick", "name": "Gel's Kitchen", "image_url": "https://s3-media3.fl.yelpcdn.com/bphoto/R2grCSbF49tlVaACiiwKog/o.jpg", "is_closed": false, "url": "https://www.yelp.com/biz/gels-kitchen-west-warwick?adjust_creative=pzvBKuEUl0Vl1jtHQqJaog&utm_campaign=yelp_api_v3&utm_medium=api_v3_business_search&utm_source=pzvBKuEUl0Vl1jtHQqJaog", "review_count": 100, "categories": [{"alias": "breakfast_brunch", "title": "Breakfast & Brunch"}], "rating": 4.0, "coordinates": {"latitude": 41.68293, "longitude": -71.52539}, "transactions": ["delivery"], "price": "$", "location": {"address1": "1745 Main St", "address2": "", "address3": "", "city": "West Warwick", "zip_code": "02893", "country": "US", "state": "RI", "display_address": ["1745 Main St", "West Warwick, RI 02893"]}, "phone": "+14018217285", "display_phone": "(401) 821-7285", "distance": 9339.016306288619}, {"id": "krZs6TZe2iAR_joF9rTh4g", "alias": "khoo-restaurant-west-warwick", "name": "Khoo Restaurant", "image_url": "https://s3-media3.fl.yelpcdn.com/bphoto/yqkyjl9bVvw-d_dWwe_wcg/o.jpg", "is_closed": false, "url": "https://www.yelp.com/biz/khoo-restaurant-west-warwick?adjust_creative=pzvBKuEUl0Vl1jtHQqJaog&utm_campaign=yelp_api_v3&utm_medium=api_v3_business_search&utm_source=pzvBKuEUl0Vl1jtHQqJaog", "review_count": 146, "categories": [{"alias": "chinese", "title": "Chinese"}, {"alias": "malaysian", "title": "Malaysian"}, {"alias": "japanese", "title": "Japanese"}], "rating": 4.0, "coordinates": {"latitude": 41.68469, "longitude": -71.5089799}, "transactions": ["delivery", "pickup"], "price": "$$", "location": {"address1": "255 Cowesett Ave", "address2": "", "address3": null, "city": "West Warwick", "zip_code": "02893", "country": "US", "state": "RI", "display_address": ["255 Cowesett Ave", "West Warwick, RI 02893"]}, "phone": "+14018288600", "display_phone": "(401) 828-8600", "distance": 10824.26639222874}, {"id": "oA6pzljTtLsE7i-pJjDoww", "alias": "on-the-rochs-warwick", "name": "On The Roch's", "image_url": "https://s3-media2.fl.yelpcdn.com/bphoto/tS6u30oZDFysAgBkprDkqQ/o.jpg", "is_closed": false, "url": "https://www.yelp.com/biz/on-the-rochs-warwick?adjust_creative=pzvBKuEUl0Vl1jtHQqJaog&utm_campaign=yelp_api_v3&utm_medium=api_v3_business_search&utm_source=pzvBKuEUl0Vl1jtHQqJaog", "review_count": 29, "categories": [{"alias": "tradamerican", "title": "American (Traditional)"}, {"alias": "seafood", "title": "Seafood"}, {"alias": "steak", "title": "Steakhouses"}], "rating": 4.0, "coordinates": {"latitude": 41.6960814, "longitude": -71.5186362}, "transactions": ["delivery"], "price": "$$", "location": {"address1": "1595 Centerville Rd", "address2": "", "address3": "", "city": "Warwick", "zip_code": "02886", "country": "US", "state": "RI", "display_address": ["1595 Centerville Rd", "Warwick, RI 02886"]}, "phone": "+14018213262", "display_phone": "(401) 821-3262", "distance": 9903.966871571893}, {"id": "9OmeZpR8LWTtizH82Sz4Lg", "alias": "wise-guys-deli-west-warwick-west-warwick", "name": "Wise Guys Deli West Warwick", "image_url": "https://s3-media3.fl.yelpcdn.com/bphoto/s_0cSsvNzE_LEoQwl4UPjw/o.jpg", "is_closed": false, "url": "https://www.yelp.com/biz/wise-guys-deli-west-warwick-west-warwick?adjust_creative=pzvBKuEUl0Vl1jtHQqJaog&utm_campaign=yelp_api_v3&utm_medium=api_v3_business_search&utm_source=pzvBKuEUl0Vl1jtHQqJaog", "review_count": 19, "categories": [{"alias": "delis", "title": "Delis"}, {"alias": "pizza", "title": "Pizza"}, {"alias": "sandwiches", "title": "Sandwiches"}], "rating": 3.5, "coordinates": {"latitude": 41.684532, "longitude": -71.506506}, "transactions": ["delivery", "pickup"], "location": {"address1": "289 Cowesett Ave", "address2": "", "address3": null, "city": "West Warwick", "zip_code": "02893", "country": "US", "state": "RI", "display_address": ["289 Cowesett Ave", "West Warwick, RI 02893"]}, "phone": "+14018220690", "display_phone": "(401) 822-0690", "distance": 10949.589691640429}, {"id": "nplKu--njorNvIpiheNhKg", "alias": "kristos-greek-pizzeria-west-warwick", "name": "Kristos' Greek Pizzeria", "image_url": "https://s3-media1.fl.yelpcdn.com/bphoto/bKqWlWXsJtkRKp5XyRE69A/o.jpg", "is_closed": false, "url": "https://www.yelp.com/biz/kristos-greek-pizzeria-west-warwick?adjust_creative=pzvBKuEUl0Vl1jtHQqJaog&utm_campaign=yelp_api_v3&utm_medium=api_v3_business_search&utm_source=pzvBKuEUl0Vl1jtHQqJaog", "review_count": 1, "categories": [{"alias": "pizza", "title": "Pizza"}], "rating": 4.0, "coordinates": {"latitude": 41.68496, "longitude": -71.50899}, "transactions": ["delivery"], "location": {"address1": "250 Cowesett Ave", "address2": "", "address3": "", "city": "West Warwick", "zip_code": "02893", "country": "US", "state": "RI", "display_address": ["250 Cowesett Ave", "West Warwick, RI 02893"]}, "phone": "+14018288090", "display_phone": "(401) 828-8090", "distance": 10797.009164735971}, {"id": "Q3mqox1cSd9dc8H7jxR5Vw", "alias": "rick-and-dees-restaurant-coventry-2", "name": "Rick & Dee's Restaurant", "image_url": "https://s3-media4.fl.yelpcdn.com/bphoto/OaNmJmliF6KY776gsfrtMQ/o.jpg", "is_closed": false, "url": "https://www.yelp.com/biz/rick-and-dees-restaurant-coventry-2?adjust_creative=pzvBKuEUl0Vl1jtHQqJaog&utm_campaign=yelp_api_v3&utm_medium=api_v3_business_search&utm_source=pzvBKuEUl0Vl1jtHQqJaog", "review_count": 27, "categories": [{"alias": "cafes", "title": "Cafes"}, {"alias": "diners", "title": "Diners"}, {"alias": "breakfast_brunch", "title": "Breakfast & Brunch"}], "rating": 4.0, "coordinates": {"latitude": 41.692641, "longitude": -71.557161}, "transactions": ["delivery"], "price": "$", "location": {"address1": "17 Knotty Oak Rd", "address2": "", "address3": "", "city": "Coventry", "zip_code": "02816", "country": "US", "state": "RI", "display_address": ["17 Knotty Oak Rd", "Coventry, RI 02816"]}, "phone": "+14018283732", "display_phone": "(401) 828-3732", "distance": 6678.486986960389}, {"id": "Vg2zmPYCyuj30YFlpzxYHQ", "alias": "applebees-grill-bar-coventry-2", "name": "Applebee's Grill + Bar", "image_url": "https://s3-media4.fl.yelpcdn.com/bphoto/MRc2jBUKL1DVfRklGmOzEw/o.jpg", "is_closed": false, "url": "https://www.yelp.com/biz/applebees-grill-bar-coventry-2?adjust_creative=pzvBKuEUl0Vl1jtHQqJaog&utm_campaign=yelp_api_v3&utm_medium=api_v3_business_search&utm_source=pzvBKuEUl0Vl1jtHQqJaog", "review_count": 60, "categories": [{"alias": "sportsbars", "title": "Sports Bars"}, {"alias": "burgers", "title": "Burgers"}, {"alias": "tradamerican", "title": "American (Traditional)"}], "rating": 3.0, "coordinates": {"latitude": 41.662083, "longitude": -71.546476}, "transactions": ["delivery"], "price": "$$", "location": {"address1": "830 Centre Of New England Blvd", "address2": "", "address3": "", "city": "Coventry", "zip_code": "02816", "country": "US", "state": "RI", "display_address": ["830 Centre Of New England Blvd", "Coventry, RI 02816"]}, "phone": "+14018260057", "display_phone": "(401) 826-0057", "distance": 8380.768302416951}, {"id": "syMEjHwysLiiVyZtMp1l0A", "alias": "fens-express-west-warwick", "name": "Fen's Express", "image_url": "https://s3-media1.fl.yelpcdn.com/bphoto/w8JldkVnYUpFsErgAydjkA/o.jpg", "is_closed": false, "url": "https://www.yelp.com/biz/fens-express-west-warwick?adjust_creative=pzvBKuEUl0Vl1jtHQqJaog&utm_campaign=yelp_api_v3&utm_medium=api_v3_business_search&utm_source=pzvBKuEUl0Vl1jtHQqJaog", "review_count": 9, "categories": [{"alias": "chinese", "title": "Chinese"}, {"alias": "thai", "title": "Thai"}, {"alias": "noodles", "title": "Noodles"}], "rating": 3.5, "coordinates": {"latitude": 41.7156972, "longitude": -71.5238497}, "transactions": ["delivery"], "price": "$$", "location": {"address1": "975 Main St", "address2": null, "address3": null, "city": "West Warwick", "zip_code": "02893", "country": "US", "state": "RI", "display_address": ["975 Main St", "West Warwick, RI 02893"]}, "phone": "+14018218336", "display_phone": "(401) 821-8336", "distance": 9723.617221810442}, {"id": "Io4C5tUwnb_YzeaMXHBqBA", "alias": "shuckin-truck-narragansett-2", "name": "Shuckin Truck", "image_url": "https://s3-media2.fl.yelpcdn.com/bphoto/r7QRORfe9UYVS7GGzUm9DQ/o.jpg", "is_closed": false, "url": "https://www.yelp.com/biz/shuckin-truck-narragansett-2?adjust_creative=pzvBKuEUl0Vl1jtHQqJaog&utm_campaign=yelp_api_v3&utm_medium=api_v3_business_search&utm_source=pzvBKuEUl0Vl1jtHQqJaog", "review_count": 24, "categories": [{"alias": "foodtrucks", "title": "Food Trucks"}, {"alias": "seafood", "title": "Seafood"}], "rating": 4.5, "coordinates": {"latitude": 41.4274482727051, "longitude": -71.4597778320313}, "transactions": [], "price": "$$", "location": {"address1": "", "address2": "", "address3": "", "city": "Narragansett", "zip_code": "02882", "country": "US", "state": "RI", "display_address": ["Narragansett, RI 02882"]}, "phone": "+14017415953", "display_phone": "(401) 741-5953", "distance": 35147.30426841433}, {"id": "3dnHJPffQLu9Y--GRZbM8w", "alias": "house-of-wu-west-warwick", "name": "House of Wu", "image_url": "https://s3-media1.fl.yelpcdn.com/bphoto/0WYjjMKQzYqtm5WpEcu6Ww/o.jpg", "is_closed": false, "url": "https://www.yelp.com/biz/house-of-wu-west-warwick?adjust_creative=pzvBKuEUl0Vl1jtHQqJaog&utm_campaign=yelp_api_v3&utm_medium=api_v3_business_search&utm_source=pzvBKuEUl0Vl1jtHQqJaog", "review_count": 75, "categories": [{"alias": "chinese", "title": "Chinese"}], "rating": 3.5, "coordinates": {"latitude": 41.70997, "longitude": -71.52092}, "transactions": ["delivery"], "price": "$$", "location": {"address1": "52 Providence St", "address2": "", "address3": "", "city": "West Warwick", "zip_code": "02893", "country": "US", "state": "RI", "display_address": ["52 Providence St", "West Warwick, RI 02893"]}, "phone": "+14018219838", "display_phone": "(401) 821-9838", "distance": 9811.845366208508}, {"id": "-OP55Vjin4VmAEPjPVtxmQ", "alias": "latte-love-coffee-house-cranston-4", "name": "Latte Love Coffee House", "image_url": "https://s3-media3.fl.yelpcdn.com/bphoto/pyN2js-IjAAnzE1AHkFNHA/o.jpg", "is_closed": false, "url": "https://www.yelp.com/biz/latte-love-coffee-house-cranston-4?adjust_creative=pzvBKuEUl0Vl1jtHQqJaog&utm_campaign=yelp_api_v3&utm_medium=api_v3_business_search&utm_source=pzvBKuEUl0Vl1jtHQqJaog", "review_count": 49, "categories": [{"alias": "coffee", "title": "Coffee & Tea"}, {"alias": "breakfast_brunch", "title": "Breakfast & Brunch"}, {"alias": "juicebars", "title": "Juice Bars & Smoothies"}], "rating": 4.5, "coordinates": {"latitude": 41.7880555004089, "longitude": -71.5165036993268}, "transactions": ["delivery"], "price": "$", "location": {"address1": "11 Comstock Pkwy", "address2": "", "address3": null, "city": "Cranston", "zip_code": "02921", "country": "US", "state": "RI", "display_address": ["11 Comstock Pkwy", "Cranston, RI 02921"]}, "phone": "+14019445683", "display_phone": "(401) 944-5683", "distance": 14488.608252272856}, {"id": "6TV0UD9j0etjrw3wx22uDQ", "alias": "pjs-diner-coventry", "name": "Pj's Diner", "image_url": "https://s3-media2.fl.yelpcdn.com/bphoto/3LU86BrEI8csc1FUcg8FVA/o.jpg", "is_closed": false, "url": "https://www.yelp.com/biz/pjs-diner-coventry?adjust_creative=pzvBKuEUl0Vl1jtHQqJaog&utm_campaign=yelp_api_v3&utm_medium=api_v3_business_search&utm_source=pzvBKuEUl0Vl1jtHQqJaog", "review_count": 17, "categories": [{"alias": "restaurants", "title": "Restaurants"}], "rating": 3.0, "coordinates": {"latitude": 41.68383, "longitude": -71.55507}, "transactions": [], "price": "$", "location": {"address1": "608 Tiogue Ave", "address2": "", "address3": "", "city": "Coventry", "zip_code": "02816", "country": "US", "state": "RI", "display_address": ["608 Tiogue Ave", "Coventry, RI 02816"]}, "phone": "+14018237850", "display_phone": "(401) 823-7850", "distance": 6969.810189621062}, {"id": "71FertrAXhU6puMwBnjMPQ", "alias": "santoros-pizza-coventry", "name": "Santoros Pizza", "image_url": "https://s3-media1.fl.yelpcdn.com/bphoto/o_aiVb0WhakbbTVKbjDfrg/o.jpg", "is_closed": false, "url": "https://www.yelp.com/biz/santoros-pizza-coventry?adjust_creative=pzvBKuEUl0Vl1jtHQqJaog&utm_campaign=yelp_api_v3&utm_medium=api_v3_business_search&utm_source=pzvBKuEUl0Vl1jtHQqJaog", "review_count": 30, "categories": [{"alias": "pizza", "title": "Pizza"}], "rating": 3.0, "coordinates": {"latitude": 41.68359, "longitude": -71.55836}, "transactions": ["delivery"], "price": "$", "location": {"address1": "687 Tiogue Ave", "address2": "", "address3": "", "city": "Coventry", "zip_code": "02816", "country": "US", "state": "RI", "display_address": ["687 Tiogue Ave", "Coventry, RI 02816"]}, "phone": "+14018216342", "display_phone": "(401) 821-6342", "distance": 6692.771401736698}, {"id": "CtDY1nvgtKEboO8gB0imDg", "alias": "westcott-house-west-warwick-2", "name": "Westcott House", "image_url": "https://s3-media3.fl.yelpcdn.com/bphoto/rXRjNzpE_a4sz6eMiSeOKw/o.jpg", "is_closed": false, "url": "https://www.yelp.com/biz/westcott-house-west-warwick-2?adjust_creative=pzvBKuEUl0Vl1jtHQqJaog&utm_campaign=yelp_api_v3&utm_medium=api_v3_business_search&utm_source=pzvBKuEUl0Vl1jtHQqJaog", "review_count": 67, "categories": [{"alias": "pizza", "title": "Pizza"}], "rating": 3.5, "coordinates": {"latitude": 41.70991, "longitude": -71.52056}, "transactions": ["delivery"], "price": "$$", "location": {"address1": "49 Providence St", "address2": "", "address3": null, "city": "West Warwick", "zip_code": "02893", "country": "US", "state": "RI", "display_address": ["49 Providence St", "West Warwick, RI 02893"]}, "phone": "+14018235510", "display_phone": "(401) 823-5510", "distance": 9933.950933844888}, {"id": "eoQezWAAoMOGHXFWwFOYKw", "alias": "green-acres-cafe-johnston", "name": "Green Acres Cafe", "image_url": "https://s3-media1.fl.yelpcdn.com/bphoto/KFDVfjXZ7FeDxPf9mLhyYA/o.jpg", "is_closed": false, "url": "https://www.yelp.com/biz/green-acres-cafe-johnston?adjust_creative=pzvBKuEUl0Vl1jtHQqJaog&utm_campaign=yelp_api_v3&utm_medium=api_v3_business_search&utm_source=pzvBKuEUl0Vl1jtHQqJaog", "review_count": 26, "categories": [{"alias": "newamerican", "title": "American (New)"}, {"alias": "breakfast_brunch", "title": "Breakfast & Brunch"}, {"alias": "diners", "title": "Diners"}], "rating": 4.0, "coordinates": {"latitude": 41.793783, "longitude": -71.533695}, "transactions": ["delivery"], "price": "$", "location": {"address1": "2131 Plainfield Pike", "address2": "", "address3": "", "city": "Johnston", "zip_code": "02919", "country": "US", "state": "RI", "display_address": ["2131 Plainfield Pike", "Johnston, RI 02919"]}, "phone": "+14016545405", "display_phone": "(401) 654-5405", "distance": 14033.723554592036}, {"id": "FIQHqiERGeqehSmbxspj9w", "alias": "ricottis-subs-west-warwick", "name": "Ricotti's Subs", "image_url": "https://s3-media1.fl.yelpcdn.com/bphoto/5glBDL50-wIMmVDZUh54GQ/o.jpg", "is_closed": false, "url": "https://www.yelp.com/biz/ricottis-subs-west-warwick?adjust_creative=pzvBKuEUl0Vl1jtHQqJaog&utm_campaign=yelp_api_v3&utm_medium=api_v3_business_search&utm_source=pzvBKuEUl0Vl1jtHQqJaog", "review_count": 10, "categories": [{"alias": "sandwiches", "title": "Sandwiches"}], "rating": 3.5, "coordinates": {"latitude": 41.68496, "longitude": -71.50899}, "transactions": ["pickup", "delivery"], "location": {"address1": "250 Cowesett Ave", "address2": "", "address3": null, "city": "West Warwick", "zip_code": "02893", "country": "US", "state": "RI", "display_address": ["250 Cowesett Ave", "West Warwick, RI 02893"]}, "phone": "+14018211161", "display_phone": "(401) 821-1161", "distance": 10796.992377844801}, {"id": "DNiQayVGTSbmGxlUuVzgPw", "alias": "dels-lemonade-coventry", "name": "Del's Lemonade", "image_url": "https://s3-media1.fl.yelpcdn.com/bphoto/vD7A_1VDDFJuqOyCsePWUA/o.jpg", "is_closed": false, "url": "https://www.yelp.com/biz/dels-lemonade-coventry?adjust_creative=pzvBKuEUl0Vl1jtHQqJaog&utm_campaign=yelp_api_v3&utm_medium=api_v3_business_search&utm_source=pzvBKuEUl0Vl1jtHQqJaog", "review_count": 11, "categories": [{"alias": "newamerican", "title": "American (New)"}], "rating": 4.5, "coordinates": {"latitude": 41.68535, "longitude": -71.54829}, "transactions": [], "price": "$", "location": {"address1": "465 Tiogue Ave", "address2": "", "address3": "", "city": "Coventry", "zip_code": "02816", "country": "US", "state": "RI", "display_address": ["465 Tiogue Ave", "Coventry, RI 02816"]}, "phone": "+14018220334", "display_phone": "(401) 822-0334", "distance": 7479.341559818068}, {"id": "_EJtxuWrjWkZ-m_lxUtI3A", "alias": "la-cafe-west-warwick", "name": "LA Cafe", "image_url": "https://s3-media2.fl.yelpcdn.com/bphoto/Iu-iJdbEUKA7sZ6wFJTjjg/o.jpg", "is_closed": false, "url": "https://www.yelp.com/biz/la-cafe-west-warwick?adjust_creative=pzvBKuEUl0Vl1jtHQqJaog&utm_campaign=yelp_api_v3&utm_medium=api_v3_business_search&utm_source=pzvBKuEUl0Vl1jtHQqJaog", "review_count": 8, "categories": [{"alias": "cafes", "title": "Cafes"}, {"alias": "bars", "title": "Bars"}], "rating": 1.5, "coordinates": {"latitude": 41.70066, "longitude": -71.52865}, "transactions": ["delivery"], "location": {"address1": "245 Washington St", "address2": "", "address3": "", "city": "West Warwick", "zip_code": "02893", "country": "US", "state": "RI", "display_address": ["245 Washington St", "West Warwick, RI 02893"]}, "phone": "+14018276338", "display_phone": "(401) 827-6338", "distance": 9074.598900083265}, {"id": "PcDniXVSocYaB1OTFGtL6Q", "alias": "burger-king-coventry-3", "name": "Burger King", "image_url": "https://s3-media2.fl.yelpcdn.com/bphoto/-2P7HubbQsqra9llzi9TJA/o.jpg", "is_closed": false, "url": "https://www.yelp.com/biz/burger-king-coventry-3?adjust_creative=pzvBKuEUl0Vl1jtHQqJaog&utm_campaign=yelp_api_v3&utm_medium=api_v3_business_search&utm_source=pzvBKuEUl0Vl1jtHQqJaog", "review_count": 6, "categories": [{"alias": "burgers", "title": "Burgers"}, {"alias": "hotdogs", "title": "Fast Food"}], "rating": 2.0, "coordinates": {"latitude": 41.6795725, "longitude": -71.58165517}, "transactions": [], "price": "$", "location": {"address1": "1145 Tioque Ave", "address2": "", "address3": "", "city": "Coventry", "zip_code": "02816", "country": "US", "state": "RI", "display_address": ["1145 Tioque Ave", "Coventry, RI 02816"]}, "phone": "", "display_phone": "", "distance": 4916.623516242049}, {"id": "CrHHS4l6aNanWIxaH3Xa7A", "alias": "mcdonalds-east-greenwich-4", "name": "McDonald's", "image_url": "https://s3-media1.fl.yelpcdn.com/bphoto/QVuoPbEeJoDjap57mtu8RA/o.jpg", "is_closed": false, "url": "https://www.yelp.com/biz/mcdonalds-east-greenwich-4?adjust_creative=pzvBKuEUl0Vl1jtHQqJaog&utm_campaign=yelp_api_v3&utm_medium=api_v3_business_search&utm_source=pzvBKuEUl0Vl1jtHQqJaog", "review_count": 8, "categories": [{"alias": "coffee", "title": "Coffee & Tea"}, {"alias": "burgers", "title": "Burgers"}, {"alias": "hotdogs", "title": "Fast Food"}], "rating": 1.5, "coordinates": {"latitude": 41.6606861, "longitude": -71.5457498}, "transactions": ["delivery"], "price": "$", "location": {"address1": "2500 New London Tpke", "address2": null, "address3": null, "city": "East Greenwich", "zip_code": "02818", "country": "US", "state": "RI", "display_address": ["2500 New London Tpke", "East Greenwich, RI 02818"]}, "phone": "+14018214900", "display_phone": "(401) 821-4900", "distance": 8550.62867195883}, {"id": "B0vbZet_tKwqgcAPZY-Sqw", "alias": "mister-taco-que-pasa-restaurant-west-warwick", "name": "Mister Taco Que Pasa Restaurant", "image_url": "", "is_closed": false, "url": "https://www.yelp.com/biz/mister-taco-que-pasa-restaurant-west-warwick?adjust_creative=pzvBKuEUl0Vl1jtHQqJaog&utm_campaign=yelp_api_v3&utm_medium=api_v3_business_search&utm_source=pzvBKuEUl0Vl1jtHQqJaog", "review_count": 1, "categories": [{"alias": "mexican", "title": "Mexican"}], "rating": 1.0, "coordinates": {"latitude": 41.70991, "longitude": -71.52018}, "transactions": [], "location": {"address1": "49 Providence St", "address2": "", "address3": "", "city": "West Warwick", "zip_code": "02893", "country": "US", "state": "RI", "display_address": ["49 Providence St", "West Warwick, RI 02893"]}, "phone": "+14018287573", "display_phone": "(401) 828-7573", "distance": 9934.003065021221}, {"id": "kC2gFX50NfQ2Hk4O0hCBIg", "alias": "taco-bell-coventry", "name": "Taco Bell", "image_url": "https://s3-media1.fl.yelpcdn.com/bphoto/9TbNPYn6RV4AljcUsaLwHQ/o.jpg", "is_closed": false, "url": "https://www.yelp.com/biz/taco-bell-coventry?adjust_creative=pzvBKuEUl0Vl1jtHQqJaog&utm_campaign=yelp_api_v3&utm_medium=api_v3_business_search&utm_source=pzvBKuEUl0Vl1jtHQqJaog", "review_count": 12, "categories": [{"alias": "hotdogs", "title": "Fast Food"}, {"alias": "tacos", "title": "Tacos"}], "rating": 2.0, "coordinates": {"latitude": 41.682092, "longitude": -71.563344}, "transactions": ["delivery"], "price": "$", "location": {"address1": "784 Tiogue Ave", "address2": "", "address3": "", "city": "Coventry", "zip_code": "02816", "country": "US", "state": "RI", "display_address": ["784 Tiogue Ave", "Coventry, RI 02816"]}, "phone": "+14018219980", "display_phone": "(401) 821-9980", "distance": 6323.08049500511}, {"id": "ddszBRdveL78_y4P4efLGQ", "alias": "english-muffin-johnston-2", "name": "English Muffin", "image_url": "https://s3-media4.fl.yelpcdn.com/bphoto/fr9iXnzhr7rjYQYzEJGTZw/o.jpg", "is_closed": false, "url": "https://www.yelp.com/biz/english-muffin-johnston-2?adjust_creative=pzvBKuEUl0Vl1jtHQqJaog&utm_campaign=yelp_api_v3&utm_medium=api_v3_business_search&utm_source=pzvBKuEUl0Vl1jtHQqJaog", "review_count": 150, "categories": [{"alias": "breakfast_brunch", "title": "Breakfast & Brunch"}], "rating": 4.0, "coordinates": {"latitude": 41.7887954711914, "longitude": -71.5153045654297}, "transactions": ["delivery"], "price": "$", "location": {"address1": "1989 Plainfield Pike", "address2": "", "address3": "", "city": "Johnston", "zip_code": "02919", "country": "US", "state": "RI", "display_address": ["1989 Plainfield Pike", "Johnston, RI 02919"]}, "phone": "+14019436100", "display_phone": "(401) 943-6100", "distance": 14654.136816379425}, {"id": "sQCksNybCzGcu1C--eRxEg", "alias": "messys-cafe-west-warwick", "name": "Messy's Cafe", "image_url": "https://s3-media2.fl.yelpcdn.com/bphoto/DLz2CCA7IBZs9pkeoScv-A/o.jpg", "is_closed": false, "url": "https://www.yelp.com/biz/messys-cafe-west-warwick?adjust_creative=pzvBKuEUl0Vl1jtHQqJaog&utm_campaign=yelp_api_v3&utm_medium=api_v3_business_search&utm_source=pzvBKuEUl0Vl1jtHQqJaog", "review_count": 38, "categories": [{"alias": "coffee", "title": "Coffee & Tea"}, {"alias": "breakfast_brunch", "title": "Breakfast & Brunch"}, {"alias": "sandwiches", "title": "Sandwiches"}], "rating": 4.5, "coordinates": {"latitude": 41.71800814569, "longitude": -71.5239880979061}, "transactions": ["delivery"], "price": "$", "location": {"address1": "919 Main St", "address2": null, "address3": "", "city": "West Warwick", "zip_code": "02893", "country": "US", "state": "RI", "display_address": ["919 Main St", "West Warwick, RI 02893"]}, "phone": "+14018233331", "display_phone": "(401) 823-3331", "distance": 9780.816224361293}, {"id": "tqlA_83iMMRHuM6Myas54g", "alias": "cracker-barrel-old-country-store-coventry", "name": "Cracker Barrel Old Country Store", "image_url": "https://s3-media2.fl.yelpcdn.com/bphoto/DX_zg6vPSdndmCWtmO_XxQ/o.jpg", "is_closed": false, "url": "https://www.yelp.com/biz/cracker-barrel-old-country-store-coventry?adjust_creative=pzvBKuEUl0Vl1jtHQqJaog&utm_campaign=yelp_api_v3&utm_medium=api_v3_business_search&utm_source=pzvBKuEUl0Vl1jtHQqJaog", "review_count": 109, "categories": [{"alias": "breakfast_brunch", "title": "Breakfast & Brunch"}, {"alias": "southern", "title": "Southern"}, {"alias": "tradamerican", "title": "American (Traditional)"}], "rating": 3.5, "coordinates": {"latitude": 41.6610866832823, "longitude": -71.5464437755205}, "transactions": ["delivery"], "price": "$$", "location": {"address1": "825 Centre Of New England Blvd", "address2": "", "address3": "", "city": "Coventry", "zip_code": "02816", "country": "US", "state": "RI", "display_address": ["825 Centre Of New England Blvd", "Coventry, RI 02816"]}, "phone": "+14018278015", "display_phone": "(401) 827-8015", "distance": 8431.12758762782}, {"id": "2CtVkb7HAlMAJMy4tMtgMA", "alias": "the-griddle-cranston", "name": "The Griddle", "image_url": "https://s3-media3.fl.yelpcdn.com/bphoto/WzzFb0Rui4H2L3nBibiRvg/o.jpg", "is_closed": false, "url": "https://www.yelp.com/biz/the-griddle-cranston?adjust_creative=pzvBKuEUl0Vl1jtHQqJaog&utm_campaign=yelp_api_v3&utm_medium=api_v3_business_search&utm_source=pzvBKuEUl0Vl1jtHQqJaog", "review_count": 22, "categories": [{"alias": "breakfast_brunch", "title": "Breakfast & Brunch"}, {"alias": "sandwiches", "title": "Sandwiches"}, {"alias": "coffee", "title": "Coffee & Tea"}], "rating": 4.0, "coordinates": {"latitude": 41.78875, "longitude": -71.51897}, "transactions": ["delivery"], "location": {"address1": "2244 Plainfield Pike", "address2": "", "address3": null, "city": "Cranston", "zip_code": "02921", "country": "US", "state": "RI", "display_address": ["2244 Plainfield Pike", "Cranston, RI 02921"]}, "phone": "+14014730272", "display_phone": "(401) 473-0272", "distance": 14404.874603927632}, {"id": "XS4ciYJ2INr7g4Un0JrA6A", "alias": "donahues-pizza-west-warwick", "name": "Donahue's Pizza", "image_url": "https://s3-media3.fl.yelpcdn.com/bphoto/tXCx0foYEH2v0Fnup3XNGw/o.jpg", "is_closed": false, "url": "https://www.yelp.com/biz/donahues-pizza-west-warwick?adjust_creative=pzvBKuEUl0Vl1jtHQqJaog&utm_campaign=yelp_api_v3&utm_medium=api_v3_business_search&utm_source=pzvBKuEUl0Vl1jtHQqJaog", "review_count": 18, "categories": [{"alias": "pizza", "title": "Pizza"}, {"alias": "hotdogs", "title": "Fast Food"}, {"alias": "sandwiches", "title": "Sandwiches"}], "rating": 4.5, "coordinates": {"latitude": 41.70557, "longitude": -71.5238215}, "transactions": ["delivery"], "location": {"address1": "1207 Main St", "address2": "", "address3": null, "city": "West Warwick", "zip_code": "02893", "country": "US", "state": "RI", "display_address": ["1207 Main St", "West Warwick, RI 02893"]}, "phone": "+14018235100", "display_phone": "(401) 823-5100", "distance": 9539.782064657877}, {"id": "4GvELSO4OipezCjrM3f6HQ", "alias": "a-js-restaurant-west-warwick", "name": "A J's Restaurant", "image_url": "https://s3-media1.fl.yelpcdn.com/bphoto/rJJFXMBvqr2w0z7R6q4xWA/o.jpg", "is_closed": false, "url": "https://www.yelp.com/biz/a-js-restaurant-west-warwick?adjust_creative=pzvBKuEUl0Vl1jtHQqJaog&utm_campaign=yelp_api_v3&utm_medium=api_v3_business_search&utm_source=pzvBKuEUl0Vl1jtHQqJaog", "review_count": 50, "categories": [{"alias": "breakfast_brunch", "title": "Breakfast & Brunch"}], "rating": 4.0, "coordinates": {"latitude": 41.70074, "longitude": -71.52307}, "transactions": [], "price": "$", "location": {"address1": "1365 Main St", "address2": "", "address3": "", "city": "West Warwick", "zip_code": "02893", "country": "US", "state": "RI", "display_address": ["1365 Main St", "West Warwick, RI 02893"]}, "phone": "+14018284160", "display_phone": "(401) 828-4160", "distance": 9543.631468746933}, {"id": "Tb4xI6F3xzpw9e7NeuZHOQ", "alias": "subway-coventry-10", "name": "Subway", "image_url": "https://s3-media3.fl.yelpcdn.com/bphoto/OHti8bc8yRdHd9-sZdSn9Q/o.jpg", "is_closed": false, "url": "https://www.yelp.com/biz/subway-coventry-10?adjust_creative=pzvBKuEUl0Vl1jtHQqJaog&utm_campaign=yelp_api_v3&utm_medium=api_v3_business_search&utm_source=pzvBKuEUl0Vl1jtHQqJaog", "review_count": 3, "categories": [{"alias": "sandwiches", "title": "Sandwiches"}], "rating": 2.0, "coordinates": {"latitude": 41.6630882654392, "longitude": -71.602607919397}, "transactions": [], "price": "$", "location": {"address1": "2405 Nooseneck Hill Rd", "address2": "", "address3": "", "city": "Coventry", "zip_code": "02816", "country": "US", "state": "RI", "display_address": ["2405 Nooseneck Hill Rd", "Coventry, RI 02816"]}, "phone": "+14013978800", "display_phone": "(401) 397-8800", "distance": 4530.4194333499945}, {"id": "JIhRVJ4BAWPH9NZ0u-7Wzw", "alias": "flip-n-roll-fall-river", "name": "Flip N Roll", "image_url": "https://s3-media1.fl.yelpcdn.com/bphoto/A3l1k85peGnmCC17j-Bmhg/o.jpg", "is_closed": false, "url": "https://www.yelp.com/biz/flip-n-roll-fall-river?adjust_creative=pzvBKuEUl0Vl1jtHQqJaog&utm_campaign=yelp_api_v3&utm_medium=api_v3_business_search&utm_source=pzvBKuEUl0Vl1jtHQqJaog", "review_count": 1, "categories": [{"alias": "foodtrucks", "title": "Food Trucks"}, {"alias": "tradamerican", "title": "American (Traditional)"}, {"alias": "portuguese", "title": "Portuguese"}], "rating": 1.0, "coordinates": {"latitude": 41.68687, "longitude": -71.17062}, "transactions": [], "price": "$$", "location": {"address1": "", "address2": "", "address3": "", "city": "Fall River", "zip_code": "02724", "country": "US", "state": "MA", "display_address": ["Fall River, MA 02724"]}, "phone": "", "display_phone": "", "distance": 38464.124879369636}, {"id": "DOEsdOVLcsaeWv40cc6uwg", "alias": "silver-lake-pizza-coventry", "name": "Silver Lake Pizza", "image_url": "https://s3-media1.fl.yelpcdn.com/bphoto/cme0jtAnlSP1k3KLDqOdXQ/o.jpg", "is_closed": false, "url": "https://www.yelp.com/biz/silver-lake-pizza-coventry?adjust_creative=pzvBKuEUl0Vl1jtHQqJaog&utm_campaign=yelp_api_v3&utm_medium=api_v3_business_search&utm_source=pzvBKuEUl0Vl1jtHQqJaog", "review_count": 29, "categories": [{"alias": "pizza", "title": "Pizza"}], "rating": 3.0, "coordinates": {"latitude": 41.690165, "longitude": -71.5656077}, "transactions": ["delivery"], "price": "$", "location": {"address1": "1146 Main St", "address2": "", "address3": "", "city": "Coventry", "zip_code": "02816", "country": "US", "state": "RI", "display_address": ["1146 Main St", "Coventry, RI 02816"]}, "phone": "+14018287810", "display_phone": "(401) 828-7810", "distance": 6005.4724036760435}, {"id": "P1VDZuZkFxf04k3hUnlQdQ", "alias": "wendys-coventry", "name": "Wendy's", "image_url": "https://s3-media3.fl.yelpcdn.com/bphoto/pqQ5z0ysQoi4Woy2QF49Dg/o.jpg", "is_closed": false, "url": "https://www.yelp.com/biz/wendys-coventry?adjust_creative=pzvBKuEUl0Vl1jtHQqJaog&utm_campaign=yelp_api_v3&utm_medium=api_v3_business_search&utm_source=pzvBKuEUl0Vl1jtHQqJaog", "review_count": 28, "categories": [{"alias": "burgers", "title": "Burgers"}, {"alias": "hotdogs", "title": "Fast Food"}], "rating": 2.0, "coordinates": {"latitude": 41.6619336, "longitude": -71.5445603}, "transactions": ["delivery"], "price": "$", "location": {"address1": "2311 New London Tpke", "address2": "", "address3": "", "city": "Coventry", "zip_code": "02816", "country": "US", "state": "RI", "display_address": ["2311 New London Tpke", "Coventry, RI 02816"]}, "phone": "+14018270165", "display_phone": "(401) 827-0165", "distance": 8488.485607407923}, {"id": "rn-GTQh8wePnBVhKRMbdFg", "alias": "subway-west-warwick-5", "name": "Subway", "image_url": "https://s3-media2.fl.yelpcdn.com/bphoto/xn4sMtXoSQP2PdblhHKRRQ/o.jpg", "is_closed": false, "url": "https://www.yelp.com/biz/subway-west-warwick-5?adjust_creative=pzvBKuEUl0Vl1jtHQqJaog&utm_campaign=yelp_api_v3&utm_medium=api_v3_business_search&utm_source=pzvBKuEUl0Vl1jtHQqJaog", "review_count": 6, "categories": [{"alias": "sandwiches", "title": "Sandwiches"}], "rating": 3.5, "coordinates": {"latitude": 41.7175723019657, "longitude": -71.5244957110451}, "transactions": ["delivery", "pickup"], "price": "$", "location": {"address1": "927 Main St", "address2": null, "address3": null, "city": "West Warwick", "zip_code": "02893", "country": "US", "state": "RI", "display_address": ["927 Main St", "West Warwick, RI 02893"]}, "phone": "+14016158118", "display_phone": "(401) 615-8118", "distance": 9750.469636961872}, {"id": "baBRcF4_rFp-uw7Qy2oWxQ", "alias": "azos-pizza-west-warwick", "name": "Azo's Pizza", "image_url": "https://s3-media2.fl.yelpcdn.com/bphoto/_5flvSi28rkZU0nCbwUhxA/o.jpg", "is_closed": false, "url": "https://www.yelp.com/biz/azos-pizza-west-warwick?adjust_creative=pzvBKuEUl0Vl1jtHQqJaog&utm_campaign=yelp_api_v3&utm_medium=api_v3_business_search&utm_source=pzvBKuEUl0Vl1jtHQqJaog", "review_count": 49, "categories": [{"alias": "italian", "title": "Italian"}, {"alias": "pizza", "title": "Pizza"}], "rating": 3.5, "coordinates": {"latitude": 41.685172, "longitude": -71.508138}, "transactions": ["delivery", "pickup"], "price": "$", "location": {"address1": "250 Cowesett Ave", "address2": "", "address3": "", "city": "West Warwick", "zip_code": "02893", "country": "US", "state": "RI", "display_address": ["250 Cowesett Ave", "West Warwick, RI 02893"]}, "phone": "+14018288090", "display_phone": "(401) 828-8090", "distance": 10807.803485809076}, {"id": "oXi5uZqBHaRN-9LfbTz4iw", "alias": "solarcart-cafe-wakefield", "name": "SolarCart Cafe", "image_url": "https://s3-media3.fl.yelpcdn.com/bphoto/2jnm4N-kA74C1G385wcvjw/o.jpg", "is_closed": false, "url": "https://www.yelp.com/biz/solarcart-cafe-wakefield?adjust_creative=pzvBKuEUl0Vl1jtHQqJaog&utm_campaign=yelp_api_v3&utm_medium=api_v3_business_search&utm_source=pzvBKuEUl0Vl1jtHQqJaog", "review_count": 5, "categories": [{"alias": "foodtrucks", "title": "Food Trucks"}, {"alias": "cafes", "title": "Cafes"}], "rating": 5.0, "coordinates": {"latitude": 41.3783548485934, "longitude": -71.5497396899248}, "transactions": [], "location": {"address1": "344 Main St", "address2": "", "address3": null, "city": "Wakefield", "zip_code": "02879", "country": "US", "state": "RI", "display_address": ["344 Main St", "Wakefield, RI 02879"]}, "phone": "+14017936041", "display_phone": "(401) 793-6041", "distance": 35882.9088933984}, {"id": "gZA9sXnQQ-osowiuMJkxzA", "alias": "d-angelo-west-warwick", "name": "D'Angelo", "image_url": "https://s3-media2.fl.yelpcdn.com/bphoto/MhNpnAHa1BHPDgyXUtABcg/o.jpg", "is_closed": false, "url": "https://www.yelp.com/biz/d-angelo-west-warwick?adjust_creative=pzvBKuEUl0Vl1jtHQqJaog&utm_campaign=yelp_api_v3&utm_medium=api_v3_business_search&utm_source=pzvBKuEUl0Vl1jtHQqJaog", "review_count": 17, "categories": [{"alias": "salad", "title": "Salad"}, {"alias": "sandwiches", "title": "Sandwiches"}], "rating": 2.0, "coordinates": {"latitude": 41.7058674, "longitude": -71.5236564}, "transactions": ["delivery"], "price": "$$", "location": {"address1": "1199 Main St", "address2": "", "address3": "", "city": "West Warwick", "zip_code": "02893", "country": "US", "state": "RI", "display_address": ["1199 Main St", "West Warwick, RI 02893"]}, "phone": "+14018230013", "display_phone": "(401) 823-0013", "distance": 9547.263183074794}, {"id": "NxdCuo4m0HOcee6FfoogHw", "alias": "ferruccis-new-york-system-west-warwick", "name": "Ferrucci's New York System", "image_url": "https://s3-media1.fl.yelpcdn.com/bphoto/DczhztRB95ZOc2ahymvt-g/o.jpg", "is_closed": false, "url": "https://www.yelp.com/biz/ferruccis-new-york-system-west-warwick?adjust_creative=pzvBKuEUl0Vl1jtHQqJaog&utm_campaign=yelp_api_v3&utm_medium=api_v3_business_search&utm_source=pzvBKuEUl0Vl1jtHQqJaog", "review_count": 37, "categories": [{"alias": "tradamerican", "title": "American (Traditional)"}], "rating": 4.5, "coordinates": {"latitude": 41.7044792, "longitude": -71.5238724}, "transactions": ["delivery"], "price": "$", "location": {"address1": "1246 Main St", "address2": "", "address3": "", "city": "West Warwick", "zip_code": "02893", "country": "US", "state": "RI", "display_address": ["1246 Main St", "West Warwick, RI 02893"]}, "phone": "+14018219849", "display_phone": "(401) 821-9849", "distance": 9515.20148772393}, {"id": "UZFJutpL3QQ1S75o6JWw7g", "alias": "cumberland-farms-coventry-4", "name": "Cumberland Farms", "image_url": "https://s3-media2.fl.yelpcdn.com/bphoto/F1eXTWmspHzjrYxuSywNtA/o.jpg", "is_closed": false, "url": "https://www.yelp.com/biz/cumberland-farms-coventry-4?adjust_creative=pzvBKuEUl0Vl1jtHQqJaog&utm_campaign=yelp_api_v3&utm_medium=api_v3_business_search&utm_source=pzvBKuEUl0Vl1jtHQqJaog", "review_count": 5, "categories": [{"alias": "servicestations", "title": "Gas Stations"}, {"alias": "coffee", "title": "Coffee & Tea"}, {"alias": "sandwiches", "title": "Sandwiches"}], "rating": 4.0, "coordinates": {"latitude": 41.6628297418356, "longitude": -71.5432919561863}, "transactions": [], "price": "$$", "location": {"address1": "2293 New London Tpke", "address2": "", "address3": null, "city": "Coventry", "zip_code": "02816", "country": "US", "state": "RI", "display_address": ["2293 New London Tpke", "Coventry, RI 02816"]}, "phone": "+14018211760", "display_phone": "(401) 821-1760", "distance": 8564.09321221602}, {"id": "A99R53sG8HIFMw3LQ-NeUg", "alias": "j-palmieri-pizzeria-and-pub-johnston", "name": "J  Palmieri Pizzeria & Pub", "image_url": "https://s3-media3.fl.yelpcdn.com/bphoto/op1DFnk29g05-C-4GYBRRA/o.jpg", "is_closed": false, "url": "https://www.yelp.com/biz/j-palmieri-pizzeria-and-pub-johnston?adjust_creative=pzvBKuEUl0Vl1jtHQqJaog&utm_campaign=yelp_api_v3&utm_medium=api_v3_business_search&utm_source=pzvBKuEUl0Vl1jtHQqJaog", "review_count": 19, "categories": [{"alias": "pizza", "title": "Pizza"}, {"alias": "sandwiches", "title": "Sandwiches"}], "rating": 4.0, "coordinates": {"latitude": 41.7890281677246, "longitude": -71.516731262207}, "transactions": [], "price": "$$", "location": {"address1": "1999 Plainfield Pike", "address2": null, "address3": null, "city": "Johnston", "zip_code": "02919", "country": "US", "state": "RI", "display_address": ["1999 Plainfield Pike", "Johnston, RI 02919"]}, "phone": "+14019432127", "display_phone": "(401) 943-2127", "distance": 14555.878814226535}, {"id": "iaMsPxpHooLTB1fn5sQhNQ", "alias": "dennys-coventry-2", "name": "Denny's", "image_url": "https://s3-media2.fl.yelpcdn.com/bphoto/KgfukAZdeAq1IdJQf-lLyA/o.jpg", "is_closed": false, "url": "https://www.yelp.com/biz/dennys-coventry-2?adjust_creative=pzvBKuEUl0Vl1jtHQqJaog&utm_campaign=yelp_api_v3&utm_medium=api_v3_business_search&utm_source=pzvBKuEUl0Vl1jtHQqJaog", "review_count": 56, "categories": [{"alias": "tradamerican", "title": "American (Traditional)"}, {"alias": "breakfast_brunch", "title": "Breakfast & Brunch"}, {"alias": "diners", "title": "Diners"}], "rating": 3.5, "coordinates": {"latitude": 41.6608978145257, "longitude": -71.5475553274155}, "transactions": ["delivery", "pickup"], "price": "$", "location": {"address1": "785 Centre Of New England Blvd", "address2": "", "address3": "", "city": "Coventry", "zip_code": "02816", "country": "US", "state": "RI", "display_address": ["785 Centre Of New England Blvd", "Coventry, RI 02816"]}, "phone": "+14018270321", "display_phone": "(401) 827-0321", "distance": 8357.529462390203}, {"id": "ZqhRQK925I7dP8F0n5oGvw", "alias": "famous-pizza-of-west-warwick-west-warwick-3", "name": "Famous Pizza Of West Warwick", "image_url": "https://s3-media4.fl.yelpcdn.com/bphoto/RXbBSv0Htwd6byXoG1pJBw/o.jpg", "is_closed": false, "url": "https://www.yelp.com/biz/famous-pizza-of-west-warwick-west-warwick-3?adjust_creative=pzvBKuEUl0Vl1jtHQqJaog&utm_campaign=yelp_api_v3&utm_medium=api_v3_business_search&utm_source=pzvBKuEUl0Vl1jtHQqJaog", "review_count": 60, "categories": [{"alias": "pizza", "title": "Pizza"}, {"alias": "sandwiches", "title": "Sandwiches"}, {"alias": "fishnchips", "title": "Fish & Chips"}], "rating": 4.0, "coordinates": {"latitude": 41.6827072, "longitude": -71.5247419}, "transactions": ["delivery"], "price": "$$", "location": {"address1": "1738 Main St", "address2": null, "address3": "", "city": "West Warwick", "zip_code": "02893", "country": "US", "state": "RI", "display_address": ["1738 Main St", "West Warwick, RI 02893"]}, "phone": "+14018286994", "display_phone": "(401) 828-6994", "distance": 9469.488614841568}, {"id": "7eBVeXGuK8jzNmHZ8fqV6Q", "alias": "wicked-good-pizza-west-warwick", "name": "Wicked Good Pizza", "image_url": "https://s3-media3.fl.yelpcdn.com/bphoto/fsb3_chtNGsxOKTHlemsyg/o.jpg", "is_closed": false, "url": "https://www.yelp.com/biz/wicked-good-pizza-west-warwick?adjust_creative=pzvBKuEUl0Vl1jtHQqJaog&utm_campaign=yelp_api_v3&utm_medium=api_v3_business_search&utm_source=pzvBKuEUl0Vl1jtHQqJaog", "review_count": 27, "categories": [{"alias": "pizza", "title": "Pizza"}], "rating": 4.0, "coordinates": {"latitude": 41.712476, "longitude": -71.506882}, "transactions": ["delivery"], "price": "$", "location": {"address1": "291 Providence St", "address2": "", "address3": "", "city": "West Warwick", "zip_code": "02893", "country": "US", "state": "RI", "display_address": ["291 Providence St", "West Warwick, RI 02893"]}, "phone": "+14018212106", "display_phone": "(401) 821-2106", "distance": 11049.503670461629}, {"id": "pa1nfv3aH519o5HZJGcttA", "alias": "subway-coventry-11", "name": "Subway", "image_url": "https://s3-media1.fl.yelpcdn.com/bphoto/HvLSM9S0ONG01B6M2yyUkQ/o.jpg", "is_closed": false, "url": "https://www.yelp.com/biz/subway-coventry-11?adjust_creative=pzvBKuEUl0Vl1jtHQqJaog&utm_campaign=yelp_api_v3&utm_medium=api_v3_business_search&utm_source=pzvBKuEUl0Vl1jtHQqJaog", "review_count": 9, "categories": [{"alias": "sandwiches", "title": "Sandwiches"}], "rating": 2.5, "coordinates": {"latitude": 41.6883596, "longitude": -71.5618970073112}, "transactions": [], "price": "$", "location": {"address1": "47 Sandy Bottom Rd", "address2": null, "address3": null, "city": "Coventry", "zip_code": "02816", "country": "US", "state": "RI", "display_address": ["47 Sandy Bottom Rd", "Coventry, RI 02816"]}, "phone": "+14018234300", "display_phone": "(401) 823-4300", "distance": 6330.489646685162}, {"id": "nVKQURDEiZbXn8PdT0bO6Q", "alias": "ye-express-west-warwick", "name": "Ye Express", "image_url": "https://s3-media3.fl.yelpcdn.com/bphoto/5TnZAeH7HtWOiCSyNu4yvQ/o.jpg", "is_closed": false, "url": "https://www.yelp.com/biz/ye-express-west-warwick?adjust_creative=pzvBKuEUl0Vl1jtHQqJaog&utm_campaign=yelp_api_v3&utm_medium=api_v3_business_search&utm_source=pzvBKuEUl0Vl1jtHQqJaog", "review_count": 113, "categories": [{"alias": "japanese", "title": "Japanese"}, {"alias": "chinese", "title": "Chinese"}, {"alias": "asianfusion", "title": "Asian Fusion"}], "rating": 4.0, "coordinates": {"latitude": 41.7084750824928, "longitude": -71.5226218476892}, "transactions": ["delivery"], "price": "$", "location": {"address1": "1117 Main St", "address2": "", "address3": "", "city": "West Warwick", "zip_code": "02893", "country": "US", "state": "RI", "display_address": ["1117 Main St", "West Warwick, RI 02893"]}, "phone": "+14016151920", "display_phone": "(401) 615-1920", "distance": 9685.730919805721}, {"id": "TWAD-_YM2xQEz-Mm30iJBg", "alias": "diggys-ice-cream-west-warwick", "name": "Diggy's Ice Cream", "image_url": "https://s3-media2.fl.yelpcdn.com/bphoto/aC-eiPyDNLFlRg_Go3oUhg/o.jpg", "is_closed": false, "url": "https://www.yelp.com/biz/diggys-ice-cream-west-warwick?adjust_creative=pzvBKuEUl0Vl1jtHQqJaog&utm_campaign=yelp_api_v3&utm_medium=api_v3_business_search&utm_source=pzvBKuEUl0Vl1jtHQqJaog", "review_count": 14, "categories": [{"alias": "icecream", "title": "Ice Cream & Frozen Yogurt"}, {"alias": "hotdogs", "title": "Fast Food"}], "rating": 4.0, "coordinates": {"latitude": 41.71797, "longitude": -71.52405}, "transactions": [], "price": "$", "location": {"address1": "925 Main St", "address2": "", "address3": "", "city": "West Warwick", "zip_code": "02893", "country": "US", "state": "RI", "display_address": ["925 Main St", "West Warwick, RI 02893"]}, "phone": "+14018231991", "display_phone": "(401) 823-1991", "distance": 9794.055555256553}, {"id": "lyQtSwpdCp7ibPmtDBh0Aw", "alias": "ronzio-pizza-and-subs-west-warwick", "name": "Ronzio Pizza & Subs", "image_url": "https://s3-media4.fl.yelpcdn.com/bphoto/tL1YmSctZIKrRxksq0hsfw/o.jpg", "is_closed": false, "url": "https://www.yelp.com/biz/ronzio-pizza-and-subs-west-warwick?adjust_creative=pzvBKuEUl0Vl1jtHQqJaog&utm_campaign=yelp_api_v3&utm_medium=api_v3_business_search&utm_source=pzvBKuEUl0Vl1jtHQqJaog", "review_count": 15, "categories": [{"alias": "pizza", "title": "Pizza"}], "rating": 3.5, "coordinates": {"latitude": 41.7144495248795, "longitude": -71.5238982439041}, "transactions": ["delivery", "pickup"], "location": {"address1": "1013 Main St", "address2": null, "address3": null, "city": "West Warwick", "zip_code": "02893", "country": "US", "state": "RI", "display_address": ["1013 Main St", "West Warwick, RI 02893"]}, "phone": "+14015866020", "display_phone": "(401) 586-6020", "distance": 9703.74731897108}, {"id": "PA8jmW13s8RMMADIWwyMnQ", "alias": "d-angelo-sandwich-shops-coventry", "name": "D'angelo Sandwich Shops", "image_url": "https://s3-media4.fl.yelpcdn.com/bphoto/kjHUd-R2pAOKXu-YIdf7zA/o.jpg", "is_closed": false, "url": "https://www.yelp.com/biz/d-angelo-sandwich-shops-coventry?adjust_creative=pzvBKuEUl0Vl1jtHQqJaog&utm_campaign=yelp_api_v3&utm_medium=api_v3_business_search&utm_source=pzvBKuEUl0Vl1jtHQqJaog", "review_count": 24, "categories": [{"alias": "sandwiches", "title": "Sandwiches"}], "rating": 2.5, "coordinates": {"latitude": 41.6818669, "longitude": -71.56422}, "transactions": ["delivery"], "price": "$", "location": {"address1": "795 Tiogue Ave", "address2": "", "address3": "", "city": "Coventry", "zip_code": "02816", "country": "US", "state": "RI", "display_address": ["795 Tiogue Ave", "Coventry, RI 02816"]}, "phone": "+14018219760", "display_phone": "(401) 821-9760", "distance": 6242.807938094372}, {"id": "NFpHdm8hF5XFVd2XMCxgWQ", "alias": "subway-west-warwick-4", "name": "Subway", "image_url": "https://s3-media3.fl.yelpcdn.com/bphoto/wedixc1pFLJNNpKS_KcenQ/o.jpg", "is_closed": false, "url": "https://www.yelp.com/biz/subway-west-warwick-4?adjust_creative=pzvBKuEUl0Vl1jtHQqJaog&utm_campaign=yelp_api_v3&utm_medium=api_v3_business_search&utm_source=pzvBKuEUl0Vl1jtHQqJaog", "review_count": 7, "categories": [{"alias": "sandwiches", "title": "Sandwiches"}], "rating": 1.5, "coordinates": {"latitude": 41.68368, "longitude": -71.5059782952706}, "transactions": ["delivery", "pickup"], "price": "$", "location": {"address1": "289 Cowesett Ave", "address2": "Ste 14", "address3": "", "city": "West Warwick", "zip_code": "02893", "country": "US", "state": "RI", "display_address": ["289 Cowesett Ave", "Ste 14", "West Warwick, RI 02893"]}, "phone": "+14018211449", "display_phone": "(401) 821-1449", "distance": 11002.997827226058}, {"id": "NH3XUDFa65gpp1-vXRRJVQ", "alias": "dominos-pizza-west-warwick-2", "name": "Domino's Pizza", "image_url": "https://s3-media2.fl.yelpcdn.com/bphoto/542SUCySDUSrWUHdd2FCpQ/o.jpg", "is_closed": false, "url": "https://www.yelp.com/biz/dominos-pizza-west-warwick-2?adjust_creative=pzvBKuEUl0Vl1jtHQqJaog&utm_campaign=yelp_api_v3&utm_medium=api_v3_business_search&utm_source=pzvBKuEUl0Vl1jtHQqJaog", "review_count": 13, "categories": [{"alias": "pizza", "title": "Pizza"}, {"alias": "sandwiches", "title": "Sandwiches"}, {"alias": "chicken_wings", "title": "Chicken Wings"}], "rating": 3.5, "coordinates": {"latitude": 41.71641, "longitude": -71.52363}, "transactions": [], "price": "$", "location": {"address1": "957 Main St", "address2": null, "address3": null, "city": "West Warwick", "zip_code": "02893", "country": "US", "state": "RI", "display_address": ["957 Main St", "West Warwick, RI 02893"]}, "phone": "+14018263636", "display_phone": "(401) 826-3636", "distance": 9765.622214694718}, {"id": "EE7njFFpg61PUC3dE4G4pQ", "alias": "taste-of-china-west-warwick", "name": "Taste of China", "image_url": "https://s3-media2.fl.yelpcdn.com/bphoto/9Q2qTB5txRKUafD3VNXI4g/o.jpg", "is_closed": false, "url": "https://www.yelp.com/biz/taste-of-china-west-warwick?adjust_creative=pzvBKuEUl0Vl1jtHQqJaog&utm_campaign=yelp_api_v3&utm_medium=api_v3_business_search&utm_source=pzvBKuEUl0Vl1jtHQqJaog", "review_count": 21, "categories": [{"alias": "chinese", "title": "Chinese"}], "rating": 3.0, "coordinates": {"latitude": 41.6835244874729, "longitude": -71.526377406221}, "transactions": ["delivery", "pickup"], "price": "$$", "location": {"address1": "1745 Main St", "address2": "", "address3": "", "city": "West Warwick", "zip_code": "02893", "country": "US", "state": "RI", "display_address": ["1745 Main St", "West Warwick, RI 02893"]}, "phone": "+14018239220", "display_phone": "(401) 823-9220", "distance": 9322.819844727419}, {"id": "EbArtnTfe-gV2O47ZJZoWQ", "alias": "aloha-pizza-west-warwick", "name": "Aloha Pizza", "image_url": "https://s3-media3.fl.yelpcdn.com/bphoto/2FW0DHTiv95hb6spGUM_Yg/o.jpg", "is_closed": false, "url": "https://www.yelp.com/biz/aloha-pizza-west-warwick?adjust_creative=pzvBKuEUl0Vl1jtHQqJaog&utm_campaign=yelp_api_v3&utm_medium=api_v3_business_search&utm_source=pzvBKuEUl0Vl1jtHQqJaog", "review_count": 25, "categories": [{"alias": "pizza", "title": "Pizza"}], "rating": 4.0, "coordinates": {"latitude": 41.70076, "longitude": -71.52734}, "transactions": ["delivery"], "price": "$$", "location": {"address1": "126 Roberts St", "address2": "", "address3": "", "city": "West Warwick", "zip_code": "02893", "country": "US", "state": "RI", "display_address": ["126 Roberts St", "West Warwick, RI 02893"]}, "phone": "+14018214010", "display_phone": "(401) 821-4010", "distance": 9148.252305115913}, {"id": "CoYSENnROM5nzKku-Shirw", "alias": "newport-creamery-coventry", "name": "Newport Creamery", "image_url": "https://s3-media3.fl.yelpcdn.com/bphoto/i_vg_gIQiguq_RA9L5gXug/o.jpg", "is_closed": false, "url": "https://www.yelp.com/biz/newport-creamery-coventry?adjust_creative=pzvBKuEUl0Vl1jtHQqJaog&utm_campaign=yelp_api_v3&utm_medium=api_v3_business_search&utm_source=pzvBKuEUl0Vl1jtHQqJaog", "review_count": 18, "categories": [{"alias": "icecream", "title": "Ice Cream & Frozen Yogurt"}, {"alias": "breakfast_brunch", "title": "Breakfast & Brunch"}, {"alias": "burgers", "title": "Burgers"}], "rating": 2.5, "coordinates": {"latitude": 41.6821022, "longitude": -71.5632158}, "transactions": [], "price": "$", "location": {"address1": "781 Tiogue Ave", "address2": "", "address3": "", "city": "Coventry", "zip_code": "02816", "country": "US", "state": "RI", "display_address": ["781 Tiogue Ave", "Coventry, RI 02816"]}, "phone": "+14018212265", "display_phone": "(401) 821-2265", "distance": 6320.129878364716}, {"id": "zdMbaL2tjrG8grIXPyKZMA", "alias": "miss-cranston-diner-and-grill-west-warwick-5", "name": "Miss Cranston Diner & Grill", "image_url": "https://s3-media3.fl.yelpcdn.com/bphoto/xOesrytlvqVhy9kPmOpFCw/o.jpg", "is_closed": false, "url": "https://www.yelp.com/biz/miss-cranston-diner-and-grill-west-warwick-5?adjust_creative=pzvBKuEUl0Vl1jtHQqJaog&utm_campaign=yelp_api_v3&utm_medium=api_v3_business_search&utm_source=pzvBKuEUl0Vl1jtHQqJaog", "review_count": 25, "categories": [{"alias": "breakfast_brunch", "title": "Breakfast & Brunch"}, {"alias": "sandwiches", "title": "Sandwiches"}, {"alias": "pizza", "title": "Pizza"}], "rating": 2.5, "coordinates": {"latitude": 41.6949331, "longitude": -71.5017955}, "transactions": ["delivery", "pickup"], "price": "$", "location": {"address1": "45 Quaker Ln", "address2": null, "address3": "", "city": "West Warwick", "zip_code": "02893", "country": "US", "state": "RI", "display_address": ["45 Quaker Ln", "West Warwick, RI 02893"]}, "phone": "+14016151618", "display_phone": "(401) 615-1618", "distance": 11286.437187569834}, {"id": "AU5AMYRhIbfPVMjzKXgm1A", "alias": "mcdonalds-coventry", "name": "McDonald's", "image_url": "https://s3-media2.fl.yelpcdn.com/bphoto/hZ-DGvx5ph-y3ZfUvt5roA/o.jpg", "is_closed": false, "url": "https://www.yelp.com/biz/mcdonalds-coventry?adjust_creative=pzvBKuEUl0Vl1jtHQqJaog&utm_campaign=yelp_api_v3&utm_medium=api_v3_business_search&utm_source=pzvBKuEUl0Vl1jtHQqJaog", "review_count": 16, "categories": [{"alias": "hotdogs", "title": "Fast Food"}, {"alias": "burgers", "title": "Burgers"}, {"alias": "coffee", "title": "Coffee & Tea"}], "rating": 2.5, "coordinates": {"latitude": 41.6789552, "longitude": -71.5803139}, "transactions": ["delivery"], "price": "$", "location": {"address1": "1100 Tiogue Ave", "address2": "", "address3": "", "city": "Coventry", "zip_code": "02816", "country": "US", "state": "RI", "display_address": ["1100 Tiogue Ave", "Coventry, RI 02816"]}, "phone": "+14018280492", "display_phone": "(401) 828-0492", "distance": 5099.169442575777}, {"id": "VFKIDdYjVxekK9qPGoH7LQ", "alias": "dominos-pizza-west-warwick", "name": "Domino's Pizza", "image_url": "https://s3-media1.fl.yelpcdn.com/bphoto/93xwHeKcuaMolnwH3AEeJQ/o.jpg", "is_closed": false, "url": "https://www.yelp.com/biz/dominos-pizza-west-warwick?adjust_creative=pzvBKuEUl0Vl1jtHQqJaog&utm_campaign=yelp_api_v3&utm_medium=api_v3_business_search&utm_source=pzvBKuEUl0Vl1jtHQqJaog", "review_count": 8, "categories": [{"alias": "pizza", "title": "Pizza"}, {"alias": "chicken_wings", "title": "Chicken Wings"}, {"alias": "sandwiches", "title": "Sandwiches"}], "rating": 3.0, "coordinates": {"latitude": 41.682731, "longitude": -71.525847}, "transactions": [], "price": "$", "location": {"address1": "1745 Main St", "address2": "", "address3": "", "city": "West Warwick", "zip_code": "02893", "country": "US", "state": "RI", "display_address": ["1745 Main St", "West Warwick, RI 02893"]}, "phone": "+14018224040", "display_phone": "(401) 822-4040", "distance": 9378.21768808902}, {"id": "EFqUIueI3q3jiQ4RvqOUXw", "alias": "kfc-west-warwick", "name": "KFC", "image_url": "https://s3-media1.fl.yelpcdn.com/bphoto/R4pCixKwcgPb-Oue_HJk4g/o.jpg", "is_closed": false, "url": "https://www.yelp.com/biz/kfc-west-warwick?adjust_creative=pzvBKuEUl0Vl1jtHQqJaog&utm_campaign=yelp_api_v3&utm_medium=api_v3_business_search&utm_source=pzvBKuEUl0Vl1jtHQqJaog", "review_count": 7, "categories": [{"alias": "chicken_wings", "title": "Chicken Wings"}, {"alias": "hotdogs", "title": "Fast Food"}, {"alias": "chickenshop", "title": "Chicken Shop"}], "rating": 2.5, "coordinates": {"latitude": 41.687466393633, "longitude": -71.501417}, "transactions": ["delivery", "pickup"], "price": "$", "location": {"address1": "305 Quaker Ln", "address2": "", "address3": "", "city": "West Warwick", "zip_code": "02893", "country": "US", "state": "RI", "display_address": ["305 Quaker Ln", "West Warwick, RI 02893"]}, "phone": "+14018210556", "display_phone": "(401) 821-0556", "distance": 11343.500446083386}, {"id": "cGq6FS-wV1M95yRFR9ZgqA", "alias": "subway-restaurants-cranston-2", "name": "Subway Restaurants", "image_url": "https://s3-media2.fl.yelpcdn.com/bphoto/jqZZMR93oc_hbQUHrPzCvg/o.jpg", "is_closed": false, "url": "https://www.yelp.com/biz/subway-restaurants-cranston-2?adjust_creative=pzvBKuEUl0Vl1jtHQqJaog&utm_campaign=yelp_api_v3&utm_medium=api_v3_business_search&utm_source=pzvBKuEUl0Vl1jtHQqJaog", "review_count": 7, "categories": [{"alias": "sandwiches", "title": "Sandwiches"}], "rating": 2.5, "coordinates": {"latitude": 41.7883310099875, "longitude": -71.5171823117391}, "transactions": ["delivery", "pickup"], "price": "$", "location": {"address1": "2214 Plainfield Pike", "address2": "", "address3": null, "city": "Cranston", "zip_code": "02921", "country": "US", "state": "RI", "display_address": ["2214 Plainfield Pike", "Cranston, RI 02921"]}, "phone": "+14012750232", "display_phone": "(401) 275-0232", "distance": 14471.691697686174}, {"id": "dMDGkvs2YS_N9FoLZUHrLA", "alias": "cowesett-pizza-west-warwick", "name": "Cowesett Pizza", "image_url": "https://s3-media1.fl.yelpcdn.com/bphoto/wXMVb2wg_djq0PtZgkVznw/o.jpg", "is_closed": false, "url": "https://www.yelp.com/biz/cowesett-pizza-west-warwick?adjust_creative=pzvBKuEUl0Vl1jtHQqJaog&utm_campaign=yelp_api_v3&utm_medium=api_v3_business_search&utm_source=pzvBKuEUl0Vl1jtHQqJaog", "review_count": 24, "categories": [{"alias": "pizza", "title": "Pizza"}, {"alias": "italian", "title": "Italian"}, {"alias": "sandwiches", "title": "Sandwiches"}], "rating": 4.0, "coordinates": {"latitude": 41.6850722, "longitude": -71.5041895}, "transactions": ["delivery"], "price": "$", "location": {"address1": "306 Cowesett Ave", "address2": "", "address3": "", "city": "West Warwick", "zip_code": "02893", "country": "US", "state": "RI", "display_address": ["306 Cowesett Ave", "West Warwick, RI 02893"]}, "phone": "+14018215551", "display_phone": "(401) 821-5551", "distance": 11133.481056496443}, {"id": "IGeGqtqFjTqff3MwyOQ4tQ", "alias": "kfc-coventry", "name": "KFC", "image_url": "https://s3-media4.fl.yelpcdn.com/bphoto/K8qLBNh1tT-mcfpFftQeCQ/o.jpg", "is_closed": false, "url": "https://www.yelp.com/biz/kfc-coventry?adjust_creative=pzvBKuEUl0Vl1jtHQqJaog&utm_campaign=yelp_api_v3&utm_medium=api_v3_business_search&utm_source=pzvBKuEUl0Vl1jtHQqJaog", "review_count": 13, "categories": [{"alias": "hotdogs", "title": "Fast Food"}, {"alias": "chicken_wings", "title": "Chicken Wings"}, {"alias": "chickenshop", "title": "Chicken Shop"}], "rating": 2.5, "coordinates": {"latitude": 41.6809766079934, "longitude": -71.565847}, "transactions": ["delivery", "pickup"], "price": "$", "location": {"address1": "824 Tiogue Ave", "address2": "", "address3": "", "city": "Coventry", "zip_code": "02816", "country": "US", "state": "RI", "display_address": ["824 Tiogue Ave", "Coventry, RI 02816"]}, "phone": "+14018214460", "display_phone": "(401) 821-4460", "distance": 6148.889727727932}, {"id": "ziB9E3olA30WqxpnSJe4Yw", "alias": "millonzis-west-warwick-2", "name": "Millonzi's", "image_url": "https://s3-media4.fl.yelpcdn.com/bphoto/ZQCTiO3VJVuJJaLG7vCeZA/o.jpg", "is_closed": false, "url": "https://www.yelp.com/biz/millonzis-west-warwick-2?adjust_creative=pzvBKuEUl0Vl1jtHQqJaog&utm_campaign=yelp_api_v3&utm_medium=api_v3_business_search&utm_source=pzvBKuEUl0Vl1jtHQqJaog", "review_count": 25, "categories": [{"alias": "burgers", "title": "Burgers"}, {"alias": "pizza", "title": "Pizza"}, {"alias": "tradamerican", "title": "American (Traditional)"}], "rating": 3.5, "coordinates": {"latitude": 41.705435, "longitude": -71.524264}, "transactions": ["delivery"], "price": "$$", "location": {"address1": "11 Curson St", "address2": "", "address3": "", "city": "West Warwick", "zip_code": "02893", "country": "US", "state": "RI", "display_address": ["11 Curson St", "West Warwick, RI 02893"]}, "phone": "+14016157891", "display_phone": "(401) 615-7891", "distance": 9501.402160259728}, {"id": "324pp6avrBFbzw059DoHsA", "alias": "roadies-raleigh", "name": "Roadies", "image_url": "https://s3-media2.fl.yelpcdn.com/bphoto/3zJZmmgIOYrfKoAOp9Du1w/o.jpg", "is_closed": false, "url": "https://www.yelp.com/biz/roadies-raleigh?adjust_creative=pzvBKuEUl0Vl1jtHQqJaog&utm_campaign=yelp_api_v3&utm_medium=api_v3_business_search&utm_source=pzvBKuEUl0Vl1jtHQqJaog", "review_count": 10, "categories": [{"alias": "foodtrucks", "title": "Food Trucks"}, {"alias": "seafood", "title": "Seafood"}], "rating": 4.5, "coordinates": {"latitude": 35.67575, "longitude": -78.66424}, "transactions": [], "price": "$", "location": {"address1": "", "address2": null, "address3": "", "city": "Raleigh", "zip_code": "27603", "country": "US", "state": "NC", "display_address": ["Raleigh, NC 27603"]}, "phone": "+13476136489", "display_phone": "(347) 613-6489", "distance": 906758.1590484433}]