[{"id": "eu7wCBmyraR_b-FGCz8SXw", "alias": "twoten-oyster-bar-and-grill-south-kingstown-5", "name": "TwoTen Oyster Bar & Grill", "image_url": "https://s3-media3.fl.yelpcdn.com/bphoto/CA1vxjI05ZGfbxKhCfsM7w/o.jpg", "is_closed": false, "url": "https://www.yelp.com/biz/twoten-oyster-bar-and-grill-south-kingstown-5?adjust_creative=HbGs3gi3xS-SfqfxZRDuCw&utm_campaign=yelp_api_v3&utm_medium=api_v3_business_search&utm_source=HbGs3gi3xS-SfqfxZRDuCw", "review_count": 571, "categories": [{"alias": "seafood", "title": "Seafood"}, {"alias": "gluten_free", "title": "Gluten-Free"}], "rating": 4.0, "coordinates": {"latitude": 41.427676, "longitude": -71.496196}, "transactions": ["pickup"], "price": "$$", "location": {"address1": "210 Salt Pond Rd", "address2": null, "address3": "", "city": "South Kingstown", "zip_code": "02879", "country": "US", "state": "RI", "display_address": ["210 Salt Pond Rd", "South Kingstown, RI 02879"]}, "phone": "+14017820100", "display_phone": "(401) 782-0100", "distance": 1558.244221841186}, {"id": "aAOKVHk-fi5ZMh64NVny3Q", "alias": "tavern-on-main-wakefield", "name": "Tavern On Main", "image_url": "https://s3-media2.fl.yelpcdn.com/bphoto/UbxxTgCs7kywVW1u_8Y0zg/o.jpg", "is_closed": false, "url": "https://www.yelp.com/biz/tavern-on-main-wakefield?adjust_creative=HbGs3gi3xS-SfqfxZRDuCw&utm_campaign=yelp_api_v3&utm_medium=api_v3_business_search&utm_source=HbGs3gi3xS-SfqfxZRDuCw", "review_count": 117, "categories": [{"alias": "newamerican", "title": "American (New)"}, {"alias": "bars", "title": "Bars"}], "rating": 4.5, "coordinates": {"latitude": 41.441, "longitude": -71.4957}, "transactions": [], "price": "$$", "location": {"address1": "195 Main St", "address2": "", "address3": null, "city": "Wakefield", "zip_code": "02879", "country": "US", "state": "RI", "display_address": ["195 Main St", "Wakefield, RI 02879"]}, "phone": "+14014729240", "display_phone": "(401) 472-9240", "distance": 698.6714380999713}, {"id": "hK7HjLnyxK4wA-rC3LErJw", "alias": "coast-guard-house-narragansett", "name": "Coast Guard House", "image_url": "https://s3-media3.fl.yelpcdn.com/bphoto/W3bYq9yAfzNXAIQO0FCAYQ/o.jpg", "is_closed": false, "url": "https://www.yelp.com/biz/coast-guard-house-narragansett?adjust_creative=HbGs3gi3xS-SfqfxZRDuCw&utm_campaign=yelp_api_v3&utm_medium=api_v3_business_search&utm_source=HbGs3gi3xS-SfqfxZRDuCw", "review_count": 547, "categories": [{"alias": "seafood", "title": "Seafood"}, {"alias": "newamerican", "title": "American (New)"}, {"alias": "soup", "title": "Soup"}], "rating": 4.0, "coordinates": {"latitude": 41.43021, "longitude": -71.4555}, "transactions": [], "price": "$$", "location": {"address1": "40 Ocean Rd", "address2": "", "address3": "", "city": "Narragansett", "zip_code": "02882", "country": "US", "state": "RI", "display_address": ["40 Ocean Rd", "Narragansett, RI 02882"]}, "phone": "+14017890700", "display_phone": "(401) 789-0700", "distance": 2887.1194749179563}, {"id": "K2inRpuXvcbhR_vN_IFNOQ", "alias": "cantina-del-rio-south-kingstown", "name": "Cantina del Rio", "image_url": "https://s3-media2.fl.yelpcdn.com/bphoto/rX71ePSFG6WmaWkLH6CGDQ/o.jpg", "is_closed": false, "url": "https://www.yelp.com/biz/cantina-del-rio-south-kingstown?adjust_creative=HbGs3gi3xS-SfqfxZRDuCw&utm_campaign=yelp_api_v3&utm_medium=api_v3_business_search&utm_source=HbGs3gi3xS-SfqfxZRDuCw", "review_count": 38, "categories": [{"alias": "salad", "title": "Salad"}, {"alias": "mexican", "title": "Mexican"}], "rating": 2.5, "coordinates": {"latitude": 41.4386542075887, "longitude": -71.4862994964226}, "transactions": [], "location": {"address1": "515 Kingstown Rd", "address2": "", "address3": null, "city": "South Kingstown", "zip_code": "02879", "country": "US", "state": "RI", "display_address": ["515 Kingstown Rd", "South Kingstown, RI 02879"]}, "phone": "+14017831910", "display_phone": "(401) 783-1910", "distance": 175.43763338309338}, {"id": "ko5_fvafUrT6tyi7moefgA", "alias": "jayd-bun-south-kingstown", "name": "Jayd Bun", "image_url": "https://s3-media1.fl.yelpcdn.com/bphoto/Zq4m8iMTnJL3c5AnIKPuZg/o.jpg", "is_closed": false, "url": "https://www.yelp.com/biz/jayd-bun-south-kingstown?adjust_creative=HbGs3gi3xS-SfqfxZRDuCw&utm_campaign=yelp_api_v3&utm_medium=api_v3_business_search&utm_source=HbGs3gi3xS-SfqfxZRDuCw", "review_count": 20, "categories": [{"alias": "chinese", "title": "Chinese"}], "rating": 5.0, "coordinates": {"latitude": 41.45085, "longitude": -71.4990648}, "transactions": [], "location": {"address1": "1202 Kingstown Rd", "address2": null, "address3": "", "city": "South Kingstown", "zip_code": "02879", "country": "US", "state": "RI", "display_address": ["1202 Kingstown Rd", "South Kingstown, RI 02879"]}, "phone": "+14015157900", "display_phone": "(401) 515-7900", "distance": 1550.2328670289687}, {"id": "ukAnp3TOf8rSbooJwgNNBg", "alias": "chophouse-grille-wakefield", "name": "ChopHouse Grille", "image_url": "https://s3-media3.fl.yelpcdn.com/bphoto/-KN-vxz9YlDQVsLuklaG1A/o.jpg", "is_closed": false, "url": "https://www.yelp.com/biz/chophouse-grille-wakefield?adjust_creative=HbGs3gi3xS-SfqfxZRDuCw&utm_campaign=yelp_api_v3&utm_medium=api_v3_business_search&utm_source=HbGs3gi3xS-SfqfxZRDuCw", "review_count": 180, "categories": [{"alias": "newamerican", "title": "American (New)"}, {"alias": "steak", "title": "Steakhouses"}, {"alias": "seafood", "title": "Seafood"}], "rating": 4.0, "coordinates": {"latitude": 41.44204, "longitude": -71.48126}, "transactions": [], "price": "$$", "location": {"address1": "191 Old Tower Hill Rd", "address2": "", "address3": "", "city": "Wakefield", "zip_code": "02879", "country": "US", "state": "RI", "display_address": ["191 Old Tower Hill Rd", "Wakefield, RI 02879"]}, "phone": "+14012840797", "display_phone": "(401) 284-0797", "distance": 560.56523526596}, {"id": "ZbWhffDFP3DtQHHRIWL-RA", "alias": "the-boss-1-wakefield", "name": "The Boss 1", "image_url": "https://s3-media4.fl.yelpcdn.com/bphoto/sBHVJhFqvzkVcRSBW9hegQ/o.jpg", "is_closed": false, "url": "https://www.yelp.com/biz/the-boss-1-wakefield?adjust_creative=HbGs3gi3xS-SfqfxZRDuCw&utm_campaign=yelp_api_v3&utm_medium=api_v3_business_search&utm_source=HbGs3gi3xS-SfqfxZRDuCw", "review_count": 13, "categories": [{"alias": "thai", "title": "Thai"}, {"alias": "asianfusion", "title": "Asian Fusion"}, {"alias": "desserts", "title": "Desserts"}], "rating": 5.0, "coordinates": {"latitude": 41.442344105255, "longitude": -71.4897476881742}, "transactions": [], "price": "$$", "location": {"address1": "682 Kingstown Rd", "address2": "", "address3": null, "city": "Wakefield", "zip_code": "02879", "country": "US", "state": "RI", "display_address": ["682 Kingstown Rd", "Wakefield, RI 02879"]}, "phone": "+14012843600", "display_phone": "(401) 284-3600", "distance": 326.5690041253712}, {"id": "rsUTvZy67oowb8G_2SKaDA", "alias": "trio-narragansett", "name": "TRIO", "image_url": "https://s3-media4.fl.yelpcdn.com/bphoto/IgT18HCnKrRHBJWnlv6sKA/o.jpg", "is_closed": false, "url": "https://www.yelp.com/biz/trio-narragansett?adjust_creative=HbGs3gi3xS-SfqfxZRDuCw&utm_campaign=yelp_api_v3&utm_medium=api_v3_business_search&utm_source=HbGs3gi3xS-SfqfxZRDuCw", "review_count": 256, "categories": [{"alias": "newamerican", "title": "American (New)"}], "rating": 4.0, "coordinates": {"latitude": 41.4310888, "longitude": -71.4588851}, "transactions": [], "price": "$$", "location": {"address1": "15 Kingstown Rd", "address2": "", "address3": "", "city": "Narragansett", "zip_code": "02882", "country": "US", "state": "RI", "display_address": ["15 Kingstown Rd", "Narragansett, RI 02882"]}, "phone": "+14017924333", "display_phone": "(401) 792-4333", "distance": 2572.4335055545935}, {"id": "J8d2VcN-B13bRmk_CgbCKw", "alias": "cowabunga-south-kingstown", "name": "Cowabunga", "image_url": "https://s3-media4.fl.yelpcdn.com/bphoto/bSJ-YgeHQvWCd_EHcDSgtw/o.jpg", "is_closed": false, "url": "https://www.yelp.com/biz/cowabunga-south-kingstown?adjust_creative=HbGs3gi3xS-SfqfxZRDuCw&utm_campaign=yelp_api_v3&utm_medium=api_v3_business_search&utm_source=HbGs3gi3xS-SfqfxZRDuCw", "review_count": 9, "categories": [{"alias": "sandwiches", "title": "Sandwiches"}, {"alias": "juicebars", "title": "Juice Bars & Smoothies"}, {"alias": "wraps", "title": "Wraps"}], "rating": 4.5, "coordinates": {"latitude": 41.438761542803, "longitude": -71.4985802024603}, "transactions": [], "location": {"address1": "254 Robinson St", "address2": "", "address3": null, "city": "South Kingstown", "zip_code": "02879", "country": "US", "state": "RI", "display_address": ["254 Robinson St", "South Kingstown, RI 02879"]}, "phone": "+14012279333", "display_phone": "(401) 227-9333", "distance": 946.5077268394358}, {"id": "kzbz5KZAx6MFnepLESbH6g", "alias": "bombay-flame-healthy-thousand-flavors-south-kingstown", "name": "Bombay Flame - Healthy Thousand Flavors", "image_url": "https://s3-media2.fl.yelpcdn.com/bphoto/N88-xIloPt8efyNKqbEK4Q/o.jpg", "is_closed": false, "url": "https://www.yelp.com/biz/bombay-flame-healthy-thousand-flavors-south-kingstown?adjust_creative=HbGs3gi3xS-SfqfxZRDuCw&utm_campaign=yelp_api_v3&utm_medium=api_v3_business_search&utm_source=HbGs3gi3xS-SfqfxZRDuCw", "review_count": 66, "categories": [{"alias": "indpak", "title": "Indian"}, {"alias": "vegan", "title": "Vegan"}, {"alias": "bars", "title": "Bars"}], "rating": 4.5, "coordinates": {"latitude": 41.4421, "longitude": -71.48621}, "transactions": ["delivery", "pickup"], "location": {"address1": "60 Old Tower Hill Rd", "address2": null, "address3": "", "city": "South Kingstown", "zip_code": "02879", "country": "US", "state": "RI", "display_address": ["60 Old Tower Hill Rd", "South Kingstown, RI 02879"]}, "phone": "+14017835263", "display_phone": "(401) 783-5263", "distance": 250.35045609406268}, {"id": "NR0OVhwHD0JEzMErznQ6rQ", "alias": "bluebird-cafe-wakefield", "name": "Bluebird Cafe", "image_url": "https://s3-media2.fl.yelpcdn.com/bphoto/dHt4OH2xGrZihwEExEqKkA/o.jpg", "is_closed": false, "url": "https://www.yelp.com/biz/bluebird-cafe-wakefield?adjust_creative=HbGs3gi3xS-SfqfxZRDuCw&utm_campaign=yelp_api_v3&utm_medium=api_v3_business_search&utm_source=HbGs3gi3xS-SfqfxZRDuCw", "review_count": 75, "categories": [{"alias": "diners", "title": "Diners"}], "rating": 4.0, "coordinates": {"latitude": 41.4392604, "longitude": -71.4871685}, "transactions": [], "price": "$", "location": {"address1": "554 Kingstown Rd", "address2": "", "address3": "", "city": "Wakefield", "zip_code": "02879", "country": "US", "state": "RI", "display_address": ["554 Kingstown Rd", "Wakefield, RI 02879"]}, "phone": "+14017928940", "display_phone": "(401) 792-8940", "distance": 90.68585889262579}, {"id": "0HBpqT_ewo474YM8G_tzsQ", "alias": "bennys-clam-shack-wakefield", "name": "Benny's Clam Shack", "image_url": "https://s3-media4.fl.yelpcdn.com/bphoto/n6XD_PO6R2Y_wX5HkOhnlg/o.jpg", "is_closed": false, "url": "https://www.yelp.com/biz/bennys-clam-shack-wakefield?adjust_creative=HbGs3gi3xS-SfqfxZRDuCw&utm_campaign=yelp_api_v3&utm_medium=api_v3_business_search&utm_source=HbGs3gi3xS-SfqfxZRDuCw", "review_count": 55, "categories": [{"alias": "seafood", "title": "Seafood"}], "rating": 4.0, "coordinates": {"latitude": 41.43835, "longitude": -71.50232}, "transactions": [], "location": {"address1": "58 High St", "address2": "", "address3": null, "city": "Wakefield", "zip_code": "02879", "country": "US", "state": "RI", "display_address": ["58 High St", "Wakefield, RI 02879"]}, "phone": "+14013639632", "display_phone": "(401) 363-9632", "distance": 1261.4485925476088}, {"id": "xCLNuG4SW6FoFY0I79O_3g", "alias": "pasquales-pizzeria-napulitana-south-kingstown", "name": "Pasquale's Pizzeria Napulitana", "image_url": "https://s3-media3.fl.yelpcdn.com/bphoto/e88e2JoAq-Oi_Sr6hteG4A/o.jpg", "is_closed": false, "url": "https://www.yelp.com/biz/pasquales-pizzeria-napulitana-south-kingstown?adjust_creative=HbGs3gi3xS-SfqfxZRDuCw&utm_campaign=yelp_api_v3&utm_medium=api_v3_business_search&utm_source=HbGs3gi3xS-SfqfxZRDuCw", "review_count": 255, "categories": [{"alias": "pizza", "title": "Pizza"}], "rating": 4.0, "coordinates": {"latitude": 41.455652, "longitude": -71.4709914}, "transactions": [], "price": "$$", "location": {"address1": "60 South County Commons Way", "address2": null, "address3": "", "city": "South Kingstown", "zip_code": "02879", "country": "US", "state": "RI", "display_address": ["60 South County Commons Way", "South Kingstown, RI 02879"]}, "phone": "+14017832900", "display_phone": "(401) 783-2900", "distance": 2209.062274139169}, {"id": "zD31LjkFszGZQIP2syYSWw", "alias": "proof-narragansett", "name": "Proof", "image_url": "https://s3-media4.fl.yelpcdn.com/bphoto/4FmqE7zQKzfKBkjQBW_Trw/o.jpg", "is_closed": false, "url": "https://www.yelp.com/biz/proof-narragansett?adjust_creative=HbGs3gi3xS-SfqfxZRDuCw&utm_campaign=yelp_api_v3&utm_medium=api_v3_business_search&utm_source=HbGs3gi3xS-SfqfxZRDuCw", "review_count": 49, "categories": [{"alias": "speakeasies", "title": "Speakeasies"}, {"alias": "tapasmallplates", "title": "Tapas/Small Plates"}, {"alias": "cocktailbars", "title": "Cocktail Bars"}], "rating": 4.0, "coordinates": {"latitude": 41.426, "longitude": -71.48083}, "transactions": [], "price": "$$", "location": {"address1": "140 Point Judith Rd", "address2": "", "address3": null, "city": "Narragansett", "zip_code": "02882", "country": "US", "state": "RI", "display_address": ["140 Point Judith Rd", "Narragansett, RI 02882"]}, "phone": "+14017924640", "display_phone": "(401) 792-4640", "distance": 1691.725856352659}, {"id": "WcQbC9hRzfWYokJ_jbFNow", "alias": "china-garden-wakefield", "name": "China Garden", "image_url": "https://s3-media1.fl.yelpcdn.com/bphoto/w9dWDe45ypFYNSrzkU7ibA/o.jpg", "is_closed": false, "url": "https://www.yelp.com/biz/china-garden-wakefield?adjust_creative=HbGs3gi3xS-SfqfxZRDuCw&utm_campaign=yelp_api_v3&utm_medium=api_v3_business_search&utm_source=HbGs3gi3xS-SfqfxZRDuCw", "review_count": 28, "categories": [{"alias": "chinese", "title": "Chinese"}], "rating": 4.0, "coordinates": {"latitude": 41.4394967, "longitude": -71.4873235}, "transactions": [], "price": "$", "location": {"address1": "564 Kingstown Rd", "address2": "", "address3": "", "city": "Wakefield", "zip_code": "02879", "country": "US", "state": "RI", "display_address": ["564 Kingstown Rd", "Wakefield, RI 02879"]}, "phone": "+14017828838", "display_phone": "(401) 782-8838", "distance": 50.26515888019102}, {"id": "kMmIPGkKC1KB2nu05Cwe9A", "alias": "mews-tavern-wakefield-2", "name": "Mews Tavern", "image_url": "https://s3-media2.fl.yelpcdn.com/bphoto/X9FNgOMJzKDr0lqj6Jozlw/o.jpg", "is_closed": false, "url": "https://www.yelp.com/biz/mews-tavern-wakefield-2?adjust_creative=HbGs3gi3xS-SfqfxZRDuCw&utm_campaign=yelp_api_v3&utm_medium=api_v3_business_search&utm_source=HbGs3gi3xS-SfqfxZRDuCw", "review_count": 383, "categories": [{"alias": "bars", "title": "Bars"}, {"alias": "tradamerican", "title": "American (Traditional)"}, {"alias": "seafood", "title": "Seafood"}], "rating": 3.5, "coordinates": {"latitude": 41.436114, "longitude": -71.502667}, "transactions": [], "price": "$$", "location": {"address1": "456 Main St", "address2": "", "address3": "", "city": "Wakefield", "zip_code": "02879", "country": "US", "state": "RI", "display_address": ["456 Main St", "Wakefield, RI 02879"]}, "phone": "+14017839370", "display_phone": "(401) 783-9370", "distance": 1348.6731453421867}, {"id": "6p9x3VN_dcmAi8m1kfUFlA", "alias": "gansett-wraps-narragansett", "name": "Gansett Wraps", "image_url": "https://s3-media2.fl.yelpcdn.com/bphoto/wm7PBD88owFOQyV6pCyKjQ/o.jpg", "is_closed": false, "url": "https://www.yelp.com/biz/gansett-wraps-narragansett?adjust_creative=HbGs3gi3xS-SfqfxZRDuCw&utm_campaign=yelp_api_v3&utm_medium=api_v3_business_search&utm_source=HbGs3gi3xS-SfqfxZRDuCw", "review_count": 135, "categories": [{"alias": "salad", "title": "Salad"}, {"alias": "wraps", "title": "Wraps"}], "rating": 4.5, "coordinates": {"latitude": 41.42939, "longitude": -71.48084}, "transactions": [], "price": "$", "location": {"address1": "70 Point Judith Rd", "address2": "", "address3": "", "city": "Narragansett", "zip_code": "02882", "country": "US", "state": "RI", "display_address": ["70 Point Judith Rd", "Narragansett, RI 02882"]}, "phone": "+14017929292", "display_phone": "(401) 792-9292", "distance": 1257.6072584312976}, {"id": "pLeheoa8RJs5Ht9yZai5Eg", "alias": "the-flatts-south-kingstown-3", "name": "The Flatts", "image_url": "https://s3-media2.fl.yelpcdn.com/bphoto/dsOS_nR-AAs5xW0Wck8klA/o.jpg", "is_closed": false, "url": "https://www.yelp.com/biz/the-flatts-south-kingstown-3?adjust_creative=HbGs3gi3xS-SfqfxZRDuCw&utm_campaign=yelp_api_v3&utm_medium=api_v3_business_search&utm_source=HbGs3gi3xS-SfqfxZRDuCw", "review_count": 40, "categories": [{"alias": "bbq", "title": "Barbeque"}, {"alias": "tradamerican", "title": "American (Traditional)"}, {"alias": "smokehouse", "title": "Smokehouse"}], "rating": 4.0, "coordinates": {"latitude": 41.4502042344785, "longitude": -71.5007029848932}, "transactions": [], "location": {"address1": "501 High St", "address2": "", "address3": null, "city": "South Kingstown", "zip_code": "02879", "country": "US", "state": "RI", "display_address": ["501 High St", "South Kingstown, RI 02879"]}, "phone": "+14017893528", "display_phone": "(401) 789-3528", "distance": 1587.6865924104595}, {"id": "FkvaEiUbrVMZ0IYHnt_GcA", "alias": "crazy-burger-cafe-and-juice-bar-narragansett", "name": "Crazy Burger Cafe & Juice Bar", "image_url": "https://s3-media2.fl.yelpcdn.com/bphoto/g2b_fgAI9u6YJnlPYgnCwA/o.jpg", "is_closed": false, "url": "https://www.yelp.com/biz/crazy-burger-cafe-and-juice-bar-narragansett?adjust_creative=HbGs3gi3xS-SfqfxZRDuCw&utm_campaign=yelp_api_v3&utm_medium=api_v3_business_search&utm_source=HbGs3gi3xS-SfqfxZRDuCw", "review_count": 643, "categories": [{"alias": "sandwiches", "title": "Sandwiches"}, {"alias": "juicebars", "title": "Juice Bars & Smoothies"}, {"alias": "burgers", "title": "Burgers"}], "rating": 4.0, "coordinates": {"latitude": 41.42594, "longitude": -71.45953}, "transactions": [], "price": "$$", "location": {"address1": "144 Boon St", "address2": "", "address3": "", "city": "Narragansett", "zip_code": "02882", "country": "US", "state": "RI", "display_address": ["144 Boon St", "Narragansett, RI 02882"]}, "phone": "+14017831810", "display_phone": "(401) 783-1810", "distance": 2786.221268716697}, {"id": "D-kurb_dYsik2q8ZYLJTOQ", "alias": "ts-restaurant-narragansett", "name": "T's Restaurant", "image_url": "https://s3-media2.fl.yelpcdn.com/bphoto/mLnhiVBH8M8PBTOlIXP_bQ/o.jpg", "is_closed": false, "url": "https://www.yelp.com/biz/ts-restaurant-narragansett?adjust_creative=HbGs3gi3xS-SfqfxZRDuCw&utm_campaign=yelp_api_v3&utm_medium=api_v3_business_search&utm_source=HbGs3gi3xS-SfqfxZRDuCw", "review_count": 170, "categories": [{"alias": "breakfast_brunch", "title": "Breakfast & Brunch"}], "rating": 4.0, "coordinates": {"latitude": 41.429283, "longitude": -71.482481}, "transactions": [], "price": "$$", "location": {"address1": "91 Point Judith Rd", "address2": "", "address3": "", "city": "Narragansett", "zip_code": "02882", "country": "US", "state": "RI", "display_address": ["91 Point Judith Rd", "Narragansett, RI 02882"]}, "phone": "+14012843981", "display_phone": "(401) 284-3981", "distance": 1261.1454968466958}, {"id": "WFBDNEE5Fe-ncPNaLtafMg", "alias": "sushi-go-wakefield", "name": "Sushi Go", "image_url": "https://s3-media4.fl.yelpcdn.com/bphoto/XgBh2CrfZs1OvLwbXw51Ng/o.jpg", "is_closed": false, "url": "https://www.yelp.com/biz/sushi-go-wakefield?adjust_creative=HbGs3gi3xS-SfqfxZRDuCw&utm_campaign=yelp_api_v3&utm_medium=api_v3_business_search&utm_source=HbGs3gi3xS-SfqfxZRDuCw", "review_count": 4, "categories": [{"alias": "sushi", "title": "Sushi Bars"}, {"alias": "japanese", "title": "Japanese"}], "rating": 5.0, "coordinates": {"latitude": 41.440609, "longitude": -71.4888077}, "transactions": [], "price": "$$", "location": {"address1": "600 Kingstown Rd", "address2": "", "address3": "600 Kingstown Rd", "city": "Wakefield", "zip_code": "02879", "country": "US", "state": "RI", "display_address": ["600 Kingstown Rd", "600 Kingstown Rd", "Wakefield, RI 02879"]}, "phone": "+14017834656", "display_phone": "(401) 783-4656", "distance": 57.94339047237839}, {"id": "WdHrHqLAjcFtIG7VM8je_Q", "alias": "island-deli-wakefield", "name": "Island Deli", "image_url": "https://s3-media1.fl.yelpcdn.com/bphoto/5WnxJK3WwFgK13fTW3ijSQ/o.jpg", "is_closed": false, "url": "https://www.yelp.com/biz/island-deli-wakefield?adjust_creative=HbGs3gi3xS-SfqfxZRDuCw&utm_campaign=yelp_api_v3&utm_medium=api_v3_business_search&utm_source=HbGs3gi3xS-SfqfxZRDuCw", "review_count": 77, "categories": [{"alias": "delis", "title": "Delis"}, {"alias": "breakfast_brunch", "title": "Breakfast & Brunch"}, {"alias": "sandwiches", "title": "Sandwiches"}], "rating": 4.0, "coordinates": {"latitude": 41.4420956, "longitude": -71.4803838}, "transactions": [], "price": "$", "location": {"address1": "231 Old Tower Hill Rd", "address2": "", "address3": "", "city": "Wakefield", "zip_code": "02879", "country": "US", "state": "RI", "display_address": ["231 Old Tower Hill Rd", "Wakefield, RI 02879"]}, "phone": "+14012840636", "display_phone": "(401) 284-0636", "distance": 624.8462657715576}, {"id": "nPWdQbeWfevUFxVlXxcaXQ", "alias": "calaveras-mexican-taqueria-narragansett", "name": "Calaveras Mexican Taqueria", "image_url": "https://s3-media2.fl.yelpcdn.com/bphoto/83c3k-0lyR9YqOs55wfKSQ/o.jpg", "is_closed": false, "url": "https://www.yelp.com/biz/calaveras-mexican-taqueria-narragansett?adjust_creative=HbGs3gi3xS-SfqfxZRDuCw&utm_campaign=yelp_api_v3&utm_medium=api_v3_business_search&utm_source=HbGs3gi3xS-SfqfxZRDuCw", "review_count": 53, "categories": [{"alias": "mexican", "title": "Mexican"}], "rating": 3.5, "coordinates": {"latitude": 41.4334786, "longitude": -71.4632608}, "transactions": [], "price": "$$", "location": {"address1": "83 Narragansett Ave", "address2": null, "address3": null, "city": "Narragansett", "zip_code": "02882", "country": "US", "state": "RI", "display_address": ["83 Narragansett Ave", "Narragansett, RI 02882"]}, "phone": "+14017834909", "display_phone": "(401) 783-4909", "distance": 2135.8606898257112}, {"id": "a8KGfkVd2L0-ByGpKAxaog", "alias": "caf-bar-wakefield", "name": "caf bar", "image_url": "https://s3-media3.fl.yelpcdn.com/bphoto/G6-qpiwiq4ka-67ORdd70Q/o.jpg", "is_closed": false, "url": "https://www.yelp.com/biz/caf-bar-wakefield?adjust_creative=HbGs3gi3xS-SfqfxZRDuCw&utm_campaign=yelp_api_v3&utm_medium=api_v3_business_search&utm_source=HbGs3gi3xS-SfqfxZRDuCw", "review_count": 60, "categories": [{"alias": "coffee", "title": "Coffee & Tea"}, {"alias": "juicebars", "title": "Juice Bars & Smoothies"}, {"alias": "breakfast_brunch", "title": "Breakfast & Brunch"}], "rating": 5.0, "coordinates": {"latitude": 41.44119, "longitude": -71.49284}, "transactions": [], "location": {"address1": "119 Main St", "address2": null, "address3": "", "city": "wakefield", "zip_code": "02879", "country": "US", "state": "RI", "display_address": ["119 Main St", "wakefield, RI 02879"]}, "phone": "+14017880788", "display_phone": "(401) 788-0788", "distance": 489.79786964516825}, {"id": "SVGI3aZrT3Fo07cP1r0ltg", "alias": "el-fuego-mexican-grill-wakefield", "name": "El Fuego Mexican Grill", "image_url": "https://s3-media2.fl.yelpcdn.com/bphoto/b17WRqOfP-f0aCbAfmdBeQ/o.jpg", "is_closed": false, "url": "https://www.yelp.com/biz/el-fuego-mexican-grill-wakefield?adjust_creative=HbGs3gi3xS-SfqfxZRDuCw&utm_campaign=yelp_api_v3&utm_medium=api_v3_business_search&utm_source=HbGs3gi3xS-SfqfxZRDuCw", "review_count": 115, "categories": [{"alias": "mexican", "title": "Mexican"}], "rating": 3.5, "coordinates": {"latitude": 41.43828, "longitude": -71.49921}, "transactions": [], "price": "$", "location": {"address1": "344 Main St", "address2": "", "address3": "", "city": "Wakefield", "zip_code": "02879", "country": "US", "state": "RI", "display_address": ["344 Main St", "Wakefield, RI 02879"]}, "phone": "+14012843353", "display_phone": "(401) 284-3353", "distance": 1032.582965250878}, {"id": "cIkxGQxnQr68x9ga81POaQ", "alias": "go-pasta-wakefield", "name": "Go Pasta", "image_url": "https://s3-media2.fl.yelpcdn.com/bphoto/ZJKdMbXU5bJIT0rUkkv8BQ/o.jpg", "is_closed": false, "url": "https://www.yelp.com/biz/go-pasta-wakefield?adjust_creative=HbGs3gi3xS-SfqfxZRDuCw&utm_campaign=yelp_api_v3&utm_medium=api_v3_business_search&utm_source=HbGs3gi3xS-SfqfxZRDuCw", "review_count": 34, "categories": [{"alias": "italian", "title": "Italian"}], "rating": 4.5, "coordinates": {"latitude": 41.4416675269604, "longitude": -71.4876602590084}, "transactions": [], "price": "$$", "location": {"address1": "30 Old Tower Hill Rd", "address2": null, "address3": null, "city": "Wakefield", "zip_code": "02879", "country": "US", "state": "RI", "display_address": ["30 Old Tower Hill Rd", "Wakefield, RI 02879"]}, "phone": "+14012844311", "display_phone": "(401) 284-4311", "distance": 243.38821148214512}, {"id": "4jy0Yk7iIUVpnvJuf0RqvQ", "alias": "sa-tang-wakefield-2", "name": "Sa-Tang", "image_url": "https://s3-media1.fl.yelpcdn.com/bphoto/3M_jAFGLzDTiJ7MFkh0tyw/o.jpg", "is_closed": false, "url": "https://www.yelp.com/biz/sa-tang-wakefield-2?adjust_creative=HbGs3gi3xS-SfqfxZRDuCw&utm_campaign=yelp_api_v3&utm_medium=api_v3_business_search&utm_source=HbGs3gi3xS-SfqfxZRDuCw", "review_count": 86, "categories": [{"alias": "thai", "title": "Thai"}, {"alias": "bars", "title": "Bars"}], "rating": 4.5, "coordinates": {"latitude": 41.4371331479922, "longitude": -71.5009345662187}, "transactions": [], "price": "$$", "location": {"address1": "402 Main St", "address2": "", "address3": "", "city": "Wakefield", "zip_code": "02879", "country": "US", "state": "RI", "display_address": ["402 Main St", "Wakefield, RI 02879"]}, "phone": "+14012844220", "display_phone": "(401) 284-4220", "distance": 1177.0116005957268}, {"id": "k2FrgeWrCmlhabYjexurvA", "alias": "saltys-burgers-and-seafood-narragansett-3", "name": "Salty's Burgers and Seafood", "image_url": "https://s3-media1.fl.yelpcdn.com/bphoto/aEeI8SFHS6EWikUqKRGjyg/o.jpg", "is_closed": false, "url": "https://www.yelp.com/biz/saltys-burgers-and-seafood-narragansett-3?adjust_creative=HbGs3gi3xS-SfqfxZRDuCw&utm_campaign=yelp_api_v3&utm_medium=api_v3_business_search&utm_source=HbGs3gi3xS-SfqfxZRDuCw", "review_count": 5, "categories": [{"alias": "seafood", "title": "Seafood"}, {"alias": "burgers", "title": "Burgers"}], "rating": 4.0, "coordinates": {"latitude": 41.4371896447156, "longitude": -71.4527944470741}, "transactions": [], "location": {"address1": "77 Boston Neck Rd", "address2": "", "address3": null, "city": "Narragansett", "zip_code": "02882", "country": "US", "state": "RI", "display_address": ["77 Boston Neck Rd", "Narragansett, RI 02882"]}, "phone": "", "display_phone": "", "distance": 2897.706863496246}, {"id": "05a7AHKnyF5PCiZGXNgQMg", "alias": "monahans-clam-shack-narragansett-3", "name": "Monahan's Clam Shack", "image_url": "https://s3-media1.fl.yelpcdn.com/bphoto/l_KuJPheZW8pEh4WEB95KQ/o.jpg", "is_closed": false, "url": "https://www.yelp.com/biz/monahans-clam-shack-narragansett-3?adjust_creative=HbGs3gi3xS-SfqfxZRDuCw&utm_campaign=yelp_api_v3&utm_medium=api_v3_business_search&utm_source=HbGs3gi3xS-SfqfxZRDuCw", "review_count": 301, "categories": [{"alias": "seafood", "title": "Seafood"}], "rating": 4.5, "coordinates": {"latitude": 41.42228, "longitude": -71.4558}, "transactions": [], "price": "$$", "location": {"address1": "190 Ocean Rd", "address2": "", "address3": "", "city": "Narragansett", "zip_code": "02882", "country": "US", "state": "RI", "display_address": ["190 Ocean Rd", "Narragansett, RI 02882"]}, "phone": "+14017822524", "display_phone": "(401) 782-2524", "distance": 3292.561319113329}, {"id": "FEgs4dE6_uEPwSCXJTXv7g", "alias": "breakfast-nook-ii-wakefield", "name": "Breakfast Nook II", "image_url": "https://s3-media3.fl.yelpcdn.com/bphoto/iPiuRMAUmD6rjQmVVVlOdg/o.jpg", "is_closed": false, "url": "https://www.yelp.com/biz/breakfast-nook-ii-wakefield?adjust_creative=HbGs3gi3xS-SfqfxZRDuCw&utm_campaign=yelp_api_v3&utm_medium=api_v3_business_search&utm_source=HbGs3gi3xS-SfqfxZRDuCw", "review_count": 61, "categories": [{"alias": "breakfast_brunch", "title": "Breakfast & Brunch"}], "rating": 4.0, "coordinates": {"latitude": 41.4399529248476, "longitude": -71.4873558282852}, "transactions": [], "price": "$", "location": {"address1": "575 Kingstown Rd", "address2": "", "address3": "", "city": "Wakefield", "zip_code": "02879", "country": "US", "state": "RI", "display_address": ["575 Kingstown Rd", "Wakefield, RI 02879"]}, "phone": "+14017831555", "display_phone": "(401) 783-1555", "distance": 18.213351898910254}, {"id": "tZWov8jOZ73TpeUXBOUN2w", "alias": "mariner-grille-narragansett", "name": "Mariner Grille", "image_url": "https://s3-media1.fl.yelpcdn.com/bphoto/tT6doA9pSB_3RehKevovoA/o.jpg", "is_closed": false, "url": "https://www.yelp.com/biz/mariner-grille-narragansett?adjust_creative=HbGs3gi3xS-SfqfxZRDuCw&utm_campaign=yelp_api_v3&utm_medium=api_v3_business_search&utm_source=HbGs3gi3xS-SfqfxZRDuCw", "review_count": 73, "categories": [{"alias": "seafood", "title": "Seafood"}, {"alias": "steak", "title": "Steakhouses"}, {"alias": "newamerican", "title": "American (New)"}], "rating": 4.0, "coordinates": {"latitude": 41.425999, "longitude": -71.480829}, "transactions": [], "price": "$$", "location": {"address1": "140 Point Judith Rd", "address2": "", "address3": "", "city": "Narragansett", "zip_code": "02882", "country": "US", "state": "RI", "display_address": ["140 Point Judith Rd", "Narragansett, RI 02882"]}, "phone": "+14012843282", "display_phone": "(401) 284-3282", "distance": 1691.725856352659}, {"id": "blTrqjQ9PtFXf72Hn-LZwA", "alias": "trattoria-romana-south-wakefield-3", "name": "Trattoria Romana South", "image_url": "https://s3-media3.fl.yelpcdn.com/bphoto/9ALjpAGj8wm2F8YtA_hnNg/o.jpg", "is_closed": false, "url": "https://www.yelp.com/biz/trattoria-romana-south-wakefield-3?adjust_creative=HbGs3gi3xS-SfqfxZRDuCw&utm_campaign=yelp_api_v3&utm_medium=api_v3_business_search&utm_source=HbGs3gi3xS-SfqfxZRDuCw", "review_count": 112, "categories": [{"alias": "italian", "title": "Italian"}, {"alias": "bars", "title": "Bars"}, {"alias": "tradamerican", "title": "American (Traditional)"}], "rating": 4.0, "coordinates": {"latitude": 41.4561037396999, "longitude": -71.4701950550079}, "transactions": [], "price": "$$", "location": {"address1": "71 S County Commons Way", "address2": "", "address3": "", "city": "Wakefield", "zip_code": "02879", "country": "US", "state": "RI", "display_address": ["71 S County Commons Way", "Wakefield, RI 02879"]}, "phone": "+14017924933", "display_phone": "(401) 792-4933", "distance": 2289.645602436131}, {"id": "VhE_bDcc_8x2S9rJiUJwlA", "alias": "mary-murphys-irish-pub-south-kingstown", "name": "Mary Murphy's Irish Pub", "image_url": "https://s3-media1.fl.yelpcdn.com/bphoto/h9ouw6tG7_Mj2-V6WCSleQ/o.jpg", "is_closed": false, "url": "https://www.yelp.com/biz/mary-murphys-irish-pub-south-kingstown?adjust_creative=HbGs3gi3xS-SfqfxZRDuCw&utm_campaign=yelp_api_v3&utm_medium=api_v3_business_search&utm_source=HbGs3gi3xS-SfqfxZRDuCw", "review_count": 31, "categories": [{"alias": "irish", "title": "Irish"}, {"alias": "irish_pubs", "title": "Irish Pub"}], "rating": 4.0, "coordinates": {"latitude": 41.4385, "longitude": -71.49944}, "transactions": [], "price": "$$", "location": {"address1": "333 Main St", "address2": "", "address3": "", "city": "South Kingstown", "zip_code": "02879", "country": "US", "state": "RI", "display_address": ["333 Main St", "South Kingstown, RI 02879"]}, "phone": "+14017889400", "display_phone": "(401) 788-9400", "distance": 1020.4864948251317}, {"id": "6LuGIl5hEIew74Uv7KH0tw", "alias": "bagelz-bakery-wakefield", "name": "Bagelz Bakery", "image_url": "https://s3-media2.fl.yelpcdn.com/bphoto/uUzL_insJ5ebRszzeYxszw/o.jpg", "is_closed": false, "url": "https://www.yelp.com/biz/bagelz-bakery-wakefield?adjust_creative=HbGs3gi3xS-SfqfxZRDuCw&utm_campaign=yelp_api_v3&utm_medium=api_v3_business_search&utm_source=HbGs3gi3xS-SfqfxZRDuCw", "review_count": 37, "categories": [{"alias": "bagels", "title": "Bagels"}, {"alias": "bakeries", "title": "Bakeries"}, {"alias": "sandwiches", "title": "Sandwiches"}], "rating": 4.0, "coordinates": {"latitude": 41.44104, "longitude": -71.486}, "transactions": [], "price": "$", "location": {"address1": "90 Pershing Ave", "address2": "", "address3": "", "city": "Wakefield", "zip_code": "02879", "country": "US", "state": "RI", "display_address": ["90 Pershing Ave", "Wakefield, RI 02879"]}, "phone": "+14017839700", "display_phone": "(401) 783-9700", "distance": 152.37532006027146}, {"id": "kAlZ6HK0cjJeqA5PSuxqXA", "alias": "kabuki-wakefield", "name": "Kabuki", "image_url": "https://s3-media4.fl.yelpcdn.com/bphoto/6z7LMEGx9VsmMs46CVmzbg/o.jpg", "is_closed": false, "url": "https://www.yelp.com/biz/kabuki-wakefield?adjust_creative=HbGs3gi3xS-SfqfxZRDuCw&utm_campaign=yelp_api_v3&utm_medium=api_v3_business_search&utm_source=HbGs3gi3xS-SfqfxZRDuCw", "review_count": 101, "categories": [{"alias": "japanese", "title": "Japanese"}, {"alias": "sushi", "title": "Sushi Bars"}, {"alias": "thai", "title": "Thai"}], "rating": 3.5, "coordinates": {"latitude": 41.441655, "longitude": -71.484963}, "transactions": [], "price": "$$", "location": {"address1": "91 Old Tower Hill Rd", "address2": "", "address3": "", "city": "Wakefield", "zip_code": "02879", "country": "US", "state": "RI", "display_address": ["91 Old Tower Hill Rd", "Wakefield, RI 02879"]}, "phone": "+14017880777", "display_phone": "(401) 788-0777", "distance": 269.4630174220195}, {"id": "uNa8PjG8TCitawurgtOzeQ", "alias": "aunties-kitchen-wakefield", "name": "Auntie's Kitchen", "image_url": "https://s3-media3.fl.yelpcdn.com/bphoto/yC-owLx2DudLTylnTfwZow/o.jpg", "is_closed": false, "url": "https://www.yelp.com/biz/aunties-kitchen-wakefield?adjust_creative=HbGs3gi3xS-SfqfxZRDuCw&utm_campaign=yelp_api_v3&utm_medium=api_v3_business_search&utm_source=HbGs3gi3xS-SfqfxZRDuCw", "review_count": 13, "categories": [{"alias": "cafes", "title": "Cafes"}], "rating": 4.5, "coordinates": {"latitude": 41.438768, "longitude": -71.4979642}, "transactions": [], "location": {"address1": "237 Robinson St", "address2": "", "address3": null, "city": "Wakefield", "zip_code": "02879", "country": "US", "state": "RI", "display_address": ["237 Robinson St", "Wakefield, RI 02879"]}, "phone": "+14017832800", "display_phone": "(401) 783-2800", "distance": 908.3070576164056}, {"id": "rfztrCWgT2Nt97BrFGnlsQ", "alias": "dragon-palace-of-wakefield-south-kingstown-3", "name": "Dragon Palace Of Wakefield", "image_url": "https://s3-media1.fl.yelpcdn.com/bphoto/fvw4ylyPXXLzuZj8u2bx7w/o.jpg", "is_closed": false, "url": "https://www.yelp.com/biz/dragon-palace-of-wakefield-south-kingstown-3?adjust_creative=HbGs3gi3xS-SfqfxZRDuCw&utm_campaign=yelp_api_v3&utm_medium=api_v3_business_search&utm_source=HbGs3gi3xS-SfqfxZRDuCw", "review_count": 51, "categories": [{"alias": "chinese", "title": "Chinese"}], "rating": 3.0, "coordinates": {"latitude": 41.4441108703613, "longitude": -71.4890975952148}, "transactions": [], "price": "$$", "location": {"address1": "733 Kingstown Rd", "address2": "", "address3": "", "city": "South Kingstown", "zip_code": "02879", "country": "US", "state": "RI", "display_address": ["733 Kingstown Rd", "South Kingstown, RI 02879"]}, "phone": "+14017892300", "display_phone": "(401) 789-2300", "distance": 477.50382896004703}, {"id": "s90hCSNEo-9u8B8amn5rQQ", "alias": "tong-d-2-south-kingstown", "name": "Tong-D 2", "image_url": "https://s3-media1.fl.yelpcdn.com/bphoto/K0teML5ZqrwGiyyMxh1rbA/o.jpg", "is_closed": false, "url": "https://www.yelp.com/biz/tong-d-2-south-kingstown?adjust_creative=HbGs3gi3xS-SfqfxZRDuCw&utm_campaign=yelp_api_v3&utm_medium=api_v3_business_search&utm_source=HbGs3gi3xS-SfqfxZRDuCw", "review_count": 93, "categories": [{"alias": "thai", "title": "Thai"}, {"alias": "asianfusion", "title": "Asian Fusion"}, {"alias": "bars", "title": "Bars"}], "rating": 4.5, "coordinates": {"latitude": 41.455786, "longitude": -71.470604}, "transactions": [], "price": "$$", "location": {"address1": "50 S County Common Way", "address2": null, "address3": "", "city": "South Kingstown", "zip_code": "02879", "country": "US", "state": "RI", "display_address": ["50 S County Common Way", "South Kingstown, RI 02879"]}, "phone": "+14017834445", "display_phone": "(401) 783-4445", "distance": 2240.772466335182}, {"id": "a6tglzJ5NkYpFzg35Gd6Ww", "alias": "the-bike-stop-cafe-narragansett", "name": "The Bike Stop Cafe", "image_url": "https://s3-media3.fl.yelpcdn.com/bphoto/th7BUW4uG48BBxKIOkVGQw/o.jpg", "is_closed": false, "url": "https://www.yelp.com/biz/the-bike-stop-cafe-narragansett?adjust_creative=HbGs3gi3xS-SfqfxZRDuCw&utm_campaign=yelp_api_v3&utm_medium=api_v3_business_search&utm_source=HbGs3gi3xS-SfqfxZRDuCw", "review_count": 172, "categories": [{"alias": "pizza", "title": "Pizza"}, {"alias": "seafood", "title": "Seafood"}, {"alias": "breakfast_brunch", "title": "Breakfast & Brunch"}], "rating": 4.0, "coordinates": {"latitude": 41.4257397530802, "longitude": -71.4593648519794}, "transactions": [], "price": "$$", "location": {"address1": "148 Boon St", "address2": "", "address3": "", "city": "Narragansett", "zip_code": "02882", "country": "US", "state": "RI", "display_address": ["148 Boon St", "Narragansett, RI 02882"]}, "phone": "+14012841414", "display_phone": "(401) 284-1414", "distance": 2822.224165246422}, {"id": "L3tw7vbsZami-_qbJSo93Q", "alias": "new-dragon-narragansett", "name": "New Dragon", "image_url": "https://s3-media3.fl.yelpcdn.com/bphoto/ty8s7IhX7dNmtQnGmEs3Ig/o.jpg", "is_closed": false, "url": "https://www.yelp.com/biz/new-dragon-narragansett?adjust_creative=HbGs3gi3xS-SfqfxZRDuCw&utm_campaign=yelp_api_v3&utm_medium=api_v3_business_search&utm_source=HbGs3gi3xS-SfqfxZRDuCw", "review_count": 56, "categories": [{"alias": "chinese", "title": "Chinese"}], "rating": 3.5, "coordinates": {"latitude": 41.428742, "longitude": -71.48074}, "transactions": [], "price": "$$", "location": {"address1": "80 Point Judith Rd", "address2": "", "address3": "", "city": "Narragansett", "zip_code": "02882", "country": "US", "state": "RI", "display_address": ["80 Point Judith Rd", "Narragansett, RI 02882"]}, "phone": "+14017831125", "display_phone": "(401) 783-1125", "distance": 1268.3624117173422}, {"id": "sYXAAXtBluCD1EEAdBNWpQ", "alias": "coastal-crepes-narragansett", "name": "Coastal Crepes", "image_url": "https://s3-media3.fl.yelpcdn.com/bphoto/h4PdBGh8x8yC01px04jMRA/o.jpg", "is_closed": false, "url": "https://www.yelp.com/biz/coastal-crepes-narragansett?adjust_creative=HbGs3gi3xS-SfqfxZRDuCw&utm_campaign=yelp_api_v3&utm_medium=api_v3_business_search&utm_source=HbGs3gi3xS-SfqfxZRDuCw", "review_count": 26, "categories": [{"alias": "creperies", "title": "Creperies"}], "rating": 4.5, "coordinates": {"latitude": 41.430968, "longitude": -71.458234}, "transactions": [], "price": "$", "location": {"address1": "20 Pier Market Pl", "address2": null, "address3": "", "city": "Narragansett", "zip_code": "02882", "country": "US", "state": "RI", "display_address": ["20 Pier Market Pl", "Narragansett, RI 02882"]}, "phone": "+14013639904", "display_phone": "(401) 363-9904", "distance": 2596.870268024917}, {"id": "L55IjPfkRUv-KyHXeINkXw", "alias": "thais-best-narragansett", "name": "Thai's Best", "image_url": "https://s3-media2.fl.yelpcdn.com/bphoto/l34M4pe_wTWHlUboZtnOpQ/o.jpg", "is_closed": false, "url": "https://www.yelp.com/biz/thais-best-narragansett?adjust_creative=HbGs3gi3xS-SfqfxZRDuCw&utm_campaign=yelp_api_v3&utm_medium=api_v3_business_search&utm_source=HbGs3gi3xS-SfqfxZRDuCw", "review_count": 7, "categories": [{"alias": "thai", "title": "Thai"}], "rating": 3.5, "coordinates": {"latitude": 41.4320754406459, "longitude": -71.4586635679007}, "transactions": [], "location": {"address1": "21 Pier Market Pl", "address2": "", "address3": null, "city": "Narragansett", "zip_code": "02882", "country": "US", "state": "RI", "display_address": ["21 Pier Market Pl", "Narragansett, RI 02882"]}, "phone": "+14017837645", "display_phone": "(401) 783-7645", "distance": 2549.3952073303676}, {"id": "VTy3vECcVPfQyaTOY5oYKw", "alias": "pjs-pub-narragansett", "name": "PJ's Pub", "image_url": "https://s3-media4.fl.yelpcdn.com/bphoto/z2nk4G8-P-zb32clg07k_g/o.jpg", "is_closed": false, "url": "https://www.yelp.com/biz/pjs-pub-narragansett?adjust_creative=HbGs3gi3xS-SfqfxZRDuCw&utm_campaign=yelp_api_v3&utm_medium=api_v3_business_search&utm_source=HbGs3gi3xS-SfqfxZRDuCw", "review_count": 54, "categories": [{"alias": "pubs", "title": "Pubs"}, {"alias": "mediterranean", "title": "Mediterranean"}], "rating": 3.5, "coordinates": {"latitude": 41.4265, "longitude": -71.45977}, "transactions": [], "price": "$$", "location": {"address1": "135 Boon St", "address2": null, "address3": null, "city": "Narragansett", "zip_code": "02882", "country": "US", "state": "RI", "display_address": ["135 Boon St", "Narragansett, RI 02882"]}, "phone": "+14017893200", "display_phone": "(401) 789-3200", "distance": 2741.958747542643}, {"id": "fFwnhnFu56UaJ3Mvp5qe5g", "alias": "old-mountain-lanes-wakefield", "name": "Old Mountain Lanes", "image_url": "https://s3-media2.fl.yelpcdn.com/bphoto/PK-Fc4g9sIlMv02UVHXKzw/o.jpg", "is_closed": false, "url": "https://www.yelp.com/biz/old-mountain-lanes-wakefield?adjust_creative=HbGs3gi3xS-SfqfxZRDuCw&utm_campaign=yelp_api_v3&utm_medium=api_v3_business_search&utm_source=HbGs3gi3xS-SfqfxZRDuCw", "review_count": 27, "categories": [{"alias": "bowling", "title": "Bowling"}, {"alias": "bars", "title": "Bars"}, {"alias": "tradamerican", "title": "American (Traditional)"}], "rating": 4.0, "coordinates": {"latitude": 41.44473, "longitude": -71.48998}, "transactions": [], "location": {"address1": "756 Kingstown Rd", "address2": "", "address3": "", "city": "Wakefield", "zip_code": "02879", "country": "US", "state": "RI", "display_address": ["756 Kingstown Rd", "Wakefield, RI 02879"]}, "phone": "+14017835511", "display_phone": "(401) 783-5511", "distance": 577.2486225233565}, {"id": "ucYEO0Pz8oQFQB7r6MGqIQ", "alias": "turtle-soup-narragansett", "name": "Turtle Soup", "image_url": "https://s3-media3.fl.yelpcdn.com/bphoto/g8s20l1UHZ70w_CuFKM4pg/o.jpg", "is_closed": false, "url": "https://www.yelp.com/biz/turtle-soup-narragansett?adjust_creative=HbGs3gi3xS-SfqfxZRDuCw&utm_campaign=yelp_api_v3&utm_medium=api_v3_business_search&utm_source=HbGs3gi3xS-SfqfxZRDuCw", "review_count": 136, "categories": [{"alias": "italian", "title": "Italian"}], "rating": 3.0, "coordinates": {"latitude": 41.426495, "longitude": -71.456326}, "transactions": [], "price": "$$", "location": {"address1": "113 Ocean Rd", "address2": "", "address3": "", "city": "Narragansett", "zip_code": "02882", "country": "US", "state": "RI", "display_address": ["113 Ocean Rd", "Narragansett, RI 02882"]}, "phone": "+14017928683", "display_phone": "(401) 792-8683", "distance": 2991.9029611254323}, {"id": "f7h8PyLAheLn8O_bbEB4nA", "alias": "luk-thai-wakefield", "name": "Luk Thai", "image_url": "https://s3-media1.fl.yelpcdn.com/bphoto/MCp2OJqYmbRMI6k0AalZ5Q/o.jpg", "is_closed": false, "url": "https://www.yelp.com/biz/luk-thai-wakefield?adjust_creative=HbGs3gi3xS-SfqfxZRDuCw&utm_campaign=yelp_api_v3&utm_medium=api_v3_business_search&utm_source=HbGs3gi3xS-SfqfxZRDuCw", "review_count": 74, "categories": [{"alias": "thai", "title": "Thai"}], "rating": 4.0, "coordinates": {"latitude": 41.4379047045017, "longitude": -71.4999085664749}, "transactions": [], "price": "$$", "location": {"address1": "249 Main St", "address2": "", "address3": "", "city": "Wakefield", "zip_code": "02879", "country": "US", "state": "RI", "display_address": ["249 Main St", "Wakefield, RI 02879"]}, "phone": "+14012844370", "display_phone": "(401) 284-4370", "distance": 1072.9512218287823}, {"id": "jNkgf4s_M9G1ITmNElgphg", "alias": "phils-restaurant-wakefield", "name": "Phil's Restaurant", "image_url": "https://s3-media2.fl.yelpcdn.com/bphoto/ne78EOu4uvJov-mKsPYZuA/o.jpg", "is_closed": false, "url": "https://www.yelp.com/biz/phils-restaurant-wakefield?adjust_creative=HbGs3gi3xS-SfqfxZRDuCw&utm_campaign=yelp_api_v3&utm_medium=api_v3_business_search&utm_source=HbGs3gi3xS-SfqfxZRDuCw", "review_count": 126, "categories": [{"alias": "diners", "title": "Diners"}, {"alias": "tradamerican", "title": "American (Traditional)"}, {"alias": "cocktailbars", "title": "Cocktail Bars"}], "rating": 3.5, "coordinates": {"latitude": 41.4385852, "longitude": -71.4993618}, "transactions": [], "price": "$$", "location": {"address1": "323 Main St", "address2": "", "address3": "", "city": "Wakefield", "zip_code": "02879", "country": "US", "state": "RI", "display_address": ["323 Main St", "Wakefield, RI 02879"]}, "phone": "+14017834073", "display_phone": "(401) 783-4073", "distance": 987.9999050167675}, {"id": "hvbEVUhsk2-WBjIgpQggKg", "alias": "dbs-pizza-south-kingstown", "name": "DB's Pizza", "image_url": "https://s3-media4.fl.yelpcdn.com/bphoto/D-9-dSC26Ror9wGF4jt2Dg/o.jpg", "is_closed": false, "url": "https://www.yelp.com/biz/dbs-pizza-south-kingstown?adjust_creative=HbGs3gi3xS-SfqfxZRDuCw&utm_campaign=yelp_api_v3&utm_medium=api_v3_business_search&utm_source=HbGs3gi3xS-SfqfxZRDuCw", "review_count": 20, "categories": [{"alias": "pizza", "title": "Pizza"}], "rating": 4.0, "coordinates": {"latitude": 41.4390717, "longitude": -71.4870453}, "transactions": [], "price": "$$", "location": {"address1": "546 Kingstown Rd", "address2": null, "address3": "", "city": "South Kingstown", "zip_code": "02879", "country": "US", "state": "RI", "display_address": ["546 Kingstown Rd", "South Kingstown, RI 02879"]}, "phone": "+14017894222", "display_phone": "(401) 789-4222", "distance": 103.4199949782172}, {"id": "72OGzka9UU53HBebGAG84g", "alias": "five-guys-wakefield", "name": "Five Guys", "image_url": "https://s3-media4.fl.yelpcdn.com/bphoto/TsMCQlIpzr8uopzDU7-A4Q/o.jpg", "is_closed": false, "url": "https://www.yelp.com/biz/five-guys-wakefield?adjust_creative=HbGs3gi3xS-SfqfxZRDuCw&utm_campaign=yelp_api_v3&utm_medium=api_v3_business_search&utm_source=HbGs3gi3xS-SfqfxZRDuCw", "review_count": 20, "categories": [{"alias": "burgers", "title": "Burgers"}, {"alias": "hotdogs", "title": "Fast Food"}], "rating": 4.0, "coordinates": {"latitude": 41.44061, "longitude": -71.48881}, "transactions": [], "price": "$", "location": {"address1": "600 Kingstown Rd", "address2": "", "address3": "", "city": "Wakefield", "zip_code": "02879", "country": "US", "state": "RI", "display_address": ["600 Kingstown Rd", "Wakefield, RI 02879"]}, "phone": "+14012842395", "display_phone": "(401) 284-2395", "distance": 173.66139837641532}, {"id": "E75rKYYtQreV1lgKJ0QMCw", "alias": "ocean-catch-seafood-wakefield-2", "name": "Ocean Catch Seafood", "image_url": "", "is_closed": false, "url": "https://www.yelp.com/biz/ocean-catch-seafood-wakefield-2?adjust_creative=HbGs3gi3xS-SfqfxZRDuCw&utm_campaign=yelp_api_v3&utm_medium=api_v3_business_search&utm_source=HbGs3gi3xS-SfqfxZRDuCw", "review_count": 1, "categories": [{"alias": "seafood", "title": "Seafood"}], "rating": 4.0, "coordinates": {"latitude": 41.43923, "longitude": -71.48748}, "transactions": [], "location": {"address1": "566 Kingstown Rd", "address2": "", "address3": "", "city": "Wakefield", "zip_code": "02879", "country": "US", "state": "RI", "display_address": ["566 Kingstown Rd", "Wakefield, RI 02879"]}, "phone": "+14017893474", "display_phone": "(401) 789-3474", "distance": 44.34715054839079}, {"id": "mRKOY5Mibo-icJXU-XwCwQ", "alias": "moes-southwest-grill-wakefield", "name": "Moe's Southwest Grill", "image_url": "https://s3-media2.fl.yelpcdn.com/bphoto/S65tic5-JpHA45c1s-SLuA/o.jpg", "is_closed": false, "url": "https://www.yelp.com/biz/moes-southwest-grill-wakefield?adjust_creative=HbGs3gi3xS-SfqfxZRDuCw&utm_campaign=yelp_api_v3&utm_medium=api_v3_business_search&utm_source=HbGs3gi3xS-SfqfxZRDuCw", "review_count": 21, "categories": [{"alias": "mexican", "title": "Mexican"}, {"alias": "tex-mex", "title": "Tex-Mex"}], "rating": 3.0, "coordinates": {"latitude": 41.441642716527, "longitude": -71.4885601401329}, "transactions": [], "price": "$", "location": {"address1": "600 Kingstown Rd", "address2": "", "address3": "", "city": "Wakefield", "zip_code": "02879", "country": "US", "state": "RI", "display_address": ["600 Kingstown Rd", "Wakefield, RI 02879"]}, "phone": "+14012842940", "display_phone": "(401) 284-2940", "distance": 173.66139837641532}, {"id": "x4cqp0vNS3N6kbihLheX3w", "alias": "picnic-basket-narragansett", "name": "Picnic Basket", "image_url": "https://s3-media4.fl.yelpcdn.com/bphoto/uBq_XCqcJYL90CcZfEpZtg/o.jpg", "is_closed": false, "url": "https://www.yelp.com/biz/picnic-basket-narragansett?adjust_creative=HbGs3gi3xS-SfqfxZRDuCw&utm_campaign=yelp_api_v3&utm_medium=api_v3_business_search&utm_source=HbGs3gi3xS-SfqfxZRDuCw", "review_count": 77, "categories": [{"alias": "delis", "title": "Delis"}, {"alias": "coffee", "title": "Coffee & Tea"}, {"alias": "vegetarian", "title": "Vegetarian"}], "rating": 3.5, "coordinates": {"latitude": 41.430758, "longitude": -71.4587991}, "transactions": ["pickup"], "price": "$", "location": {"address1": "20 Kingstown Rd", "address2": "", "address3": "", "city": "Narragansett", "zip_code": "02882", "country": "US", "state": "RI", "display_address": ["20 Kingstown Rd", "Narragansett, RI 02882"]}, "phone": "+14017822284", "display_phone": "(401) 782-2284", "distance": 2593.7076460111516}, {"id": "34MiRVbf5fvQjdgF-f5P0g", "alias": "camdens-wakefield", "name": "Camden's", "image_url": "https://s3-media1.fl.yelpcdn.com/bphoto/7YO1JddZtUieCP0CT0uAww/o.jpg", "is_closed": false, "url": "https://www.yelp.com/biz/camdens-wakefield?adjust_creative=HbGs3gi3xS-SfqfxZRDuCw&utm_campaign=yelp_api_v3&utm_medium=api_v3_business_search&utm_source=HbGs3gi3xS-SfqfxZRDuCw", "review_count": 18, "categories": [{"alias": "tradamerican", "title": "American (Traditional)"}, {"alias": "burgers", "title": "Burgers"}, {"alias": "sandwiches", "title": "Sandwiches"}], "rating": 4.0, "coordinates": {"latitude": 41.44473, "longitude": -71.48998}, "transactions": [], "price": "$$", "location": {"address1": "756 Kingstown Rd", "address2": "", "address3": "", "city": "Wakefield", "zip_code": "02879", "country": "US", "state": "RI", "display_address": ["756 Kingstown Rd", "Wakefield, RI 02879"]}, "phone": "+14017822328", "display_phone": "(401) 782-2328", "distance": 577.843023808994}, {"id": "Io4C5tUwnb_YzeaMXHBqBA", "alias": "shuckin-truck-narragansett-2", "name": "Shuckin Truck", "image_url": "https://s3-media2.fl.yelpcdn.com/bphoto/r7QRORfe9UYVS7GGzUm9DQ/o.jpg", "is_closed": false, "url": "https://www.yelp.com/biz/shuckin-truck-narragansett-2?adjust_creative=HbGs3gi3xS-SfqfxZRDuCw&utm_campaign=yelp_api_v3&utm_medium=api_v3_business_search&utm_source=HbGs3gi3xS-SfqfxZRDuCw", "review_count": 24, "categories": [{"alias": "foodtrucks", "title": "Food Trucks"}, {"alias": "seafood", "title": "Seafood"}], "rating": 4.5, "coordinates": {"latitude": 41.4274482727051, "longitude": -71.4597778320313}, "transactions": [], "price": "$$", "location": {"address1": "", "address2": "", "address3": "", "city": "Narragansett", "zip_code": "02882", "country": "US", "state": "RI", "display_address": ["Narragansett, RI 02882"]}, "phone": "+14017415953", "display_phone": "(401) 741-5953", "distance": 4637.5490492907875}, {"id": "rYv0OuC-Hr8y7UdT9Gm18g", "alias": "kingston-pizza-north-point-narragansett", "name": "Kingston Pizza North Point", "image_url": "https://s3-media2.fl.yelpcdn.com/bphoto/nESED8FMTk5oHyEGPA9EaQ/o.jpg", "is_closed": false, "url": "https://www.yelp.com/biz/kingston-pizza-north-point-narragansett?adjust_creative=HbGs3gi3xS-SfqfxZRDuCw&utm_campaign=yelp_api_v3&utm_medium=api_v3_business_search&utm_source=HbGs3gi3xS-SfqfxZRDuCw", "review_count": 1, "categories": [{"alias": "pizza", "title": "Pizza"}, {"alias": "cheesesteaks", "title": "Cheesesteaks"}, {"alias": "wraps", "title": "Wraps"}], "rating": 5.0, "coordinates": {"latitude": 41.42693, "longitude": -71.48033}, "transactions": [], "location": {"address1": "120 Point Judith Rd", "address2": null, "address3": null, "city": "Narragansett", "zip_code": "02882", "country": "US", "state": "RI", "display_address": ["120 Point Judith Rd", "Narragansett, RI 02882"]}, "phone": "+14015157355", "display_phone": "(401) 515-7355", "distance": 1568.7482231257254}, {"id": "QWW-g-wXCFmGc8YK0CnDmA", "alias": "pier-pizza-company-wakefield", "name": "Pier Pizza Company", "image_url": "https://s3-media1.fl.yelpcdn.com/bphoto/TCQ9U-unJTKSsNE2RHA_dw/o.jpg", "is_closed": false, "url": "https://www.yelp.com/biz/pier-pizza-company-wakefield?adjust_creative=HbGs3gi3xS-SfqfxZRDuCw&utm_campaign=yelp_api_v3&utm_medium=api_v3_business_search&utm_source=HbGs3gi3xS-SfqfxZRDuCw", "review_count": 40, "categories": [{"alias": "pizza", "title": "Pizza"}], "rating": 3.5, "coordinates": {"latitude": 41.438673, "longitude": -71.498962}, "transactions": [], "price": "$", "location": {"address1": "328 Main St", "address2": "", "address3": "", "city": "Wakefield", "zip_code": "02879", "country": "US", "state": "RI", "display_address": ["328 Main St", "Wakefield, RI 02879"]}, "phone": "+14017888181", "display_phone": "(401) 788-8181", "distance": 979.4536552127533}, {"id": "FO2Korx1nRBfmpnXaFNFkg", "alias": "meldgies-rivers-edge-cafe-wakefield", "name": "Meldgie's Rivers Edge Cafe ", "image_url": "https://s3-media1.fl.yelpcdn.com/bphoto/IYA63PoifxgJqHVuKrgSvw/o.jpg", "is_closed": false, "url": "https://www.yelp.com/biz/meldgies-rivers-edge-cafe-wakefield?adjust_creative=HbGs3gi3xS-SfqfxZRDuCw&utm_campaign=yelp_api_v3&utm_medium=api_v3_business_search&utm_source=HbGs3gi3xS-SfqfxZRDuCw", "review_count": 13, "categories": [{"alias": "diners", "title": "Diners"}], "rating": 4.0, "coordinates": {"latitude": 41.4475686, "longitude": -71.524667}, "transactions": [], "price": "$$", "location": {"address1": "406 Main St", "address2": "Ste B", "address3": null, "city": "Wakefield", "zip_code": "02879", "country": "US", "state": "RI", "display_address": ["406 Main St", "Ste B", "Wakefield, RI 02879"]}, "phone": "+14017895960", "display_phone": "(401) 789-5960", "distance": 3221.646388609066}, {"id": "DyQh3qxQLfDhi8QadIUOlA", "alias": "arturo-joes-grill-and-bar-narragansett", "name": "Arturo Joe's Grill & Bar", "image_url": "https://s3-media1.fl.yelpcdn.com/bphoto/KCyiAQOf3_lr0RVSWpgzhw/o.jpg", "is_closed": false, "url": "https://www.yelp.com/biz/arturo-joes-grill-and-bar-narragansett?adjust_creative=HbGs3gi3xS-SfqfxZRDuCw&utm_campaign=yelp_api_v3&utm_medium=api_v3_business_search&utm_source=HbGs3gi3xS-SfqfxZRDuCw", "review_count": 128, "categories": [{"alias": "italian", "title": "Italian"}, {"alias": "bars", "title": "Bars"}, {"alias": "pizza", "title": "Pizza"}], "rating": 3.5, "coordinates": {"latitude": 41.426, "longitude": -71.48083}, "transactions": [], "price": "$$", "location": {"address1": "140 Point Judith Rd", "address2": "", "address3": "", "city": "Narragansett", "zip_code": "02882", "country": "US", "state": "RI", "display_address": ["140 Point Judith Rd", "Narragansett, RI 02882"]}, "phone": "+14017893230", "display_phone": "(401) 789-3230", "distance": 1691.725856352659}, {"id": "eeJQK86eradHjWhO6xA4qg", "alias": "sweet-cakes-bakery-peace-dale", "name": "Sweet Cakes Bakery", "image_url": "https://s3-media4.fl.yelpcdn.com/bphoto/G3LIfyOYrP3N_ZCK_jJ7Sg/o.jpg", "is_closed": false, "url": "https://www.yelp.com/biz/sweet-cakes-bakery-peace-dale?adjust_creative=HbGs3gi3xS-SfqfxZRDuCw&utm_campaign=yelp_api_v3&utm_medium=api_v3_business_search&utm_source=HbGs3gi3xS-SfqfxZRDuCw", "review_count": 42, "categories": [{"alias": "bakeries", "title": "Bakeries"}, {"alias": "customcakes", "title": "Custom Cakes"}, {"alias": "cafes", "title": "Cafes"}], "rating": 4.0, "coordinates": {"latitude": 41.4512799, "longitude": -71.49975}, "transactions": [], "price": "$", "location": {"address1": "1227 Kingstown Rd", "address2": "", "address3": "", "city": "Peace Dale", "zip_code": "02879", "country": "US", "state": "RI", "display_address": ["1227 Kingstown Rd", "Peace Dale, RI 02879"]}, "phone": "+14017895420", "display_phone": "(401) 789-5420", "distance": 1625.591900050373}, {"id": "PnUNpa2DEhO-RB_nsQ3UiQ", "alias": "twisted-pizza-wakefield-wakefield", "name": "Twisted Pizza- Wakefield", "image_url": "https://s3-media4.fl.yelpcdn.com/bphoto/Wv0gqEUdaoJ-xHxP0e-23g/o.jpg", "is_closed": false, "url": "https://www.yelp.com/biz/twisted-pizza-wakefield-wakefield?adjust_creative=HbGs3gi3xS-SfqfxZRDuCw&utm_campaign=yelp_api_v3&utm_medium=api_v3_business_search&utm_source=HbGs3gi3xS-SfqfxZRDuCw", "review_count": 19, "categories": [{"alias": "pizza", "title": "Pizza"}, {"alias": "greek", "title": "Greek"}, {"alias": "burgers", "title": "Burgers"}], "rating": 2.5, "coordinates": {"latitude": 41.4417409, "longitude": -71.4877449}, "transactions": [], "price": "$$", "location": {"address1": "28 Old Tower Hill Rd", "address2": null, "address3": "", "city": "Wakefield", "zip_code": "02879", "country": "US", "state": "RI", "display_address": ["28 Old Tower Hill Rd", "Wakefield, RI 02879"]}, "phone": "+14017828800", "display_phone": "(401) 782-8800", "distance": 216.91595406487002}, {"id": "oXi5uZqBHaRN-9LfbTz4iw", "alias": "solarcart-cafe-wakefield", "name": "SolarCart Cafe", "image_url": "https://s3-media3.fl.yelpcdn.com/bphoto/2jnm4N-kA74C1G385wcvjw/o.jpg", "is_closed": false, "url": "https://www.yelp.com/biz/solarcart-cafe-wakefield?adjust_creative=HbGs3gi3xS-SfqfxZRDuCw&utm_campaign=yelp_api_v3&utm_medium=api_v3_business_search&utm_source=HbGs3gi3xS-SfqfxZRDuCw", "review_count": 5, "categories": [{"alias": "foodtrucks", "title": "Food Trucks"}, {"alias": "cafes", "title": "Cafes"}], "rating": 5.0, "coordinates": {"latitude": 41.3783548485934, "longitude": -71.5497396899248}, "transactions": [], "location": {"address1": "344 Main St", "address2": "", "address3": null, "city": "Wakefield", "zip_code": "02879", "country": "US", "state": "RI", "display_address": ["344 Main St", "Wakefield, RI 02879"]}, "phone": "+14017936041", "display_phone": "(401) 793-6041", "distance": 8607.545428004794}, {"id": "hC7JCnaIFpubmlbnetupdQ", "alias": "kingston-pizza-peacedale", "name": "Kingston Pizza", "image_url": "https://s3-media2.fl.yelpcdn.com/bphoto/kdxDdLPoL6psaq-nqifdhQ/o.jpg", "is_closed": false, "url": "https://www.yelp.com/biz/kingston-pizza-peacedale?adjust_creative=HbGs3gi3xS-SfqfxZRDuCw&utm_campaign=yelp_api_v3&utm_medium=api_v3_business_search&utm_source=HbGs3gi3xS-SfqfxZRDuCw", "review_count": 20, "categories": [{"alias": "pizza", "title": "Pizza"}], "rating": 4.0, "coordinates": {"latitude": 41.452, "longitude": -71.5016}, "transactions": [], "price": "$$", "location": {"address1": "1283 Kingstown Rd", "address2": null, "address3": null, "city": "Peacedale", "zip_code": "02879", "country": "US", "state": "RI", "display_address": ["1283 Kingstown Rd", "Peacedale, RI 02879"]}, "phone": "+14017898267", "display_phone": "(401) 789-8267", "distance": 1770.7168877384115}, {"id": "C5Jlj3D9zAK4AuKud7KqRw", "alias": "mcdonalds-wakefield-6", "name": "McDonald's", "image_url": "https://s3-media2.fl.yelpcdn.com/bphoto/bAAMSSoY2cYyILAc2QdGew/o.jpg", "is_closed": false, "url": "https://www.yelp.com/biz/mcdonalds-wakefield-6?adjust_creative=HbGs3gi3xS-SfqfxZRDuCw&utm_campaign=yelp_api_v3&utm_medium=api_v3_business_search&utm_source=HbGs3gi3xS-SfqfxZRDuCw", "review_count": 29, "categories": [{"alias": "coffee", "title": "Coffee & Tea"}, {"alias": "burgers", "title": "Burgers"}, {"alias": "hotdogs", "title": "Fast Food"}], "rating": 1.5, "coordinates": {"latitude": 41.44249716529, "longitude": -71.4831179380417}, "transactions": [], "price": "$", "location": {"address1": "149 Old Tower Hill Rd", "address2": null, "address3": null, "city": "Wakefield", "zip_code": "02879", "country": "US", "state": "RI", "display_address": ["149 Old Tower Hill Rd", "Wakefield, RI 02879"]}, "phone": "+14017835393", "display_phone": "(401) 783-5393", "distance": 447.51669273388075}, {"id": "GOeDkIWRdQf3b9v0O2Wb4g", "alias": "panera-bread-wakefield", "name": "Panera Bread", "image_url": "https://s3-media2.fl.yelpcdn.com/bphoto/9WwYaBmgc9O0p6ZtFgRAsg/o.jpg", "is_closed": false, "url": "https://www.yelp.com/biz/panera-bread-wakefield?adjust_creative=HbGs3gi3xS-SfqfxZRDuCw&utm_campaign=yelp_api_v3&utm_medium=api_v3_business_search&utm_source=HbGs3gi3xS-SfqfxZRDuCw", "review_count": 23, "categories": [{"alias": "sandwiches", "title": "Sandwiches"}, {"alias": "salad", "title": "Salad"}, {"alias": "soup", "title": "Soup"}], "rating": 2.5, "coordinates": {"latitude": 41.443884, "longitude": -71.482444}, "transactions": [], "price": "$$", "location": {"address1": "160 Old Tower Hill Rd", "address2": null, "address3": "", "city": "Wakefield", "zip_code": "02879", "country": "US", "state": "RI", "display_address": ["160 Old Tower Hill Rd", "Wakefield, RI 02879"]}, "phone": "+14017880102", "display_phone": "(401) 788-0102", "distance": 593.0897567472069}, {"id": "z6mrOh37jdCHItDBDl-frg", "alias": "pancho-o-malleys-narragansett-2", "name": "Pancho O'Malleys", "image_url": "https://s3-media4.fl.yelpcdn.com/bphoto/fu6FXdSBMsRA5M4oE7zl1w/o.jpg", "is_closed": false, "url": "https://www.yelp.com/biz/pancho-o-malleys-narragansett-2?adjust_creative=HbGs3gi3xS-SfqfxZRDuCw&utm_campaign=yelp_api_v3&utm_medium=api_v3_business_search&utm_source=HbGs3gi3xS-SfqfxZRDuCw", "review_count": 45, "categories": [{"alias": "irish", "title": "Irish"}, {"alias": "mexican", "title": "Mexican"}, {"alias": "bars", "title": "Bars"}], "rating": 3.0, "coordinates": {"latitude": 41.4257991490733, "longitude": -71.4801891158715}, "transactions": [], "price": "$$", "location": {"address1": "140 Point Judith Rd", "address2": "", "address3": "", "city": "Narragansett", "zip_code": "02882", "country": "US", "state": "RI", "display_address": ["140 Point Judith Rd", "Narragansett, RI 02882"]}, "phone": "+14017822299", "display_phone": "(401) 782-2299", "distance": 1690.353880147288}, {"id": "j6AIcBxenBQt4BWlrQ6Dqg", "alias": "colvittos-pizza-and-bakery-narragansett-2", "name": "Colvitto's Pizza & Bakery", "image_url": "https://s3-media2.fl.yelpcdn.com/bphoto/GVD9JSXYcHCFgAwwCdEHgg/o.jpg", "is_closed": false, "url": "https://www.yelp.com/biz/colvittos-pizza-and-bakery-narragansett-2?adjust_creative=HbGs3gi3xS-SfqfxZRDuCw&utm_campaign=yelp_api_v3&utm_medium=api_v3_business_search&utm_source=HbGs3gi3xS-SfqfxZRDuCw", "review_count": 51, "categories": [{"alias": "bakeries", "title": "Bakeries"}, {"alias": "pizza", "title": "Pizza"}, {"alias": "italian", "title": "Italian"}], "rating": 3.5, "coordinates": {"latitude": 41.4293497, "longitude": -71.4824288}, "transactions": [], "price": "$", "location": {"address1": "91 Point Judith Rd", "address2": "Ste 16", "address3": "", "city": "Narragansett", "zip_code": "02882", "country": "US", "state": "RI", "display_address": ["91 Point Judith Rd", "Ste 16", "Narragansett, RI 02882"]}, "phone": "+14017838086", "display_phone": "(401) 783-8086", "distance": 1255.5410051013796}, {"id": "f4lsi39nYE0posWc7l0gfw", "alias": "meldgies-rivers-edge-cafe-wakefield-2", "name": "Meldgie's Rivers Edge Cafe ", "image_url": "https://s3-media2.fl.yelpcdn.com/bphoto/x_cjiwf8rqSLvQ8URHw4FA/o.jpg", "is_closed": false, "url": "https://www.yelp.com/biz/meldgies-rivers-edge-cafe-wakefield-2?adjust_creative=HbGs3gi3xS-SfqfxZRDuCw&utm_campaign=yelp_api_v3&utm_medium=api_v3_business_search&utm_source=HbGs3gi3xS-SfqfxZRDuCw", "review_count": 7, "categories": [{"alias": "breakfast_brunch", "title": "Breakfast & Brunch"}, {"alias": "cafes", "title": "Cafes"}], "rating": 3.5, "coordinates": {"latitude": 41.4369321, "longitude": -71.5012044}, "transactions": [], "price": "$", "location": {"address1": "406 Main St", "address2": "", "address3": null, "city": "Wakefield", "zip_code": "02879", "country": "US", "state": "RI", "display_address": ["406 Main St", "Wakefield, RI 02879"]}, "phone": "+14017895960", "display_phone": "(401) 789-5960", "distance": 1157.1337893225686}, {"id": "dy9R137dnkNhWa3fs6ElPQ", "alias": "java-madness-wakefield", "name": "Java Madness", "image_url": "https://s3-media2.fl.yelpcdn.com/bphoto/oJXb2yIZ5u96QHqO55E5DQ/o.jpg", "is_closed": false, "url": "https://www.yelp.com/biz/java-madness-wakefield?adjust_creative=HbGs3gi3xS-SfqfxZRDuCw&utm_campaign=yelp_api_v3&utm_medium=api_v3_business_search&utm_source=HbGs3gi3xS-SfqfxZRDuCw", "review_count": 51, "categories": [{"alias": "coffee", "title": "Coffee & Tea"}, {"alias": "cafes", "title": "Cafes"}], "rating": 3.5, "coordinates": {"latitude": 41.4281628, "longitude": -71.4958398}, "transactions": [], "price": "$", "location": {"address1": "134 Salt Pond Rd", "address2": "", "address3": "", "city": "Wakefield", "zip_code": "02879", "country": "US", "state": "RI", "display_address": ["134 Salt Pond Rd", "Wakefield, RI 02879"]}, "phone": "+14017880088", "display_phone": "(401) 788-0088", "distance": 1393.8800534819168}, {"id": "uNtYHBr8xVzp0uK88GlTEA", "alias": "applebees-grill-bar-south-kingstown", "name": "Applebee's Grill + Bar", "image_url": "https://s3-media4.fl.yelpcdn.com/bphoto/KxmOC4Wta5ux64_9ogX0ww/o.jpg", "is_closed": false, "url": "https://www.yelp.com/biz/applebees-grill-bar-south-kingstown?adjust_creative=HbGs3gi3xS-SfqfxZRDuCw&utm_campaign=yelp_api_v3&utm_medium=api_v3_business_search&utm_source=HbGs3gi3xS-SfqfxZRDuCw", "review_count": 31, "categories": [{"alias": "tradamerican", "title": "American (Traditional)"}, {"alias": "sportsbars", "title": "Sports Bars"}, {"alias": "burgers", "title": "Burgers"}], "rating": 3.0, "coordinates": {"latitude": 41.4563, "longitude": -71.4694}, "transactions": ["delivery"], "price": "$$", "location": {"address1": "15 South County Commons Way", "address2": "", "address3": "", "city": "South Kingstown", "zip_code": "02879", "country": "US", "state": "RI", "display_address": ["15 South County Commons Way", "South Kingstown, RI 02879"]}, "phone": "+14017824578", "display_phone": "(401) 782-4578", "distance": 2348.379963929735}, {"id": "LELTFJn7jIMvZBRdw_OVkg", "alias": "rachels-cafe-wakefield-2", "name": "Rachel's cafe", "image_url": "https://s3-media3.fl.yelpcdn.com/bphoto/omhQ8ThPa0wTG37KLhRARw/o.jpg", "is_closed": false, "url": "https://www.yelp.com/biz/rachels-cafe-wakefield-2?adjust_creative=HbGs3gi3xS-SfqfxZRDuCw&utm_campaign=yelp_api_v3&utm_medium=api_v3_business_search&utm_source=HbGs3gi3xS-SfqfxZRDuCw", "review_count": 28, "categories": [{"alias": "breakfast_brunch", "title": "Breakfast & Brunch"}, {"alias": "tradamerican", "title": "American (Traditional)"}, {"alias": "cafes", "title": "Cafes"}], "rating": 4.0, "coordinates": {"latitude": 41.455779, "longitude": -71.470121}, "transactions": [], "price": "$$", "location": {"address1": "36 S County Commons Way", "address2": null, "address3": "", "city": "Wakefield", "zip_code": "02879", "country": "US", "state": "RI", "display_address": ["36 S County Commons Way", "Wakefield, RI 02879"]}, "phone": "+14017837888", "display_phone": "(401) 783-7888", "distance": 2262.1317737142635}, {"id": "EGoMpcq146ExPUFzozMpOQ", "alias": "burger-king-wakefield-4", "name": "Burger King", "image_url": "https://s3-media4.fl.yelpcdn.com/bphoto/7BgSrcuPH9awZ2ehsXEdxQ/o.jpg", "is_closed": false, "url": "https://www.yelp.com/biz/burger-king-wakefield-4?adjust_creative=HbGs3gi3xS-SfqfxZRDuCw&utm_campaign=yelp_api_v3&utm_medium=api_v3_business_search&utm_source=HbGs3gi3xS-SfqfxZRDuCw", "review_count": 12, "categories": [{"alias": "burgers", "title": "Burgers"}, {"alias": "hotdogs", "title": "Fast Food"}], "rating": 1.5, "coordinates": {"latitude": 41.44261, "longitude": -71.4843099}, "transactions": [], "price": "$", "location": {"address1": "126 Old Tower Hill Rd", "address2": "", "address3": "", "city": "Wakefield", "zip_code": "02879", "country": "US", "state": "RI", "display_address": ["126 Old Tower Hill Rd", "Wakefield, RI 02879"]}, "phone": "", "display_phone": "", "distance": 389.1786144193833}, {"id": "TIW5jCJ1qI6CQxpAU5TQJA", "alias": "saffron-lounge-wakefield", "name": "Saffron Lounge", "image_url": "", "is_closed": false, "url": "https://www.yelp.com/biz/saffron-lounge-wakefield?adjust_creative=HbGs3gi3xS-SfqfxZRDuCw&utm_campaign=yelp_api_v3&utm_medium=api_v3_business_search&utm_source=HbGs3gi3xS-SfqfxZRDuCw", "review_count": 2, "categories": [{"alias": "restaurants", "title": "Restaurants"}], "rating": 2.0, "coordinates": {"latitude": 53.659236, "longitude": -1.554721}, "transactions": [], "location": {"address1": "11 High St", "address2": "", "address3": "Horbury", "city": "Wakefield", "zip_code": "WF4 5AB", "country": "GB", "state": "XWY", "display_address": ["11 High St", "Horbury", "Wakefield WF4 5AB", "United Kingdom"]}, "phone": "+441924277677", "display_phone": "+44 1924 277677", "distance": 1256.7239563451517}, {"id": "wEbSduBun0RJQQFJJ3f87Q", "alias": "brewed-awakenings-coffeehouse-south-county-wakefield-3", "name": "Brewed Awakenings CoffeeHouse South County", "image_url": "https://s3-media3.fl.yelpcdn.com/bphoto/_jZeVAzIgFRJi_QTnyOGCQ/o.jpg", "is_closed": false, "url": "https://www.yelp.com/biz/brewed-awakenings-coffeehouse-south-county-wakefield-3?adjust_creative=HbGs3gi3xS-SfqfxZRDuCw&utm_campaign=yelp_api_v3&utm_medium=api_v3_business_search&utm_source=HbGs3gi3xS-SfqfxZRDuCw", "review_count": 82, "categories": [{"alias": "cafes", "title": "Cafes"}, {"alias": "sandwiches", "title": "Sandwiches"}, {"alias": "breakfast_brunch", "title": "Breakfast & Brunch"}], "rating": 3.0, "coordinates": {"latitude": 41.45588, "longitude": -71.47085}, "transactions": [], "price": "$", "location": {"address1": "60 S County Commons Way", "address2": "", "address3": "", "city": "Wakefield", "zip_code": "02879", "country": "US", "state": "RI", "display_address": ["60 S County Commons Way", "Wakefield, RI 02879"]}, "phone": "+14017830496", "display_phone": "(401) 783-0496", "distance": 2205.855831359529}, {"id": "JNRp-NPXsG2iUyMttPkH7A", "alias": "subway-narragansett-4", "name": "Subway", "image_url": "https://s3-media2.fl.yelpcdn.com/bphoto/IKQS1dCJCjYN78DtN9yEqA/o.jpg", "is_closed": false, "url": "https://www.yelp.com/biz/subway-narragansett-4?adjust_creative=HbGs3gi3xS-SfqfxZRDuCw&utm_campaign=yelp_api_v3&utm_medium=api_v3_business_search&utm_source=HbGs3gi3xS-SfqfxZRDuCw", "review_count": 3, "categories": [{"alias": "sandwiches", "title": "Sandwiches"}], "rating": 5.0, "coordinates": {"latitude": 41.4301847575767, "longitude": -71.4824796122684}, "transactions": [], "price": "$", "location": {"address1": "14 Woodruff Ave", "address2": "Unit 5", "address3": "", "city": "Narragansett", "zip_code": "02882", "country": "US", "state": "RI", "display_address": ["14 Woodruff Ave", "Unit 5", "Narragansett, RI 02882"]}, "phone": "+14017828060", "display_phone": "(401) 782-8060", "distance": 1166.6969134855642}, {"id": "DAOQ09y_X4_PEF7AzQ0qFA", "alias": "d-angelo-wakefield", "name": "D'Angelo", "image_url": "https://s3-media4.fl.yelpcdn.com/bphoto/gKemRNBxGGd8eJySga17hQ/o.jpg", "is_closed": false, "url": "https://www.yelp.com/biz/d-angelo-wakefield?adjust_creative=HbGs3gi3xS-SfqfxZRDuCw&utm_campaign=yelp_api_v3&utm_medium=api_v3_business_search&utm_source=HbGs3gi3xS-SfqfxZRDuCw", "review_count": 9, "categories": [{"alias": "sandwiches", "title": "Sandwiches"}, {"alias": "soup", "title": "Soup"}, {"alias": "wraps", "title": "Wraps"}], "rating": 3.0, "coordinates": {"latitude": 41.4420989, "longitude": -71.4836907}, "transactions": [], "price": "$$", "location": {"address1": "71 Old Tower Hill", "address2": "", "address3": "", "city": "Wakefield", "zip_code": "02879", "country": "US", "state": "RI", "display_address": ["71 Old Tower Hill", "Wakefield, RI 02879"]}, "phone": "+14017892050", "display_phone": "(401) 789-2050", "distance": 382.6742178643699}, {"id": "NJPutiSLbVNoUuDnHijY6g", "alias": "kfc-wakefield-4", "name": "KFC", "image_url": "https://s3-media2.fl.yelpcdn.com/bphoto/mfnc2G5gkVBwonklRguLdA/o.jpg", "is_closed": false, "url": "https://www.yelp.com/biz/kfc-wakefield-4?adjust_creative=HbGs3gi3xS-SfqfxZRDuCw&utm_campaign=yelp_api_v3&utm_medium=api_v3_business_search&utm_source=HbGs3gi3xS-SfqfxZRDuCw", "review_count": 7, "categories": [{"alias": "chicken_wings", "title": "Chicken Wings"}, {"alias": "hotdogs", "title": "Fast Food"}, {"alias": "chickenshop", "title": "Chicken Shop"}], "rating": 2.0, "coordinates": {"latitude": 41.4418852716743, "longitude": -71.4831244664985}, "transactions": ["pickup"], "price": "$", "location": {"address1": "139 Old Tower Hill Rd", "address2": "", "address3": "", "city": "Wakefield", "zip_code": "02879", "country": "US", "state": "RI", "display_address": ["139 Old Tower Hill Rd", "Wakefield, RI 02879"]}, "phone": "+14017889143", "display_phone": "(401) 788-9143", "distance": 408.7211823302361}, {"id": "Z5rK2v4UKS88ocU3PRfZAg", "alias": "taco-bell-wakefield", "name": "Taco Bell", "image_url": "https://s3-media2.fl.yelpcdn.com/bphoto/5jVsJeLpqvwAqhQz40JRbA/o.jpg", "is_closed": false, "url": "https://www.yelp.com/biz/taco-bell-wakefield?adjust_creative=HbGs3gi3xS-SfqfxZRDuCw&utm_campaign=yelp_api_v3&utm_medium=api_v3_business_search&utm_source=HbGs3gi3xS-SfqfxZRDuCw", "review_count": 10, "categories": [{"alias": "hotdogs", "title": "Fast Food"}, {"alias": "tacos", "title": "Tacos"}], "rating": 1.5, "coordinates": {"latitude": 41.441627, "longitude": -71.481989}, "transactions": [], "price": "$", "location": {"address1": "139 Old Tower Hill Road", "address2": "", "address3": "", "city": "Wakefield", "zip_code": "02879", "country": "US", "state": "RI", "display_address": ["139 Old Tower Hill Road", "Wakefield, RI 02879"]}, "phone": "+14017889143", "display_phone": "(401) 788-9143", "distance": 481.2617343627817}, {"id": "XTsBYB32LzuIjUioM-EQWw", "alias": "tonys-pizzeria-wakefield-2", "name": "Tony's Pizzeria", "image_url": "https://s3-media1.fl.yelpcdn.com/bphoto/ZDkOUWaiyhMr-N5sbwj5JA/o.jpg", "is_closed": false, "url": "https://www.yelp.com/biz/tonys-pizzeria-wakefield-2?adjust_creative=HbGs3gi3xS-SfqfxZRDuCw&utm_campaign=yelp_api_v3&utm_medium=api_v3_business_search&utm_source=HbGs3gi3xS-SfqfxZRDuCw", "review_count": 52, "categories": [{"alias": "pizza", "title": "Pizza"}, {"alias": "salad", "title": "Salad"}, {"alias": "fishnchips", "title": "Fish & Chips"}], "rating": 3.0, "coordinates": {"latitude": 41.466243, "longitude": -71.51186}, "transactions": [], "price": "$$", "location": {"address1": "1916 Kingstown Rd", "address2": "", "address3": "", "city": "Wakefield", "zip_code": "02879", "country": "US", "state": "RI", "display_address": ["1916 Kingstown Rd", "Wakefield, RI 02879"]}, "phone": "+14017898383", "display_phone": "(401) 789-8383", "distance": 3558.2114363159376}, {"id": "3kN89a8IzF0J5Y528ab4TQ", "alias": "whales-tail-narragansett-2", "name": "Whale's Tail", "image_url": "", "is_closed": false, "url": "https://www.yelp.com/biz/whales-tail-narragansett-2?adjust_creative=HbGs3gi3xS-SfqfxZRDuCw&utm_campaign=yelp_api_v3&utm_medium=api_v3_business_search&utm_source=HbGs3gi3xS-SfqfxZRDuCw", "review_count": 3, "categories": [{"alias": "breakfast_brunch", "title": "Breakfast & Brunch"}], "rating": 1.5, "coordinates": {"latitude": 41.425999, "longitude": -71.480829}, "transactions": [], "price": "$$", "location": {"address1": "140 Pt Judith Rd", "address2": "Ste 5A", "address3": "", "city": "Narragansett", "zip_code": "02882", "country": "US", "state": "RI", "display_address": ["140 Pt Judith Rd", "Ste 5A", "Narragansett, RI 02882"]}, "phone": "+14012841546", "display_phone": "(401) 284-1546", "distance": 1691.725856352659}, {"id": "KiHVtMvS_TgHJjJMXOlhLw", "alias": "subway-wakefield-10", "name": "Subway", "image_url": "https://s3-media1.fl.yelpcdn.com/bphoto/QWUwSbx4PsTC46iPeMvk2Q/o.jpg", "is_closed": false, "url": "https://www.yelp.com/biz/subway-wakefield-10?adjust_creative=HbGs3gi3xS-SfqfxZRDuCw&utm_campaign=yelp_api_v3&utm_medium=api_v3_business_search&utm_source=HbGs3gi3xS-SfqfxZRDuCw", "review_count": 5, "categories": [{"alias": "sandwiches", "title": "Sandwiches"}], "rating": 2.5, "coordinates": {"latitude": 41.4424926744013, "longitude": -71.4897268345906}, "transactions": ["pickup"], "price": "$", "location": {"address1": "684 Kingstown Rd", "address2": "Ste 02065S1B", "address3": null, "city": "Wakefield", "zip_code": "02879", "country": "US", "state": "RI", "display_address": ["684 Kingstown Rd", "Ste 02065S1B", "Wakefield, RI 02879"]}, "phone": "+14017831717", "display_phone": "(401) 783-1717", "distance": 338.76649811261916}, {"id": "MTrIzSPVJ3eJWBKhPFFCcQ", "alias": "dominos-pizza-narragansett", "name": "Domino's Pizza", "image_url": "https://s3-media2.fl.yelpcdn.com/bphoto/13wtK3nDBu0HxMyirGHvcQ/o.jpg", "is_closed": false, "url": "https://www.yelp.com/biz/dominos-pizza-narragansett?adjust_creative=HbGs3gi3xS-SfqfxZRDuCw&utm_campaign=yelp_api_v3&utm_medium=api_v3_business_search&utm_source=HbGs3gi3xS-SfqfxZRDuCw", "review_count": 11, "categories": [{"alias": "pizza", "title": "Pizza"}, {"alias": "chicken_wings", "title": "Chicken Wings"}, {"alias": "sandwiches", "title": "Sandwiches"}], "rating": 2.5, "coordinates": {"latitude": 41.426, "longitude": -71.48083}, "transactions": [], "price": "$", "location": {"address1": "140 Point Judith Rd", "address2": "", "address3": "", "city": "Narragansett", "zip_code": "02882", "country": "US", "state": "RI", "display_address": ["140 Point Judith Rd", "Narragansett, RI 02882"]}, "phone": "+14017821202", "display_phone": "(401) 782-1202", "distance": 1691.725856352659}, {"id": "igfgAh0W9ooc6PQVrDX46Q", "alias": "narragansett-bay-lobster-narragansett", "name": "Narragansett Bay Lobster", "image_url": "", "is_closed": false, "url": "https://www.yelp.com/biz/narragansett-bay-lobster-narragansett?adjust_creative=HbGs3gi3xS-SfqfxZRDuCw&utm_campaign=yelp_api_v3&utm_medium=api_v3_business_search&utm_source=HbGs3gi3xS-SfqfxZRDuCw", "review_count": 1, "categories": [{"alias": "seafood", "title": "Seafood"}], "rating": 1.0, "coordinates": {"latitude": 41.4281999, "longitude": -71.47702}, "transactions": [], "location": {"address1": "20 Walts Way", "address2": null, "address3": null, "city": "Narragansett", "zip_code": "02882", "country": "US", "state": "RI", "display_address": ["20 Walts Way", "Narragansett, RI 02882"]}, "phone": "+14012843400", "display_phone": "(401) 284-3400", "distance": 1561.6219283708265}, {"id": "iIhOj2ELiNQns1TD3rux0A", "alias": "perrys-neighborhood-bar-and-grille-narragansett", "name": "Perrys Neighborhood Bar and Grille", "image_url": "", "is_closed": false, "url": "https://www.yelp.com/biz/perrys-neighborhood-bar-and-grille-narragansett?adjust_creative=HbGs3gi3xS-SfqfxZRDuCw&utm_campaign=yelp_api_v3&utm_medium=api_v3_business_search&utm_source=HbGs3gi3xS-SfqfxZRDuCw", "review_count": 5, "categories": [{"alias": "breakfast_brunch", "title": "Breakfast & Brunch"}, {"alias": "burgers", "title": "Burgers"}], "rating": 2.5, "coordinates": {"latitude": 41.4256516, "longitude": -71.4809036}, "transactions": [], "price": "$$", "location": {"address1": "140 Point Judith Rd", "address2": "Ste 5A", "address3": "", "city": "Narragansett", "zip_code": "02882", "country": "US", "state": "RI", "display_address": ["140 Point Judith Rd", "Ste 5A", "Narragansett, RI 02882"]}, "phone": "", "display_phone": "", "distance": 2146.7826707114805}, {"id": "JIhRVJ4BAWPH9NZ0u-7Wzw", "alias": "flip-n-roll-fall-river", "name": "Flip N Roll", "image_url": "https://s3-media1.fl.yelpcdn.com/bphoto/A3l1k85peGnmCC17j-Bmhg/o.jpg", "is_closed": false, "url": "https://www.yelp.com/biz/flip-n-roll-fall-river?adjust_creative=HbGs3gi3xS-SfqfxZRDuCw&utm_campaign=yelp_api_v3&utm_medium=api_v3_business_search&utm_source=HbGs3gi3xS-SfqfxZRDuCw", "review_count": 1, "categories": [{"alias": "foodtrucks", "title": "Food Trucks"}, {"alias": "tradamerican", "title": "American (Traditional)"}, {"alias": "portuguese", "title": "Portuguese"}], "rating": 1.0, "coordinates": {"latitude": 41.68687, "longitude": -71.17062}, "transactions": [], "price": "$$", "location": {"address1": "", "address2": "", "address3": "", "city": "Fall River", "zip_code": "02724", "country": "US", "state": "MA", "display_address": ["Fall River, MA 02724"]}, "phone": "", "display_phone": "", "distance": 37940.00656308564}]