[{"id": "i0YraB_DpG56yhN_iFVdYQ", "alias": "portside-tavern-bristol", "name": "Portside Tavern", "image_url": "https://s3-media3.fl.yelpcdn.com/bphoto/x7MdL0CwWL7iTsNQ72ctTQ/o.jpg", "is_closed": false, "url": "https://www.yelp.com/biz/portside-tavern-bristol?adjust_creative=pzvBKuEUl0Vl1jtHQqJaog&utm_campaign=yelp_api_v3&utm_medium=api_v3_business_search&utm_source=pzvBKuEUl0Vl1jtHQqJaog", "review_count": 73, "categories": [{"alias": "seafood", "title": "Seafood"}, {"alias": "tradamerican", "title": "American (Traditional)"}], "rating": 4.0, "coordinates": {"latitude": 41.6731573, "longitude": -71.2786485}, "transactions": [], "price": "$$", "location": {"address1": "444 Thames St", "address2": null, "address3": "", "city": "Bristol", "zip_code": "02809", "country": "US", "state": "RI", "display_address": ["444 Thames St", "Bristol, RI 02809"]}, "phone": "+14013965149", "display_phone": "(401) 396-5149", "distance": 938.1275594487742}, {"id": "8hPjVTLYxHEctalEwD6fGg", "alias": "statesman-tavern-bristol-2", "name": "Statesman Tavern", "image_url": "https://s3-media4.fl.yelpcdn.com/bphoto/sg73pEDK7UOF3ob5Fr61xA/o.jpg", "is_closed": false, "url": "https://www.yelp.com/biz/statesman-tavern-bristol-2?adjust_creative=pzvBKuEUl0Vl1jtHQqJaog&utm_campaign=yelp_api_v3&utm_medium=api_v3_business_search&utm_source=pzvBKuEUl0Vl1jtHQqJaog", "review_count": 75, "categories": [{"alias": "cocktailbars", "title": "Cocktail Bars"}, {"alias": "newamerican", "title": "American (New)"}, {"alias": "tapasmallplates", "title": "Tapas/Small Plates"}], "rating": 4.5, "coordinates": {"latitude": 41.670377, "longitude": -71.2771456}, "transactions": [], "price": "$$", "location": {"address1": "31 State St", "address2": "", "address3": "", "city": "Bristol", "zip_code": "02809", "country": "US", "state": "RI", "display_address": ["31 State St", "Bristol, RI 02809"]}, "phone": "+14013965115", "display_phone": "(401) 396-5115", "distance": 1124.6874957424604}, {"id": "WTJL5C3a75KIGotxdyKK_w", "alias": "baba-sushi-bristol", "name": "Baba Sushi", "image_url": "https://s3-media2.fl.yelpcdn.com/bphoto/ovnlpYkkpEOTwyStSwb5rQ/o.jpg", "is_closed": false, "url": "https://www.yelp.com/biz/baba-sushi-bristol?adjust_creative=pzvBKuEUl0Vl1jtHQqJaog&utm_campaign=yelp_api_v3&utm_medium=api_v3_business_search&utm_source=pzvBKuEUl0Vl1jtHQqJaog", "review_count": 13, "categories": [{"alias": "sushi", "title": "Sushi Bars"}], "rating": 4.0, "coordinates": {"latitude": 41.669432, "longitude": -71.27788}, "transactions": ["restaurant_reservation"], "location": {"address1": "205 Thames St", "address2": "", "address3": null, "city": "Bristol", "zip_code": "02809", "country": "US", "state": "RI", "display_address": ["205 Thames St", "Bristol, RI 02809"]}, "phone": "", "display_phone": "", "distance": 1227.1561239819152}, {"id": "zdK1DCJPjUtFudhcIBQjyw", "alias": "bristol-oyster-bar-bristol", "name": "Bristol Oyster Bar", "image_url": "https://s3-media4.fl.yelpcdn.com/bphoto/T2Gnq3eHKQbjkZBaBKFNqA/o.jpg", "is_closed": false, "url": "https://www.yelp.com/biz/bristol-oyster-bar-bristol?adjust_creative=pzvBKuEUl0Vl1jtHQqJaog&utm_campaign=yelp_api_v3&utm_medium=api_v3_business_search&utm_source=pzvBKuEUl0Vl1jtHQqJaog", "review_count": 188, "categories": [{"alias": "seafood", "title": "Seafood"}, {"alias": "bars", "title": "Bars"}, {"alias": "raw_food", "title": "Live/Raw Food"}], "rating": 4.5, "coordinates": {"latitude": 41.670119, "longitude": -71.276248}, "transactions": [], "price": "$$$", "location": {"address1": "448 Hope St", "address2": "", "address3": "", "city": "Bristol", "zip_code": "02809", "country": "US", "state": "RI", "display_address": ["448 Hope St", "Bristol, RI 02809"]}, "phone": "+14013965820", "display_phone": "(401) 396-5820", "distance": 1125.4770222617706}, {"id": "g5uQ7KBdNadHlVhG-Dz_RQ", "alias": "pomodoro-pizzeria-bristol", "name": "Pomodoro Pizzeria", "image_url": "https://s3-media3.fl.yelpcdn.com/bphoto/-_tFWyCKZO4iiHpUS8YFhg/o.jpg", "is_closed": false, "url": "https://www.yelp.com/biz/pomodoro-pizzeria-bristol?adjust_creative=pzvBKuEUl0Vl1jtHQqJaog&utm_campaign=yelp_api_v3&utm_medium=api_v3_business_search&utm_source=pzvBKuEUl0Vl1jtHQqJaog", "review_count": 117, "categories": [{"alias": "italian", "title": "Italian"}, {"alias": "pizza", "title": "Pizza"}], "rating": 4.5, "coordinates": {"latitude": 41.669095, "longitude": -71.270527}, "transactions": [], "price": "$$", "location": {"address1": "271 Wood St", "address2": "", "address3": "", "city": "Bristol", "zip_code": "02809", "country": "US", "state": "RI", "display_address": ["271 Wood St", "Bristol, RI 02809"]}, "phone": "+14013969699", "display_phone": "(401) 396-9699", "distance": 1134.4719920712869}, {"id": "eHUsOAzeIAg0GN4lO4MjgQ", "alias": "quitos-bristol", "name": "Quito's", "image_url": "https://s3-media2.fl.yelpcdn.com/bphoto/Pi98OOkKUt07EMyoVz06sw/o.jpg", "is_closed": false, "url": "https://www.yelp.com/biz/quitos-bristol?adjust_creative=pzvBKuEUl0Vl1jtHQqJaog&utm_campaign=yelp_api_v3&utm_medium=api_v3_business_search&utm_source=pzvBKuEUl0Vl1jtHQqJaog", "review_count": 302, "categories": [{"alias": "seafood", "title": "Seafood"}], "rating": 3.5, "coordinates": {"latitude": 41.672478, "longitude": -71.278906}, "transactions": [], "price": "$$", "location": {"address1": "411 Thames St", "address2": "", "address3": "", "city": "Bristol", "zip_code": "02809", "country": "US", "state": "RI", "display_address": ["411 Thames St", "Bristol, RI 02809"]}, "phone": "+14012534500", "display_phone": "(401) 253-4500", "distance": 1084.7625548776375}, {"id": "yq-cAJeEBIlYXi0teuGSvg", "alias": "aidans-pub-bristol", "name": "Aidan's Pub", "image_url": "https://s3-media2.fl.yelpcdn.com/bphoto/FgRKv3tCU5pSYUj3cxYHWw/o.jpg", "is_closed": false, "url": "https://www.yelp.com/biz/aidans-pub-bristol?adjust_creative=pzvBKuEUl0Vl1jtHQqJaog&utm_campaign=yelp_api_v3&utm_medium=api_v3_business_search&utm_source=pzvBKuEUl0Vl1jtHQqJaog", "review_count": 190, "categories": [{"alias": "comfortfood", "title": "Comfort Food"}, {"alias": "irish_pubs", "title": "Irish Pub"}, {"alias": "karaoke", "title": "Karaoke"}], "rating": 4.0, "coordinates": {"latitude": 41.669417, "longitude": -71.277112}, "transactions": [], "price": "$$", "location": {"address1": "5 John St", "address2": "", "address3": "", "city": "Bristol", "zip_code": "02809", "country": "US", "state": "RI", "display_address": ["5 John St", "Bristol, RI 02809"]}, "phone": "+14012541940", "display_phone": "(401) 254-1940", "distance": 1209.1227744102891}, {"id": "CVZX3gEg1zYg-dCkVoH9Gw", "alias": "sakuratani-ramen-and-izakaya-bristol-5", "name": "Sakuratani Ramen & Izakaya", "image_url": "https://s3-media2.fl.yelpcdn.com/bphoto/_x0woBF5v0c0phw3Ngn47w/o.jpg", "is_closed": false, "url": "https://www.yelp.com/biz/sakuratani-ramen-and-izakaya-bristol-5?adjust_creative=pzvBKuEUl0Vl1jtHQqJaog&utm_campaign=yelp_api_v3&utm_medium=api_v3_business_search&utm_source=pzvBKuEUl0Vl1jtHQqJaog", "review_count": 84, "categories": [{"alias": "ramen", "title": "Ramen"}], "rating": 4.5, "coordinates": {"latitude": 41.6744941, "longitude": -71.2725667}, "transactions": [], "price": "$$", "location": {"address1": "531 Wood St", "address2": null, "address3": "", "city": "Bristol", "zip_code": "02809", "country": "US", "state": "RI", "display_address": ["531 Wood St", "Bristol, RI 02809"]}, "phone": "+14013965036", "display_phone": "(401) 396-5036", "distance": 502.3275602855044}, {"id": "dca9lkLK5R58GrFdQNlk3Q", "alias": "the-beehive-cafe-bristol", "name": "The Beehive Cafe", "image_url": "https://s3-media3.fl.yelpcdn.com/bphoto/tlj9Acl1PBztbKd5lhUZGA/o.jpg", "is_closed": false, "url": "https://www.yelp.com/biz/the-beehive-cafe-bristol?adjust_creative=pzvBKuEUl0Vl1jtHQqJaog&utm_campaign=yelp_api_v3&utm_medium=api_v3_business_search&utm_source=pzvBKuEUl0Vl1jtHQqJaog", "review_count": 422, "categories": [{"alias": "cafes", "title": "Cafes"}, {"alias": "breakfast_brunch", "title": "Breakfast & Brunch"}, {"alias": "tradamerican", "title": "American (Traditional)"}], "rating": 4.0, "coordinates": {"latitude": 41.6733752, "longitude": -71.2784254}, "transactions": [], "price": "$$", "location": {"address1": "10 Franklin St", "address2": "", "address3": "", "city": "Bristol", "zip_code": "02809", "country": "US", "state": "RI", "display_address": ["10 Franklin St", "Bristol, RI 02809"]}, "phone": "+14013969994", "display_phone": "(401) 396-9994", "distance": 917.0162885521644}, {"id": "fvMGMFQvCPCDBVcoN0RdLg", "alias": "judge-roy-bean-saloon-bristol", "name": "Judge Roy Bean Saloon", "image_url": "https://s3-media4.fl.yelpcdn.com/bphoto/UUjsor-XIfmkSs3dNk7cYA/o.jpg", "is_closed": false, "url": "https://www.yelp.com/biz/judge-roy-bean-saloon-bristol?adjust_creative=pzvBKuEUl0Vl1jtHQqJaog&utm_campaign=yelp_api_v3&utm_medium=api_v3_business_search&utm_source=pzvBKuEUl0Vl1jtHQqJaog", "review_count": 87, "categories": [{"alias": "pubs", "title": "Pubs"}, {"alias": "tradamerican", "title": "American (Traditional)"}, {"alias": "seafood", "title": "Seafood"}], "rating": 4.0, "coordinates": {"latitude": 41.6702889, "longitude": -71.277826}, "transactions": [], "price": "$$", "location": {"address1": "1 State St", "address2": "", "address3": "", "city": "Bristol", "zip_code": "02809", "country": "US", "state": "RI", "display_address": ["1 State St", "Bristol, RI 02809"]}, "phone": "+14012537400", "display_phone": "(401) 253-7400", "distance": 1154.7725578643544}, {"id": "BdKOQXw-dlZgPqCzszqYAg", "alias": "rhody-roots-warren", "name": "Rhody Roots", "image_url": "https://s3-media1.fl.yelpcdn.com/bphoto/UPuBQQilwKtb1nRrbMaodA/o.jpg", "is_closed": false, "url": "https://www.yelp.com/biz/rhody-roots-warren?adjust_creative=pzvBKuEUl0Vl1jtHQqJaog&utm_campaign=yelp_api_v3&utm_medium=api_v3_business_search&utm_source=pzvBKuEUl0Vl1jtHQqJaog", "review_count": 27, "categories": [{"alias": "newamerican", "title": "American (New)"}, {"alias": "gluten_free", "title": "Gluten-Free"}], "rating": 4.5, "coordinates": {"latitude": 41.7289, "longitude": -71.28235}, "transactions": ["pickup", "delivery"], "price": "$$", "location": {"address1": "511 Main St", "address2": "", "address3": null, "city": "Warren", "zip_code": "02885", "country": "US", "state": "RI", "display_address": ["511 Main St", "Warren, RI 02885"]}, "phone": "+14019039159", "display_phone": "(401) 903-9159", "distance": 5635.349932306743}, {"id": "KblN5uyCxBmr0g__7_6K2g", "alias": "s-s-dion-bristol", "name": "S S Dion", "image_url": "https://s3-media3.fl.yelpcdn.com/bphoto/kDtHCBJZiJik-fshih4IyA/o.jpg", "is_closed": false, "url": "https://www.yelp.com/biz/s-s-dion-bristol?adjust_creative=pzvBKuEUl0Vl1jtHQqJaog&utm_campaign=yelp_api_v3&utm_medium=api_v3_business_search&utm_source=pzvBKuEUl0Vl1jtHQqJaog", "review_count": 50, "categories": [{"alias": "seafood", "title": "Seafood"}], "rating": 4.0, "coordinates": {"latitude": 41.67448, "longitude": -71.27885}, "transactions": [], "price": "$$", "location": {"address1": "520 Thames St", "address2": "", "address3": "", "city": "Bristol", "zip_code": "02809", "country": "US", "state": "RI", "display_address": ["520 Thames St", "Bristol, RI 02809"]}, "phone": "+14012532884", "display_phone": "(401) 253-2884", "distance": 855.5417456599986}, {"id": "R8mqfsNEZk27rWrcrb-k4w", "alias": "robertos-italian-restaurant-bristol", "name": "Roberto's Italian Restaurant", "image_url": "https://s3-media3.fl.yelpcdn.com/bphoto/bsXPFU4ZB6NIlV0Q6kCXcw/o.jpg", "is_closed": false, "url": "https://www.yelp.com/biz/robertos-italian-restaurant-bristol?adjust_creative=pzvBKuEUl0Vl1jtHQqJaog&utm_campaign=yelp_api_v3&utm_medium=api_v3_business_search&utm_source=pzvBKuEUl0Vl1jtHQqJaog", "review_count": 93, "categories": [{"alias": "italian", "title": "Italian"}], "rating": 4.0, "coordinates": {"latitude": 41.6700998, "longitude": -71.2762458}, "transactions": [], "price": "$$$", "location": {"address1": "450 Hope St", "address2": "", "address3": "", "city": "Bristol", "zip_code": "02809", "country": "US", "state": "RI", "display_address": ["450 Hope St", "Bristol, RI 02809"]}, "phone": "+14012549732", "display_phone": "(401) 254-9732", "distance": 1106.976510476439}, {"id": "FosmLdpZUiR7QUUCSK9Mjw", "alias": "bar-31-bristol", "name": "Bar 31", "image_url": "https://s3-media2.fl.yelpcdn.com/bphoto/qKZKGUUt3a8PVmphPfZB5Q/o.jpg", "is_closed": false, "url": "https://www.yelp.com/biz/bar-31-bristol?adjust_creative=pzvBKuEUl0Vl1jtHQqJaog&utm_campaign=yelp_api_v3&utm_medium=api_v3_business_search&utm_source=pzvBKuEUl0Vl1jtHQqJaog", "review_count": 75, "categories": [{"alias": "cocktailbars", "title": "Cocktail Bars"}, {"alias": "tapas", "title": "Tapas Bars"}], "rating": 4.5, "coordinates": {"latitude": 41.6702243422403, "longitude": -71.2774935920034}, "transactions": [], "price": "$$", "location": {"address1": "29 State St", "address2": "", "address3": "", "city": "Bristol", "zip_code": "02809", "country": "US", "state": "RI", "display_address": ["29 State St", "Bristol, RI 02809"]}, "phone": "+14012970531", "display_phone": "(401) 297-0531", "distance": 1146.349339760567}, {"id": "7yxTF2gd05toWlHcMgtO6Q", "alias": "the-beach-house-bristol", "name": "The Beach House", "image_url": "https://s3-media2.fl.yelpcdn.com/bphoto/2-VPCtUrRHx1Q35Mc8sQww/o.jpg", "is_closed": false, "url": "https://www.yelp.com/biz/the-beach-house-bristol?adjust_creative=pzvBKuEUl0Vl1jtHQqJaog&utm_campaign=yelp_api_v3&utm_medium=api_v3_business_search&utm_source=pzvBKuEUl0Vl1jtHQqJaog", "review_count": 83, "categories": [{"alias": "bars", "title": "Bars"}, {"alias": "tradamerican", "title": "American (Traditional)"}], "rating": 3.0, "coordinates": {"latitude": 41.67799, "longitude": -71.27883}, "transactions": [], "price": "$$", "location": {"address1": "805 Hope St", "address2": "", "address3": null, "city": "Bristol", "zip_code": "02809", "country": "US", "state": "RI", "display_address": ["805 Hope St", "Bristol, RI 02809"]}, "phone": "+14012531566", "display_phone": "(401) 253-1566", "distance": 710.5702411461923}, {"id": "glxxC8kw6sgDkibekqIWpw", "alias": "cultr\u014d-warren", "name": "Cultr\u014d", "image_url": "https://s3-media1.fl.yelpcdn.com/bphoto/Rsa7aCF8SHdnCqRFxWsW7g/o.jpg", "is_closed": false, "url": "https://www.yelp.com/biz/cultr%C5%8D-warren?adjust_creative=pzvBKuEUl0Vl1jtHQqJaog&utm_campaign=yelp_api_v3&utm_medium=api_v3_business_search&utm_source=pzvBKuEUl0Vl1jtHQqJaog", "review_count": 4, "categories": [{"alias": "bbq", "title": "Barbeque"}, {"alias": "caribbean", "title": "Caribbean"}, {"alias": "asianfusion", "title": "Asian Fusion"}], "rating": 4.5, "coordinates": {"latitude": 41.725232, "longitude": -71.281857}, "transactions": [], "location": {"address1": "691 Main St", "address2": null, "address3": null, "city": "Warren", "zip_code": "02889", "country": "US", "state": "RI", "display_address": ["691 Main St", "Warren, RI 02889"]}, "phone": "", "display_phone": "", "distance": 5218.915892059046}, {"id": "BVtHGzzI7bqMnMDcj9o7RA", "alias": "common-pub-and-grille-bristol", "name": "Common Pub & Grille", "image_url": "https://s3-media1.fl.yelpcdn.com/bphoto/3WeaN0ciL9UArsEy6D-Z6g/o.jpg", "is_closed": false, "url": "https://www.yelp.com/biz/common-pub-and-grille-bristol?adjust_creative=pzvBKuEUl0Vl1jtHQqJaog&utm_campaign=yelp_api_v3&utm_medium=api_v3_business_search&utm_source=pzvBKuEUl0Vl1jtHQqJaog", "review_count": 45, "categories": [{"alias": "divebars", "title": "Dive Bars"}, {"alias": "pubs", "title": "Pubs"}, {"alias": "seafood", "title": "Seafood"}], "rating": 4.5, "coordinates": {"latitude": 41.6727287, "longitude": -71.2718261}, "transactions": [], "price": "$$", "location": {"address1": "421 Wood St", "address2": "", "address3": "", "city": "Bristol", "zip_code": "02809", "country": "US", "state": "RI", "display_address": ["421 Wood St", "Bristol, RI 02809"]}, "phone": "+14012539801", "display_phone": "(401) 253-9801", "distance": 718.7795274929829}, {"id": "eheeI7l1Rjz172YKpeC4rw", "alias": "dewolf-tavern-bristol", "name": "Dewolf Tavern", "image_url": "https://s3-media2.fl.yelpcdn.com/bphoto/QhwgDj0uIFyR3txBpnxAFw/o.jpg", "is_closed": false, "url": "https://www.yelp.com/biz/dewolf-tavern-bristol?adjust_creative=pzvBKuEUl0Vl1jtHQqJaog&utm_campaign=yelp_api_v3&utm_medium=api_v3_business_search&utm_source=pzvBKuEUl0Vl1jtHQqJaog", "review_count": 179, "categories": [{"alias": "newamerican", "title": "American (New)"}, {"alias": "seafood", "title": "Seafood"}], "rating": 3.5, "coordinates": {"latitude": 41.6704871, "longitude": -71.2781835}, "transactions": [], "price": "$$", "location": {"address1": "259 Thames St", "address2": "", "address3": "", "city": "Bristol", "zip_code": "02809", "country": "US", "state": "RI", "display_address": ["259 Thames St", "Bristol, RI 02809"]}, "phone": "+14012542005", "display_phone": "(401) 254-2005", "distance": 1176.3626046854026}, {"id": "Yr0fSpb080GLNBYvd_ea4g", "alias": "the-revival-craft-kitchen-and-bar-warren-2", "name": "The Revival Craft Kitchen and Bar", "image_url": "https://s3-media4.fl.yelpcdn.com/bphoto/b_KGBTUXayBqw56s1X8V1g/o.jpg", "is_closed": false, "url": "https://www.yelp.com/biz/the-revival-craft-kitchen-and-bar-warren-2?adjust_creative=pzvBKuEUl0Vl1jtHQqJaog&utm_campaign=yelp_api_v3&utm_medium=api_v3_business_search&utm_source=pzvBKuEUl0Vl1jtHQqJaog", "review_count": 163, "categories": [{"alias": "bars", "title": "Bars"}, {"alias": "tapasmallplates", "title": "Tapas/Small Plates"}, {"alias": "newamerican", "title": "American (New)"}], "rating": 4.5, "coordinates": {"latitude": 41.7311624011844, "longitude": -71.2851948046521}, "transactions": ["delivery"], "price": "$$", "location": {"address1": "50 Miller St", "address2": "", "address3": null, "city": "Warren", "zip_code": "02885", "country": "US", "state": "RI", "display_address": ["50 Miller St", "Warren, RI 02885"]}, "phone": "+14012454500", "display_phone": "(401) 245-4500", "distance": 5923.3539361077055}, {"id": "5ZrWaDmlchYr6lL-4_Y51g", "alias": "square-peg-warren", "name": "Square Peg", "image_url": "https://s3-media4.fl.yelpcdn.com/bphoto/SZ33kSOA2zaUlvQiGqU4dQ/o.jpg", "is_closed": false, "url": "https://www.yelp.com/biz/square-peg-warren?adjust_creative=pzvBKuEUl0Vl1jtHQqJaog&utm_campaign=yelp_api_v3&utm_medium=api_v3_business_search&utm_source=pzvBKuEUl0Vl1jtHQqJaog", "review_count": 187, "categories": [{"alias": "tradamerican", "title": "American (Traditional)"}], "rating": 4.0, "coordinates": {"latitude": 41.7312321066856, "longitude": -71.2854002416134}, "transactions": [], "price": "$$", "location": {"address1": "51 Miller St", "address2": "", "address3": "", "city": "Warren", "zip_code": "02885", "country": "US", "state": "RI", "display_address": ["51 Miller St", "Warren, RI 02885"]}, "phone": "+14012153831", "display_phone": "(401) 215-3831", "distance": 5929.175873960416}, {"id": "TQNI4D9y6zL8dw6MbRg0jw", "alias": "thames-waterside-bar-and-grill-bristol", "name": "Thames Waterside Bar & Grill", "image_url": "https://s3-media1.fl.yelpcdn.com/bphoto/eu97Ct2iIEnLwuEsjnTOPw/o.jpg", "is_closed": false, "url": "https://www.yelp.com/biz/thames-waterside-bar-and-grill-bristol?adjust_creative=pzvBKuEUl0Vl1jtHQqJaog&utm_campaign=yelp_api_v3&utm_medium=api_v3_business_search&utm_source=pzvBKuEUl0Vl1jtHQqJaog", "review_count": 163, "categories": [{"alias": "tradamerican", "title": "American (Traditional)"}, {"alias": "bars", "title": "Bars"}, {"alias": "salad", "title": "Salad"}], "rating": 2.5, "coordinates": {"latitude": 41.670079, "longitude": -71.279157}, "transactions": [], "price": "$$", "location": {"address1": "251 Thames St", "address2": "", "address3": "", "city": "Bristol", "zip_code": "02809", "country": "US", "state": "RI", "display_address": ["251 Thames St", "Bristol, RI 02809"]}, "phone": "+14012534523", "display_phone": "(401) 253-4523", "distance": 1236.3940250149028}, {"id": "leP_9L4f7ZAV-O6IDhbTBg", "alias": "casa-margaritas-bristol", "name": "Casa Margaritas", "image_url": "https://s3-media3.fl.yelpcdn.com/bphoto/W2SY-gJNst3OxOBNj3U9kw/o.jpg", "is_closed": false, "url": "https://www.yelp.com/biz/casa-margaritas-bristol?adjust_creative=pzvBKuEUl0Vl1jtHQqJaog&utm_campaign=yelp_api_v3&utm_medium=api_v3_business_search&utm_source=pzvBKuEUl0Vl1jtHQqJaog", "review_count": 88, "categories": [{"alias": "mexican", "title": "Mexican"}], "rating": 3.5, "coordinates": {"latitude": 41.69382, "longitude": -71.26712}, "transactions": [], "price": "$$", "location": {"address1": "200 Gooding Ave", "address2": "", "address3": "", "city": "Bristol", "zip_code": "02809", "country": "US", "state": "RI", "display_address": ["200 Gooding Ave", "Bristol, RI 02809"]}, "phone": "+14013968933", "display_phone": "(401) 396-8933", "distance": 1558.8254788965744}, {"id": "bcuIodG6xtzOg8dlWKz1dQ", "alias": "tong-phoon-bristol-2", "name": "Tong Phoon", "image_url": "https://s3-media2.fl.yelpcdn.com/bphoto/vNu9sXgo9NHnkbIKvxiN2g/o.jpg", "is_closed": false, "url": "https://www.yelp.com/biz/tong-phoon-bristol-2?adjust_creative=pzvBKuEUl0Vl1jtHQqJaog&utm_campaign=yelp_api_v3&utm_medium=api_v3_business_search&utm_source=pzvBKuEUl0Vl1jtHQqJaog", "review_count": 103, "categories": [{"alias": "thai", "title": "Thai"}], "rating": 4.5, "coordinates": {"latitude": 41.6724059, "longitude": -71.2784991}, "transactions": [], "price": "$$", "location": {"address1": "382 Thames St", "address2": "", "address3": "", "city": "Bristol", "zip_code": "02809", "country": "US", "state": "RI", "display_address": ["382 Thames St", "Bristol, RI 02809"]}, "phone": "+14013969225", "display_phone": "(401) 396-9225", "distance": 1010.8517779314243}, {"id": "4hsvseJB2CbXQ6SkquG69w", "alias": "casual-inn-bristol", "name": "Casual Inn", "image_url": "https://s3-media3.fl.yelpcdn.com/bphoto/XISb4u18vPON5XH0yBlALw/o.jpg", "is_closed": false, "url": "https://www.yelp.com/biz/casual-inn-bristol?adjust_creative=pzvBKuEUl0Vl1jtHQqJaog&utm_campaign=yelp_api_v3&utm_medium=api_v3_business_search&utm_source=pzvBKuEUl0Vl1jtHQqJaog", "review_count": 16, "categories": [{"alias": "tradamerican", "title": "American (Traditional)"}], "rating": 4.5, "coordinates": {"latitude": 41.6750968247652, "longitude": -71.2703067809343}, "transactions": [], "price": "$$", "location": {"address1": "170 Franklin St", "address2": "", "address3": "", "city": "Bristol", "zip_code": "02809", "country": "US", "state": "RI", "display_address": ["170 Franklin St", "Bristol, RI 02809"]}, "phone": "+14012530204", "display_phone": "(401) 253-0204", "distance": 414.7331614549885}, {"id": "d9_wBnAxcwQl6Qf2UV52Cg", "alias": "nacho-mammas-bristol-3", "name": "Nacho Mamma's", "image_url": "https://s3-media1.fl.yelpcdn.com/bphoto/8NaHi-WtdOi60AL6ZHsArw/o.jpg", "is_closed": false, "url": "https://www.yelp.com/biz/nacho-mammas-bristol-3?adjust_creative=pzvBKuEUl0Vl1jtHQqJaog&utm_campaign=yelp_api_v3&utm_medium=api_v3_business_search&utm_source=pzvBKuEUl0Vl1jtHQqJaog", "review_count": 173, "categories": [{"alias": "mexican", "title": "Mexican"}, {"alias": "beerbar", "title": "Beer Bar"}, {"alias": "burgers", "title": "Burgers"}], "rating": 4.0, "coordinates": {"latitude": 41.670349, "longitude": -71.276054}, "transactions": ["pickup", "delivery"], "price": "$$", "location": {"address1": "76 State St", "address2": "", "address3": "", "city": "Bristol", "zip_code": "02809", "country": "US", "state": "RI", "display_address": ["76 State St", "Bristol, RI 02809"]}, "phone": "+14013969588", "display_phone": "(401) 396-9588", "distance": 1076.9919569066667}, {"id": "y38WLt-eNSXRdil0olBwKg", "alias": "elis-kitchen-warren", "name": "Eli's Kitchen", "image_url": "https://s3-media2.fl.yelpcdn.com/bphoto/tCbDegmBIBbKesa2Gfljeg/o.jpg", "is_closed": false, "url": "https://www.yelp.com/biz/elis-kitchen-warren?adjust_creative=pzvBKuEUl0Vl1jtHQqJaog&utm_campaign=yelp_api_v3&utm_medium=api_v3_business_search&utm_source=pzvBKuEUl0Vl1jtHQqJaog", "review_count": 285, "categories": [{"alias": "tapasmallplates", "title": "Tapas/Small Plates"}, {"alias": "sandwiches", "title": "Sandwiches"}, {"alias": "newamerican", "title": "American (New)"}], "rating": 4.5, "coordinates": {"latitude": 41.7308747593693, "longitude": -71.2814969569445}, "transactions": ["delivery"], "price": "$$", "location": {"address1": "40 Market St", "address2": "", "address3": "", "city": "Warren", "zip_code": "02885", "country": "US", "state": "RI", "display_address": ["40 Market St", "Warren, RI 02885"]}, "phone": "+14012451809", "display_phone": "(401) 245-1809", "distance": 5835.681256414582}, {"id": "_fG5RupW-X89BQ1MuXga6Q", "alias": "metacom-kitchen-warren", "name": "Metacom Kitchen", "image_url": "https://s3-media4.fl.yelpcdn.com/bphoto/E-jHr6Ps0inTwhp8dYspOw/o.jpg", "is_closed": false, "url": "https://www.yelp.com/biz/metacom-kitchen-warren?adjust_creative=pzvBKuEUl0Vl1jtHQqJaog&utm_campaign=yelp_api_v3&utm_medium=api_v3_business_search&utm_source=pzvBKuEUl0Vl1jtHQqJaog", "review_count": 151, "categories": [{"alias": "newamerican", "title": "American (New)"}], "rating": 4.5, "coordinates": {"latitude": 41.73015, "longitude": -71.26933}, "transactions": ["delivery"], "price": "$$", "location": {"address1": "322 Metacom Ave", "address2": "", "address3": "", "city": "Warren", "zip_code": "02885", "country": "US", "state": "RI", "display_address": ["322 Metacom Ave", "Warren, RI 02885"]}, "phone": "+14012451193", "display_phone": "(401) 245-1193", "distance": 5683.116145240222}, {"id": "Kry2tR17lB2V0ZDGyCiwsQ", "alias": "15-point-rd-portsmouth-4", "name": "15 Point Rd", "image_url": "https://s3-media1.fl.yelpcdn.com/bphoto/ACOplbAHndfJfhESb6dsNA/o.jpg", "is_closed": false, "url": "https://www.yelp.com/biz/15-point-rd-portsmouth-4?adjust_creative=pzvBKuEUl0Vl1jtHQqJaog&utm_campaign=yelp_api_v3&utm_medium=api_v3_business_search&utm_source=pzvBKuEUl0Vl1jtHQqJaog", "review_count": 143, "categories": [{"alias": "seafood", "title": "Seafood"}, {"alias": "venues", "title": "Venues & Event Spaces"}, {"alias": "soup", "title": "Soup"}], "rating": 4.0, "coordinates": {"latitude": 41.625894, "longitude": -71.2202152815973}, "transactions": ["delivery"], "price": "$$", "location": {"address1": "15 Point Rd", "address2": "", "address3": "", "city": "Portsmouth", "zip_code": "02871", "country": "US", "state": "RI", "display_address": ["15 Point Rd", "Portsmouth, RI 02871"]}, "phone": "+14016833138", "display_phone": "(401) 683-3138", "distance": 7232.341466579801}, {"id": "w-Y51QDiOF-7JplfEsHIOA", "alias": "bywater-warren", "name": "Bywater", "image_url": "https://s3-media2.fl.yelpcdn.com/bphoto/eUNMUFwudaOngsnvUYPSwQ/o.jpg", "is_closed": false, "url": "https://www.yelp.com/biz/bywater-warren?adjust_creative=pzvBKuEUl0Vl1jtHQqJaog&utm_campaign=yelp_api_v3&utm_medium=api_v3_business_search&utm_source=pzvBKuEUl0Vl1jtHQqJaog", "review_count": 93, "categories": [{"alias": "newamerican", "title": "American (New)"}, {"alias": "seafood", "title": "Seafood"}, {"alias": "wine_bars", "title": "Wine Bars"}], "rating": 4.5, "coordinates": {"latitude": 41.729495, "longitude": -71.284756}, "transactions": [], "price": "$$$", "location": {"address1": "54 State St", "address2": "", "address3": "", "city": "Warren", "zip_code": "02885", "country": "US", "state": "RI", "display_address": ["54 State St", "Warren, RI 02885"]}, "phone": "+14016940727", "display_phone": "(401) 694-0727", "distance": 5738.810610344606}, {"id": "L1B4dmHKzMC3EGTACUmZxA", "alias": "chomp-kitchen-and-drinks-warren", "name": "Chomp Kitchen & Drinks", "image_url": "https://s3-media3.fl.yelpcdn.com/bphoto/uDNG17gBASaMgcPCpGfJpQ/o.jpg", "is_closed": false, "url": "https://www.yelp.com/biz/chomp-kitchen-and-drinks-warren?adjust_creative=pzvBKuEUl0Vl1jtHQqJaog&utm_campaign=yelp_api_v3&utm_medium=api_v3_business_search&utm_source=pzvBKuEUl0Vl1jtHQqJaog", "review_count": 382, "categories": [{"alias": "tradamerican", "title": "American (Traditional)"}, {"alias": "burgers", "title": "Burgers"}, {"alias": "sandwiches", "title": "Sandwiches"}], "rating": 4.0, "coordinates": {"latitude": 41.7294006, "longitude": -71.2664719}, "transactions": ["delivery"], "price": "$$", "location": {"address1": "440 Child St", "address2": null, "address3": "", "city": "Warren", "zip_code": "02885", "country": "US", "state": "RI", "display_address": ["440 Child St", "Warren, RI 02885"]}, "phone": "+14012892324", "display_phone": "(401) 289-2324", "distance": 5607.78171737997}, {"id": "HLwbC3yxEOhUj3L4jE53wA", "alias": "leos-ristorante-bristol", "name": "Leo's Ristorante", "image_url": "https://s3-media1.fl.yelpcdn.com/bphoto/KGpj455CI1jAoFqiIm9r7w/o.jpg", "is_closed": false, "url": "https://www.yelp.com/biz/leos-ristorante-bristol?adjust_creative=pzvBKuEUl0Vl1jtHQqJaog&utm_campaign=yelp_api_v3&utm_medium=api_v3_business_search&utm_source=pzvBKuEUl0Vl1jtHQqJaog", "review_count": 105, "categories": [{"alias": "pizza", "title": "Pizza"}, {"alias": "italian", "title": "Italian"}], "rating": 3.0, "coordinates": {"latitude": 41.6685656458139, "longitude": -71.2759085744619}, "transactions": [], "price": "$$", "location": {"address1": "365 Hope St", "address2": "", "address3": "", "city": "Bristol", "zip_code": "02809", "country": "US", "state": "RI", "display_address": ["365 Hope St", "Bristol, RI 02809"]}, "phone": "+14012539300", "display_phone": "(401) 253-9300", "distance": 1268.4074989657584}, {"id": "TiFKK0Ztkv5VYghh_xd6zQ", "alias": "boat-house-waterfront-dining-tiverton", "name": "Boat House Waterfront Dining", "image_url": "https://s3-media2.fl.yelpcdn.com/bphoto/KCjbz72_1rCzbMvp1Ryp6w/o.jpg", "is_closed": false, "url": "https://www.yelp.com/biz/boat-house-waterfront-dining-tiverton?adjust_creative=pzvBKuEUl0Vl1jtHQqJaog&utm_campaign=yelp_api_v3&utm_medium=api_v3_business_search&utm_source=pzvBKuEUl0Vl1jtHQqJaog", "review_count": 396, "categories": [{"alias": "seafood", "title": "Seafood"}, {"alias": "newamerican", "title": "American (New)"}, {"alias": "breakfast_brunch", "title": "Breakfast & Brunch"}], "rating": 4.0, "coordinates": {"latitude": 41.646766303441, "longitude": -71.2093487}, "transactions": ["delivery"], "price": "$$$", "location": {"address1": "227 Schooner Dr", "address2": "", "address3": "", "city": "Tiverton", "zip_code": "02878", "country": "US", "state": "RI", "display_address": ["227 Schooner Dr", "Tiverton, RI 02878"]}, "phone": "+14016246300", "display_phone": "(401) 624-6300", "distance": 6211.759046415586}, {"id": "TcHzYDEg4pgBNkN--Lpj2Q", "alias": "le-central-bristol", "name": "Le Central", "image_url": "https://s3-media4.fl.yelpcdn.com/bphoto/6dvoH5EcVPbhI7KGFRtBJQ/o.jpg", "is_closed": false, "url": "https://www.yelp.com/biz/le-central-bristol?adjust_creative=pzvBKuEUl0Vl1jtHQqJaog&utm_campaign=yelp_api_v3&utm_medium=api_v3_business_search&utm_source=pzvBKuEUl0Vl1jtHQqJaog", "review_count": 102, "categories": [{"alias": "french", "title": "French"}, {"alias": "seafood", "title": "Seafood"}, {"alias": "cocktailbars", "title": "Cocktail Bars"}], "rating": 4.0, "coordinates": {"latitude": 41.6708079725504, "longitude": -71.2767621874809}, "transactions": [], "price": "$$", "location": {"address1": "483 Hope St", "address2": "", "address3": "", "city": "Bristol", "zip_code": "02809", "country": "US", "state": "RI", "display_address": ["483 Hope St", "Bristol, RI 02809"]}, "phone": "+14013969965", "display_phone": "(401) 396-9965", "distance": 1073.5583269341548}, {"id": "8Z9SCbjAbgfu_qxXWSEwHQ", "alias": "papa-joes-wrap-shack-bristol", "name": "Papa Joe's Wrap Shack", "image_url": "https://s3-media4.fl.yelpcdn.com/bphoto/kqVXoumwXxk6zZjPfOLqKg/o.jpg", "is_closed": false, "url": "https://www.yelp.com/biz/papa-joes-wrap-shack-bristol?adjust_creative=pzvBKuEUl0Vl1jtHQqJaog&utm_campaign=yelp_api_v3&utm_medium=api_v3_business_search&utm_source=pzvBKuEUl0Vl1jtHQqJaog", "review_count": 109, "categories": [{"alias": "salad", "title": "Salad"}, {"alias": "hotdogs", "title": "Fast Food"}, {"alias": "pizza", "title": "Pizza"}], "rating": 4.0, "coordinates": {"latitude": 41.67189, "longitude": -71.27727}, "transactions": [], "price": "$", "location": {"address1": "567 Hope St", "address2": "", "address3": "", "city": "Bristol", "zip_code": "02809", "country": "US", "state": "RI", "display_address": ["567 Hope St", "Bristol, RI 02809"]}, "phone": "+14012539911", "display_phone": "(401) 253-9911", "distance": 984.8208435777483}, {"id": "hnoBYG55YSAYEBcPu_q3dA", "alias": "riccotti-sandwich-shops-bristol", "name": "Riccotti Sandwich Shops", "image_url": "https://s3-media4.fl.yelpcdn.com/bphoto/Lqm95oqh-RhqZmvwtTl18g/o.jpg", "is_closed": false, "url": "https://www.yelp.com/biz/riccotti-sandwich-shops-bristol?adjust_creative=pzvBKuEUl0Vl1jtHQqJaog&utm_campaign=yelp_api_v3&utm_medium=api_v3_business_search&utm_source=pzvBKuEUl0Vl1jtHQqJaog", "review_count": 74, "categories": [{"alias": "sandwiches", "title": "Sandwiches"}], "rating": 4.0, "coordinates": {"latitude": 41.693372, "longitude": -71.277018}, "transactions": [], "price": "$", "location": {"address1": "11 Gooding Ave", "address2": "", "address3": "", "city": "Bristol", "zip_code": "02809", "country": "US", "state": "RI", "display_address": ["11 Gooding Ave", "Bristol, RI 02809"]}, "phone": "+14012531614", "display_phone": "(401) 253-1614", "distance": 1684.9920597563294}, {"id": "7-kCqPvX_6hbQIFqbdLGkg", "alias": "cafe-central-bristol", "name": "Cafe Central", "image_url": "https://s3-media3.fl.yelpcdn.com/bphoto/UM134UHY4wtAtuZaSQjxyg/o.jpg", "is_closed": false, "url": "https://www.yelp.com/biz/cafe-central-bristol?adjust_creative=pzvBKuEUl0Vl1jtHQqJaog&utm_campaign=yelp_api_v3&utm_medium=api_v3_business_search&utm_source=pzvBKuEUl0Vl1jtHQqJaog", "review_count": 16, "categories": [{"alias": "portuguese", "title": "Portuguese"}, {"alias": "seafood", "title": "Seafood"}], "rating": 3.5, "coordinates": {"latitude": 41.6731731, "longitude": -71.2722245}, "transactions": [], "price": "$$", "location": {"address1": "173 Bradford St", "address2": "", "address3": "", "city": "Bristol", "zip_code": "02809", "country": "US", "state": "RI", "display_address": ["173 Bradford St", "Bristol, RI 02809"]}, "phone": "+14012546164", "display_phone": "(401) 254-6164", "distance": 667.9582291111965}, {"id": "jwKhf2gi-rTc49ysgR1u2Q", "alias": "the-red-dory-tiverton", "name": "The Red Dory", "image_url": "https://s3-media3.fl.yelpcdn.com/bphoto/hAK1UQmdm2I69Nu_VQ6i-Q/o.jpg", "is_closed": false, "url": "https://www.yelp.com/biz/the-red-dory-tiverton?adjust_creative=pzvBKuEUl0Vl1jtHQqJaog&utm_campaign=yelp_api_v3&utm_medium=api_v3_business_search&utm_source=pzvBKuEUl0Vl1jtHQqJaog", "review_count": 104, "categories": [{"alias": "newamerican", "title": "American (New)"}, {"alias": "seafood", "title": "Seafood"}, {"alias": "cocktailbars", "title": "Cocktail Bars"}], "rating": 4.5, "coordinates": {"latitude": 41.6254687, "longitude": -71.2131571}, "transactions": ["delivery"], "price": "$$", "location": {"address1": "1848 Main Rd", "address2": "", "address3": "", "city": "Tiverton", "zip_code": "02878", "country": "US", "state": "RI", "display_address": ["1848 Main Rd", "Tiverton, RI 02878"]}, "phone": "+14018165001", "display_phone": "(401) 816-5001", "distance": 7653.13882378071}, {"id": "UkV78uOQblIpuw_OYE6pCg", "alias": "hope-diner-bristol", "name": "Hope Diner", "image_url": "https://s3-media1.fl.yelpcdn.com/bphoto/WZvTthsWtSwh_3xTyoAcDw/o.jpg", "is_closed": false, "url": "https://www.yelp.com/biz/hope-diner-bristol?adjust_creative=pzvBKuEUl0Vl1jtHQqJaog&utm_campaign=yelp_api_v3&utm_medium=api_v3_business_search&utm_source=pzvBKuEUl0Vl1jtHQqJaog", "review_count": 23, "categories": [{"alias": "diners", "title": "Diners"}], "rating": 4.0, "coordinates": {"latitude": 41.67597, "longitude": -71.27837}, "transactions": [], "price": "$", "location": {"address1": "742 Hope St", "address2": "", "address3": "", "city": "Bristol", "zip_code": "02809", "country": "US", "state": "RI", "display_address": ["742 Hope St", "Bristol, RI 02809"]}, "phone": "+14012531759", "display_phone": "(401) 253-1759", "distance": 745.0575840312623}, {"id": "oo7B6_obHaqzyRNC51GrJg", "alias": "the-lobster-pot-bristol", "name": "The Lobster Pot", "image_url": "https://s3-media4.fl.yelpcdn.com/bphoto/LVvh0WzSIa1PyGpecXg-Yw/o.jpg", "is_closed": false, "url": "https://www.yelp.com/biz/the-lobster-pot-bristol?adjust_creative=pzvBKuEUl0Vl1jtHQqJaog&utm_campaign=yelp_api_v3&utm_medium=api_v3_business_search&utm_source=pzvBKuEUl0Vl1jtHQqJaog", "review_count": 112, "categories": [{"alias": "seafood", "title": "Seafood"}, {"alias": "tradamerican", "title": "American (Traditional)"}, {"alias": "cocktailbars", "title": "Cocktail Bars"}], "rating": 3.0, "coordinates": {"latitude": 41.6614235937595, "longitude": -71.2707506865263}, "transactions": [], "price": "$$", "location": {"address1": "119 Hope St", "address2": "", "address3": "", "city": "Bristol", "zip_code": "02809", "country": "US", "state": "RI", "display_address": ["119 Hope St", "Bristol, RI 02809"]}, "phone": "+14012539100", "display_phone": "(401) 253-9100", "distance": 1983.1005979395864}, {"id": "HbqcQjt7W2EYBkXzrFEqgQ", "alias": "sunset-cafe-bristol", "name": "Sunset Cafe", "image_url": "https://s3-media4.fl.yelpcdn.com/bphoto/FmHCuwQO1b_WAHElXBOPbQ/o.jpg", "is_closed": false, "url": "https://www.yelp.com/biz/sunset-cafe-bristol?adjust_creative=pzvBKuEUl0Vl1jtHQqJaog&utm_campaign=yelp_api_v3&utm_medium=api_v3_business_search&utm_source=pzvBKuEUl0Vl1jtHQqJaog", "review_count": 99, "categories": [{"alias": "breakfast_brunch", "title": "Breakfast & Brunch"}, {"alias": "coffee", "title": "Coffee & Tea"}, {"alias": "burgers", "title": "Burgers"}], "rating": 4.5, "coordinates": {"latitude": 41.67087, "longitude": -71.2769}, "transactions": [], "price": "$", "location": {"address1": "499 Hope St", "address2": "", "address3": "", "city": "Bristol", "zip_code": "02809", "country": "US", "state": "RI", "display_address": ["499 Hope St", "Bristol, RI 02809"]}, "phone": "+14012531910", "display_phone": "(401) 253-1910", "distance": 1063.4529421803577}, {"id": "B1zog92KAMJmknPwWNaTbg", "alias": "prince-ali-s-kebab-barrington", "name": "Prince Ali\u2019s kebab", "image_url": "https://s3-media1.fl.yelpcdn.com/bphoto/ZJLtYi3x16jlQast8Mv06A/o.jpg", "is_closed": false, "url": "https://www.yelp.com/biz/prince-ali-s-kebab-barrington?adjust_creative=pzvBKuEUl0Vl1jtHQqJaog&utm_campaign=yelp_api_v3&utm_medium=api_v3_business_search&utm_source=pzvBKuEUl0Vl1jtHQqJaog", "review_count": 12, "categories": [{"alias": "gourmet", "title": "Specialty Food"}, {"alias": "mideastern", "title": "Middle Eastern"}], "rating": 4.5, "coordinates": {"latitude": 41.75348, "longitude": -71.29409}, "transactions": ["pickup", "delivery"], "location": {"address1": "305 Sowams Rd", "address2": null, "address3": "", "city": "Barrington", "zip_code": "02806", "country": "US", "state": "RI", "display_address": ["305 Sowams Rd", "Barrington, RI 02806"]}, "phone": "+14012464096", "display_phone": "(401) 246-4096", "distance": 8523.905903215347}, {"id": "zybZ6ctlm8Lv6ALr8J3wUw", "alias": "richardsons-kitchen-and-bar-warren", "name": "Richardson's Kitchen and Bar", "image_url": "https://s3-media3.fl.yelpcdn.com/bphoto/BxroaM1s_tCj4eUxpZLPDw/o.jpg", "is_closed": false, "url": "https://www.yelp.com/biz/richardsons-kitchen-and-bar-warren?adjust_creative=pzvBKuEUl0Vl1jtHQqJaog&utm_campaign=yelp_api_v3&utm_medium=api_v3_business_search&utm_source=pzvBKuEUl0Vl1jtHQqJaog", "review_count": 54, "categories": [{"alias": "gastropubs", "title": "Gastropubs"}, {"alias": "salad", "title": "Salad"}, {"alias": "burgers", "title": "Burgers"}], "rating": 4.0, "coordinates": {"latitude": 41.7302199571552, "longitude": -71.2821698561311}, "transactions": ["delivery"], "price": "$$", "location": {"address1": "15 Child St", "address2": "", "address3": null, "city": "Warren", "zip_code": "02885", "country": "US", "state": "RI", "display_address": ["15 Child St", "Warren, RI 02885"]}, "phone": "+14012458000", "display_phone": "(401) 245-8000", "distance": 5773.016202506805}, {"id": "JnZ38CgotQA39tAVeCE65w", "alias": "angelinas-bristol", "name": "Angelina's", "image_url": "https://s3-media2.fl.yelpcdn.com/bphoto/PBDMjK-nJK2OWOCs6rG75w/o.jpg", "is_closed": false, "url": "https://www.yelp.com/biz/angelinas-bristol?adjust_creative=pzvBKuEUl0Vl1jtHQqJaog&utm_campaign=yelp_api_v3&utm_medium=api_v3_business_search&utm_source=pzvBKuEUl0Vl1jtHQqJaog", "review_count": 80, "categories": [{"alias": "coffee", "title": "Coffee & Tea"}, {"alias": "cafes", "title": "Cafes"}], "rating": 4.0, "coordinates": {"latitude": 41.6675866395235, "longitude": -71.2755256891251}, "transactions": [], "price": "$", "location": {"address1": "301 Hope St", "address2": "", "address3": "", "city": "Bristol", "zip_code": "02809", "country": "US", "state": "RI", "display_address": ["301 Hope St", "Bristol, RI 02809"]}, "phone": "+14013965592", "display_phone": "(401) 396-5592", "distance": 1341.6165227142853}, {"id": "oLMJQpwvaZlmvRcWCm0LOg", "alias": "bristol-house-of-pizza-bristol", "name": "Bristol House of Pizza", "image_url": "https://s3-media2.fl.yelpcdn.com/bphoto/qWk2LWLPaoNR1Ml2YOU3zA/o.jpg", "is_closed": false, "url": "https://www.yelp.com/biz/bristol-house-of-pizza-bristol?adjust_creative=pzvBKuEUl0Vl1jtHQqJaog&utm_campaign=yelp_api_v3&utm_medium=api_v3_business_search&utm_source=pzvBKuEUl0Vl1jtHQqJaog", "review_count": 42, "categories": [{"alias": "pizza", "title": "Pizza"}], "rating": 3.5, "coordinates": {"latitude": 41.6703305393457, "longitude": -71.2769955396652}, "transactions": ["pickup", "delivery"], "price": "$", "location": {"address1": "55 State St", "address2": "", "address3": "", "city": "Bristol", "zip_code": "02809", "country": "US", "state": "RI", "display_address": ["55 State St", "Bristol, RI 02809"]}, "phone": "+14012532550", "display_phone": "(401) 253-2550", "distance": 1094.306979450074}, {"id": "HYyv1KPQdzggq4VH2axE8g", "alias": "sakonnet-river-grille-tiverton", "name": "Sakonnet River Grille", "image_url": "https://s3-media1.fl.yelpcdn.com/bphoto/1tg1SEyBxCfHhd2eK7sSFQ/o.jpg", "is_closed": false, "url": "https://www.yelp.com/biz/sakonnet-river-grille-tiverton?adjust_creative=pzvBKuEUl0Vl1jtHQqJaog&utm_campaign=yelp_api_v3&utm_medium=api_v3_business_search&utm_source=pzvBKuEUl0Vl1jtHQqJaog", "review_count": 72, "categories": [{"alias": "newamerican", "title": "American (New)"}], "rating": 4.0, "coordinates": {"latitude": 41.6590697, "longitude": -71.1916711}, "transactions": ["delivery"], "price": "$$", "location": {"address1": "524 Main Rd", "address2": null, "address3": "", "city": "Tiverton", "zip_code": "02878", "country": "US", "state": "RI", "display_address": ["524 Main Rd", "Tiverton, RI 02878"]}, "phone": "+14018166944", "display_phone": "(401) 816-6944", "distance": 6925.583979967744}, {"id": "PV_HPyy8IwUS2Gz016bYVA", "alias": "bristol-buffet-bristol", "name": "Bristol Buffet", "image_url": "https://s3-media3.fl.yelpcdn.com/bphoto/1i4VohF_VrMeQqRAoeYNeg/o.jpg", "is_closed": false, "url": "https://www.yelp.com/biz/bristol-buffet-bristol?adjust_creative=pzvBKuEUl0Vl1jtHQqJaog&utm_campaign=yelp_api_v3&utm_medium=api_v3_business_search&utm_source=pzvBKuEUl0Vl1jtHQqJaog", "review_count": 36, "categories": [{"alias": "buffets", "title": "Buffets"}, {"alias": "tradamerican", "title": "American (Traditional)"}, {"alias": "chinese", "title": "Chinese"}], "rating": 3.0, "coordinates": {"latitude": 41.6703199, "longitude": -71.26203}, "transactions": [], "price": "$$", "location": {"address1": "180 Mount Hope Ave", "address2": "", "address3": "", "city": "Bristol", "zip_code": "02809", "country": "US", "state": "RI", "display_address": ["180 Mount Hope Ave", "Bristol, RI 02809"]}, "phone": "+14012970777", "display_phone": "(401) 297-0777", "distance": 1230.974139133341}, {"id": "nb6TtvpA505YFvnmBSKfhQ", "alias": "kam-shing-restaurant-bristol", "name": "Kam Shing Restaurant", "image_url": "https://s3-media3.fl.yelpcdn.com/bphoto/veg-eox1S_ocR54vNAimkA/o.jpg", "is_closed": false, "url": "https://www.yelp.com/biz/kam-shing-restaurant-bristol?adjust_creative=pzvBKuEUl0Vl1jtHQqJaog&utm_campaign=yelp_api_v3&utm_medium=api_v3_business_search&utm_source=pzvBKuEUl0Vl1jtHQqJaog", "review_count": 24, "categories": [{"alias": "chinese", "title": "Chinese"}], "rating": 3.0, "coordinates": {"latitude": 41.692158, "longitude": -71.277531}, "transactions": [], "price": "$$", "location": {"address1": "24 Gooding Ave", "address2": "", "address3": "", "city": "Bristol", "zip_code": "02809", "country": "US", "state": "RI", "display_address": ["24 Gooding Ave", "Bristol, RI 02809"]}, "phone": "+14012541012", "display_phone": "(401) 254-1012", "distance": 1573.6777123964848}, {"id": "MgiDSPpDBKw_o1IAl8xi2A", "alias": "the-wave-bristol", "name": "The Wave", "image_url": "https://s3-media1.fl.yelpcdn.com/bphoto/J3hXuwkiuPVJU3xqz9JqNA/o.jpg", "is_closed": false, "url": "https://www.yelp.com/biz/the-wave-bristol?adjust_creative=pzvBKuEUl0Vl1jtHQqJaog&utm_campaign=yelp_api_v3&utm_medium=api_v3_business_search&utm_source=pzvBKuEUl0Vl1jtHQqJaog", "review_count": 51, "categories": [{"alias": "italian", "title": "Italian"}, {"alias": "pizza", "title": "Pizza"}, {"alias": "sandwiches", "title": "Sandwiches"}], "rating": 3.0, "coordinates": {"latitude": 41.6807041454856, "longitude": -71.2595595046878}, "transactions": [], "price": "$$", "location": {"address1": "400 Metacom Ave", "address2": null, "address3": null, "city": "Bristol", "zip_code": "02809", "country": "US", "state": "RI", "display_address": ["400 Metacom Ave", "Bristol, RI 02809"]}, "phone": "+14012538811", "display_phone": "(401) 253-8811", "distance": 916.3743021322799}, {"id": "kFxoxuD-SAvNE-I6lZD-SQ", "alias": "wood-street-pizza-and-bakery-bristol", "name": "Wood Street Pizza & Bakery", "image_url": "https://s3-media3.fl.yelpcdn.com/bphoto/O5KhtmTv6AUJvmLw7DEjng/o.jpg", "is_closed": false, "url": "https://www.yelp.com/biz/wood-street-pizza-and-bakery-bristol?adjust_creative=pzvBKuEUl0Vl1jtHQqJaog&utm_campaign=yelp_api_v3&utm_medium=api_v3_business_search&utm_source=pzvBKuEUl0Vl1jtHQqJaog", "review_count": 20, "categories": [{"alias": "pizza", "title": "Pizza"}], "rating": 3.5, "coordinates": {"latitude": 41.6718580573797, "longitude": -71.271244212985}, "transactions": [], "price": "$$", "location": {"address1": "366 Wood St", "address2": "", "address3": "", "city": "Bristol", "zip_code": "02809", "country": "US", "state": "RI", "display_address": ["366 Wood St", "Bristol, RI 02809"]}, "phone": "+14012540852", "display_phone": "(401) 254-0852", "distance": 787.5198269327619}, {"id": "Vko8sECmm03TnXaohhsgpw", "alias": "classic-pizza-bristol", "name": "Classic Pizza", "image_url": "https://s3-media4.fl.yelpcdn.com/bphoto/JHtqR9vk8rnCwOHlG5H_cA/o.jpg", "is_closed": false, "url": "https://www.yelp.com/biz/classic-pizza-bristol?adjust_creative=pzvBKuEUl0Vl1jtHQqJaog&utm_campaign=yelp_api_v3&utm_medium=api_v3_business_search&utm_source=pzvBKuEUl0Vl1jtHQqJaog", "review_count": 49, "categories": [{"alias": "pizza", "title": "Pizza"}, {"alias": "salad", "title": "Salad"}, {"alias": "sandwiches", "title": "Sandwiches"}], "rating": 3.0, "coordinates": {"latitude": 41.6755037, "longitude": -71.2596359}, "transactions": ["pickup", "delivery"], "price": "$$", "location": {"address1": "349 Metacom Ave", "address2": "", "address3": "", "city": "Bristol", "zip_code": "02809", "country": "US", "state": "RI", "display_address": ["349 Metacom Ave", "Bristol, RI 02809"]}, "phone": "+14012531871", "display_phone": "(401) 253-1871", "distance": 1006.7133095784832}, {"id": "QH60cbcZANjKKAYP00njeQ", "alias": "la-pi\u00f1ata-warren", "name": "La Pi\u00f1ata", "image_url": "https://s3-media2.fl.yelpcdn.com/bphoto/hDncm8ZM0nNa_T3NkSe3vA/o.jpg", "is_closed": false, "url": "https://www.yelp.com/biz/la-pi%C3%B1ata-warren?adjust_creative=pzvBKuEUl0Vl1jtHQqJaog&utm_campaign=yelp_api_v3&utm_medium=api_v3_business_search&utm_source=pzvBKuEUl0Vl1jtHQqJaog", "review_count": 34, "categories": [{"alias": "mexican", "title": "Mexican"}, {"alias": "cocktailbars", "title": "Cocktail Bars"}], "rating": 4.0, "coordinates": {"latitude": 41.729, "longitude": -71.28204}, "transactions": [], "price": "$$", "location": {"address1": "520 Main St", "address2": "", "address3": null, "city": "Warren", "zip_code": "02885", "country": "US", "state": "RI", "display_address": ["520 Main St", "Warren, RI 02885"]}, "phone": "+14012524237", "display_phone": "(401) 252-4237", "distance": 5602.828952888849}, {"id": "YRqybRUepJmOF0-z7toBYQ", "alias": "bluewater-bar-grill-barrington", "name": "Bluewater Bar + Grill", "image_url": "https://s3-media2.fl.yelpcdn.com/bphoto/c1TL7Jjl8n3zub7FLo3xJA/o.jpg", "is_closed": false, "url": "https://www.yelp.com/biz/bluewater-bar-grill-barrington?adjust_creative=pzvBKuEUl0Vl1jtHQqJaog&utm_campaign=yelp_api_v3&utm_medium=api_v3_business_search&utm_source=pzvBKuEUl0Vl1jtHQqJaog", "review_count": 67, "categories": [{"alias": "seafood", "title": "Seafood"}, {"alias": "newamerican", "title": "American (New)"}, {"alias": "beer_and_wine", "title": "Beer, Wine & Spirits"}], "rating": 3.5, "coordinates": {"latitude": 41.7346303074091, "longitude": -71.2922429078848}, "transactions": ["delivery"], "price": "$$", "location": {"address1": "32 Barton Ave", "address2": "", "address3": "", "city": "Barrington", "zip_code": "02806", "country": "US", "state": "RI", "display_address": ["32 Barton Ave", "Barrington, RI 02806"]}, "phone": "+14012470017", "display_phone": "(401) 247-0017", "distance": 6440.93677422662}, {"id": "SgqTAhVC1TaWcXEAMeCDgw", "alias": "the-saucery-no-joke-smoke-bbq-backyard-gourmet-swansea", "name": "The Saucery - No Joke Smoke BBQ - Backyard Gourmet", "image_url": "https://s3-media3.fl.yelpcdn.com/bphoto/9yabjnFcucv8mR9phEQs-A/o.jpg", "is_closed": false, "url": "https://www.yelp.com/biz/the-saucery-no-joke-smoke-bbq-backyard-gourmet-swansea?adjust_creative=pzvBKuEUl0Vl1jtHQqJaog&utm_campaign=yelp_api_v3&utm_medium=api_v3_business_search&utm_source=pzvBKuEUl0Vl1jtHQqJaog", "review_count": 26, "categories": [{"alias": "bbq", "title": "Barbeque"}, {"alias": "tradamerican", "title": "American (Traditional)"}], "rating": 3.5, "coordinates": {"latitude": 41.732225, "longitude": -71.207301}, "transactions": [], "location": {"address1": "395 Wilbur Ave", "address2": "", "address3": null, "city": "Swansea", "zip_code": "02777", "country": "US", "state": "MA", "display_address": ["395 Wilbur Ave", "Swansea, MA 02777"]}, "phone": "+15085676704", "display_phone": "(508) 567-6704", "distance": 7898.232281750328}, {"id": "v5qUwl7PcEY51xRVdfyEVw", "alias": "green-eggs-bristol", "name": "Green Eggs", "image_url": "https://s3-media2.fl.yelpcdn.com/bphoto/bpi5yV-VWWnfEpZ50mZ-7g/o.jpg", "is_closed": false, "url": "https://www.yelp.com/biz/green-eggs-bristol?adjust_creative=pzvBKuEUl0Vl1jtHQqJaog&utm_campaign=yelp_api_v3&utm_medium=api_v3_business_search&utm_source=pzvBKuEUl0Vl1jtHQqJaog", "review_count": 83, "categories": [{"alias": "breakfast_brunch", "title": "Breakfast & Brunch"}], "rating": 4.0, "coordinates": {"latitude": 41.6937485, "longitude": -71.2633087}, "transactions": [], "price": "$", "location": {"address1": "576 Metacom Ave", "address2": "", "address3": "Bell Tower Plz", "city": "Bristol", "zip_code": "02809", "country": "US", "state": "RI", "display_address": ["576 Metacom Ave", "Bell Tower Plz", "Bristol, RI 02809"]}, "phone": "+14012533443", "display_phone": "(401) 253-3443", "distance": 1752.5478981006693}, {"id": "uu0DUZUTtcjhyaAvWjL6Dg", "alias": "samanthas-seafood-portsmouth-3", "name": "Samantha's Seafood", "image_url": "https://s3-media2.fl.yelpcdn.com/bphoto/YUAegLYkSScias8re54gzQ/o.jpg", "is_closed": false, "url": "https://www.yelp.com/biz/samanthas-seafood-portsmouth-3?adjust_creative=pzvBKuEUl0Vl1jtHQqJaog&utm_campaign=yelp_api_v3&utm_medium=api_v3_business_search&utm_source=pzvBKuEUl0Vl1jtHQqJaog", "review_count": 30, "categories": [{"alias": "seafood", "title": "Seafood"}, {"alias": "sandwiches", "title": "Sandwiches"}, {"alias": "portuguese", "title": "Portuguese"}], "rating": 4.5, "coordinates": {"latitude": 41.63583, "longitude": -71.23691}, "transactions": [], "price": "$$", "location": {"address1": "500 Anthony Rd", "address2": "", "address3": "", "city": "Portsmouth", "zip_code": "02871", "country": "US", "state": "RI", "display_address": ["500 Anthony Rd", "Portsmouth, RI 02871"]}, "phone": "+14016830955", "display_phone": "(401) 683-0955", "distance": 5687.601794409569}, {"id": "u29R9zSwaVT__-lR9amHuA", "alias": "marisqueira-azores-restaurant-fall-river", "name": "Marisqueira Azores Restaurant", "image_url": "https://s3-media1.fl.yelpcdn.com/bphoto/htH3J3cg6hoTilBRa41FMA/o.jpg", "is_closed": false, "url": "https://www.yelp.com/biz/marisqueira-azores-restaurant-fall-river?adjust_creative=pzvBKuEUl0Vl1jtHQqJaog&utm_campaign=yelp_api_v3&utm_medium=api_v3_business_search&utm_source=pzvBKuEUl0Vl1jtHQqJaog", "review_count": 33, "categories": [{"alias": "seafood", "title": "Seafood"}, {"alias": "portuguese", "title": "Portuguese"}], "rating": 4.5, "coordinates": {"latitude": 41.6871821, "longitude": -71.1717658}, "transactions": ["delivery"], "price": "$$", "location": {"address1": "1445 South Main St", "address2": "", "address3": "", "city": "Fall River", "zip_code": "02724", "country": "US", "state": "MA", "display_address": ["1445 South Main St", "Fall River, MA 02724"]}, "phone": "+15086461511", "display_phone": "(508) 646-1511", "distance": 8224.973501297016}, {"id": "0lSyeGQuMh-ieObffvMuNQ", "alias": "salsas-burrito-grill-portsmouth", "name": "Salsa's Burrito Grill", "image_url": "https://s3-media1.fl.yelpcdn.com/bphoto/avfR1La853AVHucl8rspZw/o.jpg", "is_closed": false, "url": "https://www.yelp.com/biz/salsas-burrito-grill-portsmouth?adjust_creative=pzvBKuEUl0Vl1jtHQqJaog&utm_campaign=yelp_api_v3&utm_medium=api_v3_business_search&utm_source=pzvBKuEUl0Vl1jtHQqJaog", "review_count": 38, "categories": [{"alias": "mexican", "title": "Mexican"}], "rating": 4.0, "coordinates": {"latitude": 41.62346, "longitude": -71.24421}, "transactions": ["delivery"], "price": "$", "location": {"address1": "108 Chase Rd", "address2": "", "address3": null, "city": "Portsmouth", "zip_code": "02871", "country": "US", "state": "RI", "display_address": ["108 Chase Rd", "Portsmouth, RI 02871"]}, "phone": "+14012935322", "display_phone": "(401) 293-5322", "distance": 6547.828158534786}, {"id": "hUSfmKccOJ0wWD1ETonPWA", "alias": "hometown-tavern-warren", "name": "Hometown Tavern", "image_url": "https://s3-media4.fl.yelpcdn.com/bphoto/BUDCXJDS5nMyblmLK-bmcA/o.jpg", "is_closed": false, "url": "https://www.yelp.com/biz/hometown-tavern-warren?adjust_creative=pzvBKuEUl0Vl1jtHQqJaog&utm_campaign=yelp_api_v3&utm_medium=api_v3_business_search&utm_source=pzvBKuEUl0Vl1jtHQqJaog", "review_count": 34, "categories": [{"alias": "sportsbars", "title": "Sports Bars"}, {"alias": "tradamerican", "title": "American (Traditional)"}], "rating": 2.5, "coordinates": {"latitude": 41.71744, "longitude": -71.26771}, "transactions": ["delivery"], "location": {"address1": "632 Metacom Ave", "address2": "", "address3": null, "city": "Warren", "zip_code": "02885", "country": "US", "state": "RI", "display_address": ["632 Metacom Ave", "Warren, RI 02885"]}, "phone": "+14012890116", "display_phone": "(401) 289-0116", "distance": 4272.203313437738}, {"id": "3yqa-HcsH2AwNMBtS3622Q", "alias": "cafe-water-street-warren", "name": "Cafe Water Street", "image_url": "https://s3-media2.fl.yelpcdn.com/bphoto/Q8MYNkFxY8t71GlPBCPsUg/o.jpg", "is_closed": false, "url": "https://www.yelp.com/biz/cafe-water-street-warren?adjust_creative=pzvBKuEUl0Vl1jtHQqJaog&utm_campaign=yelp_api_v3&utm_medium=api_v3_business_search&utm_source=pzvBKuEUl0Vl1jtHQqJaog", "review_count": 61, "categories": [{"alias": "creperies", "title": "Creperies"}, {"alias": "coffee", "title": "Coffee & Tea"}], "rating": 4.5, "coordinates": {"latitude": 41.729558, "longitude": -71.285612}, "transactions": ["delivery"], "price": "$", "location": {"address1": "279 Water St", "address2": "", "address3": "", "city": "Warren", "zip_code": "02885", "country": "US", "state": "RI", "display_address": ["279 Water St", "Warren, RI 02885"]}, "phone": "+14012457071", "display_phone": "(401) 245-7071", "distance": 5756.481938741932}, {"id": "g0XuJI-yVnLvqBpPN8r1lA", "alias": "jackys-galaxie-bristol-bristol", "name": "Jacky's Galaxie Bristol", "image_url": "https://s3-media3.fl.yelpcdn.com/bphoto/CV7vq0B-40yOeVRUz4hMtA/o.jpg", "is_closed": false, "url": "https://www.yelp.com/biz/jackys-galaxie-bristol-bristol?adjust_creative=pzvBKuEUl0Vl1jtHQqJaog&utm_campaign=yelp_api_v3&utm_medium=api_v3_business_search&utm_source=pzvBKuEUl0Vl1jtHQqJaog", "review_count": 99, "categories": [{"alias": "sushi", "title": "Sushi Bars"}, {"alias": "asianfusion", "title": "Asian Fusion"}, {"alias": "chinese", "title": "Chinese"}], "rating": 3.0, "coordinates": {"latitude": 41.6791, "longitude": -71.2604}, "transactions": ["pickup"], "price": "$$", "location": {"address1": "383 Metacom Ave", "address2": "", "address3": "", "city": "Bristol", "zip_code": "02809", "country": "US", "state": "RI", "display_address": ["383 Metacom Ave", "Bristol, RI 02809"]}, "phone": "+14012538818", "display_phone": "(401) 253-8818", "distance": 834.3033018440977}, {"id": "o9X2EZqkiWODIYv73jFGGA", "alias": "the-wharf-warren-3", "name": "The Wharf", "image_url": "https://s3-media4.fl.yelpcdn.com/bphoto/APg_2-rv0KE62wwWcc9XnQ/o.jpg", "is_closed": false, "url": "https://www.yelp.com/biz/the-wharf-warren-3?adjust_creative=pzvBKuEUl0Vl1jtHQqJaog&utm_campaign=yelp_api_v3&utm_medium=api_v3_business_search&utm_source=pzvBKuEUl0Vl1jtHQqJaog", "review_count": 180, "categories": [{"alias": "seafood", "title": "Seafood"}, {"alias": "tradamerican", "title": "American (Traditional)"}], "rating": 3.0, "coordinates": {"latitude": 41.7310813, "longitude": -71.2867119}, "transactions": ["delivery"], "price": "$$", "location": {"address1": "215 Water St", "address2": "", "address3": "", "city": "Warren", "zip_code": "02885", "country": "US", "state": "RI", "display_address": ["215 Water St", "Warren, RI 02885"]}, "phone": "+14012892524", "display_phone": "(401) 289-2524", "distance": 5942.015427574288}, {"id": "xADyJ-lQPUDcDMNBb91gcw", "alias": "cabral-gourmet-chicken-bristol", "name": "Cabral Gourmet Chicken", "image_url": "https://s3-media3.fl.yelpcdn.com/bphoto/b0jzRtogUAAJP1Z5ZCLojw/o.jpg", "is_closed": false, "url": "https://www.yelp.com/biz/cabral-gourmet-chicken-bristol?adjust_creative=pzvBKuEUl0Vl1jtHQqJaog&utm_campaign=yelp_api_v3&utm_medium=api_v3_business_search&utm_source=pzvBKuEUl0Vl1jtHQqJaog", "review_count": 27, "categories": [{"alias": "delis", "title": "Delis"}, {"alias": "salad", "title": "Salad"}, {"alias": "bbq", "title": "Barbeque"}], "rating": 4.0, "coordinates": {"latitude": 41.692978, "longitude": -71.2637}, "transactions": [], "price": "$", "location": {"address1": "585 Metacom Ave", "address2": "", "address3": "", "city": "Bristol", "zip_code": "02809", "country": "US", "state": "RI", "display_address": ["585 Metacom Ave", "Bristol, RI 02809"]}, "phone": "+14012533913", "display_phone": "(401) 253-3913", "distance": 1644.303723320137}, {"id": "GPxJCUFaReYI632Em3i2HQ", "alias": "federal-hill-pizza-warren", "name": "Federal Hill Pizza", "image_url": "https://s3-media1.fl.yelpcdn.com/bphoto/MZJ6D4vT4aGEXUOzUcxArA/o.jpg", "is_closed": false, "url": "https://www.yelp.com/biz/federal-hill-pizza-warren?adjust_creative=pzvBKuEUl0Vl1jtHQqJaog&utm_campaign=yelp_api_v3&utm_medium=api_v3_business_search&utm_source=pzvBKuEUl0Vl1jtHQqJaog", "review_count": 189, "categories": [{"alias": "pizza", "title": "Pizza"}, {"alias": "italian", "title": "Italian"}, {"alias": "burgers", "title": "Burgers"}], "rating": 4.0, "coordinates": {"latitude": 41.729275, "longitude": -71.282464}, "transactions": ["delivery"], "price": "$$", "location": {"address1": "495 Main St", "address2": "", "address3": "", "city": "Warren", "zip_code": "02885", "country": "US", "state": "RI", "display_address": ["495 Main St", "Warren, RI 02885"]}, "phone": "+14012450045", "display_phone": "(401) 245-0045", "distance": 5673.76469370793}, {"id": "KzM8TceE4PP7b8G6WMtfNw", "alias": "perellas-ristorante-warren", "name": "Perella's Ristorante", "image_url": "https://s3-media3.fl.yelpcdn.com/bphoto/f0S4zEByzJNEXoAnFQuo3w/o.jpg", "is_closed": false, "url": "https://www.yelp.com/biz/perellas-ristorante-warren?adjust_creative=pzvBKuEUl0Vl1jtHQqJaog&utm_campaign=yelp_api_v3&utm_medium=api_v3_business_search&utm_source=pzvBKuEUl0Vl1jtHQqJaog", "review_count": 34, "categories": [{"alias": "pizza", "title": "Pizza"}, {"alias": "italian", "title": "Italian"}], "rating": 3.0, "coordinates": {"latitude": 41.73045, "longitude": -71.26978}, "transactions": ["delivery"], "price": "$$", "location": {"address1": "311 Metacom Ave", "address2": "", "address3": "", "city": "Warren", "zip_code": "02885", "country": "US", "state": "RI", "display_address": ["311 Metacom Ave", "Warren, RI 02885"]}, "phone": "+14012450150", "display_phone": "(401) 245-0150", "distance": 5724.730179589768}, {"id": "iNn2N8VttlM173f28IqsLg", "alias": "vans-spa-bristol", "name": "Van's Spa", "image_url": "https://s3-media2.fl.yelpcdn.com/bphoto/Ynb1YHKSwWnzUSCZUzP_Jg/o.jpg", "is_closed": false, "url": "https://www.yelp.com/biz/vans-spa-bristol?adjust_creative=pzvBKuEUl0Vl1jtHQqJaog&utm_campaign=yelp_api_v3&utm_medium=api_v3_business_search&utm_source=pzvBKuEUl0Vl1jtHQqJaog", "review_count": 21, "categories": [{"alias": "breakfast_brunch", "title": "Breakfast & Brunch"}, {"alias": "tradamerican", "title": "American (Traditional)"}], "rating": 4.5, "coordinates": {"latitude": 41.6717, "longitude": -71.2715}, "transactions": [], "price": "$", "location": {"address1": "359 Wood St", "address2": "", "address3": "", "city": "Bristol", "zip_code": "02809", "country": "US", "state": "RI", "display_address": ["359 Wood St", "Bristol, RI 02809"]}, "phone": "+14012532797", "display_phone": "(401) 253-2797", "distance": 810.1564328983615}, {"id": "TXqZVeQVML1SB0SccUxa3w", "alias": "tav-vino-warren", "name": "Tav Vino", "image_url": "https://s3-media3.fl.yelpcdn.com/bphoto/607peCGJKvAAzmbk8nrVIA/o.jpg", "is_closed": false, "url": "https://www.yelp.com/biz/tav-vino-warren?adjust_creative=pzvBKuEUl0Vl1jtHQqJaog&utm_campaign=yelp_api_v3&utm_medium=api_v3_business_search&utm_source=pzvBKuEUl0Vl1jtHQqJaog", "review_count": 33, "categories": [{"alias": "italian", "title": "Italian"}, {"alias": "seafood", "title": "Seafood"}], "rating": 3.5, "coordinates": {"latitude": 41.72975, "longitude": -71.28554}, "transactions": [], "price": "$$", "location": {"address1": "267 Water St", "address2": "", "address3": "", "city": "Warren", "zip_code": "02885", "country": "US", "state": "RI", "display_address": ["267 Water St", "Warren, RI 02885"]}, "phone": "+14012450231", "display_phone": "(401) 245-0231", "distance": 5790.567067493204}, {"id": "jX-12yu0R5Ni7PYTLFhzlQ", "alias": "blount-clam-shack-and-market-warren-3", "name": "Blount Clam Shack & Market", "image_url": "https://s3-media2.fl.yelpcdn.com/bphoto/m0PStkwctrKhFBFJuR9kOQ/o.jpg", "is_closed": false, "url": "https://www.yelp.com/biz/blount-clam-shack-and-market-warren-3?adjust_creative=pzvBKuEUl0Vl1jtHQqJaog&utm_campaign=yelp_api_v3&utm_medium=api_v3_business_search&utm_source=pzvBKuEUl0Vl1jtHQqJaog", "review_count": 26, "categories": [{"alias": "seafoodmarkets", "title": "Seafood Markets"}, {"alias": "fishnchips", "title": "Fish & Chips"}], "rating": 4.0, "coordinates": {"latitude": 41.726694, "longitude": -71.284697}, "transactions": ["delivery"], "price": "$$", "location": {"address1": "406 Water St", "address2": "", "address3": "", "city": "Warren", "zip_code": "02885", "country": "US", "state": "RI", "display_address": ["406 Water St", "Warren, RI 02885"]}, "phone": "+14012451800", "display_phone": "(401) 245-1800", "distance": 5429.119286899494}, {"id": "7WKSlB9ltHquh5a7HQnQcQ", "alias": "tremblays-portsmouth", "name": "Tremblay's", "image_url": "https://s3-media4.fl.yelpcdn.com/bphoto/OHQNOFZq0OqLX_ABRl0ztw/o.jpg", "is_closed": false, "url": "https://www.yelp.com/biz/tremblays-portsmouth?adjust_creative=pzvBKuEUl0Vl1jtHQqJaog&utm_campaign=yelp_api_v3&utm_medium=api_v3_business_search&utm_source=pzvBKuEUl0Vl1jtHQqJaog", "review_count": 32, "categories": [{"alias": "bars", "title": "Bars"}, {"alias": "tradamerican", "title": "American (Traditional)"}, {"alias": "chicken_wings", "title": "Chicken Wings"}], "rating": 4.5, "coordinates": {"latitude": 41.6237799, "longitude": -71.22753}, "transactions": ["delivery"], "price": "$$", "location": {"address1": "514 Park Ave", "address2": "", "address3": "", "city": "Portsmouth", "zip_code": "02871", "country": "US", "state": "RI", "display_address": ["514 Park Ave", "Portsmouth, RI 02871"]}, "phone": "+14016839899", "display_phone": "(401) 683-9899", "distance": 7116.829876395341}, {"id": "Y9nXhUv77tdvLFKRbLz-Nw", "alias": "black-pear-barrington", "name": "Black Pear", "image_url": "https://s3-media4.fl.yelpcdn.com/bphoto/jbnanTgVDnX7E6AqWqPvOA/o.jpg", "is_closed": false, "url": "https://www.yelp.com/biz/black-pear-barrington?adjust_creative=pzvBKuEUl0Vl1jtHQqJaog&utm_campaign=yelp_api_v3&utm_medium=api_v3_business_search&utm_source=pzvBKuEUl0Vl1jtHQqJaog", "review_count": 56, "categories": [{"alias": "cafes", "title": "Cafes"}], "rating": 4.0, "coordinates": {"latitude": 41.7416774068215, "longitude": -71.3104822486639}, "transactions": [], "price": "$$", "location": {"address1": "312 County Rd", "address2": "", "address3": null, "city": "Barrington", "zip_code": "02806", "country": "US", "state": "RI", "display_address": ["312 County Rd", "Barrington, RI 02806"]}, "phone": "+14013375895", "display_phone": "(401) 337-5895", "distance": 7718.434255341529}, {"id": "VANzN_Vvr9n8TR1jatgZaA", "alias": "billys-barrington", "name": "Billy's", "image_url": "https://s3-media1.fl.yelpcdn.com/bphoto/6SLg4E2yii-D3Ahc1UkAeA/o.jpg", "is_closed": false, "url": "https://www.yelp.com/biz/billys-barrington?adjust_creative=pzvBKuEUl0Vl1jtHQqJaog&utm_campaign=yelp_api_v3&utm_medium=api_v3_business_search&utm_source=pzvBKuEUl0Vl1jtHQqJaog", "review_count": 71, "categories": [{"alias": "newamerican", "title": "American (New)"}], "rating": 3.5, "coordinates": {"latitude": 41.7387551, "longitude": -71.3171598}, "transactions": ["delivery"], "price": "$$", "location": {"address1": "286 Maple Ave", "address2": null, "address3": null, "city": "Barrington", "zip_code": "02806", "country": "US", "state": "RI", "display_address": ["286 Maple Ave", "Barrington, RI 02806"]}, "phone": "+14012892888", "display_phone": "(401) 289-2888", "distance": 7662.076207832092}, {"id": "Mnvukg9GRlNsWxb1sCvZTw", "alias": "bristol-bagel-works-bristol", "name": "Bristol Bagel Works", "image_url": "https://s3-media4.fl.yelpcdn.com/bphoto/LEF1ho2dqOriFI0k4b4JKw/o.jpg", "is_closed": false, "url": "https://www.yelp.com/biz/bristol-bagel-works-bristol?adjust_creative=pzvBKuEUl0Vl1jtHQqJaog&utm_campaign=yelp_api_v3&utm_medium=api_v3_business_search&utm_source=pzvBKuEUl0Vl1jtHQqJaog", "review_count": 63, "categories": [{"alias": "sandwiches", "title": "Sandwiches"}, {"alias": "bagels", "title": "Bagels"}], "rating": 4.5, "coordinates": {"latitude": 41.6697069, "longitude": -71.2760985}, "transactions": [], "price": "$", "location": {"address1": "420 Hope St", "address2": "", "address3": "", "city": "Bristol", "zip_code": "02809", "country": "US", "state": "RI", "display_address": ["420 Hope St", "Bristol, RI 02809"]}, "phone": "+14012541390", "display_phone": "(401) 254-1390", "distance": 1144.719360485447}, {"id": "TXssWGes5W-C8tUEhTw7wA", "alias": "crossroad-pub-restaurant-warren", "name": "Crossroad Pub Restaurant", "image_url": "https://s3-media2.fl.yelpcdn.com/bphoto/VWnEi87TVXW8qxQODrRJsA/o.jpg", "is_closed": false, "url": "https://www.yelp.com/biz/crossroad-pub-restaurant-warren?adjust_creative=pzvBKuEUl0Vl1jtHQqJaog&utm_campaign=yelp_api_v3&utm_medium=api_v3_business_search&utm_source=pzvBKuEUl0Vl1jtHQqJaog", "review_count": 58, "categories": [{"alias": "tradamerican", "title": "American (Traditional)"}, {"alias": "seafood", "title": "Seafood"}, {"alias": "breakfast_brunch", "title": "Breakfast & Brunch"}], "rating": 4.0, "coordinates": {"latitude": 41.7305, "longitude": -71.277547}, "transactions": ["delivery"], "price": "$$", "location": {"address1": "133 Market St", "address2": "", "address3": "", "city": "Warren", "zip_code": "02885", "country": "US", "state": "RI", "display_address": ["133 Market St", "Warren, RI 02885"]}, "phone": "+14012459305", "display_phone": "(401) 245-9305", "distance": 5754.585520722598}, {"id": "wuXP7FlJL78QcRv1QqSHCw", "alias": "new-china-gourmet-portsmouth", "name": "New China Gourmet", "image_url": "https://s3-media2.fl.yelpcdn.com/bphoto/rM3_Ou4XCnvyO-CXwQZBSg/o.jpg", "is_closed": false, "url": "https://www.yelp.com/biz/new-china-gourmet-portsmouth?adjust_creative=pzvBKuEUl0Vl1jtHQqJaog&utm_campaign=yelp_api_v3&utm_medium=api_v3_business_search&utm_source=pzvBKuEUl0Vl1jtHQqJaog", "review_count": 8, "categories": [{"alias": "chinese", "title": "Chinese"}], "rating": 4.5, "coordinates": {"latitude": 41.6097077401651, "longitude": -71.2459180636803}, "transactions": ["delivery"], "location": {"address1": "3001 E Main Rd", "address2": "", "address3": "", "city": "Portsmouth", "zip_code": "02871", "country": "US", "state": "RI", "display_address": ["3001 E Main Rd", "Portsmouth, RI 02871"]}, "phone": "+14016837888", "display_phone": "(401) 683-7888", "distance": 7974.22860050088}, {"id": "RlJquykv3SIAiWQyIR8CHw", "alias": "los-bandidos-bristol", "name": "Los Bandidos", "image_url": "", "is_closed": false, "url": "https://www.yelp.com/biz/los-bandidos-bristol?adjust_creative=pzvBKuEUl0Vl1jtHQqJaog&utm_campaign=yelp_api_v3&utm_medium=api_v3_business_search&utm_source=pzvBKuEUl0Vl1jtHQqJaog", "review_count": 1, "categories": [{"alias": "tex-mex", "title": "Tex-Mex"}], "rating": 4.0, "coordinates": {"latitude": 41.7049047, "longitude": -71.2727595}, "transactions": [], "price": "$", "location": {"address1": "95 Tupelo St", "address2": "", "address3": "", "city": "Bristol", "zip_code": "02809", "country": "US", "state": "RI", "display_address": ["95 Tupelo St", "Bristol, RI 02809"]}, "phone": "+14012892988", "display_phone": "(401) 289-2988", "distance": 2889.1231233749863}, {"id": "c6-okKkquKTEFGtwV13U_w", "alias": "the-taco-box-warren", "name": "The Taco Box", "image_url": "https://s3-media2.fl.yelpcdn.com/bphoto/5KP1RMuXI9Qc6baw89p-ow/o.jpg", "is_closed": false, "url": "https://www.yelp.com/biz/the-taco-box-warren?adjust_creative=pzvBKuEUl0Vl1jtHQqJaog&utm_campaign=yelp_api_v3&utm_medium=api_v3_business_search&utm_source=pzvBKuEUl0Vl1jtHQqJaog", "review_count": 29, "categories": [{"alias": "tacos", "title": "Tacos"}, {"alias": "foodtrucks", "title": "Food Trucks"}], "rating": 4.0, "coordinates": {"latitude": 41.730054, "longitude": -71.280131}, "transactions": [], "price": "$", "location": {"address1": "75 Child St", "address2": "", "address3": null, "city": "Warren", "zip_code": "02885", "country": "US", "state": "RI", "display_address": ["75 Child St", "Warren, RI 02885"]}, "phone": "", "display_phone": "", "distance": 5730.35560331172}, {"id": "NqB7vAUXm9ZFHwf8dDcWsA", "alias": "ocean-grove-portuguese-steakhouse-swansea", "name": "Ocean Grove Portuguese Steakhouse", "image_url": "https://s3-media2.fl.yelpcdn.com/bphoto/OiJgB9AggjEM_AK9UIXyoQ/o.jpg", "is_closed": false, "url": "https://www.yelp.com/biz/ocean-grove-portuguese-steakhouse-swansea?adjust_creative=pzvBKuEUl0Vl1jtHQqJaog&utm_campaign=yelp_api_v3&utm_medium=api_v3_business_search&utm_source=pzvBKuEUl0Vl1jtHQqJaog", "review_count": 20, "categories": [{"alias": "portuguese", "title": "Portuguese"}, {"alias": "steak", "title": "Steakhouses"}, {"alias": "cocktailbars", "title": "Cocktail Bars"}], "rating": 2.5, "coordinates": {"latitude": 41.72619, "longitude": -71.21161}, "transactions": [], "location": {"address1": "317 Ocean Grove Ave", "address2": null, "address3": null, "city": "Swansea", "zip_code": "02777", "country": "US", "state": "MA", "display_address": ["317 Ocean Grove Ave", "Swansea, MA 02777"]}, "phone": "+17747045228", "display_phone": "(774) 704-5228", "distance": 7160.18703224488}, {"id": "MSrKX5ppekK4Vw0z_knvTg", "alias": "amarals-fish-and-chips-warren", "name": "Amaral's Fish & Chips", "image_url": "https://s3-media2.fl.yelpcdn.com/bphoto/OZlMV-DB95k_M4JGBTBtag/o.jpg", "is_closed": false, "url": "https://www.yelp.com/biz/amarals-fish-and-chips-warren?adjust_creative=pzvBKuEUl0Vl1jtHQqJaog&utm_campaign=yelp_api_v3&utm_medium=api_v3_business_search&utm_source=pzvBKuEUl0Vl1jtHQqJaog", "review_count": 80, "categories": [{"alias": "seafood", "title": "Seafood"}, {"alias": "fishnchips", "title": "Fish & Chips"}, {"alias": "sandwiches", "title": "Sandwiches"}], "rating": 4.5, "coordinates": {"latitude": 41.729937940836, "longitude": -71.2756939977407}, "transactions": ["delivery"], "price": "$$", "location": {"address1": "4 Redmond St", "address2": "", "address3": "", "city": "Warren", "zip_code": "02885", "country": "US", "state": "RI", "display_address": ["4 Redmond St", "Warren, RI 02885"]}, "phone": "+14012470675", "display_phone": "(401) 247-0675", "distance": 5697.998841851599}, {"id": "8DWbnqxRvtxD4tT-hvjiTw", "alias": "moulin-rouge-tiverton", "name": "Moulin Rouge", "image_url": "https://s3-media4.fl.yelpcdn.com/bphoto/DYGMWV18GHB8IRn9tHOC8A/o.jpg", "is_closed": false, "url": "https://www.yelp.com/biz/moulin-rouge-tiverton?adjust_creative=pzvBKuEUl0Vl1jtHQqJaog&utm_campaign=yelp_api_v3&utm_medium=api_v3_business_search&utm_source=pzvBKuEUl0Vl1jtHQqJaog", "review_count": 24, "categories": [{"alias": "french", "title": "French"}], "rating": 4.0, "coordinates": {"latitude": 41.63685, "longitude": -71.20642}, "transactions": ["delivery"], "price": "$$", "location": {"address1": "1403 Main Rd", "address2": null, "address3": null, "city": "Tiverton", "zip_code": "02878", "country": "US", "state": "RI", "display_address": ["1403 Main Rd", "Tiverton, RI 02878"]}, "phone": "+14016244320", "display_phone": "(401) 624-4320", "distance": 7068.548281380784}, {"id": "woGwoDhUAjFNJHOlOVY8Bw", "alias": "tong-d-barrington", "name": "Tong-D", "image_url": "https://s3-media2.fl.yelpcdn.com/bphoto/Zd_6Kc_K1tKWQNfvU4YOSw/o.jpg", "is_closed": false, "url": "https://www.yelp.com/biz/tong-d-barrington?adjust_creative=pzvBKuEUl0Vl1jtHQqJaog&utm_campaign=yelp_api_v3&utm_medium=api_v3_business_search&utm_source=pzvBKuEUl0Vl1jtHQqJaog", "review_count": 86, "categories": [{"alias": "thai", "title": "Thai"}], "rating": 4.0, "coordinates": {"latitude": 41.736126, "longitude": -71.305007}, "transactions": ["pickup", "delivery"], "price": "$$", "location": {"address1": "156 County Rd", "address2": "", "address3": "", "city": "Barrington", "zip_code": "02806", "country": "US", "state": "RI", "display_address": ["156 County Rd", "Barrington, RI 02806"]}, "phone": "+14012892998", "display_phone": "(401) 289-2998", "distance": 6967.009049432794}, {"id": "LdR08gmz3kbahja73i_nyw", "alias": "blue-kangaroo-cafe-barrington", "name": "Blue Kangaroo Cafe", "image_url": "https://s3-media3.fl.yelpcdn.com/bphoto/pn-Rt-WbrdF_Rp8m6Uo2og/o.jpg", "is_closed": false, "url": "https://www.yelp.com/biz/blue-kangaroo-cafe-barrington?adjust_creative=pzvBKuEUl0Vl1jtHQqJaog&utm_campaign=yelp_api_v3&utm_medium=api_v3_business_search&utm_source=pzvBKuEUl0Vl1jtHQqJaog", "review_count": 91, "categories": [{"alias": "cafes", "title": "Cafes"}], "rating": 4.0, "coordinates": {"latitude": 41.7419846, "longitude": -71.3107435}, "transactions": ["delivery"], "price": "$$", "location": {"address1": "328 County Rd", "address2": "", "address3": "", "city": "Barrington", "zip_code": "02806", "country": "US", "state": "RI", "display_address": ["328 County Rd", "Barrington, RI 02806"]}, "phone": "+14012892292", "display_phone": "(401) 289-2292", "distance": 7758.603911443525}, {"id": "cTbzZVUqd7MYqGXWEwHliQ", "alias": "nellos-pizza-bristol", "name": "Nellos Pizza", "image_url": "https://s3-media1.fl.yelpcdn.com/bphoto/LfcxA8PBL-SM3oL61YmZdQ/o.jpg", "is_closed": false, "url": "https://www.yelp.com/biz/nellos-pizza-bristol?adjust_creative=pzvBKuEUl0Vl1jtHQqJaog&utm_campaign=yelp_api_v3&utm_medium=api_v3_business_search&utm_source=pzvBKuEUl0Vl1jtHQqJaog", "review_count": 9, "categories": [{"alias": "pizza", "title": "Pizza"}], "rating": 3.0, "coordinates": {"latitude": 41.693814, "longitude": -71.262283}, "transactions": [], "price": "$$", "location": {"address1": "576 Metacom Ave", "address2": "Unit 14", "address3": "", "city": "Bristol", "zip_code": "02809", "country": "US", "state": "RI", "display_address": ["576 Metacom Ave", "Unit 14", "Bristol, RI 02809"]}, "phone": "+14012540777", "display_phone": "(401) 254-0777", "distance": 1773.2484923845775}, {"id": "EqW9pRUckTxZdnNH_WgWVw", "alias": "reds-street-kitchen-warren", "name": "Red's Street Kitchen", "image_url": "https://s3-media1.fl.yelpcdn.com/bphoto/PVyAJAT1dJLgxcBwfoBn0g/o.jpg", "is_closed": false, "url": "https://www.yelp.com/biz/reds-street-kitchen-warren?adjust_creative=pzvBKuEUl0Vl1jtHQqJaog&utm_campaign=yelp_api_v3&utm_medium=api_v3_business_search&utm_source=pzvBKuEUl0Vl1jtHQqJaog", "review_count": 14, "categories": [{"alias": "foodtrucks", "title": "Food Trucks"}, {"alias": "portuguese", "title": "Portuguese"}, {"alias": "cheesesteaks", "title": "Cheesesteaks"}], "rating": 4.0, "coordinates": {"latitude": 41.725138, "longitude": -71.282295}, "transactions": [], "location": {"address1": "691 Main St", "address2": "", "address3": null, "city": "Warren", "zip_code": "02885", "country": "US", "state": "RI", "display_address": ["691 Main St", "Warren, RI 02885"]}, "phone": "+14012126933", "display_phone": "(401) 212-6933", "distance": 5218.971947825016}, {"id": "22mr00bHZVFOzNokzprOmQ", "alias": "black-goose-cafe-tiverton", "name": "Black Goose Cafe", "image_url": "https://s3-media3.fl.yelpcdn.com/bphoto/bVuMiBCyYNt4aEpJ3VlC0Q/o.jpg", "is_closed": false, "url": "https://www.yelp.com/biz/black-goose-cafe-tiverton?adjust_creative=pzvBKuEUl0Vl1jtHQqJaog&utm_campaign=yelp_api_v3&utm_medium=api_v3_business_search&utm_source=pzvBKuEUl0Vl1jtHQqJaog", "review_count": 90, "categories": [{"alias": "sandwiches", "title": "Sandwiches"}], "rating": 4.0, "coordinates": {"latitude": 41.61841, "longitude": -71.20584}, "transactions": ["delivery"], "price": "$$", "location": {"address1": "2160 Main Rd", "address2": "", "address3": "", "city": "Tiverton", "zip_code": "02878", "country": "US", "state": "RI", "display_address": ["2160 Main Rd", "Tiverton, RI 02878"]}, "phone": "+14018160882", "display_phone": "(401) 816-0882", "distance": 8608.030618490953}, {"id": "0jdRCPSs-NBNVfAZC5TMAg", "alias": "lucky-garden-chinese-restaurant-bristol", "name": "Lucky Garden Chinese Restaurant", "image_url": "https://s3-media1.fl.yelpcdn.com/bphoto/Iogc3It963VYIMFm3WEXlA/o.jpg", "is_closed": false, "url": "https://www.yelp.com/biz/lucky-garden-chinese-restaurant-bristol?adjust_creative=pzvBKuEUl0Vl1jtHQqJaog&utm_campaign=yelp_api_v3&utm_medium=api_v3_business_search&utm_source=pzvBKuEUl0Vl1jtHQqJaog", "review_count": 20, "categories": [{"alias": "chinese", "title": "Chinese"}], "rating": 2.5, "coordinates": {"latitude": 41.6937485, "longitude": -71.2633087}, "transactions": [], "price": "$", "location": {"address1": "576 Metacom Ave", "address2": "", "address3": "", "city": "Bristol", "zip_code": "02809", "country": "US", "state": "RI", "display_address": ["576 Metacom Ave", "Bristol, RI 02809"]}, "phone": "+14012542838", "display_phone": "(401) 254-2838", "distance": 1752.4647577642866}, {"id": "uHHE2GVx6gnImuU7H51d6A", "alias": "the-clubhouse-bristol", "name": "The Clubhouse", "image_url": "", "is_closed": false, "url": "https://www.yelp.com/biz/the-clubhouse-bristol?adjust_creative=pzvBKuEUl0Vl1jtHQqJaog&utm_campaign=yelp_api_v3&utm_medium=api_v3_business_search&utm_source=pzvBKuEUl0Vl1jtHQqJaog", "review_count": 2, "categories": [{"alias": "tradamerican", "title": "American (Traditional)"}], "rating": 4.0, "coordinates": {"latitude": 41.7049065, "longitude": -71.2727585}, "transactions": [], "location": {"address1": "95 Tupelo St", "address2": "", "address3": "", "city": "Bristol", "zip_code": "02809", "country": "US", "state": "RI", "display_address": ["95 Tupelo St", "Bristol, RI 02809"]}, "phone": "+14012539844", "display_phone": "(401) 253-9844", "distance": 2892.2794471047932}, {"id": "W0BuHTYn9i9PwATAA84vFQ", "alias": "miku-sushi-barrington", "name": "Miku Sushi", "image_url": "https://s3-media2.fl.yelpcdn.com/bphoto/yZA6BeuOZNed9CE6Mfno-A/o.jpg", "is_closed": false, "url": "https://www.yelp.com/biz/miku-sushi-barrington?adjust_creative=pzvBKuEUl0Vl1jtHQqJaog&utm_campaign=yelp_api_v3&utm_medium=api_v3_business_search&utm_source=pzvBKuEUl0Vl1jtHQqJaog", "review_count": 82, "categories": [{"alias": "japanese", "title": "Japanese"}, {"alias": "sushi", "title": "Sushi Bars"}], "rating": 4.0, "coordinates": {"latitude": 41.7416, "longitude": -71.31007}, "transactions": ["pickup", "delivery"], "price": "$$", "location": {"address1": "306 County Rd", "address2": "", "address3": "", "city": "Barrington", "zip_code": "02806", "country": "US", "state": "RI", "display_address": ["306 County Rd", "Barrington, RI 02806"]}, "phone": "+14012892591", "display_phone": "(401) 289-2591", "distance": 7694.627593482397}, {"id": "32YTNmUHQ7dA8_8dOKr_aw", "alias": "localz-kitchen-and-cocktails-portsmouth", "name": "Localz Kitchen and Cocktails", "image_url": "https://s3-media2.fl.yelpcdn.com/bphoto/IP6XKrrmH-Au9BVPPhBnVQ/o.jpg", "is_closed": false, "url": "https://www.yelp.com/biz/localz-kitchen-and-cocktails-portsmouth?adjust_creative=pzvBKuEUl0Vl1jtHQqJaog&utm_campaign=yelp_api_v3&utm_medium=api_v3_business_search&utm_source=pzvBKuEUl0Vl1jtHQqJaog", "review_count": 41, "categories": [{"alias": "italian", "title": "Italian"}, {"alias": "pizza", "title": "Pizza"}, {"alias": "cocktailbars", "title": "Cocktail Bars"}], "rating": 3.5, "coordinates": {"latitude": 41.62374, "longitude": -71.22218}, "transactions": ["delivery"], "price": "$$", "location": {"address1": "657 Park Ave", "address2": "", "address3": null, "city": "Portsmouth", "zip_code": "02871", "country": "US", "state": "RI", "display_address": ["657 Park Ave", "Portsmouth, RI 02871"]}, "phone": "+14012935230", "display_phone": "(401) 293-5230", "distance": 7333.112790756113}, {"id": "CTETS5FkgBNRHXROkG05xA", "alias": "uptown-food-and-spirits-warren", "name": "Uptown Food and Spirits", "image_url": "https://s3-media3.fl.yelpcdn.com/bphoto/UKUXjeB5H6DuNmT6KkTnig/o.jpg", "is_closed": false, "url": "https://www.yelp.com/biz/uptown-food-and-spirits-warren?adjust_creative=pzvBKuEUl0Vl1jtHQqJaog&utm_campaign=yelp_api_v3&utm_medium=api_v3_business_search&utm_source=pzvBKuEUl0Vl1jtHQqJaog", "review_count": 10, "categories": [{"alias": "breakfast_brunch", "title": "Breakfast & Brunch"}, {"alias": "newamerican", "title": "American (New)"}, {"alias": "cocktailbars", "title": "Cocktail Bars"}], "rating": 3.5, "coordinates": {"latitude": 41.730171, "longitude": -71.282628}, "transactions": ["delivery"], "location": {"address1": "437 Main St", "address2": null, "address3": "", "city": "Warren", "zip_code": "02885", "country": "US", "state": "RI", "display_address": ["437 Main St", "Warren, RI 02885"]}, "phone": "+14014415460", "display_phone": "(401) 441-5460", "distance": 5773.548536388046}, {"id": "hvSvLN6fHAyuQHrlBfY7-w", "alias": "ocean-grove-burrito-bar-swansea", "name": "Ocean Grove Burrito Bar", "image_url": "https://s3-media1.fl.yelpcdn.com/bphoto/j-MNNNOXXFBlDBlQAKD2ww/o.jpg", "is_closed": false, "url": "https://www.yelp.com/biz/ocean-grove-burrito-bar-swansea?adjust_creative=pzvBKuEUl0Vl1jtHQqJaog&utm_campaign=yelp_api_v3&utm_medium=api_v3_business_search&utm_source=pzvBKuEUl0Vl1jtHQqJaog", "review_count": 34, "categories": [{"alias": "tex-mex", "title": "Tex-Mex"}, {"alias": "mexican", "title": "Mexican"}], "rating": 4.0, "coordinates": {"latitude": 41.73287, "longitude": -71.21204}, "transactions": [], "price": "$$", "location": {"address1": "531 B Wilbur Ave", "address2": "", "address3": null, "city": "Swansea", "zip_code": "02777", "country": "US", "state": "MA", "display_address": ["531 B Wilbur Ave", "Swansea, MA 02777"]}, "phone": "+15085988904", "display_phone": "(508) 598-8904", "distance": 7695.413286191522}, {"id": "KxzFyzXUOSt5WmuRc90QnQ", "alias": "evelyns-drive-in-tiverton", "name": "Evelyn's Drive In", "image_url": "https://s3-media4.fl.yelpcdn.com/bphoto/N6gECTCxCudhUUVNdzyyUw/o.jpg", "is_closed": false, "url": "https://www.yelp.com/biz/evelyns-drive-in-tiverton?adjust_creative=pzvBKuEUl0Vl1jtHQqJaog&utm_campaign=yelp_api_v3&utm_medium=api_v3_business_search&utm_source=pzvBKuEUl0Vl1jtHQqJaog", "review_count": 208, "categories": [{"alias": "seafood", "title": "Seafood"}, {"alias": "sandwiches", "title": "Sandwiches"}], "rating": 3.0, "coordinates": {"latitude": 41.616152, "longitude": -71.200187}, "transactions": ["delivery"], "price": "$$", "location": {"address1": "2335 Main Rd", "address2": "", "address3": "", "city": "Tiverton", "zip_code": "02878", "country": "US", "state": "RI", "display_address": ["2335 Main Rd", "Tiverton, RI 02878"]}, "phone": "+14016243100", "display_phone": "(401) 624-3100", "distance": 9106.549955332888}, {"id": "o0kb5TI5fnmBmCDOBFV2IQ", "alias": "east-bay-oyster-bar-barrington-2", "name": "East Bay Oyster Bar", "image_url": "https://s3-media3.fl.yelpcdn.com/bphoto/nWR433yC5eBhR7U753Wd-w/o.jpg", "is_closed": false, "url": "https://www.yelp.com/biz/east-bay-oyster-bar-barrington-2?adjust_creative=pzvBKuEUl0Vl1jtHQqJaog&utm_campaign=yelp_api_v3&utm_medium=api_v3_business_search&utm_source=pzvBKuEUl0Vl1jtHQqJaog", "review_count": 66, "categories": [{"alias": "seafood", "title": "Seafood"}, {"alias": "newamerican", "title": "American (New)"}, {"alias": "pizza", "title": "Pizza"}], "rating": 3.5, "coordinates": {"latitude": 41.7415327, "longitude": -71.3099445}, "transactions": ["delivery"], "price": "$$", "location": {"address1": "308 County Rd", "address2": "", "address3": null, "city": "Barrington", "zip_code": "02806", "country": "US", "state": "RI", "display_address": ["308 County Rd", "Barrington, RI 02806"]}, "phone": "+14012470303", "display_phone": "(401) 247-0303", "distance": 7704.958297425609}, {"id": "dnhL2nUDxW9aiU0irT9zgA", "alias": "lukes-inn-warren", "name": "Luke's Inn", "image_url": "https://s3-media2.fl.yelpcdn.com/bphoto/T5j-Lpl0wShn9_Ew7vE4rQ/o.jpg", "is_closed": false, "url": "https://www.yelp.com/biz/lukes-inn-warren?adjust_creative=pzvBKuEUl0Vl1jtHQqJaog&utm_campaign=yelp_api_v3&utm_medium=api_v3_business_search&utm_source=pzvBKuEUl0Vl1jtHQqJaog", "review_count": 70, "categories": [{"alias": "chinese", "title": "Chinese"}, {"alias": "bars", "title": "Bars"}, {"alias": "tradamerican", "title": "American (Traditional)"}], "rating": 3.0, "coordinates": {"latitude": 41.71547, "longitude": -71.26769}, "transactions": ["delivery"], "price": "$$", "location": {"address1": "650 Metacom Ave", "address2": "", "address3": "", "city": "Warren", "zip_code": "02885", "country": "US", "state": "RI", "display_address": ["650 Metacom Ave", "Warren, RI 02885"]}, "phone": "+14012470665", "display_phone": "(401) 247-0665", "distance": 4043.6836491444237}, {"id": "_LtS-dCMR4Cy5K6tQcpIcQ", "alias": "destinys-bristol-2", "name": "Destiny's", "image_url": "https://s3-media2.fl.yelpcdn.com/bphoto/yrF_J-LB05-DwSxNlLfn_A/o.jpg", "is_closed": false, "url": "https://www.yelp.com/biz/destinys-bristol-2?adjust_creative=pzvBKuEUl0Vl1jtHQqJaog&utm_campaign=yelp_api_v3&utm_medium=api_v3_business_search&utm_source=pzvBKuEUl0Vl1jtHQqJaog", "review_count": 28, "categories": [{"alias": "breakfast_brunch", "title": "Breakfast & Brunch"}], "rating": 3.0, "coordinates": {"latitude": 41.6927643, "longitude": -71.2773209}, "transactions": [], "price": "$", "location": {"address1": "22 Gooding Ave", "address2": "", "address3": "", "city": "Bristol", "zip_code": "02809", "country": "US", "state": "RI", "display_address": ["22 Gooding Ave", "Bristol, RI 02809"]}, "phone": "", "display_phone": "", "distance": 1576.7616319103645}, {"id": "BaiByoGra7dkDdZCvNT2VA", "alias": "crepelicious-barrington", "name": "Crepelicious", "image_url": "https://s3-media2.fl.yelpcdn.com/bphoto/PQsIEa3HVma6Yjwnwa725A/o.jpg", "is_closed": false, "url": "https://www.yelp.com/biz/crepelicious-barrington?adjust_creative=pzvBKuEUl0Vl1jtHQqJaog&utm_campaign=yelp_api_v3&utm_medium=api_v3_business_search&utm_source=pzvBKuEUl0Vl1jtHQqJaog", "review_count": 84, "categories": [{"alias": "desserts", "title": "Desserts"}, {"alias": "cafes", "title": "Cafes"}, {"alias": "creperies", "title": "Creperies"}], "rating": 4.5, "coordinates": {"latitude": 41.739411, "longitude": -71.310116}, "transactions": ["delivery"], "price": "$", "location": {"address1": "60 Maple Ave", "address2": "", "address3": "", "city": "Barrington", "zip_code": "02806", "country": "US", "state": "RI", "display_address": ["60 Maple Ave", "Barrington, RI 02806"]}, "phone": "+14013375945", "display_phone": "(401) 337-5945", "distance": 7475.590211510217}, {"id": "dyTia0L9FlRgbmBi4gE7Cw", "alias": "nacho-mammas-barrington-barrington", "name": "Nacho Mamma's Barrington", "image_url": "https://s3-media1.fl.yelpcdn.com/bphoto/fkPtfQ3uK8CS6puUjp-uLQ/o.jpg", "is_closed": false, "url": "https://www.yelp.com/biz/nacho-mammas-barrington-barrington?adjust_creative=pzvBKuEUl0Vl1jtHQqJaog&utm_campaign=yelp_api_v3&utm_medium=api_v3_business_search&utm_source=pzvBKuEUl0Vl1jtHQqJaog", "review_count": 33, "categories": [{"alias": "mexican", "title": "Mexican"}], "rating": 3.5, "coordinates": {"latitude": 41.73937, "longitude": -71.30861}, "transactions": ["delivery"], "location": {"address1": "18 Maple Ave", "address2": null, "address3": "", "city": "Barrington", "zip_code": "02806", "country": "US", "state": "RI", "display_address": ["18 Maple Ave", "Barrington, RI 02806"]}, "phone": "+14012890171", "display_phone": "(401) 289-0171", "distance": 7426.216610303317}, {"id": "2o9MAKDN3PsCXaePm1Na_w", "alias": "atlantic-sports-bar-and-restaurant-tiverton", "name": "Atlantic Sports Bar and Restaurant", "image_url": "https://s3-media1.fl.yelpcdn.com/bphoto/1Vep4Mz0AvNtZe3GMg82Ig/o.jpg", "is_closed": false, "url": "https://www.yelp.com/biz/atlantic-sports-bar-and-restaurant-tiverton?adjust_creative=pzvBKuEUl0Vl1jtHQqJaog&utm_campaign=yelp_api_v3&utm_medium=api_v3_business_search&utm_source=pzvBKuEUl0Vl1jtHQqJaog", "review_count": 58, "categories": [{"alias": "sportsbars", "title": "Sports Bars"}, {"alias": "tradamerican", "title": "American (Traditional)"}, {"alias": "pubs", "title": "Pubs"}], "rating": 3.5, "coordinates": {"latitude": 41.6704972848846, "longitude": -71.181459279716}, "transactions": ["delivery"], "price": "$$", "location": {"address1": "70 Shove St", "address2": "", "address3": "", "city": "Tiverton", "zip_code": "02878", "country": "US", "state": "RI", "display_address": ["70 Shove St", "Tiverton, RI 02878"]}, "phone": "+14018165996", "display_phone": "(401) 816-5996", "distance": 7445.559689088116}, {"id": "L2rorP9asOFLUhOPLXHO6A", "alias": "the-boss-thai-2-barrington-2", "name": "The BOSS Thai 2", "image_url": "https://s3-media3.fl.yelpcdn.com/bphoto/B6n0dAOpT2T4KgjMj1FLtg/o.jpg", "is_closed": false, "url": "https://www.yelp.com/biz/the-boss-thai-2-barrington-2?adjust_creative=pzvBKuEUl0Vl1jtHQqJaog&utm_campaign=yelp_api_v3&utm_medium=api_v3_business_search&utm_source=pzvBKuEUl0Vl1jtHQqJaog", "review_count": 37, "categories": [{"alias": "thai", "title": "Thai"}], "rating": 4.0, "coordinates": {"latitude": 41.738708, "longitude": -71.307214}, "transactions": ["delivery"], "price": "$$", "location": {"address1": "1 Waseca Ave", "address2": "", "address3": null, "city": "Barrington", "zip_code": "02806", "country": "US", "state": "RI", "display_address": ["1 Waseca Ave", "Barrington, RI 02806"]}, "phone": "+14013375382", "display_phone": "(401) 337-5382", "distance": 7304.2680668574585}, {"id": "IM66xtt_t4IGxpEK8b-0_Q", "alias": "bridgeport-seafood-tiverton", "name": "Bridgeport Seafood", "image_url": "https://s3-media1.fl.yelpcdn.com/bphoto/C0-LFgOe9PN3iMQSqxkb9A/o.jpg", "is_closed": false, "url": "https://www.yelp.com/biz/bridgeport-seafood-tiverton?adjust_creative=pzvBKuEUl0Vl1jtHQqJaog&utm_campaign=yelp_api_v3&utm_medium=api_v3_business_search&utm_source=pzvBKuEUl0Vl1jtHQqJaog", "review_count": 6, "categories": [{"alias": "seafood", "title": "Seafood"}, {"alias": "seafoodmarkets", "title": "Seafood Markets"}], "rating": 5.0, "coordinates": {"latitude": 41.61935, "longitude": -71.20856}, "transactions": ["delivery"], "price": "$", "location": {"address1": "2117 Main Rd", "address2": "", "address3": "", "city": "Tiverton", "zip_code": "02878", "country": "US", "state": "RI", "display_address": ["2117 Main Rd", "Tiverton, RI 02878"]}, "phone": "+14016244411", "display_phone": "(401) 624-4411", "distance": 8502.578910478012}, {"id": "dvlwjQFw_W8jopqcxbyr1g", "alias": "flos-drive-in-portsmouth", "name": "Flo's Drive In", "image_url": "https://s3-media3.fl.yelpcdn.com/bphoto/qeoORAlEeQ4-3OPNRZVckw/o.jpg", "is_closed": false, "url": "https://www.yelp.com/biz/flos-drive-in-portsmouth?adjust_creative=pzvBKuEUl0Vl1jtHQqJaog&utm_campaign=yelp_api_v3&utm_medium=api_v3_business_search&utm_source=pzvBKuEUl0Vl1jtHQqJaog", "review_count": 21, "categories": [{"alias": "seafood", "title": "Seafood"}], "rating": 3.5, "coordinates": {"latitude": 41.622126, "longitude": -71.233915}, "transactions": ["delivery"], "price": "$$", "location": {"address1": "324 Park Ave", "address2": "", "address3": null, "city": "Portsmouth", "zip_code": "02871", "country": "US", "state": "RI", "display_address": ["324 Park Ave", "Portsmouth, RI 02871"]}, "phone": "+14018478141", "display_phone": "(401) 847-8141", "distance": 7017.524703842948}, {"id": "yiddNEzVonnLikKjiwKS8A", "alias": "the-north-end-pizzeria-portsmouth", "name": "The North End Pizzeria", "image_url": "https://s3-media1.fl.yelpcdn.com/bphoto/eg56rGg4hEduOGVLPFjLRQ/o.jpg", "is_closed": false, "url": "https://www.yelp.com/biz/the-north-end-pizzeria-portsmouth?adjust_creative=pzvBKuEUl0Vl1jtHQqJaog&utm_campaign=yelp_api_v3&utm_medium=api_v3_business_search&utm_source=pzvBKuEUl0Vl1jtHQqJaog", "review_count": 41, "categories": [{"alias": "pizza", "title": "Pizza"}], "rating": 4.0, "coordinates": {"latitude": 41.6107, "longitude": -71.24702}, "transactions": ["delivery"], "price": "$$", "location": {"address1": "3030 E Main Rd", "address2": "", "address3": "", "city": "Portsmouth", "zip_code": "02871", "country": "US", "state": "RI", "display_address": ["3030 E Main Rd", "Portsmouth, RI 02871"]}, "phone": "+14016836633", "display_phone": "(401) 683-6633", "distance": 7839.507039256454}, {"id": "803WqvFFej6mLy_xMPH2qw", "alias": "big-daddy-kings-swansea-2", "name": "Big Daddy Kings", "image_url": "https://s3-media4.fl.yelpcdn.com/bphoto/pfpgTJRl9AcMtNOOSCkm0w/o.jpg", "is_closed": false, "url": "https://www.yelp.com/biz/big-daddy-kings-swansea-2?adjust_creative=pzvBKuEUl0Vl1jtHQqJaog&utm_campaign=yelp_api_v3&utm_medium=api_v3_business_search&utm_source=pzvBKuEUl0Vl1jtHQqJaog", "review_count": 1, "categories": [{"alias": "bbq", "title": "Barbeque"}, {"alias": "foodtrucks", "title": "Food Trucks"}], "rating": 5.0, "coordinates": {"latitude": 41.74746, "longitude": -71.207565}, "transactions": [], "location": {"address1": "610 Grand Hwy", "address2": null, "address3": "", "city": "Swansea", "zip_code": "02777", "country": "US", "state": "MA", "display_address": ["610 Grand Hwy", "Swansea, MA 02777"]}, "phone": "+15089653175", "display_phone": "(508) 965-3175", "distance": 9108.441366547493}, {"id": "aaVMfAfuxWluHL1xezk_Kw", "alias": "friskie-fries-barrington", "name": "Friskie Fries", "image_url": "https://s3-media3.fl.yelpcdn.com/bphoto/HkbDrPq2VtqAJZOQO5euaQ/o.jpg", "is_closed": false, "url": "https://www.yelp.com/biz/friskie-fries-barrington?adjust_creative=pzvBKuEUl0Vl1jtHQqJaog&utm_campaign=yelp_api_v3&utm_medium=api_v3_business_search&utm_source=pzvBKuEUl0Vl1jtHQqJaog", "review_count": 9, "categories": [{"alias": "hotdogs", "title": "Fast Food"}], "rating": 3.0, "coordinates": {"latitude": 41.73703, "longitude": -71.304834}, "transactions": ["delivery", "pickup"], "location": {"address1": "182 County Rd", "address2": "", "address3": null, "city": "Barrington", "zip_code": "02806", "country": "US", "state": "RI", "display_address": ["182 County Rd", "Barrington, RI 02806"]}, "phone": "+14019195489", "display_phone": "(401) 919-5489", "distance": 7052.84574720139}, {"id": "vpStW01b0NElSv4EbmbjKA", "alias": "pizza-hut-bristol-15", "name": "Pizza Hut", "image_url": "https://s3-media3.fl.yelpcdn.com/bphoto/Tag_XWgfjuKABxnL_jYbmg/o.jpg", "is_closed": false, "url": "https://www.yelp.com/biz/pizza-hut-bristol-15?adjust_creative=pzvBKuEUl0Vl1jtHQqJaog&utm_campaign=yelp_api_v3&utm_medium=api_v3_business_search&utm_source=pzvBKuEUl0Vl1jtHQqJaog", "review_count": 10, "categories": [{"alias": "pizza", "title": "Pizza"}, {"alias": "italian", "title": "Italian"}, {"alias": "chicken_wings", "title": "Chicken Wings"}], "rating": 1.5, "coordinates": {"latitude": 41.677498, "longitude": -71.260358}, "transactions": [], "price": "$", "location": {"address1": "381 Metacom Ave", "address2": "", "address3": null, "city": "Bristol", "zip_code": "02809", "country": "US", "state": "RI", "display_address": ["381 Metacom Ave", "Bristol, RI 02809"]}, "phone": "+14013965070", "display_phone": "(401) 396-5070", "distance": 849.3659547776721}, {"id": "YRcltxMO0gnzJ1hjqnDZBg", "alias": "buckleberry-foods-warren", "name": "Buckleberry Foods", "image_url": "", "is_closed": false, "url": "https://www.yelp.com/biz/buckleberry-foods-warren?adjust_creative=pzvBKuEUl0Vl1jtHQqJaog&utm_campaign=yelp_api_v3&utm_medium=api_v3_business_search&utm_source=pzvBKuEUl0Vl1jtHQqJaog", "review_count": 2, "categories": [{"alias": "desserts", "title": "Desserts"}, {"alias": "vegan", "title": "Vegan"}, {"alias": "gluten_free", "title": "Gluten-Free"}], "rating": 3.0, "coordinates": {"latitude": 41.7278404, "longitude": -71.282341}, "transactions": [], "location": {"address1": "569 Main St", "address2": "Unit 216", "address3": "", "city": "Warren", "zip_code": "02885", "country": "US", "state": "RI", "display_address": ["569 Main St", "Unit 216", "Warren, RI 02885"]}, "phone": "+14012892068", "display_phone": "(401) 289-2068", "distance": 5520.0866595544685}, {"id": "n0X_hiTqsPyfdmY0kP_yfg", "alias": "blount-clam-shack-on-the-waterfront-warren-2", "name": "Blount Clam Shack on the Waterfront", "image_url": "https://s3-media2.fl.yelpcdn.com/bphoto/vi8n0otVWihQgtj9ZcKLkQ/o.jpg", "is_closed": false, "url": "https://www.yelp.com/biz/blount-clam-shack-on-the-waterfront-warren-2?adjust_creative=pzvBKuEUl0Vl1jtHQqJaog&utm_campaign=yelp_api_v3&utm_medium=api_v3_business_search&utm_source=pzvBKuEUl0Vl1jtHQqJaog", "review_count": 177, "categories": [{"alias": "seafood", "title": "Seafood"}, {"alias": "fishnchips", "title": "Fish & Chips"}], "rating": 4.0, "coordinates": {"latitude": 41.728212, "longitude": -71.285657}, "transactions": ["delivery"], "price": "$$", "location": {"address1": "335 Water St", "address2": "", "address3": "", "city": "Warren", "zip_code": "02885", "country": "US", "state": "RI", "display_address": ["335 Water St", "Warren, RI 02885"]}, "phone": "+14012453210", "display_phone": "(401) 245-3210", "distance": 5611.417153283902}, {"id": "RSHBaqevFD_ICMpTR_dgfA", "alias": "new-england-homemade-donuts-portsmouth", "name": "New England Homemade Donuts", "image_url": "https://s3-media2.fl.yelpcdn.com/bphoto/CH8X1ejux410bn11bmXLrw/o.jpg", "is_closed": false, "url": "https://www.yelp.com/biz/new-england-homemade-donuts-portsmouth?adjust_creative=pzvBKuEUl0Vl1jtHQqJaog&utm_campaign=yelp_api_v3&utm_medium=api_v3_business_search&utm_source=pzvBKuEUl0Vl1jtHQqJaog", "review_count": 7, "categories": [{"alias": "donuts", "title": "Donuts"}, {"alias": "coffee", "title": "Coffee & Tea"}, {"alias": "breakfast_brunch", "title": "Breakfast & Brunch"}], "rating": 5.0, "coordinates": {"latitude": 41.61768, "longitude": -71.24637}, "transactions": ["delivery"], "location": {"address1": "3302 E Main Rd", "address2": null, "address3": "", "city": "Portsmouth", "zip_code": "02871", "country": "US", "state": "RI", "display_address": ["3302 E Main Rd", "Portsmouth, RI 02871"]}, "phone": "+14012930769", "display_phone": "(401) 293-0769", "distance": 7096.034387109137}, {"id": "8xC0tmTUa36S_QMJSzs6UA", "alias": "china-sea-tiverton", "name": "China Sea", "image_url": "https://s3-media3.fl.yelpcdn.com/bphoto/W9bGyhmKXP05AiRNvoJghA/o.jpg", "is_closed": false, "url": "https://www.yelp.com/biz/china-sea-tiverton?adjust_creative=pzvBKuEUl0Vl1jtHQqJaog&utm_campaign=yelp_api_v3&utm_medium=api_v3_business_search&utm_source=pzvBKuEUl0Vl1jtHQqJaog", "review_count": 10, "categories": [{"alias": "chinese", "title": "Chinese"}], "rating": 4.0, "coordinates": {"latitude": 41.672897, "longitude": -71.184628}, "transactions": ["delivery"], "price": "$$", "location": {"address1": "5 Main Rd", "address2": "", "address3": "", "city": "Tiverton", "zip_code": "02878", "country": "US", "state": "RI", "display_address": ["5 Main Rd", "Tiverton, RI 02878"]}, "phone": "+14016251118", "display_phone": "(401) 625-1118", "distance": 7154.037215797469}, {"id": "bo2FhWV2FhUpEbj2Cby-EQ", "alias": "plouf-plouf-gastronomie-tiverton", "name": "Plouf Plouf Gastronomie", "image_url": "https://s3-media1.fl.yelpcdn.com/bphoto/X5PRrI4LebqO4n2V9QQOZA/o.jpg", "is_closed": false, "url": "https://www.yelp.com/biz/plouf-plouf-gastronomie-tiverton?adjust_creative=pzvBKuEUl0Vl1jtHQqJaog&utm_campaign=yelp_api_v3&utm_medium=api_v3_business_search&utm_source=pzvBKuEUl0Vl1jtHQqJaog", "review_count": 78, "categories": [{"alias": "french", "title": "French"}, {"alias": "foodtrucks", "title": "Food Trucks"}], "rating": 4.0, "coordinates": {"latitude": 41.61294, "longitude": -71.19572}, "transactions": ["delivery"], "price": "$$", "location": {"address1": "2490 Main Rd", "address2": null, "address3": "", "city": "Tiverton", "zip_code": "02809", "country": "US", "state": "RI", "display_address": ["2490 Main Rd", "Tiverton, RI 02809"]}, "phone": "+14012361937", "display_phone": "(401) 236-1937", "distance": 9604.041327581177}, {"id": "sV0aekcXwye5mR3zdF0McQ", "alias": "kitchen-bifana-swansea", "name": "Kitchen Bifana", "image_url": "https://s3-media1.fl.yelpcdn.com/bphoto/ZgkHdRvdT7H9yOj8qgYlPA/o.jpg", "is_closed": false, "url": "https://www.yelp.com/biz/kitchen-bifana-swansea?adjust_creative=pzvBKuEUl0Vl1jtHQqJaog&utm_campaign=yelp_api_v3&utm_medium=api_v3_business_search&utm_source=pzvBKuEUl0Vl1jtHQqJaog", "review_count": 27, "categories": [{"alias": "portuguese", "title": "Portuguese"}, {"alias": "sandwiches", "title": "Sandwiches"}, {"alias": "desserts", "title": "Desserts"}], "rating": 4.0, "coordinates": {"latitude": 41.754781, "longitude": -71.214622}, "transactions": [], "price": "$", "location": {"address1": "207 Swansea Mall Dr", "address2": "", "address3": null, "city": "Swansea", "zip_code": "02777", "country": "US", "state": "MA", "display_address": ["207 Swansea Mall Dr", "Swansea, MA 02777"]}, "phone": "+15086762060", "display_phone": "(508) 676-2060", "distance": 9533.470201286302}, {"id": "iw0M9tyFoPJiVk8e0KIIJQ", "alias": "jacks-family-restaurant-warren", "name": "Jack's Family Restaurant", "image_url": "https://s3-media3.fl.yelpcdn.com/bphoto/8EbU2mxT_FsWx1XIKauDVg/o.jpg", "is_closed": false, "url": "https://www.yelp.com/biz/jacks-family-restaurant-warren?adjust_creative=pzvBKuEUl0Vl1jtHQqJaog&utm_campaign=yelp_api_v3&utm_medium=api_v3_business_search&utm_source=pzvBKuEUl0Vl1jtHQqJaog", "review_count": 51, "categories": [{"alias": "italian", "title": "Italian"}, {"alias": "tradamerican", "title": "American (Traditional)"}, {"alias": "portuguese", "title": "Portuguese"}], "rating": 3.5, "coordinates": {"latitude": 41.72961, "longitude": -71.27251}, "transactions": ["delivery"], "price": "$$", "location": {"address1": "294 Child St", "address2": "", "address3": "", "city": "Warren", "zip_code": "02885", "country": "US", "state": "RI", "display_address": ["294 Child St", "Warren, RI 02885"]}, "phone": "+14012454052", "display_phone": "(401) 245-4052", "distance": 5630.872033306939}, {"id": "l0-4IyxZS81PQU008I4DBg", "alias": "market-street-pub-warren", "name": "Market Street Pub", "image_url": "https://s3-media3.fl.yelpcdn.com/bphoto/_cf4qwUxbQpRUKCOj7Ftrg/o.jpg", "is_closed": false, "url": "https://www.yelp.com/biz/market-street-pub-warren?adjust_creative=pzvBKuEUl0Vl1jtHQqJaog&utm_campaign=yelp_api_v3&utm_medium=api_v3_business_search&utm_source=pzvBKuEUl0Vl1jtHQqJaog", "review_count": 5, "categories": [{"alias": "pizza", "title": "Pizza"}], "rating": 5.0, "coordinates": {"latitude": 41.73048, "longitude": -71.27924}, "transactions": ["delivery"], "price": "$", "location": {"address1": "99 Market St", "address2": "", "address3": "", "city": "Warren", "zip_code": "02885", "country": "US", "state": "RI", "display_address": ["99 Market St", "Warren, RI 02885"]}, "phone": "+14012458810", "display_phone": "(401) 245-8810", "distance": 5767.2631324458425}, {"id": "aZAbwLUkK43l682koPcG4w", "alias": "martinos-pizzeria-portsmouth", "name": "Martino's Pizzeria", "image_url": "https://s3-media2.fl.yelpcdn.com/bphoto/c0jbmndjpV-L6rkMIiC7Cg/o.jpg", "is_closed": false, "url": "https://www.yelp.com/biz/martinos-pizzeria-portsmouth?adjust_creative=pzvBKuEUl0Vl1jtHQqJaog&utm_campaign=yelp_api_v3&utm_medium=api_v3_business_search&utm_source=pzvBKuEUl0Vl1jtHQqJaog", "review_count": 35, "categories": [{"alias": "pizza", "title": "Pizza"}], "rating": 4.0, "coordinates": {"latitude": 41.6098616224812, "longitude": -71.2457045720353}, "transactions": ["delivery"], "price": "$", "location": {"address1": "3001 E Main Rd", "address2": "", "address3": "", "city": "Portsmouth", "zip_code": "02871", "country": "US", "state": "RI", "display_address": ["3001 E Main Rd", "Portsmouth, RI 02871"]}, "phone": "+14016830880", "display_phone": "(401) 683-0880", "distance": 7962.231058652489}, {"id": "8DXRGKXKDLORvG8YJFHyug", "alias": "spring-primavera-restaurant-tiverton", "name": "Spring Primavera Restaurant", "image_url": "https://s3-media2.fl.yelpcdn.com/bphoto/R-nWIIqMrF6IKV-v_ZTFBA/o.jpg", "is_closed": false, "url": "https://www.yelp.com/biz/spring-primavera-restaurant-tiverton?adjust_creative=pzvBKuEUl0Vl1jtHQqJaog&utm_campaign=yelp_api_v3&utm_medium=api_v3_business_search&utm_source=pzvBKuEUl0Vl1jtHQqJaog", "review_count": 15, "categories": [{"alias": "portuguese", "title": "Portuguese"}, {"alias": "tradamerican", "title": "American (Traditional)"}], "rating": 3.5, "coordinates": {"latitude": 41.6697246, "longitude": -71.1853241}, "transactions": [], "price": "$$", "location": {"address1": "118 Main Rd", "address2": "", "address3": "", "city": "Tiverton", "zip_code": "02878", "country": "US", "state": "RI", "display_address": ["118 Main Rd", "Tiverton, RI 02878"]}, "phone": "+14016242621", "display_phone": "(401) 624-2621", "distance": 7139.3383342388815}, {"id": "946hS-EWxCDqtVASNjnBcw", "alias": "subway-bristol-51", "name": "Subway", "image_url": "https://s3-media3.fl.yelpcdn.com/bphoto/H4o_ifH1q6gsbsvWcwZbcw/o.jpg", "is_closed": false, "url": "https://www.yelp.com/biz/subway-bristol-51?adjust_creative=pzvBKuEUl0Vl1jtHQqJaog&utm_campaign=yelp_api_v3&utm_medium=api_v3_business_search&utm_source=pzvBKuEUl0Vl1jtHQqJaog", "review_count": 10, "categories": [{"alias": "sandwiches", "title": "Sandwiches"}], "rating": 2.5, "coordinates": {"latitude": 41.679866600384, "longitude": -71.2609263433496}, "transactions": [], "price": "$", "location": {"address1": "397 Metacom Ave", "address2": "", "address3": "", "city": "Bristol", "zip_code": "02809", "country": "US", "state": "RI", "display_address": ["397 Metacom Ave", "Bristol, RI 02809"]}, "phone": "+14012540180", "display_phone": "(401) 254-0180", "distance": 789.5027375304697}, {"id": "N__0LxqZZOrJO2bDTnUzbA", "alias": "umi-japanese-steakhouse-swansea-2", "name": "UMI Japanese Steakhouse", "image_url": "https://s3-media2.fl.yelpcdn.com/bphoto/MZaht2yUSvic4HQL_kRrZQ/o.jpg", "is_closed": false, "url": "https://www.yelp.com/biz/umi-japanese-steakhouse-swansea-2?adjust_creative=pzvBKuEUl0Vl1jtHQqJaog&utm_campaign=yelp_api_v3&utm_medium=api_v3_business_search&utm_source=pzvBKuEUl0Vl1jtHQqJaog", "review_count": 38, "categories": [{"alias": "japanese", "title": "Japanese"}, {"alias": "steak", "title": "Steakhouses"}], "rating": 3.0, "coordinates": {"latitude": 41.750476, "longitude": -71.221253}, "transactions": [], "price": "$$", "location": {"address1": "1027 Gar Hwy", "address2": "", "address3": "", "city": "Swansea", "zip_code": "02777", "country": "US", "state": "MA", "display_address": ["1027 Gar Hwy", "Swansea, MA 02777"]}, "phone": "+15086721490", "display_phone": "(508) 672-1490", "distance": 8927.002140793831}, {"id": "3NXFQSWQSPjWe3hO4rNoPA", "alias": "thai-taste-swansea", "name": "Thai Taste", "image_url": "https://s3-media1.fl.yelpcdn.com/bphoto/BETPLwn99p9aegGEL8fwgw/o.jpg", "is_closed": false, "url": "https://www.yelp.com/biz/thai-taste-swansea?adjust_creative=pzvBKuEUl0Vl1jtHQqJaog&utm_campaign=yelp_api_v3&utm_medium=api_v3_business_search&utm_source=pzvBKuEUl0Vl1jtHQqJaog", "review_count": 75, "categories": [{"alias": "thai", "title": "Thai"}], "rating": 4.0, "coordinates": {"latitude": 41.7491608, "longitude": -71.2150269}, "transactions": [], "price": "$$", "location": {"address1": "544 Milford Rd", "address2": "", "address3": "", "city": "Swansea", "zip_code": "02777", "country": "US", "state": "MA", "display_address": ["544 Milford Rd", "Swansea, MA 02777"]}, "phone": "+15086772169", "display_phone": "(508) 677-2169", "distance": 8986.440291472432}, {"id": "6i8hlfjFKLHBihzW-1Jcsg", "alias": "mcgoverns-on-the-water-fall-river-2", "name": "McGoverns On The Water", "image_url": "https://s3-media2.fl.yelpcdn.com/bphoto/mUkrh1VBdtncsk3u6OUY6Q/o.jpg", "is_closed": false, "url": "https://www.yelp.com/biz/mcgoverns-on-the-water-fall-river-2?adjust_creative=pzvBKuEUl0Vl1jtHQqJaog&utm_campaign=yelp_api_v3&utm_medium=api_v3_business_search&utm_source=pzvBKuEUl0Vl1jtHQqJaog", "review_count": 49, "categories": [{"alias": "venues", "title": "Venues & Event Spaces"}, {"alias": "seafood", "title": "Seafood"}], "rating": 3.5, "coordinates": {"latitude": 41.6738749337645, "longitude": -71.1802493656702}, "transactions": [], "price": "$$", "location": {"address1": "310 Shove St", "address2": "", "address3": "", "city": "Fall River", "zip_code": "02724", "country": "US", "state": "MA", "display_address": ["310 Shove St", "Fall River, MA 02724"]}, "phone": "+15086795010", "display_phone": "(508) 679-5010", "distance": 7506.9265303129305}, {"id": "fZjDzL8lQimDzxl0E_Lc5g", "alias": "jillians-sports-pub-somerset", "name": "Jillian's Sports Pub", "image_url": "https://s3-media1.fl.yelpcdn.com/bphoto/iN3B9VRf42XyQdxG02Ybbw/o.jpg", "is_closed": false, "url": "https://www.yelp.com/biz/jillians-sports-pub-somerset?adjust_creative=pzvBKuEUl0Vl1jtHQqJaog&utm_campaign=yelp_api_v3&utm_medium=api_v3_business_search&utm_source=pzvBKuEUl0Vl1jtHQqJaog", "review_count": 50, "categories": [{"alias": "sportsbars", "title": "Sports Bars"}, {"alias": "tradamerican", "title": "American (Traditional)"}], "rating": 2.5, "coordinates": {"latitude": 41.7277387848974, "longitude": -71.1900391309788}, "transactions": [], "price": "$$", "location": {"address1": "1876 Wilbur Ave", "address2": null, "address3": null, "city": "Somerset", "zip_code": "02725", "country": "US", "state": "MA", "display_address": ["1876 Wilbur Ave", "Somerset, MA 02725"]}, "phone": "+15086781140", "display_phone": "(508) 678-1140", "distance": 8589.516886273726}, {"id": "6KlWKK9LLBcG6I-i3pef5Q", "alias": "grazianos-501-cafe-portsmouth", "name": "Graziano's 501 Cafe", "image_url": "https://s3-media1.fl.yelpcdn.com/bphoto/kBR2fKikBlFAOQJDVr_ICg/o.jpg", "is_closed": false, "url": "https://www.yelp.com/biz/grazianos-501-cafe-portsmouth?adjust_creative=pzvBKuEUl0Vl1jtHQqJaog&utm_campaign=yelp_api_v3&utm_medium=api_v3_business_search&utm_source=pzvBKuEUl0Vl1jtHQqJaog", "review_count": 45, "categories": [{"alias": "pubs", "title": "Pubs"}, {"alias": "seafood", "title": "Seafood"}, {"alias": "breakfast_brunch", "title": "Breakfast & Brunch"}], "rating": 3.5, "coordinates": {"latitude": 41.62336, "longitude": -71.22702}, "transactions": ["delivery"], "price": "$", "location": {"address1": "501 Park Ave", "address2": "", "address3": "", "city": "Portsmouth", "zip_code": "02871", "country": "US", "state": "RI", "display_address": ["501 Park Ave", "Portsmouth, RI 02871"]}, "phone": "+14016830750", "display_phone": "(401) 683-0750", "distance": 7160.515415653805}, {"id": "n0gMQPqZLuced8hkoLOyJw", "alias": "mee-sum-restaurant-and-cocktail-lounge-fall-river", "name": "Mee Sum Restaurant & Cocktail Lounge", "image_url": "https://s3-media2.fl.yelpcdn.com/bphoto/7HgvD_PTHHvKVy0SD2a6GQ/o.jpg", "is_closed": false, "url": "https://www.yelp.com/biz/mee-sum-restaurant-and-cocktail-lounge-fall-river?adjust_creative=pzvBKuEUl0Vl1jtHQqJaog&utm_campaign=yelp_api_v3&utm_medium=api_v3_business_search&utm_source=pzvBKuEUl0Vl1jtHQqJaog", "review_count": 23, "categories": [{"alias": "chinese", "title": "Chinese"}], "rating": 4.0, "coordinates": {"latitude": 41.68304, "longitude": -71.1763}, "transactions": ["delivery"], "price": "$", "location": {"address1": "1819 S Main St", "address2": "", "address3": "", "city": "Fall River", "zip_code": "02724", "country": "US", "state": "MA", "display_address": ["1819 S Main St", "Fall River, MA 02724"]}, "phone": "+15086789869", "display_phone": "(508) 678-9869", "distance": 7825.315814190592}, {"id": "J0vSSXYO79OKBNskp8Pz7A", "alias": "new-china-portsmouth", "name": "New China", "image_url": "https://s3-media2.fl.yelpcdn.com/bphoto/zVcUdnUj0Ev9fpOXrxXDXg/o.jpg", "is_closed": false, "url": "https://www.yelp.com/biz/new-china-portsmouth?adjust_creative=pzvBKuEUl0Vl1jtHQqJaog&utm_campaign=yelp_api_v3&utm_medium=api_v3_business_search&utm_source=pzvBKuEUl0Vl1jtHQqJaog", "review_count": 19, "categories": [{"alias": "chinese", "title": "Chinese"}, {"alias": "seafood", "title": "Seafood"}, {"alias": "thai", "title": "Thai"}], "rating": 3.5, "coordinates": {"latitude": 41.6173492, "longitude": -71.2463666}, "transactions": ["delivery"], "price": "$$", "location": {"address1": "3288 E Main Rd", "address2": "", "address3": "", "city": "Portsmouth", "zip_code": "02871", "country": "US", "state": "RI", "display_address": ["3288 E Main Rd", "Portsmouth, RI 02871"]}, "phone": "+14016836789", "display_phone": "(401) 683-6789", "distance": 7149.847676305144}, {"id": "L_j82qXJgJXghnYAbKBTJg", "alias": "bagels-etc-barrington", "name": "Bagels Etc", "image_url": "https://s3-media2.fl.yelpcdn.com/bphoto/DgYTd4RPJxvVsySA2We4Qg/o.jpg", "is_closed": false, "url": "https://www.yelp.com/biz/bagels-etc-barrington?adjust_creative=pzvBKuEUl0Vl1jtHQqJaog&utm_campaign=yelp_api_v3&utm_medium=api_v3_business_search&utm_source=pzvBKuEUl0Vl1jtHQqJaog", "review_count": 38, "categories": [{"alias": "delis", "title": "Delis"}, {"alias": "sandwiches", "title": "Sandwiches"}, {"alias": "wraps", "title": "Wraps"}], "rating": 4.0, "coordinates": {"latitude": 41.73939, "longitude": -71.30668}, "transactions": ["delivery"], "price": "$", "location": {"address1": "259 County Rd", "address2": "", "address3": "", "city": "Barrington", "zip_code": "02806", "country": "US", "state": "RI", "display_address": ["259 County Rd", "Barrington, RI 02806"]}, "phone": "+14012471213", "display_phone": "(401) 247-1213", "distance": 7349.379223534834}, {"id": "CdFTXFWDjAdoTWdjg1MPGg", "alias": "tipsy-seagull-fall-river", "name": "Tipsy Seagull", "image_url": "https://s3-media1.fl.yelpcdn.com/bphoto/-On2qwwHxrmzH8qu-WLeWg/o.jpg", "is_closed": false, "url": "https://www.yelp.com/biz/tipsy-seagull-fall-river?adjust_creative=pzvBKuEUl0Vl1jtHQqJaog&utm_campaign=yelp_api_v3&utm_medium=api_v3_business_search&utm_source=pzvBKuEUl0Vl1jtHQqJaog", "review_count": 99, "categories": [{"alias": "burgers", "title": "Burgers"}, {"alias": "pubs", "title": "Pubs"}], "rating": 3.0, "coordinates": {"latitude": 41.70115, "longitude": -71.16989}, "transactions": ["delivery"], "price": "$$", "location": {"address1": "1 Ferry St", "address2": "", "address3": "", "city": "Fall River", "zip_code": "02721", "country": "US", "state": "MA", "display_address": ["1 Ferry St", "Fall River, MA 02721"]}, "phone": "+15086787547", "display_phone": "(508) 678-7547", "distance": 8667.403609125084}, {"id": "afYldZ9CQIWK2lp7LmBZ-w", "alias": "reidys-family-restaurant-portsmouth", "name": "Reidy's Family Restaurant", "image_url": "https://s3-media3.fl.yelpcdn.com/bphoto/3ppsReeyThd4XeSm739Jog/o.jpg", "is_closed": false, "url": "https://www.yelp.com/biz/reidys-family-restaurant-portsmouth?adjust_creative=pzvBKuEUl0Vl1jtHQqJaog&utm_campaign=yelp_api_v3&utm_medium=api_v3_business_search&utm_source=pzvBKuEUl0Vl1jtHQqJaog", "review_count": 36, "categories": [{"alias": "breakfast_brunch", "title": "Breakfast & Brunch"}, {"alias": "seafood", "title": "Seafood"}, {"alias": "tradamerican", "title": "American (Traditional)"}], "rating": 4.0, "coordinates": {"latitude": 41.619245, "longitude": -71.245388}, "transactions": [], "price": "$", "location": {"address1": "3351 E Main Rd", "address2": "", "address3": "", "city": "Portsmouth", "zip_code": "02871", "country": "US", "state": "RI", "display_address": ["3351 E Main Rd", "Portsmouth, RI 02871"]}, "phone": "+14016839802", "display_phone": "(401) 683-9802", "distance": 6966.941233599106}, {"id": "joYPBRfyonN-em4-hOyqZQ", "alias": "riptide-sports-grille-tiverton", "name": "RipTide Sports Grille", "image_url": "https://s3-media4.fl.yelpcdn.com/bphoto/c9M6huZUJFTlU4064ZbRdg/o.jpg", "is_closed": false, "url": "https://www.yelp.com/biz/riptide-sports-grille-tiverton?adjust_creative=pzvBKuEUl0Vl1jtHQqJaog&utm_campaign=yelp_api_v3&utm_medium=api_v3_business_search&utm_source=pzvBKuEUl0Vl1jtHQqJaog", "review_count": 7, "categories": [{"alias": "tradamerican", "title": "American (Traditional)"}, {"alias": "cocktailbars", "title": "Cocktail Bars"}], "rating": 3.5, "coordinates": {"latitude": 41.6745, "longitude": -71.19313}, "transactions": ["delivery"], "price": "$$", "location": {"address1": "1 Bay St", "address2": "", "address3": null, "city": "Tiverton", "zip_code": "02878", "country": "US", "state": "RI", "display_address": ["1 Bay St", "Tiverton, RI 02878"]}, "phone": "+14018160023", "display_phone": "(401) 816-0023", "distance": 6432.171819879272}, {"id": "bN77aSp60T8u8kNA50Jm1Q", "alias": "tnt-coney-island-hot-dogs-somerset", "name": "TNT Coney Island Hot Dogs", "image_url": "https://s3-media3.fl.yelpcdn.com/bphoto/cTV3nNljR2FHyLi6Ad42gA/o.jpg", "is_closed": false, "url": "https://www.yelp.com/biz/tnt-coney-island-hot-dogs-somerset?adjust_creative=pzvBKuEUl0Vl1jtHQqJaog&utm_campaign=yelp_api_v3&utm_medium=api_v3_business_search&utm_source=pzvBKuEUl0Vl1jtHQqJaog", "review_count": 16, "categories": [{"alias": "hotdog", "title": "Hot Dogs"}], "rating": 4.0, "coordinates": {"latitude": 41.7239127502249, "longitude": -71.1793216864671}, "transactions": ["delivery"], "price": "$", "location": {"address1": "1242 Wilbur Ave", "address2": "", "address3": "", "city": "Somerset", "zip_code": "02725", "country": "US", "state": "MA", "display_address": ["1242 Wilbur Ave", "Somerset, MA 02725"]}, "phone": "+17742948240", "display_phone": "(774) 294-8240", "distance": 9056.321434902133}, {"id": "j8rX3EzjTJPKr6pbQx58Ug", "alias": "laurens-restaurant-warren", "name": "Lauren's Restaurant", "image_url": "https://s3-media3.fl.yelpcdn.com/bphoto/wtAkXjI435acnDDnoY_phg/o.jpg", "is_closed": false, "url": "https://www.yelp.com/biz/laurens-restaurant-warren?adjust_creative=pzvBKuEUl0Vl1jtHQqJaog&utm_campaign=yelp_api_v3&utm_medium=api_v3_business_search&utm_source=pzvBKuEUl0Vl1jtHQqJaog", "review_count": 31, "categories": [{"alias": "breakfast_brunch", "title": "Breakfast & Brunch"}, {"alias": "tradamerican", "title": "American (Traditional)"}, {"alias": "salad", "title": "Salad"}], "rating": 3.0, "coordinates": {"latitude": 41.7198447883129, "longitude": -71.2690461426973}, "transactions": ["delivery"], "price": "$$", "location": {"address1": "601A Metacom Ave", "address2": null, "address3": null, "city": "Warren", "zip_code": "02885", "country": "US", "state": "RI", "display_address": ["601A Metacom Ave", "Warren, RI 02885"]}, "phone": "+14012450735", "display_phone": "(401) 245-0735", "distance": 4575.988162398641}, {"id": "HmpihlRGpKR0pN9rtyX_8g", "alias": "the-original-balascos-pizzeria-and-bella-roast-beef-warren-2", "name": "The Original Balasco's Pizzeria and Bella Roast Beef", "image_url": "https://s3-media1.fl.yelpcdn.com/bphoto/YwxMUR-hi3C-8qKi6YWhbg/o.jpg", "is_closed": false, "url": "https://www.yelp.com/biz/the-original-balascos-pizzeria-and-bella-roast-beef-warren-2?adjust_creative=pzvBKuEUl0Vl1jtHQqJaog&utm_campaign=yelp_api_v3&utm_medium=api_v3_business_search&utm_source=pzvBKuEUl0Vl1jtHQqJaog", "review_count": 24, "categories": [{"alias": "pizza", "title": "Pizza"}], "rating": 3.0, "coordinates": {"latitude": 41.73337, "longitude": -71.27395}, "transactions": ["delivery"], "price": "$", "location": {"address1": "254 Market St", "address2": "", "address3": "", "city": "Warren", "zip_code": "02885", "country": "US", "state": "RI", "display_address": ["254 Market St", "Warren, RI 02885"]}, "phone": "+14012458380", "display_phone": "(401) 245-8380", "distance": 6028.723808843207}, {"id": "OO9nfM-sHirIqVhXgphMaQ", "alias": "rods-grille-warren", "name": "Rod's Grille", "image_url": "https://s3-media1.fl.yelpcdn.com/bphoto/RcMm2j9V8rJ8tR815X8RaA/o.jpg", "is_closed": false, "url": "https://www.yelp.com/biz/rods-grille-warren?adjust_creative=pzvBKuEUl0Vl1jtHQqJaog&utm_campaign=yelp_api_v3&utm_medium=api_v3_business_search&utm_source=pzvBKuEUl0Vl1jtHQqJaog", "review_count": 36, "categories": [{"alias": "diners", "title": "Diners"}, {"alias": "burgers", "title": "Burgers"}, {"alias": "breakfast_brunch", "title": "Breakfast & Brunch"}], "rating": 4.0, "coordinates": {"latitude": 41.7284590684924, "longitude": -71.2824595609192}, "transactions": ["delivery"], "price": "$", "location": {"address1": "6 Washington St", "address2": "", "address3": "", "city": "Warren", "zip_code": "02885", "country": "US", "state": "RI", "display_address": ["6 Washington St", "Warren, RI 02885"]}, "phone": "+14012459405", "display_phone": "(401) 245-9405", "distance": 5580.873650644807}, {"id": "M_YuZJFyeNGBZli4CG7zhA", "alias": "j-petal-somerset", "name": "J petal", "image_url": "https://s3-media4.fl.yelpcdn.com/bphoto/AGO1ISASt5BirRSdJ5IAgw/o.jpg", "is_closed": false, "url": "https://www.yelp.com/biz/j-petal-somerset?adjust_creative=pzvBKuEUl0Vl1jtHQqJaog&utm_campaign=yelp_api_v3&utm_medium=api_v3_business_search&utm_source=pzvBKuEUl0Vl1jtHQqJaog", "review_count": 35, "categories": [{"alias": "icecream", "title": "Ice Cream & Frozen Yogurt"}, {"alias": "creperies", "title": "Creperies"}, {"alias": "poke", "title": "Poke"}], "rating": 5.0, "coordinates": {"latitude": 41.7410485500558, "longitude": -71.1878965681136}, "transactions": [], "price": "$", "location": {"address1": "1125 Gar Hwy", "address2": null, "address3": "", "city": "Somerset", "zip_code": "02726", "country": "US", "state": "MA", "display_address": ["1125 Gar Hwy", "Somerset, MA 02726"]}, "phone": "+15085676802", "display_phone": "(508) 567-6802", "distance": 9899.30448976759}, {"id": "vd_uy_yfa__WV57pijiObA", "alias": "the-happy-clam-bar-and-grill-swansea", "name": "The Happy Clam Bar & Grill", "image_url": "https://s3-media2.fl.yelpcdn.com/bphoto/UmccNfjlu_ak0tcci8M-Lg/o.jpg", "is_closed": false, "url": "https://www.yelp.com/biz/the-happy-clam-bar-and-grill-swansea?adjust_creative=pzvBKuEUl0Vl1jtHQqJaog&utm_campaign=yelp_api_v3&utm_medium=api_v3_business_search&utm_source=pzvBKuEUl0Vl1jtHQqJaog", "review_count": 3, "categories": [{"alias": "newamerican", "title": "American (New)"}, {"alias": "portuguese", "title": "Portuguese"}, {"alias": "pubs", "title": "Pubs"}], "rating": 3.0, "coordinates": {"latitude": 41.7246284, "longitude": -71.2118073}, "transactions": [], "price": "$", "location": {"address1": "378 Ocean Grove Ave", "address2": "", "address3": "", "city": "Swansea", "zip_code": "02777", "country": "US", "state": "MA", "display_address": ["378 Ocean Grove Ave", "Swansea, MA 02777"]}, "phone": "+15086463849", "display_phone": "(508) 646-3849", "distance": 7028.811851896926}, {"id": "j_fMS19pruNa2rkN5TOX4A", "alias": "taco-bell-warren-9", "name": "Taco Bell", "image_url": "https://s3-media4.fl.yelpcdn.com/bphoto/eD7dVUmE-0DbuBe8hes2Ag/o.jpg", "is_closed": false, "url": "https://www.yelp.com/biz/taco-bell-warren-9?adjust_creative=pzvBKuEUl0Vl1jtHQqJaog&utm_campaign=yelp_api_v3&utm_medium=api_v3_business_search&utm_source=pzvBKuEUl0Vl1jtHQqJaog", "review_count": 12, "categories": [{"alias": "hotdogs", "title": "Fast Food"}, {"alias": "tacos", "title": "Tacos"}], "rating": 1.5, "coordinates": {"latitude": 41.715087, "longitude": -71.268148}, "transactions": [], "price": "$", "location": {"address1": "651 Metacom Avenue", "address2": "", "address3": "", "city": "Warren", "zip_code": "02885", "country": "US", "state": "RI", "display_address": ["651 Metacom Avenue", "Warren, RI 02885"]}, "phone": "+14012531794", "display_phone": "(401) 253-1794", "distance": 4010.8479509101903}, {"id": "av8R7UIc6UbLezJZjept9Q", "alias": "dominos-pizza-bristol-3", "name": "Domino's Pizza", "image_url": "https://s3-media3.fl.yelpcdn.com/bphoto/uFdsmaNOCzf82gq7qIhPdw/o.jpg", "is_closed": false, "url": "https://www.yelp.com/biz/dominos-pizza-bristol-3?adjust_creative=pzvBKuEUl0Vl1jtHQqJaog&utm_campaign=yelp_api_v3&utm_medium=api_v3_business_search&utm_source=pzvBKuEUl0Vl1jtHQqJaog", "review_count": 10, "categories": [{"alias": "pizza", "title": "Pizza"}, {"alias": "chicken_wings", "title": "Chicken Wings"}, {"alias": "sandwiches", "title": "Sandwiches"}], "rating": 3.5, "coordinates": {"latitude": 41.6933860781441, "longitude": -71.2770741941484}, "transactions": [], "price": "$", "location": {"address1": "11 Gooding Ave", "address2": "", "address3": "", "city": "Bristol", "zip_code": "02809", "country": "US", "state": "RI", "display_address": ["11 Gooding Ave", "Bristol, RI 02809"]}, "phone": "+14012540404", "display_phone": "(401) 254-0404", "distance": 1688.0042857773917}, {"id": "n4K4hW3q6gouam4pFWPimw", "alias": "sabitados-pizzeria-tiverton", "name": "Sabitado's Pizzeria", "image_url": "https://s3-media3.fl.yelpcdn.com/bphoto/ZqSqETnMfobUdZcibwxFaw/o.jpg", "is_closed": false, "url": "https://www.yelp.com/biz/sabitados-pizzeria-tiverton?adjust_creative=pzvBKuEUl0Vl1jtHQqJaog&utm_campaign=yelp_api_v3&utm_medium=api_v3_business_search&utm_source=pzvBKuEUl0Vl1jtHQqJaog", "review_count": 15, "categories": [{"alias": "pizza", "title": "Pizza"}], "rating": 3.5, "coordinates": {"latitude": 41.63726, "longitude": -71.18741}, "transactions": ["delivery"], "price": "$", "location": {"address1": "1204 Fish Rd", "address2": null, "address3": null, "city": "Tiverton", "zip_code": "02878", "country": "US", "state": "RI", "display_address": ["1204 Fish Rd", "Tiverton, RI 02878"]}, "phone": "+14016255243", "display_phone": "(401) 625-5243", "distance": 8258.201048584384}, {"id": "zSI1EieVA39KLfbV0zDV0Q", "alias": "montaup-grille-portsmouth", "name": "Montaup Grille", "image_url": "https://s3-media4.fl.yelpcdn.com/bphoto/w5-TjtrDd0mW-eCXic34eA/o.jpg", "is_closed": false, "url": "https://www.yelp.com/biz/montaup-grille-portsmouth?adjust_creative=pzvBKuEUl0Vl1jtHQqJaog&utm_campaign=yelp_api_v3&utm_medium=api_v3_business_search&utm_source=pzvBKuEUl0Vl1jtHQqJaog", "review_count": 1, "categories": [{"alias": "tradamerican", "title": "American (Traditional)"}], "rating": 3.0, "coordinates": {"latitude": 41.6365031898022, "longitude": -71.2317795306444}, "transactions": [], "location": {"address1": "500 Anthony Rd", "address2": null, "address3": null, "city": "Portsmouth", "zip_code": "02871", "country": "US", "state": "RI", "display_address": ["500 Anthony Rd", "Portsmouth, RI 02871"]}, "phone": "+14016625886", "display_phone": "(401) 662-5886", "distance": 5687.601794409569}, {"id": "ZPaQXB1Tst9-aSIjGp0_aw", "alias": "leons-cafe-and-catering-barrington", "name": "Leon's Cafe & Catering", "image_url": "https://s3-media3.fl.yelpcdn.com/bphoto/obecjO21QYac0iEPANpHfw/o.jpg", "is_closed": false, "url": "https://www.yelp.com/biz/leons-cafe-and-catering-barrington?adjust_creative=pzvBKuEUl0Vl1jtHQqJaog&utm_campaign=yelp_api_v3&utm_medium=api_v3_business_search&utm_source=pzvBKuEUl0Vl1jtHQqJaog", "review_count": 53, "categories": [{"alias": "cafes", "title": "Cafes"}, {"alias": "delis", "title": "Delis"}, {"alias": "breakfast_brunch", "title": "Breakfast & Brunch"}], "rating": 4.5, "coordinates": {"latitude": 41.7378500379987, "longitude": -71.3090427201544}, "transactions": ["delivery"], "price": "$$", "location": {"address1": "230 Waseca Ave", "address2": "", "address3": "", "city": "Barrington", "zip_code": "02806", "country": "US", "state": "RI", "display_address": ["230 Waseca Ave", "Barrington, RI 02806"]}, "phone": "+14012471660", "display_phone": "(401) 247-1660", "distance": 7283.375323542687}, {"id": "Jx8RyCBNvOwDiMg0cn32sA", "alias": "the-empire-grille-swansea", "name": "The Empire Grille", "image_url": "https://s3-media4.fl.yelpcdn.com/bphoto/XQgpZwmIXgY4Ix9gv7olVQ/o.jpg", "is_closed": false, "url": "https://www.yelp.com/biz/the-empire-grille-swansea?adjust_creative=pzvBKuEUl0Vl1jtHQqJaog&utm_campaign=yelp_api_v3&utm_medium=api_v3_business_search&utm_source=pzvBKuEUl0Vl1jtHQqJaog", "review_count": 16, "categories": [{"alias": "seafood", "title": "Seafood"}, {"alias": "cocktailbars", "title": "Cocktail Bars"}], "rating": 3.5, "coordinates": {"latitude": 41.7419846, "longitude": -71.1895905}, "transactions": [], "price": "$$", "location": {"address1": "75 Grand Army Hwy", "address2": "", "address3": "", "city": "Swansea", "zip_code": "02777", "country": "US", "state": "MA", "display_address": ["75 Grand Army Hwy", "Swansea, MA 02777"]}, "phone": "+15086783901", "display_phone": "(508) 678-3901", "distance": 9691.624097826127}, {"id": "EwYJNWwc5KaNtpdl-cIm7w", "alias": "family-ties-restaurant-tiverton", "name": "Family Ties Restaurant", "image_url": "https://s3-media2.fl.yelpcdn.com/bphoto/Mc5_jtmKgNJuiKRJJUqFDw/o.jpg", "is_closed": false, "url": "https://www.yelp.com/biz/family-ties-restaurant-tiverton?adjust_creative=pzvBKuEUl0Vl1jtHQqJaog&utm_campaign=yelp_api_v3&utm_medium=api_v3_business_search&utm_source=pzvBKuEUl0Vl1jtHQqJaog", "review_count": 56, "categories": [{"alias": "breakfast_brunch", "title": "Breakfast & Brunch"}, {"alias": "tradamerican", "title": "American (Traditional)"}, {"alias": "seafood", "title": "Seafood"}], "rating": 3.5, "coordinates": {"latitude": 41.6674099, "longitude": -71.1869509}, "transactions": ["delivery"], "price": "$$", "location": {"address1": "221 Main Rd", "address2": "", "address3": "", "city": "Tiverton", "zip_code": "02878", "country": "US", "state": "RI", "display_address": ["221 Main Rd", "Tiverton, RI 02878"]}, "phone": "+14016242321", "display_phone": "(401) 624-2321", "distance": 7048.521305543472}, {"id": "lb1Pj4rJ0ACjBr7OMBELBw", "alias": "nancys-homestyle-deli-warren", "name": "Nancy's Homestyle Deli", "image_url": "https://s3-media3.fl.yelpcdn.com/bphoto/Y6fR8A3ksAoT8NRy_qBHnw/o.jpg", "is_closed": false, "url": "https://www.yelp.com/biz/nancys-homestyle-deli-warren?adjust_creative=pzvBKuEUl0Vl1jtHQqJaog&utm_campaign=yelp_api_v3&utm_medium=api_v3_business_search&utm_source=pzvBKuEUl0Vl1jtHQqJaog", "review_count": 8, "categories": [{"alias": "delis", "title": "Delis"}, {"alias": "sandwiches", "title": "Sandwiches"}], "rating": 4.0, "coordinates": {"latitude": 41.73567, "longitude": -71.28573}, "transactions": ["delivery"], "price": "$", "location": {"address1": "139 Main St", "address2": "", "address3": "", "city": "Warren", "zip_code": "02885", "country": "US", "state": "RI", "display_address": ["139 Main St", "Warren, RI 02885"]}, "phone": "+14012892930", "display_phone": "(401) 289-2930", "distance": 6421.188337776196}, {"id": "bfVpMkuI7KnMA83tFAR3jw", "alias": "brickyard-pizza-barrington", "name": "Brickyard Pizza", "image_url": "https://s3-media2.fl.yelpcdn.com/bphoto/3TFligOL5RLZlMTHDlWAYA/o.jpg", "is_closed": false, "url": "https://www.yelp.com/biz/brickyard-pizza-barrington?adjust_creative=pzvBKuEUl0Vl1jtHQqJaog&utm_campaign=yelp_api_v3&utm_medium=api_v3_business_search&utm_source=pzvBKuEUl0Vl1jtHQqJaog", "review_count": 18, "categories": [{"alias": "pizza", "title": "Pizza"}, {"alias": "italian", "title": "Italian"}, {"alias": "sandwiches", "title": "Sandwiches"}], "rating": 3.5, "coordinates": {"latitude": 41.73975, "longitude": -71.3102399}, "transactions": ["delivery"], "location": {"address1": "59 Maple Ave", "address2": "", "address3": null, "city": "Barrington", "zip_code": "02806", "country": "US", "state": "RI", "display_address": ["59 Maple Ave", "Barrington, RI 02806"]}, "phone": "+14012892910", "display_phone": "(401) 289-2910", "distance": 7510.922243465201}, {"id": "eJgHvCZXNS_YDjVDmljAuA", "alias": "little-billys-food-truck-barrington", "name": "Little Billys Food Truck", "image_url": "", "is_closed": false, "url": "https://www.yelp.com/biz/little-billys-food-truck-barrington?adjust_creative=pzvBKuEUl0Vl1jtHQqJaog&utm_campaign=yelp_api_v3&utm_medium=api_v3_business_search&utm_source=pzvBKuEUl0Vl1jtHQqJaog", "review_count": 1, "categories": [{"alias": "foodstands", "title": "Food Stands"}], "rating": 4.0, "coordinates": {"latitude": 41.7406997680664, "longitude": -71.3087005615234}, "transactions": [], "location": {"address1": "", "address2": "", "address3": "", "city": "Barrington", "zip_code": "", "country": "US", "state": "RI", "display_address": ["Barrington, RI"]}, "phone": "", "display_phone": "", "distance": 7551.854993276775}, {"id": "Q29tXi_nvCtOaYZ2e3JQKA", "alias": "burger-king-warren-12", "name": "Burger King", "image_url": "https://s3-media1.fl.yelpcdn.com/bphoto/MJulbWhHq5qLtk4Pzov3eg/o.jpg", "is_closed": false, "url": "https://www.yelp.com/biz/burger-king-warren-12?adjust_creative=pzvBKuEUl0Vl1jtHQqJaog&utm_campaign=yelp_api_v3&utm_medium=api_v3_business_search&utm_source=pzvBKuEUl0Vl1jtHQqJaog", "review_count": 4, "categories": [{"alias": "burgers", "title": "Burgers"}, {"alias": "hotdogs", "title": "Fast Food"}], "rating": 4.0, "coordinates": {"latitude": 41.7190399, "longitude": -71.2689972}, "transactions": [], "price": "$", "location": {"address1": "609 Metacom Ave", "address2": "", "address3": "", "city": "Warren", "zip_code": "02885", "country": "US", "state": "RI", "display_address": ["609 Metacom Ave", "Warren, RI 02885"]}, "phone": "+14012457714", "display_phone": "(401) 245-7714", "distance": 4426.245140647102}, {"id": "2JFOS21s8btpJwvu_5Klrg", "alias": "lil-bear-sports-pub-tiverton", "name": "Li'l Bear Sports Pub", "image_url": "https://s3-media2.fl.yelpcdn.com/bphoto/3HjA-iHMghoKlNI_nn-fvA/o.jpg", "is_closed": false, "url": "https://www.yelp.com/biz/lil-bear-sports-pub-tiverton?adjust_creative=pzvBKuEUl0Vl1jtHQqJaog&utm_campaign=yelp_api_v3&utm_medium=api_v3_business_search&utm_source=pzvBKuEUl0Vl1jtHQqJaog", "review_count": 35, "categories": [{"alias": "breakfast_brunch", "title": "Breakfast & Brunch"}, {"alias": "sportsbars", "title": "Sports Bars"}, {"alias": "newamerican", "title": "American (New)"}], "rating": 3.0, "coordinates": {"latitude": 41.64912, "longitude": -71.20258}, "transactions": ["delivery"], "price": "$", "location": {"address1": "983 Main Rd", "address2": "", "address3": "", "city": "Tiverton", "zip_code": "02878", "country": "US", "state": "RI", "display_address": ["983 Main Rd", "Tiverton, RI 02878"]}, "phone": "+14016243212", "display_phone": "(401) 624-3212", "distance": 6534.457213036662}, {"id": "TN8YZ4EPi2_Ysfa1V54SdA", "alias": "yamato-asian-bistro-and-sushi-somerset", "name": "Yamato Asian Bistro and Sushi", "image_url": "https://s3-media2.fl.yelpcdn.com/bphoto/PDmwPgCvQ92P8tQHj566Aw/o.jpg", "is_closed": false, "url": "https://www.yelp.com/biz/yamato-asian-bistro-and-sushi-somerset?adjust_creative=pzvBKuEUl0Vl1jtHQqJaog&utm_campaign=yelp_api_v3&utm_medium=api_v3_business_search&utm_source=pzvBKuEUl0Vl1jtHQqJaog", "review_count": 48, "categories": [{"alias": "japanese", "title": "Japanese"}, {"alias": "chinese", "title": "Chinese"}, {"alias": "sushi", "title": "Sushi Bars"}], "rating": 3.5, "coordinates": {"latitude": 41.7337652142387, "longitude": -71.1757138639668}, "transactions": [], "price": "$$", "location": {"address1": "1155 Grand Army Hwy", "address2": "", "address3": null, "city": "Somerset", "zip_code": "02726", "country": "US", "state": "MA", "display_address": ["1155 Grand Army Hwy", "Somerset, MA 02726"]}, "phone": "+15086776767", "display_phone": "(508) 677-6767", "distance": 9937.536574508671}, {"id": "5HvsnmvCSWI88ySbeY2YdA", "alias": "leddys-bakery-fall-river", "name": "Leddy's Bakery", "image_url": "https://s3-media1.fl.yelpcdn.com/bphoto/Xgv1pLO6TIZNcHxnmseKJg/o.jpg", "is_closed": false, "url": "https://www.yelp.com/biz/leddys-bakery-fall-river?adjust_creative=pzvBKuEUl0Vl1jtHQqJaog&utm_campaign=yelp_api_v3&utm_medium=api_v3_business_search&utm_source=pzvBKuEUl0Vl1jtHQqJaog", "review_count": 38, "categories": [{"alias": "bakeries", "title": "Bakeries"}, {"alias": "breakfast_brunch", "title": "Breakfast & Brunch"}, {"alias": "sandwiches", "title": "Sandwiches"}], "rating": 4.5, "coordinates": {"latitude": 41.68679, "longitude": -71.1725699}, "transactions": ["delivery"], "price": "$", "location": {"address1": "1481 S Main St", "address2": "", "address3": "", "city": "Fall River", "zip_code": "02724", "country": "US", "state": "MA", "display_address": ["1481 S Main St", "Fall River, MA 02724"]}, "phone": "+15086720832", "display_phone": "(508) 672-0832", "distance": 8173.978717970082}, {"id": "qhi3Wf2y3KEquuo7YJXftg", "alias": "vickies-swansea-chinese-restaurant-swansea", "name": "Vickie's Swansea Chinese Restaurant", "image_url": "https://s3-media1.fl.yelpcdn.com/bphoto/7e3m2OJFj5cY8MuzNe6NXg/o.jpg", "is_closed": false, "url": "https://www.yelp.com/biz/vickies-swansea-chinese-restaurant-swansea?adjust_creative=pzvBKuEUl0Vl1jtHQqJaog&utm_campaign=yelp_api_v3&utm_medium=api_v3_business_search&utm_source=pzvBKuEUl0Vl1jtHQqJaog", "review_count": 40, "categories": [{"alias": "chinese", "title": "Chinese"}], "rating": 3.5, "coordinates": {"latitude": 41.755154, "longitude": -71.212999}, "transactions": [], "price": "$", "location": {"address1": "207 Swansea Mall Dr", "address2": "", "address3": "", "city": "Swansea", "zip_code": "02777", "country": "US", "state": "MA", "display_address": ["207 Swansea Mall Dr", "Swansea, MA 02777"]}, "phone": "+15086768767", "display_phone": "(508) 676-8767", "distance": 9709.682959032154}, {"id": "yyqlYLidnYAmnMUqTqqZdw", "alias": "simply-simons-swansea", "name": "Simply Simons", "image_url": "https://s3-media4.fl.yelpcdn.com/bphoto/ry4N_9F65JtvAhlj_QqONw/o.jpg", "is_closed": false, "url": "https://www.yelp.com/biz/simply-simons-swansea?adjust_creative=pzvBKuEUl0Vl1jtHQqJaog&utm_campaign=yelp_api_v3&utm_medium=api_v3_business_search&utm_source=pzvBKuEUl0Vl1jtHQqJaog", "review_count": 36, "categories": [{"alias": "seafood", "title": "Seafood"}, {"alias": "breakfast_brunch", "title": "Breakfast & Brunch"}], "rating": 2.5, "coordinates": {"latitude": 41.73264, "longitude": -71.21026}, "transactions": [], "location": {"address1": "481 Wilbur Ave", "address2": null, "address3": null, "city": "Swansea", "zip_code": "02777", "country": "US", "state": "MA", "display_address": ["481 Wilbur Ave", "Swansea, MA 02777"]}, "phone": "+15086755531", "display_phone": "(508) 675-5531", "distance": 7766.381135988732}, {"id": "bKiyddE8ulF2vQWs9lMskQ", "alias": "warren-house-of-pizza-warren", "name": "Warren House of Pizza", "image_url": "https://s3-media4.fl.yelpcdn.com/bphoto/Mo_7jQOL6uGQ45J_RJjj6w/o.jpg", "is_closed": false, "url": "https://www.yelp.com/biz/warren-house-of-pizza-warren?adjust_creative=pzvBKuEUl0Vl1jtHQqJaog&utm_campaign=yelp_api_v3&utm_medium=api_v3_business_search&utm_source=pzvBKuEUl0Vl1jtHQqJaog", "review_count": 37, "categories": [{"alias": "pizza", "title": "Pizza"}], "rating": 2.5, "coordinates": {"latitude": 41.7297, "longitude": -71.28221}, "transactions": ["delivery"], "price": "$", "location": {"address1": "464 Main St", "address2": "", "address3": "", "city": "Warren", "zip_code": "02885", "country": "US", "state": "RI", "display_address": ["464 Main St", "Warren, RI 02885"]}, "phone": "+14012470230", "display_phone": "(401) 247-0230", "distance": 5723.892946879106}, {"id": "vSvj_g-1vOCPn6RyIWDjLA", "alias": "piezonis-pizza-warren", "name": "PieZoni's Pizza", "image_url": "https://s3-media3.fl.yelpcdn.com/bphoto/Plb23AJEEJDi0pwtyJKV0g/o.jpg", "is_closed": false, "url": "https://www.yelp.com/biz/piezonis-pizza-warren?adjust_creative=pzvBKuEUl0Vl1jtHQqJaog&utm_campaign=yelp_api_v3&utm_medium=api_v3_business_search&utm_source=pzvBKuEUl0Vl1jtHQqJaog", "review_count": 20, "categories": [{"alias": "pizza", "title": "Pizza"}], "rating": 3.0, "coordinates": {"latitude": 41.72505, "longitude": -71.27022}, "transactions": [], "price": "$", "location": {"address1": "485 Metacom Ave", "address2": null, "address3": null, "city": "Warren", "zip_code": "02885", "country": "US", "state": "RI", "display_address": ["485 Metacom Ave", "Warren, RI 02885"]}, "phone": "+14012452400", "display_phone": "(401) 245-2400", "distance": 5133.138519043424}, {"id": "Edm5M5Ez_EqiNLttPkM9FQ", "alias": "mcdonalds-warren-2", "name": "McDonald's", "image_url": "https://s3-media1.fl.yelpcdn.com/bphoto/6mJGPmUOoTb49U2oa4Q7VQ/o.jpg", "is_closed": false, "url": "https://www.yelp.com/biz/mcdonalds-warren-2?adjust_creative=pzvBKuEUl0Vl1jtHQqJaog&utm_campaign=yelp_api_v3&utm_medium=api_v3_business_search&utm_source=pzvBKuEUl0Vl1jtHQqJaog", "review_count": 11, "categories": [{"alias": "hotdogs", "title": "Fast Food"}, {"alias": "burgers", "title": "Burgers"}, {"alias": "coffee", "title": "Coffee & Tea"}], "rating": 2.5, "coordinates": {"latitude": 41.7167220887144, "longitude": -71.2677486240864}, "transactions": ["delivery"], "price": "$", "location": {"address1": "636 Metacom Ave", "address2": "", "address3": "", "city": "Warren", "zip_code": "02885", "country": "US", "state": "RI", "display_address": ["636 Metacom Ave", "Warren, RI 02885"]}, "phone": "+14012455049", "display_phone": "(401) 245-5049", "distance": 4194.067246331378}, {"id": "Dfbd4l2hfAeVynHFrZkP8w", "alias": "bottom-line-bar-and-grill-warwick", "name": "Bottom Line Bar & Grill", "image_url": "https://s3-media2.fl.yelpcdn.com/bphoto/r6WBkAQn6wSzh5rBLzmXew/o.jpg", "is_closed": false, "url": "https://www.yelp.com/biz/bottom-line-bar-and-grill-warwick?adjust_creative=pzvBKuEUl0Vl1jtHQqJaog&utm_campaign=yelp_api_v3&utm_medium=api_v3_business_search&utm_source=pzvBKuEUl0Vl1jtHQqJaog", "review_count": 5, "categories": [{"alias": "tradamerican", "title": "American (Traditional)"}, {"alias": "divebars", "title": "Dive Bars"}], "rating": 4.0, "coordinates": {"latitude": 41.6912159, "longitude": -71.3719775}, "transactions": [], "price": "$", "location": {"address1": "415 Palmer Ave", "address2": "", "address3": "", "city": "Warwick", "zip_code": "02889", "country": "US", "state": "RI", "display_address": ["415 Palmer Ave", "Warwick, RI 02889"]}, "phone": "+14019215750", "display_phone": "(401) 921-5750", "distance": 8521.396859470979}, {"id": "VyOFqstgdl1Vf14piFSdkA", "alias": "asia-one-fall-river", "name": "Asia One", "image_url": "https://s3-media2.fl.yelpcdn.com/bphoto/o5z43vggMK-TQrfKqXVoUw/o.jpg", "is_closed": false, "url": "https://www.yelp.com/biz/asia-one-fall-river?adjust_creative=pzvBKuEUl0Vl1jtHQqJaog&utm_campaign=yelp_api_v3&utm_medium=api_v3_business_search&utm_source=pzvBKuEUl0Vl1jtHQqJaog", "review_count": 99, "categories": [{"alias": "sushi", "title": "Sushi Bars"}, {"alias": "asianfusion", "title": "Asian Fusion"}, {"alias": "chinese", "title": "Chinese"}], "rating": 2.5, "coordinates": {"latitude": 41.6875959251851, "longitude": -71.1704830080271}, "transactions": ["delivery"], "price": "$$", "location": {"address1": "1355 S Main St", "address2": "", "address3": "", "city": "Fall River", "zip_code": "02724", "country": "US", "state": "MA", "display_address": ["1355 S Main St", "Fall River, MA 02724"]}, "phone": "+15086792000", "display_phone": "(508) 679-2000", "distance": 8349.228801921992}, {"id": "KsmMmFc-qSm5vRJBkEQy4g", "alias": "mangia-trattoria-and-pizzeria-barrington", "name": "Mangia Trattoria & Pizzeria", "image_url": "https://s3-media3.fl.yelpcdn.com/bphoto/aAylm5ALoMfgcrRTSkXzNw/o.jpg", "is_closed": false, "url": "https://www.yelp.com/biz/mangia-trattoria-and-pizzeria-barrington?adjust_creative=pzvBKuEUl0Vl1jtHQqJaog&utm_campaign=yelp_api_v3&utm_medium=api_v3_business_search&utm_source=pzvBKuEUl0Vl1jtHQqJaog", "review_count": 45, "categories": [{"alias": "pizza", "title": "Pizza"}], "rating": 3.0, "coordinates": {"latitude": 41.74115, "longitude": -71.309483}, "transactions": ["delivery"], "price": "$$", "location": {"address1": "296 County Rd", "address2": "", "address3": "", "city": "Barrington", "zip_code": "02806", "country": "US", "state": "RI", "display_address": ["296 County Rd", "Barrington, RI 02806"]}, "phone": "+14013375600", "display_phone": "(401) 337-5600", "distance": 7629.911165567834}, {"id": "a27EaAGFnezLvaFULsL8KQ", "alias": "county-fare-too-swansea", "name": "County Fare Too", "image_url": "https://s3-media1.fl.yelpcdn.com/bphoto/PjgMmSpQpaF6eKYFahQezA/o.jpg", "is_closed": false, "url": "https://www.yelp.com/biz/county-fare-too-swansea?adjust_creative=pzvBKuEUl0Vl1jtHQqJaog&utm_campaign=yelp_api_v3&utm_medium=api_v3_business_search&utm_source=pzvBKuEUl0Vl1jtHQqJaog", "review_count": 5, "categories": [{"alias": "hotdog", "title": "Hot Dogs"}], "rating": 4.0, "coordinates": {"latitude": 41.750014, "longitude": -71.223357}, "transactions": [], "price": "$", "location": {"address1": "1044 Gar Hwy", "address2": "", "address3": "", "city": "Swansea", "zip_code": "02777", "country": "US", "state": "MA", "display_address": ["1044 Gar Hwy", "Swansea, MA 02777"]}, "phone": "+15085675007", "display_phone": "(508) 567-5007", "distance": 8802.53844007283}, {"id": "RdNJbnwFWLYvZRimDl0iOg", "alias": "golden-river-chinese-restaurant-fall-river", "name": "Golden River Chinese Restaurant", "image_url": "https://s3-media1.fl.yelpcdn.com/bphoto/-lkvdJJ2BDlhEL7w_Is4WA/o.jpg", "is_closed": false, "url": "https://www.yelp.com/biz/golden-river-chinese-restaurant-fall-river?adjust_creative=pzvBKuEUl0Vl1jtHQqJaog&utm_campaign=yelp_api_v3&utm_medium=api_v3_business_search&utm_source=pzvBKuEUl0Vl1jtHQqJaog", "review_count": 13, "categories": [{"alias": "chinese", "title": "Chinese"}], "rating": 3.0, "coordinates": {"latitude": 41.683394, "longitude": -71.175566}, "transactions": ["delivery"], "price": "$", "location": {"address1": "1784 S Main St", "address2": null, "address3": null, "city": "Fall River", "zip_code": "02724", "country": "US", "state": "MA", "display_address": ["1784 S Main St", "Fall River, MA 02724"]}, "phone": "+15086733883", "display_phone": "(508) 673-3883", "distance": 7887.953292965439}, {"id": "nY1gbxwWNpF9vML4Fy1R1Q", "alias": "windmill-hill-warren", "name": "Windmill Hill", "image_url": "https://s3-media1.fl.yelpcdn.com/bphoto/NP2sJQjW5fBul17LLa3pOw/o.jpg", "is_closed": false, "url": "https://www.yelp.com/biz/windmill-hill-warren?adjust_creative=pzvBKuEUl0Vl1jtHQqJaog&utm_campaign=yelp_api_v3&utm_medium=api_v3_business_search&utm_source=pzvBKuEUl0Vl1jtHQqJaog", "review_count": 3, "categories": [{"alias": "breakfast_brunch", "title": "Breakfast & Brunch"}, {"alias": "seafood", "title": "Seafood"}, {"alias": "sandwiches", "title": "Sandwiches"}], "rating": 3.0, "coordinates": {"latitude": 41.74027, "longitude": -71.2677}, "transactions": [], "location": {"address1": "35 Schoolhouse Rd", "address2": "", "address3": null, "city": "Warren", "zip_code": "02885", "country": "US", "state": "RI", "display_address": ["35 Schoolhouse Rd", "Warren, RI 02885"]}, "phone": "+14012451463", "display_phone": "(401) 245-1463", "distance": 6678.825037478872}, {"id": "zW_oMo9T6-fp3qBkrTGDgw", "alias": "alices-diner-breakfast-and-lunch-fall-river", "name": "Alice's Diner Breakfast & Lunch", "image_url": "https://s3-media1.fl.yelpcdn.com/bphoto/Y7uzF4ipqHCmmUS71x1CGQ/o.jpg", "is_closed": false, "url": "https://www.yelp.com/biz/alices-diner-breakfast-and-lunch-fall-river?adjust_creative=pzvBKuEUl0Vl1jtHQqJaog&utm_campaign=yelp_api_v3&utm_medium=api_v3_business_search&utm_source=pzvBKuEUl0Vl1jtHQqJaog", "review_count": 51, "categories": [{"alias": "diners", "title": "Diners"}, {"alias": "breakfast_brunch", "title": "Breakfast & Brunch"}], "rating": 4.0, "coordinates": {"latitude": 41.6734099, "longitude": -71.18429}, "transactions": [], "price": "$", "location": {"address1": "2663 S Main St", "address2": "", "address3": "", "city": "Fall River", "zip_code": "02724", "country": "US", "state": "MA", "display_address": ["2663 S Main St", "Fall River, MA 02724"]}, "phone": "+15086759210", "display_phone": "(508) 675-9210", "distance": 7173.749144118846}, {"id": "595GC2xoIz-J7y5-W6NPNw", "alias": "kfc-warren-9", "name": "KFC", "image_url": "https://s3-media2.fl.yelpcdn.com/bphoto/HZBJ9EiYrtgbf7UOD1xZvg/o.jpg", "is_closed": false, "url": "https://www.yelp.com/biz/kfc-warren-9?adjust_creative=pzvBKuEUl0Vl1jtHQqJaog&utm_campaign=yelp_api_v3&utm_medium=api_v3_business_search&utm_source=pzvBKuEUl0Vl1jtHQqJaog", "review_count": 12, "categories": [{"alias": "hotdogs", "title": "Fast Food"}, {"alias": "chicken_wings", "title": "Chicken Wings"}, {"alias": "chickenshop", "title": "Chicken Shop"}], "rating": 1.5, "coordinates": {"latitude": 41.7148123088992, "longitude": -71.2682383241861}, "transactions": ["pickup", "delivery"], "price": "$", "location": {"address1": "651 Metacom Ave", "address2": "", "address3": "", "city": "Warren", "zip_code": "02885", "country": "US", "state": "RI", "display_address": ["651 Metacom Ave", "Warren, RI 02885"]}, "phone": "+14012531794", "display_phone": "(401) 253-1794", "distance": 3979.99572698392}, {"id": "rPUuRr8DbGwNl4pgtgJWgw", "alias": "newport-creamery-barrington-2", "name": "Newport Creamery", "image_url": "https://s3-media1.fl.yelpcdn.com/bphoto/qF0X_IHmkwN_GzDEvuqRNw/o.jpg", "is_closed": false, "url": "https://www.yelp.com/biz/newport-creamery-barrington-2?adjust_creative=pzvBKuEUl0Vl1jtHQqJaog&utm_campaign=yelp_api_v3&utm_medium=api_v3_business_search&utm_source=pzvBKuEUl0Vl1jtHQqJaog", "review_count": 36, "categories": [{"alias": "tradamerican", "title": "American (Traditional)"}, {"alias": "sandwiches", "title": "Sandwiches"}, {"alias": "icecream", "title": "Ice Cream & Frozen Yogurt"}], "rating": 2.5, "coordinates": {"latitude": 41.74072, "longitude": -71.30937}, "transactions": ["delivery"], "price": "$", "location": {"address1": "296 County Rd", "address2": "", "address3": "", "city": "Barrington", "zip_code": "02806", "country": "US", "state": "RI", "display_address": ["296 County Rd", "Barrington, RI 02806"]}, "phone": "+14012452212", "display_phone": "(401) 245-2212", "distance": 7627.046679834175}, {"id": "zckawrgUhxhZRmksUdoGOg", "alias": "hoy-tin-restaurant-swansea", "name": "Hoy Tin Restaurant", "image_url": "https://s3-media2.fl.yelpcdn.com/bphoto/etqsLCB-XS6YcuYkeW0NtQ/o.jpg", "is_closed": false, "url": "https://www.yelp.com/biz/hoy-tin-restaurant-swansea?adjust_creative=pzvBKuEUl0Vl1jtHQqJaog&utm_campaign=yelp_api_v3&utm_medium=api_v3_business_search&utm_source=pzvBKuEUl0Vl1jtHQqJaog", "review_count": 21, "categories": [{"alias": "chinese", "title": "Chinese"}], "rating": 2.5, "coordinates": {"latitude": 41.74751, "longitude": -71.20853}, "transactions": [], "price": "$", "location": {"address1": "630 Gar Hwy", "address2": "", "address3": "", "city": "Swansea", "zip_code": "02777", "country": "US", "state": "MA", "display_address": ["630 Gar Hwy", "Swansea, MA 02777"]}, "phone": "+15086752200", "display_phone": "(508) 675-2200", "distance": 9188.094352774138}, {"id": "qu5IWQHo8d_0W8eqAHVPzw", "alias": "papa-ginos-pizzeria-warren", "name": "Papa Gino's Pizzeria", "image_url": "https://s3-media2.fl.yelpcdn.com/bphoto/K_GJRxc4bAQOuhNp_Ce6sw/o.jpg", "is_closed": false, "url": "https://www.yelp.com/biz/papa-ginos-pizzeria-warren?adjust_creative=pzvBKuEUl0Vl1jtHQqJaog&utm_campaign=yelp_api_v3&utm_medium=api_v3_business_search&utm_source=pzvBKuEUl0Vl1jtHQqJaog", "review_count": 7, "categories": [{"alias": "pizza", "title": "Pizza"}], "rating": 3.0, "coordinates": {"latitude": 41.7176351, "longitude": -71.268737}, "transactions": [], "location": {"address1": "623 Metacom Ave", "address2": "", "address3": "", "city": "Warren", "zip_code": "02885", "country": "US", "state": "RI", "display_address": ["623 Metacom Ave", "Warren, RI 02885"]}, "phone": "+14012456700", "display_phone": "(401) 245-6700", "distance": 4307.197469115725}, {"id": "yQ2E4bYbLNPj9JvvmnWm2Q", "alias": "golden-bowl-barrington", "name": "Golden Bowl", "image_url": "", "is_closed": false, "url": "https://www.yelp.com/biz/golden-bowl-barrington?adjust_creative=pzvBKuEUl0Vl1jtHQqJaog&utm_campaign=yelp_api_v3&utm_medium=api_v3_business_search&utm_source=pzvBKuEUl0Vl1jtHQqJaog", "review_count": 22, "categories": [{"alias": "chinese", "title": "Chinese"}], "rating": 2.5, "coordinates": {"latitude": 41.7380642, "longitude": -71.305661}, "transactions": ["pickup", "delivery"], "price": "$", "location": {"address1": "226 County Rd", "address2": "", "address3": "", "city": "Barrington", "zip_code": "02806", "country": "US", "state": "RI", "display_address": ["226 County Rd", "Barrington, RI 02806"]}, "phone": "+14012471800", "display_phone": "(401) 247-1800", "distance": 7185.81326527589}, {"id": "YK3dFTAFi_NWAva6oIOaRg", "alias": "famous-pizza-tiverton", "name": "Famous Pizza", "image_url": "https://s3-media4.fl.yelpcdn.com/bphoto/qw8n3nZSRf-k3Yj402cujw/o.jpg", "is_closed": false, "url": "https://www.yelp.com/biz/famous-pizza-tiverton?adjust_creative=pzvBKuEUl0Vl1jtHQqJaog&utm_campaign=yelp_api_v3&utm_medium=api_v3_business_search&utm_source=pzvBKuEUl0Vl1jtHQqJaog", "review_count": 41, "categories": [{"alias": "pizza", "title": "Pizza"}], "rating": 3.5, "coordinates": {"latitude": 41.6618018, "longitude": -71.1903181}, "transactions": ["delivery"], "price": "$", "location": {"address1": "433 Main Rd", "address2": "", "address3": "", "city": "Tiverton", "zip_code": "02878", "country": "US", "state": "RI", "display_address": ["433 Main Rd", "Tiverton, RI 02878"]}, "phone": "+14016248900", "display_phone": "(401) 624-8900", "distance": 6897.264790269809}, {"id": "JIhRVJ4BAWPH9NZ0u-7Wzw", "alias": "flip-n-roll-fall-river", "name": "Flip N Roll", "image_url": "https://s3-media1.fl.yelpcdn.com/bphoto/A3l1k85peGnmCC17j-Bmhg/o.jpg", "is_closed": false, "url": "https://www.yelp.com/biz/flip-n-roll-fall-river?adjust_creative=pzvBKuEUl0Vl1jtHQqJaog&utm_campaign=yelp_api_v3&utm_medium=api_v3_business_search&utm_source=pzvBKuEUl0Vl1jtHQqJaog", "review_count": 1, "categories": [{"alias": "foodtrucks", "title": "Food Trucks"}, {"alias": "tradamerican", "title": "American (Traditional)"}, {"alias": "portuguese", "title": "Portuguese"}], "rating": 1.0, "coordinates": {"latitude": 41.68687, "longitude": -71.17062}, "transactions": [], "price": "$$", "location": {"address1": "", "address2": "", "address3": "", "city": "Fall River", "zip_code": "02724", "country": "US", "state": "MA", "display_address": ["Fall River, MA 02724"]}, "phone": "", "display_phone": "", "distance": 8022.874829109207}, {"id": "P6s_6DP900fPtYk1w49Pyg", "alias": "chilis-somerset-4", "name": "Chili's", "image_url": "https://s3-media4.fl.yelpcdn.com/bphoto/rOr1cIxvve4EW8Hd2f0RiQ/o.jpg", "is_closed": false, "url": "https://www.yelp.com/biz/chilis-somerset-4?adjust_creative=pzvBKuEUl0Vl1jtHQqJaog&utm_campaign=yelp_api_v3&utm_medium=api_v3_business_search&utm_source=pzvBKuEUl0Vl1jtHQqJaog", "review_count": 51, "categories": [{"alias": "bars", "title": "Bars"}, {"alias": "tradamerican", "title": "American (Traditional)"}, {"alias": "tex-mex", "title": "Tex-Mex"}], "rating": 2.5, "coordinates": {"latitude": 41.731016, "longitude": -71.170908}, "transactions": [], "price": "$$", "location": {"address1": "825 Grand Army Hwy", "address2": "", "address3": "", "city": "Somerset", "zip_code": "02726", "country": "US", "state": "MA", "display_address": ["825 Grand Army Hwy", "Somerset, MA 02726"]}, "phone": "+15086790474", "display_phone": "(508) 679-0474", "distance": 10077.724969571991}, {"id": "8Qn6zy2IGJsAK1w6PRdhYg", "alias": "lil-audreys-somerset", "name": "Li'l Audrey's", "image_url": "https://s3-media1.fl.yelpcdn.com/bphoto/q_OFXGwl64JOUz6TVka0zQ/o.jpg", "is_closed": false, "url": "https://www.yelp.com/biz/lil-audreys-somerset?adjust_creative=pzvBKuEUl0Vl1jtHQqJaog&utm_campaign=yelp_api_v3&utm_medium=api_v3_business_search&utm_source=pzvBKuEUl0Vl1jtHQqJaog", "review_count": 3, "categories": [{"alias": "beer_and_wine", "title": "Beer, Wine & Spirits"}, {"alias": "convenience", "title": "Convenience Stores"}, {"alias": "sandwiches", "title": "Sandwiches"}], "rating": 4.0, "coordinates": {"latitude": 41.7377315172508, "longitude": -71.1732868054384}, "transactions": [], "location": {"address1": "1159 Read St", "address2": "", "address3": null, "city": "Somerset", "zip_code": "02726", "country": "US", "state": "MA", "display_address": ["1159 Read St", "Somerset, MA 02726"]}, "phone": "+15086723159", "display_phone": "(508) 672-3159", "distance": 10369.096955106681}, {"id": "ylbcq3h9POebV-tzN5F33Q", "alias": "chads-chowder-house-somerset", "name": "Chad's Chowder House", "image_url": "https://s3-media1.fl.yelpcdn.com/bphoto/QmXcypyU2LomYoQ_aDQdgQ/o.jpg", "is_closed": false, "url": "https://www.yelp.com/biz/chads-chowder-house-somerset?adjust_creative=pzvBKuEUl0Vl1jtHQqJaog&utm_campaign=yelp_api_v3&utm_medium=api_v3_business_search&utm_source=pzvBKuEUl0Vl1jtHQqJaog", "review_count": 34, "categories": [{"alias": "newamerican", "title": "American (New)"}, {"alias": "seafood", "title": "Seafood"}, {"alias": "sandwiches", "title": "Sandwiches"}], "rating": 3.0, "coordinates": {"latitude": 41.73366, "longitude": -71.1744}, "transactions": [], "price": "$$", "location": {"address1": "1160 Grand Army Hwy", "address2": "", "address3": "", "city": "Somerset", "zip_code": "02726", "country": "US", "state": "MA", "display_address": ["1160 Grand Army Hwy", "Somerset, MA 02726"]}, "phone": "+15086725505", "display_phone": "(508) 672-5505", "distance": 10017.147858490076}, {"id": "tYq3Ojk4RQb-EZxNXgroLg", "alias": "sourcefire-warren", "name": "SourceFire", "image_url": "https://s3-media1.fl.yelpcdn.com/bphoto/tGNcO9QfGLCfth0kydc2iA/o.jpg", "is_closed": false, "url": "https://www.yelp.com/biz/sourcefire-warren?adjust_creative=pzvBKuEUl0Vl1jtHQqJaog&utm_campaign=yelp_api_v3&utm_medium=api_v3_business_search&utm_source=pzvBKuEUl0Vl1jtHQqJaog", "review_count": 1, "categories": [{"alias": "gourmet", "title": "Specialty Food"}, {"alias": "foodstands", "title": "Food Stands"}], "rating": 4.0, "coordinates": {"latitude": 41.725232, "longitude": -71.281857}, "transactions": [], "location": {"address1": "691 Main St", "address2": "", "address3": null, "city": "Warren", "zip_code": "02885", "country": "US", "state": "RI", "display_address": ["691 Main St", "Warren, RI 02885"]}, "phone": "+16175137692", "display_phone": "(617) 513-7692", "distance": 5218.915892059046}, {"id": "9F3NYbLI5dyK0S3GfFLZzg", "alias": "classic-pizza-tiverton", "name": "Classic Pizza", "image_url": "https://s3-media2.fl.yelpcdn.com/bphoto/Stf6eYlER1f68WrYQJLQTg/o.jpg", "is_closed": false, "url": "https://www.yelp.com/biz/classic-pizza-tiverton?adjust_creative=pzvBKuEUl0Vl1jtHQqJaog&utm_campaign=yelp_api_v3&utm_medium=api_v3_business_search&utm_source=pzvBKuEUl0Vl1jtHQqJaog", "review_count": 29, "categories": [{"alias": "pizza", "title": "Pizza"}, {"alias": "burgers", "title": "Burgers"}, {"alias": "greek", "title": "Greek"}], "rating": 3.0, "coordinates": {"latitude": 41.6604257, "longitude": -71.1907191}, "transactions": ["delivery"], "price": "$$", "location": {"address1": "496 Main Rd", "address2": "", "address3": "", "city": "Tiverton", "zip_code": "02878", "country": "US", "state": "RI", "display_address": ["496 Main Rd", "Tiverton, RI 02878"]}, "phone": "+14016248488", "display_phone": "(401) 624-8488", "distance": 6960.56314873201}, {"id": "hn6My1N9HXDtfEMz6-YFjQ", "alias": "barrington-pizzeria-barrington", "name": "Barrington Pizzeria", "image_url": "https://s3-media2.fl.yelpcdn.com/bphoto/l4WqYnVFQVewM0ACs9z5Xg/o.jpg", "is_closed": false, "url": "https://www.yelp.com/biz/barrington-pizzeria-barrington?adjust_creative=pzvBKuEUl0Vl1jtHQqJaog&utm_campaign=yelp_api_v3&utm_medium=api_v3_business_search&utm_source=pzvBKuEUl0Vl1jtHQqJaog", "review_count": 16, "categories": [{"alias": "pizza", "title": "Pizza"}], "rating": 3.5, "coordinates": {"latitude": 41.7370349, "longitude": -71.3040202}, "transactions": ["delivery"], "price": "$", "location": {"address1": "188 County Rd", "address2": null, "address3": null, "city": "Barrington", "zip_code": "02806", "country": "US", "state": "RI", "display_address": ["188 County Rd", "Barrington, RI 02806"]}, "phone": "+14012472202", "display_phone": "(401) 247-2202", "distance": 7078.451283483235}, {"id": "rEM79mq8AtNYYVTWgQysUQ", "alias": "china-gourmet-tiverton", "name": "China Gourmet", "image_url": "", "is_closed": false, "url": "https://www.yelp.com/biz/china-gourmet-tiverton?adjust_creative=pzvBKuEUl0Vl1jtHQqJaog&utm_campaign=yelp_api_v3&utm_medium=api_v3_business_search&utm_source=pzvBKuEUl0Vl1jtHQqJaog", "review_count": 8, "categories": [{"alias": "chinese", "title": "Chinese"}], "rating": 4.0, "coordinates": {"latitude": 41.66807, "longitude": -71.18606}, "transactions": ["delivery"], "price": "$", "location": {"address1": "180 Main Rd", "address2": "", "address3": "", "city": "Tiverton", "zip_code": "02878", "country": "US", "state": "RI", "display_address": ["180 Main Rd", "Tiverton, RI 02878"]}, "phone": "+14016259788", "display_phone": "(401) 625-9788", "distance": 7106.8851043990635}, {"id": "SmD_P1oHTp0TkrUYYUCvjA", "alias": "five-guys-swansea", "name": "Five Guys", "image_url": "https://s3-media1.fl.yelpcdn.com/bphoto/W1Ksb8Z2yKMRomSKpOGVdA/o.jpg", "is_closed": false, "url": "https://www.yelp.com/biz/five-guys-swansea?adjust_creative=pzvBKuEUl0Vl1jtHQqJaog&utm_campaign=yelp_api_v3&utm_medium=api_v3_business_search&utm_source=pzvBKuEUl0Vl1jtHQqJaog", "review_count": 40, "categories": [{"alias": "burgers", "title": "Burgers"}, {"alias": "hotdogs", "title": "Fast Food"}], "rating": 4.0, "coordinates": {"latitude": 41.748193, "longitude": -71.20516}, "transactions": [], "price": "$", "location": {"address1": "573 Grand Army Hwy", "address2": "", "address3": "", "city": "Swansea", "zip_code": "02777", "country": "US", "state": "MA", "display_address": ["573 Grand Army Hwy", "Swansea, MA 02777"]}, "phone": "+15086178701", "display_phone": "(508) 617-8701", "distance": 9402.162088304625}, {"id": "DtPypKvX-0dZPD0F5N-DZw", "alias": "railway-cafe-somerset", "name": "Railway Cafe", "image_url": "https://s3-media3.fl.yelpcdn.com/bphoto/7-LzPZJy8c1IqahUDsAyeg/o.jpg", "is_closed": false, "url": "https://www.yelp.com/biz/railway-cafe-somerset?adjust_creative=pzvBKuEUl0Vl1jtHQqJaog&utm_campaign=yelp_api_v3&utm_medium=api_v3_business_search&utm_source=pzvBKuEUl0Vl1jtHQqJaog", "review_count": 26, "categories": [{"alias": "breakfast_brunch", "title": "Breakfast & Brunch"}, {"alias": "newamerican", "title": "American (New)"}], "rating": 3.5, "coordinates": {"latitude": 41.738559, "longitude": -71.1819757}, "transactions": [], "price": "$", "location": {"address1": "938 Lees River Ave", "address2": "", "address3": "", "city": "Somerset", "zip_code": "02726", "country": "US", "state": "MA", "display_address": ["938 Lees River Ave", "Somerset, MA 02726"]}, "phone": "+15086179403", "display_phone": "(508) 617-9403", "distance": 9877.564195314482}, {"id": "sc4vIkz1KlptQ19VAFuacg", "alias": "rogers-somerset", "name": "Roger's", "image_url": "https://s3-media2.fl.yelpcdn.com/bphoto/KjHzToiQe293hJd1vMo_GA/o.jpg", "is_closed": false, "url": "https://www.yelp.com/biz/rogers-somerset?adjust_creative=pzvBKuEUl0Vl1jtHQqJaog&utm_campaign=yelp_api_v3&utm_medium=api_v3_business_search&utm_source=pzvBKuEUl0Vl1jtHQqJaog", "review_count": 33, "categories": [{"alias": "newamerican", "title": "American (New)"}, {"alias": "breakfast_brunch", "title": "Breakfast & Brunch"}], "rating": 3.5, "coordinates": {"latitude": 41.723342, "longitude": -71.179527}, "transactions": [], "price": "$$", "location": {"address1": "1229 Wilbur Ave", "address2": "", "address3": "", "city": "Somerset", "zip_code": "02725", "country": "US", "state": "MA", "display_address": ["1229 Wilbur Ave", "Somerset, MA 02725"]}, "phone": "+15086780201", "display_phone": "(508) 678-0201", "distance": 9020.046091846963}, {"id": "aE73zV1R5MWYYwJEg99oUQ", "alias": "somerset-famous-pizza-somerset", "name": "Somerset Famous Pizza", "image_url": "https://s3-media2.fl.yelpcdn.com/bphoto/4dk6Ga0y04mFA-sktp2rjw/o.jpg", "is_closed": false, "url": "https://www.yelp.com/biz/somerset-famous-pizza-somerset?adjust_creative=pzvBKuEUl0Vl1jtHQqJaog&utm_campaign=yelp_api_v3&utm_medium=api_v3_business_search&utm_source=pzvBKuEUl0Vl1jtHQqJaog", "review_count": 13, "categories": [{"alias": "pizza", "title": "Pizza"}], "rating": 3.5, "coordinates": {"latitude": 41.7238933818721, "longitude": -71.1792123251999}, "transactions": [], "price": "$", "location": {"address1": "1224 Wilbur Ave", "address2": "", "address3": "", "city": "Somerset", "zip_code": "02725", "country": "US", "state": "MA", "display_address": ["1224 Wilbur Ave", "Somerset, MA 02725"]}, "phone": "+15086790097", "display_phone": "(508) 679-0097", "distance": 9062.716767250697}, {"id": "Mu4dqLWTHyO0SdVe7YUJxA", "alias": "plaza-pizza-ii-swansea", "name": "Plaza Pizza II", "image_url": "https://s3-media2.fl.yelpcdn.com/bphoto/9Y4ZusxHYR2xx_CalI3Blw/o.jpg", "is_closed": false, "url": "https://www.yelp.com/biz/plaza-pizza-ii-swansea?adjust_creative=pzvBKuEUl0Vl1jtHQqJaog&utm_campaign=yelp_api_v3&utm_medium=api_v3_business_search&utm_source=pzvBKuEUl0Vl1jtHQqJaog", "review_count": 22, "categories": [{"alias": "pizza", "title": "Pizza"}], "rating": 3.5, "coordinates": {"latitude": 41.7484397967137, "longitude": -71.2144603271114}, "transactions": [], "location": {"address1": "544 Milford Rd", "address2": "", "address3": "", "city": "Swansea", "zip_code": "02777", "country": "US", "state": "MA", "display_address": ["544 Milford Rd", "Swansea, MA 02777"]}, "phone": "+15086732626", "display_phone": "(508) 673-2626", "distance": 9003.45491569009}, {"id": "Xk1qAZ2HYicEbhZXRB2d9Q", "alias": "sousas-cafe-fall-river", "name": "Sousa's Cafe", "image_url": "", "is_closed": false, "url": "https://www.yelp.com/biz/sousas-cafe-fall-river?adjust_creative=pzvBKuEUl0Vl1jtHQqJaog&utm_campaign=yelp_api_v3&utm_medium=api_v3_business_search&utm_source=pzvBKuEUl0Vl1jtHQqJaog", "review_count": 2, "categories": [{"alias": "hotdogs", "title": "Fast Food"}, {"alias": "coffee", "title": "Coffee & Tea"}], "rating": 4.5, "coordinates": {"latitude": 41.6857310810454, "longitude": -71.1844284832478}, "transactions": ["delivery"], "location": {"address1": "1234 Bay St", "address2": "", "address3": null, "city": "Fall River", "zip_code": "02724", "country": "US", "state": "MA", "display_address": ["1234 Bay St", "Fall River, MA 02724"]}, "phone": "+15086762233", "display_phone": "(508) 676-2233", "distance": 7175.56019949806}, {"id": "9K8pLA8clpRXQAo7AWYlSQ", "alias": "swansea-house-of-pizza-swansea-2", "name": "Swansea House of Pizza", "image_url": "https://s3-media3.fl.yelpcdn.com/bphoto/qFDHnxWvvas90hdGsCqWrg/o.jpg", "is_closed": false, "url": "https://www.yelp.com/biz/swansea-house-of-pizza-swansea-2?adjust_creative=pzvBKuEUl0Vl1jtHQqJaog&utm_campaign=yelp_api_v3&utm_medium=api_v3_business_search&utm_source=pzvBKuEUl0Vl1jtHQqJaog", "review_count": 7, "categories": [{"alias": "pizza", "title": "Pizza"}], "rating": 2.5, "coordinates": {"latitude": 41.73211, "longitude": -71.20986}, "transactions": ["pickup", "delivery"], "location": {"address1": "472 Wilbur Ave", "address2": null, "address3": "", "city": "Swansea", "zip_code": "02777", "country": "US", "state": "MA", "display_address": ["472 Wilbur Ave", "Swansea, MA 02777"]}, "phone": "+15086755555", "display_phone": "(508) 675-5555", "distance": 7755.02131183032}, {"id": "K2mPzXQWabgbHfcoiBjU1Q", "alias": "friendlys-swansea", "name": "Friendly's", "image_url": "https://s3-media4.fl.yelpcdn.com/bphoto/gyvwGotU7zT0tr0gDnMXoA/o.jpg", "is_closed": false, "url": "https://www.yelp.com/biz/friendlys-swansea?adjust_creative=pzvBKuEUl0Vl1jtHQqJaog&utm_campaign=yelp_api_v3&utm_medium=api_v3_business_search&utm_source=pzvBKuEUl0Vl1jtHQqJaog", "review_count": 26, "categories": [{"alias": "icecream", "title": "Ice Cream & Frozen Yogurt"}, {"alias": "burgers", "title": "Burgers"}, {"alias": "tradamerican", "title": "American (Traditional)"}], "rating": 2.5, "coordinates": {"latitude": 41.748825, "longitude": -71.213055}, "transactions": [], "price": "$$", "location": {"address1": "748 Gar Hwy", "address2": null, "address3": null, "city": "Swansea", "zip_code": "02777", "country": "US", "state": "MA", "display_address": ["748 Gar Hwy", "Swansea, MA 02777"]}, "phone": "+15086769694", "display_phone": "(508) 676-9694", "distance": 9100.610915049536}, {"id": "MPH_-o6UfYyuE1klIGNV2w", "alias": "schultzys-snack-shack-portsmouth", "name": "Schultzy's Snack Shack", "image_url": "https://s3-media2.fl.yelpcdn.com/bphoto/KlgCi6L7iCUrOZPLWYoBrQ/o.jpg", "is_closed": false, "url": "https://www.yelp.com/biz/schultzys-snack-shack-portsmouth?adjust_creative=pzvBKuEUl0Vl1jtHQqJaog&utm_campaign=yelp_api_v3&utm_medium=api_v3_business_search&utm_source=pzvBKuEUl0Vl1jtHQqJaog", "review_count": 43, "categories": [{"alias": "hotdogs", "title": "Fast Food"}, {"alias": "burgers", "title": "Burgers"}, {"alias": "icecream", "title": "Ice Cream & Frozen Yogurt"}], "rating": 4.0, "coordinates": {"latitude": 41.6221556, "longitude": -71.2335572}, "transactions": ["delivery"], "price": "$", "location": {"address1": "346 Park Ave", "address2": "", "address3": "", "city": "Portsmouth", "zip_code": "02871", "country": "US", "state": "RI", "display_address": ["346 Park Ave", "Portsmouth, RI 02871"]}, "phone": "+14016832663", "display_phone": "(401) 683-2663", "distance": 7027.443577879453}, {"id": "QhPeeBZAEJYnBJTCJEkh4g", "alias": "wendys-swansea-2", "name": "Wendy's", "image_url": "https://s3-media2.fl.yelpcdn.com/bphoto/mrT-fMOEavxhYKF6cBqPxg/o.jpg", "is_closed": false, "url": "https://www.yelp.com/biz/wendys-swansea-2?adjust_creative=pzvBKuEUl0Vl1jtHQqJaog&utm_campaign=yelp_api_v3&utm_medium=api_v3_business_search&utm_source=pzvBKuEUl0Vl1jtHQqJaog", "review_count": 9, "categories": [{"alias": "burgers", "title": "Burgers"}, {"alias": "hotdogs", "title": "Fast Food"}], "rating": 1.5, "coordinates": {"latitude": 41.74772, "longitude": -71.20895}, "transactions": [], "price": "$", "location": {"address1": "632 Grand Army Hwy", "address2": "", "address3": "", "city": "Swansea", "zip_code": "02777", "country": "US", "state": "MA", "display_address": ["632 Grand Army Hwy", "Swansea, MA 02777"]}, "phone": "+15086763704", "display_phone": "(508) 676-3704", "distance": 9173.90414932718}, {"id": "KBOL1H2EQ26A2dtH4WlohA", "alias": "newsbreak-swansea", "name": "Newsbreak", "image_url": "https://s3-media3.fl.yelpcdn.com/bphoto/zWhcsXp-vxaj2ctOtTAqGA/o.jpg", "is_closed": false, "url": "https://www.yelp.com/biz/newsbreak-swansea?adjust_creative=pzvBKuEUl0Vl1jtHQqJaog&utm_campaign=yelp_api_v3&utm_medium=api_v3_business_search&utm_source=pzvBKuEUl0Vl1jtHQqJaog", "review_count": 7, "categories": [{"alias": "mags", "title": "Newspapers & Magazines"}, {"alias": "hobbyshops", "title": "Hobby Shops"}, {"alias": "cafes", "title": "Cafes"}], "rating": 4.5, "coordinates": {"latitude": 41.74883, "longitude": -71.20676}, "transactions": [], "price": "$", "location": {"address1": "579 Grand Army Of The Republic Hwy", "address2": "", "address3": "", "city": "Swansea", "zip_code": "02777", "country": "US", "state": "MA", "display_address": ["579 Grand Army Of The Republic Hwy", "Swansea, MA 02777"]}, "phone": "+15086759380", "display_phone": "(508) 675-9380", "distance": 9322.452906181821}, {"id": "DoSJNhERrylF9S8U9OEpCg", "alias": "fall-river-house-of-pizza-fall-river", "name": "Fall River House Of Pizza", "image_url": "https://s3-media2.fl.yelpcdn.com/bphoto/T2wUyIAkM3o-RloA_buhUA/o.jpg", "is_closed": false, "url": "https://www.yelp.com/biz/fall-river-house-of-pizza-fall-river?adjust_creative=pzvBKuEUl0Vl1jtHQqJaog&utm_campaign=yelp_api_v3&utm_medium=api_v3_business_search&utm_source=pzvBKuEUl0Vl1jtHQqJaog", "review_count": 5, "categories": [{"alias": "pizza", "title": "Pizza"}, {"alias": "salad", "title": "Salad"}, {"alias": "sandwiches", "title": "Sandwiches"}], "rating": 4.0, "coordinates": {"latitude": 41.6849063, "longitude": -71.1742311}, "transactions": ["delivery"], "location": {"address1": "1648 S Main St", "address2": "", "address3": "", "city": "Fall River", "zip_code": "02724", "country": "US", "state": "MA", "display_address": ["1648 S Main St", "Fall River, MA 02724"]}, "phone": "+15086723992", "display_phone": "(508) 672-3992", "distance": 8010.416649924971}, {"id": "vzjuhxXOF7lFyAWsPhrxCg", "alias": "piezonis-pizza-barrington-2", "name": "PieZoni's Pizza", "image_url": "https://s3-media2.fl.yelpcdn.com/bphoto/z3g_u-54i511mJPyt8gKog/o.jpg", "is_closed": false, "url": "https://www.yelp.com/biz/piezonis-pizza-barrington-2?adjust_creative=pzvBKuEUl0Vl1jtHQqJaog&utm_campaign=yelp_api_v3&utm_medium=api_v3_business_search&utm_source=pzvBKuEUl0Vl1jtHQqJaog", "review_count": 25, "categories": [{"alias": "pizza", "title": "Pizza"}, {"alias": "salad", "title": "Salad"}, {"alias": "sandwiches", "title": "Sandwiches"}], "rating": 3.0, "coordinates": {"latitude": 41.7379482, "longitude": -71.3054342}, "transactions": [], "price": "$", "location": {"address1": "222 County Rd", "address2": "", "address3": "", "city": "Barrington", "zip_code": "02806", "country": "US", "state": "RI", "display_address": ["222 County Rd", "Barrington, RI 02806"]}, "phone": "+14012474445", "display_phone": "(401) 247-4445", "distance": 7166.660370079446}, {"id": "LSdWBs4IXN0XEMJkQtn2dw", "alias": "papa-ginos-pizzeria-somerset", "name": "Papa Gino's Pizzeria", "image_url": "https://s3-media2.fl.yelpcdn.com/bphoto/nunCd2aG9cpkf7nn08NoHA/o.jpg", "is_closed": false, "url": "https://www.yelp.com/biz/papa-ginos-pizzeria-somerset?adjust_creative=pzvBKuEUl0Vl1jtHQqJaog&utm_campaign=yelp_api_v3&utm_medium=api_v3_business_search&utm_source=pzvBKuEUl0Vl1jtHQqJaog", "review_count": 19, "categories": [{"alias": "pizza", "title": "Pizza"}], "rating": 2.0, "coordinates": {"latitude": 41.7316468, "longitude": -71.1715748}, "transactions": [], "price": "$", "location": {"address1": "869 Grand Army Hwy", "address2": "", "address3": "", "city": "Somerset", "zip_code": "02726", "country": "US", "state": "MA", "display_address": ["869 Grand Army Hwy", "Somerset, MA 02726"]}, "phone": "+15083240826", "display_phone": "(508) 324-0826", "distance": 9946.652300978529}, {"id": "SLxEj0YvAYDICZcl6V1mdQ", "alias": "d-angelos-sandwich-shops-somerset", "name": "D'angelos Sandwich Shops", "image_url": "https://s3-media2.fl.yelpcdn.com/bphoto/WJ9WNo2XBCTmqGzUX_9-0w/o.jpg", "is_closed": false, "url": "https://www.yelp.com/biz/d-angelos-sandwich-shops-somerset?adjust_creative=pzvBKuEUl0Vl1jtHQqJaog&utm_campaign=yelp_api_v3&utm_medium=api_v3_business_search&utm_source=pzvBKuEUl0Vl1jtHQqJaog", "review_count": 6, "categories": [{"alias": "pizza", "title": "Pizza"}], "rating": 2.0, "coordinates": {"latitude": 41.7316468, "longitude": -71.1715748}, "transactions": [], "location": {"address1": "869 Grand Army Hwy", "address2": "", "address3": "", "city": "Somerset", "zip_code": "02726", "country": "US", "state": "MA", "display_address": ["869 Grand Army Hwy", "Somerset, MA 02726"]}, "phone": "+15083240826", "display_phone": "(508) 324-0826", "distance": 9946.652300978529}, {"id": "11uxR-5idjekxnJa6xAJMQ", "alias": "burger-king-somerset", "name": "Burger King", "image_url": "https://s3-media3.fl.yelpcdn.com/bphoto/dGk9MziKvRcQg7R6cx77tA/o.jpg", "is_closed": false, "url": "https://www.yelp.com/biz/burger-king-somerset?adjust_creative=pzvBKuEUl0Vl1jtHQqJaog&utm_campaign=yelp_api_v3&utm_medium=api_v3_business_search&utm_source=pzvBKuEUl0Vl1jtHQqJaog", "review_count": 3, "categories": [{"alias": "burgers", "title": "Burgers"}, {"alias": "hotdogs", "title": "Fast Food"}], "rating": 2.5, "coordinates": {"latitude": 41.7313502268815, "longitude": -71.1715608223307}, "transactions": [], "price": "$", "location": {"address1": "883 Gar Hwy - Route 6", "address2": "", "address3": "", "city": "Somerset", "zip_code": "02726", "country": "US", "state": "MA", "display_address": ["883 Gar Hwy - Route 6", "Somerset, MA 02726"]}, "phone": "+15086752621", "display_phone": "(508) 675-2621", "distance": 10054.799971741104}, {"id": "DwiGr4Yf69ph1hPXIqlFSg", "alias": "dickys-clam-shack-dartmouth", "name": "Dicky's Clam Shack", "image_url": "https://s3-media2.fl.yelpcdn.com/bphoto/2N0mAEUHJ8nhEU9OTbsMlg/o.jpg", "is_closed": false, "url": "https://www.yelp.com/biz/dickys-clam-shack-dartmouth?adjust_creative=pzvBKuEUl0Vl1jtHQqJaog&utm_campaign=yelp_api_v3&utm_medium=api_v3_business_search&utm_source=pzvBKuEUl0Vl1jtHQqJaog", "review_count": 22, "categories": [{"alias": "seafood", "title": "Seafood"}, {"alias": "burgers", "title": "Burgers"}, {"alias": "foodtrucks", "title": "Food Trucks"}], "rating": 3.0, "coordinates": {"latitude": 41.63895, "longitude": -71.03948}, "transactions": [], "price": "$$", "location": {"address1": "880 State Rd", "address2": null, "address3": null, "city": "Dartmouth", "zip_code": "02747", "country": "US", "state": "MA", "display_address": ["880 State Rd", "Dartmouth, MA 02747"]}, "phone": "+15089385125", "display_phone": "(508) 938-5125", "distance": 19449.249973134018}, {"id": "SXNg2zAzLLvc-h6cQ-vPaQ", "alias": "subway-swansea-11", "name": "Subway", "image_url": "https://s3-media3.fl.yelpcdn.com/bphoto/fIqMlgIgWc56Frr2pOv64g/o.jpg", "is_closed": false, "url": "https://www.yelp.com/biz/subway-swansea-11?adjust_creative=pzvBKuEUl0Vl1jtHQqJaog&utm_campaign=yelp_api_v3&utm_medium=api_v3_business_search&utm_source=pzvBKuEUl0Vl1jtHQqJaog", "review_count": 2, "categories": [{"alias": "sandwiches", "title": "Sandwiches"}], "rating": 3.0, "coordinates": {"latitude": 41.7514949514506, "longitude": -71.2135667818945}, "transactions": [], "price": "$", "location": {"address1": "79 Swansea Mall Dr", "address2": "", "address3": "", "city": "Swansea", "zip_code": "02777", "country": "US", "state": "MA", "display_address": ["79 Swansea Mall Dr", "Swansea, MA 02777"]}, "phone": "+15086739331", "display_phone": "(508) 673-9331", "distance": 9333.40589601423}, {"id": "8ePChpCk3sz7QN2vCRmARw", "alias": "subway-fall-river-15", "name": "Subway", "image_url": "https://s3-media2.fl.yelpcdn.com/bphoto/FkxDAo3KvHFIoKdPlQCKdg/o.jpg", "is_closed": false, "url": "https://www.yelp.com/biz/subway-fall-river-15?adjust_creative=pzvBKuEUl0Vl1jtHQqJaog&utm_campaign=yelp_api_v3&utm_medium=api_v3_business_search&utm_source=pzvBKuEUl0Vl1jtHQqJaog", "review_count": 2, "categories": [{"alias": "sandwiches", "title": "Sandwiches"}], "rating": 3.0, "coordinates": {"latitude": 41.687473471453, "longitude": -71.1721735306476}, "transactions": [], "price": "$", "location": {"address1": "499 Globe St", "address2": "", "address3": "", "city": "Fall River", "zip_code": "02724", "country": "US", "state": "MA", "display_address": ["499 Globe St", "Fall River, MA 02724"]}, "phone": "+15086721388", "display_phone": "(508) 672-1388", "distance": 8208.21181584716}, {"id": "SWgGhkmy97K6-n7q7Gbf8Q", "alias": "mcdonalds-fall-river-2", "name": "McDonald's", "image_url": "https://s3-media3.fl.yelpcdn.com/bphoto/IPT7Su_xHBgw_MGGAZo7Fg/o.jpg", "is_closed": false, "url": "https://www.yelp.com/biz/mcdonalds-fall-river-2?adjust_creative=pzvBKuEUl0Vl1jtHQqJaog&utm_campaign=yelp_api_v3&utm_medium=api_v3_business_search&utm_source=pzvBKuEUl0Vl1jtHQqJaog", "review_count": 7, "categories": [{"alias": "hotdogs", "title": "Fast Food"}, {"alias": "burgers", "title": "Burgers"}, {"alias": "coffee", "title": "Coffee & Tea"}], "rating": 1.5, "coordinates": {"latitude": 41.6826580264808, "longitude": -71.1767157912254}, "transactions": ["delivery"], "price": "$", "location": {"address1": "1853 S Main St", "address2": "", "address3": "", "city": "Fall River", "zip_code": "02724", "country": "US", "state": "MA", "display_address": ["1853 S Main St", "Fall River, MA 02724"]}, "phone": "+15086756411", "display_phone": "(508) 675-6411", "distance": 7788.053759107426}, {"id": "BZPQ3W-nkHF4JLfx1mGfSQ", "alias": "mcdonalds-swansea-10", "name": "McDonald's", "image_url": "https://s3-media4.fl.yelpcdn.com/bphoto/Aemcb0qgiICw1hQ3E0TsDA/o.jpg", "is_closed": false, "url": "https://www.yelp.com/biz/mcdonalds-swansea-10?adjust_creative=pzvBKuEUl0Vl1jtHQqJaog&utm_campaign=yelp_api_v3&utm_medium=api_v3_business_search&utm_source=pzvBKuEUl0Vl1jtHQqJaog", "review_count": 12, "categories": [{"alias": "coffee", "title": "Coffee & Tea"}, {"alias": "burgers", "title": "Burgers"}, {"alias": "hotdogs", "title": "Fast Food"}], "rating": 2.0, "coordinates": {"latitude": 41.7484388323145, "longitude": -71.2084624171257}, "transactions": [], "price": "$", "location": {"address1": "631 Gar Hwy", "address2": null, "address3": null, "city": "Swansea", "zip_code": "02777", "country": "US", "state": "MA", "display_address": ["631 Gar Hwy", "Swansea, MA 02777"]}, "phone": "+15086729453", "display_phone": "(508) 672-9453", "distance": 9269.804626861118}, {"id": "usP9czUkDGcyC7CSseiMdw", "alias": "shuck-food-truck-boston-2", "name": "Shuck Food Truck", "image_url": "https://s3-media2.fl.yelpcdn.com/bphoto/vh62vEgAkPe1IC7D00fF2A/o.jpg", "is_closed": false, "url": "https://www.yelp.com/biz/shuck-food-truck-boston-2?adjust_creative=pzvBKuEUl0Vl1jtHQqJaog&utm_campaign=yelp_api_v3&utm_medium=api_v3_business_search&utm_source=pzvBKuEUl0Vl1jtHQqJaog", "review_count": 27, "categories": [{"alias": "foodtrucks", "title": "Food Trucks"}, {"alias": "seafood", "title": "Seafood"}, {"alias": "tradamerican", "title": "American (Traditional)"}], "rating": 4.5, "coordinates": {"latitude": 42.64758, "longitude": -71.32212}, "transactions": [], "location": {"address1": "", "address2": "", "address3": null, "city": "Boston", "zip_code": "01854", "country": "US", "state": "MA", "display_address": ["Boston, MA 01854"]}, "phone": "+19789446618", "display_phone": "(978) 944-6618", "distance": 107802.71206039742}, {"id": "324pp6avrBFbzw059DoHsA", "alias": "roadies-raleigh", "name": "Roadies", "image_url": "https://s3-media2.fl.yelpcdn.com/bphoto/3zJZmmgIOYrfKoAOp9Du1w/o.jpg", "is_closed": false, "url": "https://www.yelp.com/biz/roadies-raleigh?adjust_creative=pzvBKuEUl0Vl1jtHQqJaog&utm_campaign=yelp_api_v3&utm_medium=api_v3_business_search&utm_source=pzvBKuEUl0Vl1jtHQqJaog", "review_count": 10, "categories": [{"alias": "foodtrucks", "title": "Food Trucks"}, {"alias": "seafood", "title": "Seafood"}], "rating": 4.5, "coordinates": {"latitude": 35.67575, "longitude": -78.66424}, "transactions": [], "price": "$", "location": {"address1": "", "address2": null, "address3": "", "city": "Raleigh", "zip_code": "27603", "country": "US", "state": "NC", "display_address": ["Raleigh, NC 27603"]}, "phone": "+13476136489", "display_phone": "(347) 613-6489", "distance": 927303.0251978965}]