[{"id": "vRhbY_qUxTlEYO1Jii015Q", "alias": "bella-restaurant-glendale-2", "name": "Bella Restaurant", "image_url": "https://s3-media1.fl.yelpcdn.com/bphoto/ZfHT8BZFvf7BUcvZYen59Q/o.jpg", "is_closed": false, "url": "https://www.yelp.com/biz/bella-restaurant-glendale-2?adjust_creative=pzvBKuEUl0Vl1jtHQqJaog&utm_campaign=yelp_api_v3&utm_medium=api_v3_business_search&utm_source=pzvBKuEUl0Vl1jtHQqJaog", "review_count": 68, "categories": [{"alias": "italian", "title": "Italian"}, {"alias": "venues", "title": "Venues & Event Spaces"}, {"alias": "bars", "title": "Bars"}], "rating": 4.0, "coordinates": {"latitude": 41.9741, "longitude": -71.63016}, "transactions": [], "price": "$$", "location": {"address1": "1992 Victory Hwy", "address2": "", "address3": "", "city": "Glendale", "zip_code": "02826", "country": "US", "state": "RI", "display_address": ["1992 Victory Hwy", "Glendale, RI 02826"]}, "phone": "+14015686996", "display_phone": "(401) 568-6996", "distance": 677.8920480399337}, {"id": "m5RLHsmP10ndwlHViypFtQ", "alias": "lucky-dog-tavern-north-smithfield", "name": "Lucky Dog Tavern", "image_url": "https://s3-media1.fl.yelpcdn.com/bphoto/B1GtVbmAsSqv7LIKsziFkQ/o.jpg", "is_closed": false, "url": "https://www.yelp.com/biz/lucky-dog-tavern-north-smithfield?adjust_creative=pzvBKuEUl0Vl1jtHQqJaog&utm_campaign=yelp_api_v3&utm_medium=api_v3_business_search&utm_source=pzvBKuEUl0Vl1jtHQqJaog", "review_count": 123, "categories": [{"alias": "tradamerican", "title": "American (Traditional)"}, {"alias": "seafood", "title": "Seafood"}, {"alias": "burgers", "title": "Burgers"}], "rating": 4.5, "coordinates": {"latitude": 42.0001733244128, "longitude": -71.570336091304}, "transactions": [], "price": "$$", "location": {"address1": "82 School St", "address2": "", "address3": null, "city": "North Smithfield", "zip_code": "02896", "country": "US", "state": "RI", "display_address": ["82 School St", "North Smithfield, RI 02896"]}, "phone": "+14014884777", "display_phone": "(401) 488-4777", "distance": 6388.325932711998}, {"id": "TSUFpu2DVh1D5l-9bU0TFw", "alias": "lindys-tavern-forestdale", "name": "Lindy's Tavern", "image_url": "https://s3-media4.fl.yelpcdn.com/bphoto/UTfKQo-bEPIzETtyKio33g/o.jpg", "is_closed": false, "url": "https://www.yelp.com/biz/lindys-tavern-forestdale?adjust_creative=pzvBKuEUl0Vl1jtHQqJaog&utm_campaign=yelp_api_v3&utm_medium=api_v3_business_search&utm_source=pzvBKuEUl0Vl1jtHQqJaog", "review_count": 252, "categories": [{"alias": "seafood", "title": "Seafood"}, {"alias": "bars", "title": "Bars"}, {"alias": "salad", "title": "Salad"}], "rating": 4.0, "coordinates": {"latitude": 41.99935667, "longitude": -71.56814667}, "transactions": [], "price": "$$", "location": {"address1": "98 School St", "address2": null, "address3": null, "city": "Forestdale", "zip_code": "02824", "country": "US", "state": "RI", "display_address": ["98 School St", "Forestdale, RI 02824"]}, "phone": "+14013561966", "display_phone": "(401) 356-1966", "distance": 6506.679645779899}, {"id": "qXNFw435OzZqebwOsA8upA", "alias": "waterfall-cafe-harrisville", "name": "Waterfall Cafe", "image_url": "https://s3-media1.fl.yelpcdn.com/bphoto/GkQf4RwgVNZfr2oteiwgfg/o.jpg", "is_closed": false, "url": "https://www.yelp.com/biz/waterfall-cafe-harrisville?adjust_creative=pzvBKuEUl0Vl1jtHQqJaog&utm_campaign=yelp_api_v3&utm_medium=api_v3_business_search&utm_source=pzvBKuEUl0Vl1jtHQqJaog", "review_count": 36, "categories": [{"alias": "newamerican", "title": "American (New)"}], "rating": 3.5, "coordinates": {"latitude": 41.96514, "longitude": -71.6755699}, "transactions": [], "price": "$$", "location": {"address1": "35 East Ave", "address2": "Ste B", "address3": "", "city": "Harrisville", "zip_code": "02830", "country": "US", "state": "RI", "display_address": ["35 East Ave", "Ste B", "Harrisville, RI 02830"]}, "phone": "+14015677000", "display_phone": "(401) 567-7000", "distance": 3189.0155604543097}, {"id": "yCJye4XcXyBvZcS9IO9t9A", "alias": "elite-pizza-il-harrisville", "name": "Elite Pizza Il", "image_url": "https://s3-media3.fl.yelpcdn.com/bphoto/1JtMYHaz0ExIc_IWBXfKvA/o.jpg", "is_closed": false, "url": "https://www.yelp.com/biz/elite-pizza-il-harrisville?adjust_creative=pzvBKuEUl0Vl1jtHQqJaog&utm_campaign=yelp_api_v3&utm_medium=api_v3_business_search&utm_source=pzvBKuEUl0Vl1jtHQqJaog", "review_count": 22, "categories": [{"alias": "pizza", "title": "Pizza"}], "rating": 4.0, "coordinates": {"latitude": 41.9676132202148, "longitude": -71.6445770263672}, "transactions": [], "price": "$$", "location": {"address1": "1452 Broncos Hwy", "address2": "Unit 5", "address3": null, "city": "Harrisville", "zip_code": "02830", "country": "US", "state": "RI", "display_address": ["1452 Broncos Hwy", "Unit 5", "Harrisville, RI 02830"]}, "phone": "+14015677767", "display_phone": "(401) 567-7767", "distance": 763.1029198618317}, {"id": "ESV1L-ai5ruQ-3ncZsxKdA", "alias": "goodstuff-smokehouse-blackstone", "name": "Goodstuff Smokehouse", "image_url": "https://s3-media3.fl.yelpcdn.com/bphoto/pyHBn0p5vs0PfwxFKKrOpA/o.jpg", "is_closed": false, "url": "https://www.yelp.com/biz/goodstuff-smokehouse-blackstone?adjust_creative=pzvBKuEUl0Vl1jtHQqJaog&utm_campaign=yelp_api_v3&utm_medium=api_v3_business_search&utm_source=pzvBKuEUl0Vl1jtHQqJaog", "review_count": 272, "categories": [{"alias": "bbq", "title": "Barbeque"}, {"alias": "southern", "title": "Southern"}], "rating": 4.5, "coordinates": {"latitude": 42.01865, "longitude": -71.5363}, "transactions": ["delivery"], "price": "$$", "location": {"address1": "97 Main St", "address2": null, "address3": "", "city": "Blackstone", "zip_code": "01504", "country": "US", "state": "MA", "display_address": ["97 Main St", "Blackstone, MA 01504"]}, "phone": "+15089281815", "display_phone": "(508) 928-1815", "distance": 9846.45645369005}, {"id": "Dl_dWb38bBhEqlhMn5e4qA", "alias": "cow-s-tail-pascoac", "name": "Cow\u2019s Tail", "image_url": "https://s3-media2.fl.yelpcdn.com/bphoto/WbfsuKDdUBRgqDY2x0wuYw/o.jpg", "is_closed": false, "url": "https://www.yelp.com/biz/cow-s-tail-pascoac?adjust_creative=pzvBKuEUl0Vl1jtHQqJaog&utm_campaign=yelp_api_v3&utm_medium=api_v3_business_search&utm_source=pzvBKuEUl0Vl1jtHQqJaog", "review_count": 13, "categories": [{"alias": "icecream", "title": "Ice Cream & Frozen Yogurt"}, {"alias": "seafood", "title": "Seafood"}, {"alias": "delis", "title": "Delis"}], "rating": 4.0, "coordinates": {"latitude": 41.955327, "longitude": -71.7034997964109}, "transactions": [], "location": {"address1": "16 High St", "address2": "", "address3": null, "city": "Pascoac", "zip_code": "02859", "country": "US", "state": "RI", "display_address": ["16 High St", "Pascoac, RI 02859"]}, "phone": "+14017104100", "display_phone": "(401) 710-4100", "distance": 5736.884290288593}, {"id": "ZnRluJwcFUXwf1tDubF0TQ", "alias": "uncle-ronnies-red-tavern-burrillville-2", "name": "Uncle Ronnie's Red Tavern", "image_url": "https://s3-media2.fl.yelpcdn.com/bphoto/7KGtRqTIM2FJD4Ysbx_fRQ/o.jpg", "is_closed": false, "url": "https://www.yelp.com/biz/uncle-ronnies-red-tavern-burrillville-2?adjust_creative=pzvBKuEUl0Vl1jtHQqJaog&utm_campaign=yelp_api_v3&utm_medium=api_v3_business_search&utm_source=pzvBKuEUl0Vl1jtHQqJaog", "review_count": 54, "categories": [{"alias": "bars", "title": "Bars"}, {"alias": "newamerican", "title": "American (New)"}], "rating": 3.5, "coordinates": {"latitude": 41.980982, "longitude": -71.609991}, "transactions": [], "price": "$$", "location": {"address1": "2692 Victory Hwy", "address2": "", "address3": "", "city": "Burrillville", "zip_code": "02830", "country": "US", "state": "RI", "display_address": ["2692 Victory Hwy", "Burrillville, RI 02830"]}, "phone": "+14015686243", "display_phone": "(401) 568-6243", "distance": 2540.826335420661}, {"id": "od8s4h84SJgPcNm1oHiGTA", "alias": "western-hotel-pizza-and-tavern-harrisville", "name": "Western Hotel Pizza & Tavern", "image_url": "https://s3-media4.fl.yelpcdn.com/bphoto/xQGmPMWGwXaGoLyKeN8HPA/o.jpg", "is_closed": false, "url": "https://www.yelp.com/biz/western-hotel-pizza-and-tavern-harrisville?adjust_creative=pzvBKuEUl0Vl1jtHQqJaog&utm_campaign=yelp_api_v3&utm_medium=api_v3_business_search&utm_source=pzvBKuEUl0Vl1jtHQqJaog", "review_count": 22, "categories": [{"alias": "pizza", "title": "Pizza"}, {"alias": "bars", "title": "Bars"}, {"alias": "tradamerican", "title": "American (Traditional)"}], "rating": 3.5, "coordinates": {"latitude": 41.9777336120605, "longitude": -71.6151733398438}, "transactions": [], "price": "$$", "location": {"address1": "610 Douglas Tpke", "address2": "", "address3": "", "city": "Harrisville", "zip_code": "02830", "country": "US", "state": "RI", "display_address": ["610 Douglas Tpke", "Harrisville, RI 02830"]}, "phone": "+14015686253", "display_phone": "(401) 568-6253", "distance": 1982.1366446973611}, {"id": "tamjyRigaiw_jy3yWsTVsw", "alias": "the-taco-shop-burrillville", "name": "The Taco Shop", "image_url": "https://s3-media3.fl.yelpcdn.com/bphoto/3ZWtRs3jKoLeajt_aGdkRw/o.jpg", "is_closed": false, "url": "https://www.yelp.com/biz/the-taco-shop-burrillville?adjust_creative=pzvBKuEUl0Vl1jtHQqJaog&utm_campaign=yelp_api_v3&utm_medium=api_v3_business_search&utm_source=pzvBKuEUl0Vl1jtHQqJaog", "review_count": 119, "categories": [{"alias": "mexican", "title": "Mexican"}], "rating": 4.5, "coordinates": {"latitude": 41.9661896, "longitude": -71.6787516}, "transactions": [], "price": "$", "location": {"address1": "459 Chapel St", "address2": "", "address3": "", "city": "Burrillville", "zip_code": "02830", "country": "US", "state": "RI", "display_address": ["459 Chapel St", "Burrillville, RI 02830"]}, "phone": "+14015688226", "display_phone": "(401) 568-8226", "distance": 3435.7266222409244}, {"id": "WIn595Hh2VL3r98j0-JMPA", "alias": "the-tavern-on-main-chepachet", "name": "The Tavern on Main", "image_url": "https://s3-media2.fl.yelpcdn.com/bphoto/bZnyHAEN7sacXogQxLq26A/o.jpg", "is_closed": false, "url": "https://www.yelp.com/biz/the-tavern-on-main-chepachet?adjust_creative=pzvBKuEUl0Vl1jtHQqJaog&utm_campaign=yelp_api_v3&utm_medium=api_v3_business_search&utm_source=pzvBKuEUl0Vl1jtHQqJaog", "review_count": 103, "categories": [{"alias": "tradamerican", "title": "American (Traditional)"}], "rating": 3.5, "coordinates": {"latitude": 41.9131484, "longitude": -71.6691906}, "transactions": [], "price": "$$", "location": {"address1": "1157 Putnam Pike", "address2": "", "address3": "", "city": "Chepachet", "zip_code": "02814", "country": "US", "state": "RI", "display_address": ["1157 Putnam Pike", "Chepachet, RI 02814"]}, "phone": "+14017109788", "display_phone": "(401) 710-9788", "distance": 7077.266651464771}, {"id": "fmz5pAgHqTV5LK5GOr8dLg", "alias": "wrights-farm-restaurant-harrisville-3", "name": "Wright's Farm Restaurant", "image_url": "https://s3-media2.fl.yelpcdn.com/bphoto/EhBVekzGzby0EfW0Q6ZO5Q/o.jpg", "is_closed": false, "url": "https://www.yelp.com/biz/wrights-farm-restaurant-harrisville-3?adjust_creative=pzvBKuEUl0Vl1jtHQqJaog&utm_campaign=yelp_api_v3&utm_medium=api_v3_business_search&utm_source=pzvBKuEUl0Vl1jtHQqJaog", "review_count": 325, "categories": [{"alias": "tradamerican", "title": "American (Traditional)"}], "rating": 3.5, "coordinates": {"latitude": 41.9857805, "longitude": -71.6054916}, "transactions": [], "price": "$$", "location": {"address1": "84 Inman Rd", "address2": "", "address3": "", "city": "Harrisville", "zip_code": "02830", "country": "US", "state": "RI", "display_address": ["84 Inman Rd", "Harrisville, RI 02830"]}, "phone": "+14017692856", "display_phone": "(401) 769-2856", "distance": 3071.344309974123}, {"id": "JEHAIJ0dhJZTVo90BxA6iA", "alias": "pinewood-pub-chepachet", "name": "Pinewood Pub", "image_url": "https://s3-media2.fl.yelpcdn.com/bphoto/a8gZ1sxtSzao0ai3KuvqyQ/o.jpg", "is_closed": false, "url": "https://www.yelp.com/biz/pinewood-pub-chepachet?adjust_creative=pzvBKuEUl0Vl1jtHQqJaog&utm_campaign=yelp_api_v3&utm_medium=api_v3_business_search&utm_source=pzvBKuEUl0Vl1jtHQqJaog", "review_count": 24, "categories": [{"alias": "pizza", "title": "Pizza"}, {"alias": "italian", "title": "Italian"}], "rating": 4.0, "coordinates": {"latitude": 41.904456, "longitude": -71.646544}, "transactions": [], "price": "$$", "location": {"address1": "16 Terry Ln", "address2": "", "address3": "", "city": "Chepachet", "zip_code": "02814", "country": "US", "state": "RI", "display_address": ["16 Terry Ln", "Chepachet, RI 02814"]}, "phone": "+14015685660", "display_phone": "(401) 568-5660", "distance": 7679.16881599104}, {"id": "lcP4rb76-ymxAdtLJGVRqw", "alias": "the-village-haven-forestdale", "name": "The Village Haven", "image_url": "https://s3-media3.fl.yelpcdn.com/bphoto/L0ide9UMs7XtAWWNnKaCjw/o.jpg", "is_closed": false, "url": "https://www.yelp.com/biz/the-village-haven-forestdale?adjust_creative=pzvBKuEUl0Vl1jtHQqJaog&utm_campaign=yelp_api_v3&utm_medium=api_v3_business_search&utm_source=pzvBKuEUl0Vl1jtHQqJaog", "review_count": 73, "categories": [{"alias": "tradamerican", "title": "American (Traditional)"}], "rating": 4.0, "coordinates": {"latitude": 41.999786, "longitude": -71.569072}, "transactions": [], "price": "$$", "location": {"address1": "90 School St", "address2": "", "address3": "", "city": "Forestdale", "zip_code": "02824", "country": "US", "state": "RI", "display_address": ["90 School St", "Forestdale, RI 02824"]}, "phone": "+14017624242", "display_phone": "(401) 762-4242", "distance": 6459.7522420862815}, {"id": "lCgGE_reDU9D_SzF85sDnA", "alias": "nikos-pizza-house-harrisville", "name": "Nikos Pizza House", "image_url": "https://s3-media3.fl.yelpcdn.com/bphoto/EiF_aJHeEl80gpbil7AxMA/o.jpg", "is_closed": false, "url": "https://www.yelp.com/biz/nikos-pizza-house-harrisville?adjust_creative=pzvBKuEUl0Vl1jtHQqJaog&utm_campaign=yelp_api_v3&utm_medium=api_v3_business_search&utm_source=pzvBKuEUl0Vl1jtHQqJaog", "review_count": 29, "categories": [{"alias": "pizza", "title": "Pizza"}], "rating": 4.5, "coordinates": {"latitude": 41.96363, "longitude": -71.67505}, "transactions": [], "price": "$", "location": {"address1": "216 Harrisville Main St", "address2": "", "address3": "", "city": "Harrisville", "zip_code": "02830", "country": "US", "state": "RI", "display_address": ["216 Harrisville Main St", "Harrisville, RI 02830"]}, "phone": "+14015688666", "display_phone": "(401) 568-8666", "distance": 3212.4404242913597}, {"id": "CbN8duLb4BspKHgVbyas6A", "alias": "excellent-breakfast-burrillville", "name": "Excellent Breakfast", "image_url": "https://s3-media3.fl.yelpcdn.com/bphoto/b6C_YsZXWHk5GULw2cL0-Q/o.jpg", "is_closed": false, "url": "https://www.yelp.com/biz/excellent-breakfast-burrillville?adjust_creative=pzvBKuEUl0Vl1jtHQqJaog&utm_campaign=yelp_api_v3&utm_medium=api_v3_business_search&utm_source=pzvBKuEUl0Vl1jtHQqJaog", "review_count": 63, "categories": [{"alias": "breakfast_brunch", "title": "Breakfast & Brunch"}], "rating": 4.5, "coordinates": {"latitude": 41.9636448, "longitude": -71.6750609}, "transactions": [], "location": {"address1": "218 Harrisville Main St", "address2": "", "address3": null, "city": "Burrillville", "zip_code": "02830", "country": "US", "state": "RI", "display_address": ["218 Harrisville Main St", "Burrillville, RI 02830"]}, "phone": "", "display_phone": "", "distance": 3195.9271977445296}, {"id": "tj8x4F_EdL-27LahB6-0lQ", "alias": "the-table-family-diner-uxbridge", "name": "The Table Family Diner", "image_url": "https://s3-media2.fl.yelpcdn.com/bphoto/sbEmdN-r7aC3mpLLne-TAw/o.jpg", "is_closed": false, "url": "https://www.yelp.com/biz/the-table-family-diner-uxbridge?adjust_creative=pzvBKuEUl0Vl1jtHQqJaog&utm_campaign=yelp_api_v3&utm_medium=api_v3_business_search&utm_source=pzvBKuEUl0Vl1jtHQqJaog", "review_count": 3, "categories": [{"alias": "diners", "title": "Diners"}, {"alias": "coffee", "title": "Coffee & Tea"}, {"alias": "breakfast_brunch", "title": "Breakfast & Brunch"}], "rating": 5.0, "coordinates": {"latitude": 42.02799, "longitude": -71.60707}, "transactions": [], "location": {"address1": "775 Quaker Hwy", "address2": null, "address3": "", "city": "Uxbridge", "zip_code": "01569", "country": "US", "state": "MA", "display_address": ["775 Quaker Hwy", "Uxbridge, MA 01569"]}, "phone": "+15082787327", "display_phone": "(508) 278-7327", "distance": 6682.421425835047}, {"id": "ufvt5Z_jZxW2ErTKqMDheA", "alias": "news-star-pascoag", "name": "News Star", "image_url": "https://s3-media3.fl.yelpcdn.com/bphoto/GVUADUE1nu51RUqUrNtmhQ/o.jpg", "is_closed": false, "url": "https://www.yelp.com/biz/news-star-pascoag?adjust_creative=pzvBKuEUl0Vl1jtHQqJaog&utm_campaign=yelp_api_v3&utm_medium=api_v3_business_search&utm_source=pzvBKuEUl0Vl1jtHQqJaog", "review_count": 17, "categories": [{"alias": "chinese", "title": "Chinese"}], "rating": 3.0, "coordinates": {"latitude": 41.952251, "longitude": -71.699615}, "transactions": [], "price": "$$", "location": {"address1": "170 Main St", "address2": null, "address3": "", "city": "Pascoag", "zip_code": "02859", "country": "US", "state": "RI", "display_address": ["170 Main St", "Pascoag, RI 02859"]}, "phone": "+14015677077", "display_phone": "(401) 567-7077", "distance": 5479.097169917284}, {"id": "TDPPoreNhWESN4vDz90ZzQ", "alias": "gia-ristorante-italiano-uxbridge-2", "name": "Gia Ristorante Italiano", "image_url": "https://s3-media3.fl.yelpcdn.com/bphoto/FQeTRg7cwV77K0j7DRy3Tw/o.jpg", "is_closed": false, "url": "https://www.yelp.com/biz/gia-ristorante-italiano-uxbridge-2?adjust_creative=pzvBKuEUl0Vl1jtHQqJaog&utm_campaign=yelp_api_v3&utm_medium=api_v3_business_search&utm_source=pzvBKuEUl0Vl1jtHQqJaog", "review_count": 93, "categories": [{"alias": "italian", "title": "Italian"}, {"alias": "seafood", "title": "Seafood"}], "rating": 3.0, "coordinates": {"latitude": 42.02737, "longitude": -71.60652}, "transactions": [], "price": "$$", "location": {"address1": "785 Quaker Hwy", "address2": "", "address3": "", "city": "Uxbridge", "zip_code": "01569", "country": "US", "state": "MA", "display_address": ["785 Quaker Hwy", "Uxbridge, MA 01569"]}, "phone": "+15082787500", "display_phone": "(508) 278-7500", "distance": 6631.454162296704}, {"id": "qVuvwRHAl1tbe5rWzBgoaA", "alias": "spritzers-pascoag", "name": "Spritzers", "image_url": "https://s3-media3.fl.yelpcdn.com/bphoto/jHKlFdRJE87a4D0emUvG1g/o.jpg", "is_closed": false, "url": "https://www.yelp.com/biz/spritzers-pascoag?adjust_creative=pzvBKuEUl0Vl1jtHQqJaog&utm_campaign=yelp_api_v3&utm_medium=api_v3_business_search&utm_source=pzvBKuEUl0Vl1jtHQqJaog", "review_count": 7, "categories": [{"alias": "bars", "title": "Bars"}, {"alias": "tradamerican", "title": "American (Traditional)"}], "rating": 4.0, "coordinates": {"latitude": 41.963809967041, "longitude": -71.7038116455078}, "transactions": [], "price": "$", "location": {"address1": "63 Grove St", "address2": "", "address3": "", "city": "Pascoag", "zip_code": "02859", "country": "US", "state": "RI", "display_address": ["63 Grove St", "Pascoag, RI 02859"]}, "phone": "+14015680530", "display_phone": "(401) 568-0530", "distance": 5521.723405562096}, {"id": "gzVSjt3IwXWkbfQ5_4JHSw", "alias": "marys-burger-and-brat-house-north-smithfield", "name": "Mary's Burger and Brat House", "image_url": "", "is_closed": false, "url": "https://www.yelp.com/biz/marys-burger-and-brat-house-north-smithfield?adjust_creative=pzvBKuEUl0Vl1jtHQqJaog&utm_campaign=yelp_api_v3&utm_medium=api_v3_business_search&utm_source=pzvBKuEUl0Vl1jtHQqJaog", "review_count": 3, "categories": [{"alias": "tradamerican", "title": "American (Traditional)"}], "rating": 4.0, "coordinates": {"latitude": 41.9366448033534, "longitude": -71.589231826365}, "transactions": [], "location": {"address1": "92 Log Rd", "address2": "", "address3": null, "city": "North Smithfield", "zip_code": "02830", "country": "US", "state": "RI", "display_address": ["92 Log Rd", "North Smithfield, RI 02830"]}, "phone": "", "display_phone": "", "distance": 5674.749993194559}, {"id": "rpaUYCqcAQ041wpNsocuFw", "alias": "yama-fuji-north-smithfield-2", "name": "Yama Fuji", "image_url": "https://s3-media1.fl.yelpcdn.com/bphoto/hosPRo6JNWhK5ZqmdYREgg/o.jpg", "is_closed": false, "url": "https://www.yelp.com/biz/yama-fuji-north-smithfield-2?adjust_creative=pzvBKuEUl0Vl1jtHQqJaog&utm_campaign=yelp_api_v3&utm_medium=api_v3_business_search&utm_source=pzvBKuEUl0Vl1jtHQqJaog", "review_count": 74, "categories": [{"alias": "japanese", "title": "Japanese"}, {"alias": "sushi", "title": "Sushi Bars"}], "rating": 3.5, "coordinates": {"latitude": 42.0050400107292, "longitude": -71.5855900175255}, "transactions": [], "price": "$$", "location": {"address1": "900 Victory Hwy", "address2": "Ste 3", "address3": "", "city": "North Smithfield", "zip_code": "02896", "country": "US", "state": "RI", "display_address": ["900 Victory Hwy", "Ste 3", "North Smithfield, RI 02896"]}, "phone": "+14015970885", "display_phone": "(401) 597-0885", "distance": 5648.557440278312}, {"id": "GlMXW9PVtB3vOWHlSTeS0Q", "alias": "gentleman-farmer-diner-chepachet-2", "name": "Gentleman Farmer Diner", "image_url": "https://s3-media1.fl.yelpcdn.com/bphoto/eanz8-KUChYlW97T-b0cFA/o.jpg", "is_closed": false, "url": "https://www.yelp.com/biz/gentleman-farmer-diner-chepachet-2?adjust_creative=pzvBKuEUl0Vl1jtHQqJaog&utm_campaign=yelp_api_v3&utm_medium=api_v3_business_search&utm_source=pzvBKuEUl0Vl1jtHQqJaog", "review_count": 23, "categories": [{"alias": "diners", "title": "Diners"}, {"alias": "seafood", "title": "Seafood"}, {"alias": "breakfast_brunch", "title": "Breakfast & Brunch"}], "rating": 4.0, "coordinates": {"latitude": 41.8976172162418, "longitude": -71.6296276836065}, "transactions": [], "price": "$$", "location": {"address1": "617 Putnam Pike", "address2": "", "address3": "", "city": "Chepachet", "zip_code": "02814", "country": "US", "state": "RI", "display_address": ["617 Putnam Pike", "Chepachet, RI 02814"]}, "phone": "+14013712683", "display_phone": "(401) 371-2683", "distance": 8359.633073888122}, {"id": "dEdKXuVRx8FMoi1MlXIvMw", "alias": "tavern-6-two-1-north-smithfield", "name": "Tavern 6 Two 1", "image_url": "https://s3-media4.fl.yelpcdn.com/bphoto/N1b7itR_OkZJFWh_DIdXsw/o.jpg", "is_closed": false, "url": "https://www.yelp.com/biz/tavern-6-two-1-north-smithfield?adjust_creative=pzvBKuEUl0Vl1jtHQqJaog&utm_campaign=yelp_api_v3&utm_medium=api_v3_business_search&utm_source=pzvBKuEUl0Vl1jtHQqJaog", "review_count": 47, "categories": [{"alias": "pizza", "title": "Pizza"}, {"alias": "tradamerican", "title": "American (Traditional)"}, {"alias": "sportsbars", "title": "Sports Bars"}], "rating": 4.5, "coordinates": {"latitude": 41.989519164815, "longitude": -71.5571130786062}, "transactions": [], "price": "$$", "location": {"address1": "621 Pound Hill Rd", "address2": "", "address3": null, "city": "North Smithfield", "zip_code": "02896", "country": "US", "state": "RI", "display_address": ["621 Pound Hill Rd", "North Smithfield, RI 02896"]}, "phone": "+14012499333", "display_phone": "(401) 249-9333", "distance": 6954.22850927855}, {"id": "HU4nIkqnS410Hi-gU1Z5Pg", "alias": "hills-tavern-and-grill-glocester", "name": "Hill's Tavern and Grill", "image_url": "https://s3-media3.fl.yelpcdn.com/bphoto/Q7gm3n6Kb2JBhcFbM7VvZA/o.jpg", "is_closed": false, "url": "https://www.yelp.com/biz/hills-tavern-and-grill-glocester?adjust_creative=pzvBKuEUl0Vl1jtHQqJaog&utm_campaign=yelp_api_v3&utm_medium=api_v3_business_search&utm_source=pzvBKuEUl0Vl1jtHQqJaog", "review_count": 6, "categories": [{"alias": "bars", "title": "Bars"}, {"alias": "tradamerican", "title": "American (Traditional)"}], "rating": 4.0, "coordinates": {"latitude": 41.895896627618, "longitude": -71.6131743337187}, "transactions": [], "location": {"address1": "417 Putnam Pike", "address2": "", "address3": null, "city": "Glocester", "zip_code": "02814", "country": "US", "state": "RI", "display_address": ["417 Putnam Pike", "Glocester, RI 02814"]}, "phone": "+14013495512", "display_phone": "(401) 349-5512", "distance": 8763.028499656291}, {"id": "DLApUxTVPlCoM4e2AJbJ0Q", "alias": "serios-pizzarama-pascoag", "name": "Serio's Pizzarama", "image_url": "https://s3-media3.fl.yelpcdn.com/bphoto/rbsE_9KV4gyCWKkQL7WpXw/o.jpg", "is_closed": false, "url": "https://www.yelp.com/biz/serios-pizzarama-pascoag?adjust_creative=pzvBKuEUl0Vl1jtHQqJaog&utm_campaign=yelp_api_v3&utm_medium=api_v3_business_search&utm_source=pzvBKuEUl0Vl1jtHQqJaog", "review_count": 22, "categories": [{"alias": "pizza", "title": "Pizza"}], "rating": 4.5, "coordinates": {"latitude": 41.9646263, "longitude": -71.7121008038521}, "transactions": [], "price": "$", "location": {"address1": "405 Church", "address2": "", "address3": "", "city": "Pascoag", "zip_code": "02859", "country": "US", "state": "RI", "display_address": ["405 Church", "Pascoag, RI 02859"]}, "phone": "+14015687187", "display_phone": "(401) 568-7187", "distance": 6182.805376105212}, {"id": "DXDb1JTWJuKjzQ0MPtne9g", "alias": "hannas-place-uxbridge", "name": "Hanna's Place", "image_url": "https://s3-media1.fl.yelpcdn.com/bphoto/SHK9qZj8YsoRKFD7QAvhZg/o.jpg", "is_closed": false, "url": "https://www.yelp.com/biz/hannas-place-uxbridge?adjust_creative=pzvBKuEUl0Vl1jtHQqJaog&utm_campaign=yelp_api_v3&utm_medium=api_v3_business_search&utm_source=pzvBKuEUl0Vl1jtHQqJaog", "review_count": 24, "categories": [{"alias": "newamerican", "title": "American (New)"}], "rating": 3.0, "coordinates": {"latitude": 42.027839, "longitude": -71.606959}, "transactions": [], "price": "$$", "location": {"address1": "775 Quaker Hwy", "address2": "", "address3": "", "city": "Uxbridge", "zip_code": "01569", "country": "US", "state": "MA", "display_address": ["775 Quaker Hwy", "Uxbridge, MA 01569"]}, "phone": "+15082785099", "display_phone": "(508) 278-5099", "distance": 6669.066395115272}, {"id": "-9JxOLPyjVPjLrNK3cTAjA", "alias": "thai-royal-restaurant-and-bar-pascoag", "name": "Thai Royal Restaurant & Bar", "image_url": "https://s3-media4.fl.yelpcdn.com/bphoto/jHGffEsh8ZYqqPH9NZHc5A/o.jpg", "is_closed": false, "url": "https://www.yelp.com/biz/thai-royal-restaurant-and-bar-pascoag?adjust_creative=pzvBKuEUl0Vl1jtHQqJaog&utm_campaign=yelp_api_v3&utm_medium=api_v3_business_search&utm_source=pzvBKuEUl0Vl1jtHQqJaog", "review_count": 50, "categories": [{"alias": "thai", "title": "Thai"}, {"alias": "bars", "title": "Bars"}], "rating": 4.0, "coordinates": {"latitude": 41.9535, "longitude": -71.70122}, "transactions": [], "price": "$$", "location": {"address1": "98 Main St", "address2": "", "address3": "", "city": "Pascoag", "zip_code": "02859", "country": "US", "state": "RI", "display_address": ["98 Main St", "Pascoag, RI 02859"]}, "phone": "+14015677600", "display_phone": "(401) 567-7600", "distance": 5543.31511618624}, {"id": "4rR-Nq2f9EHFxEqm-QpQqQ", "alias": "johnny-s-victory-diner-burrillville", "name": "Johnny\u2019s Victory Diner", "image_url": "https://s3-media3.fl.yelpcdn.com/bphoto/h5kREUFeypGTvhyQljYnkA/o.jpg", "is_closed": false, "url": "https://www.yelp.com/biz/johnny-s-victory-diner-burrillville?adjust_creative=pzvBKuEUl0Vl1jtHQqJaog&utm_campaign=yelp_api_v3&utm_medium=api_v3_business_search&utm_source=pzvBKuEUl0Vl1jtHQqJaog", "review_count": 55, "categories": [{"alias": "breakfast_brunch", "title": "Breakfast & Brunch"}, {"alias": "diners", "title": "Diners"}, {"alias": "tradamerican", "title": "American (Traditional)"}], "rating": 4.0, "coordinates": {"latitude": 41.9809227620163, "longitude": -71.6078001701749}, "transactions": [], "price": "$", "location": {"address1": "2731 Victory Hwy", "address2": "", "address3": "", "city": "Burrillville", "zip_code": "02830", "country": "US", "state": "RI", "display_address": ["2731 Victory Hwy", "Burrillville, RI 02830"]}, "phone": "+14017652661", "display_phone": "(401) 765-2661", "distance": 2671.7877034440735}, {"id": "6FP5M04d6si-lfXG95KIUQ", "alias": "lumberjacks-pizza-north-smithfield", "name": "Lumberjack's Pizza", "image_url": "https://s3-media1.fl.yelpcdn.com/bphoto/U5d9b52Y1oASmxbJsNO-2A/o.jpg", "is_closed": false, "url": "https://www.yelp.com/biz/lumberjacks-pizza-north-smithfield?adjust_creative=pzvBKuEUl0Vl1jtHQqJaog&utm_campaign=yelp_api_v3&utm_medium=api_v3_business_search&utm_source=pzvBKuEUl0Vl1jtHQqJaog", "review_count": 31, "categories": [{"alias": "pizza", "title": "Pizza"}], "rating": 3.0, "coordinates": {"latitude": 41.9949264526367, "longitude": -71.5978164672852}, "transactions": [], "price": "$$", "location": {"address1": "1402 Victory Hwy", "address2": null, "address3": null, "city": "North Smithfield", "zip_code": "02896", "country": "US", "state": "RI", "display_address": ["1402 Victory Hwy", "North Smithfield, RI 02896"]}, "phone": "+14017697437", "display_phone": "(401) 769-7437", "distance": 4161.238761246257}, {"id": "W80UywxEeUHOjFfXikio8g", "alias": "casa-burrito-blackstone", "name": "Casa Burrito", "image_url": "https://s3-media3.fl.yelpcdn.com/bphoto/p6Zv5TIKKX6ZAq11TTyhsw/o.jpg", "is_closed": false, "url": "https://www.yelp.com/biz/casa-burrito-blackstone?adjust_creative=pzvBKuEUl0Vl1jtHQqJaog&utm_campaign=yelp_api_v3&utm_medium=api_v3_business_search&utm_source=pzvBKuEUl0Vl1jtHQqJaog", "review_count": 39, "categories": [{"alias": "mexican", "title": "Mexican"}], "rating": 4.5, "coordinates": {"latitude": 42.0189204003048, "longitude": -71.536976159632}, "transactions": ["delivery"], "price": "$$", "location": {"address1": "114 Main St", "address2": "", "address3": null, "city": "Blackstone", "zip_code": "01504", "country": "US", "state": "MA", "display_address": ["114 Main St", "Blackstone, MA 01504"]}, "phone": "+15089280904", "display_phone": "(508) 928-0904", "distance": 9820.371944423589}, {"id": "ZfuAs9Z2bw7ZGPZtnbq0oA", "alias": "wise-guys-deli-smithfield", "name": "Wise Guys Deli", "image_url": "https://s3-media1.fl.yelpcdn.com/bphoto/5M3GqBSe3nyJF6uy2w3_Xw/o.jpg", "is_closed": false, "url": "https://www.yelp.com/biz/wise-guys-deli-smithfield?adjust_creative=pzvBKuEUl0Vl1jtHQqJaog&utm_campaign=yelp_api_v3&utm_medium=api_v3_business_search&utm_source=pzvBKuEUl0Vl1jtHQqJaog", "review_count": 24, "categories": [{"alias": "pizza", "title": "Pizza"}, {"alias": "sandwiches", "title": "Sandwiches"}], "rating": 3.5, "coordinates": {"latitude": 41.9285094755351, "longitude": -71.5365591537746}, "transactions": ["delivery"], "location": {"address1": "1201 Douglas Pike", "address2": "", "address3": null, "city": "Smithfield", "zip_code": "02917", "country": "US", "state": "RI", "display_address": ["1201 Douglas Pike", "Smithfield, RI 02917"]}, "phone": "+14012310202", "display_phone": "(401) 231-0202", "distance": 9715.710022203333}, {"id": "jlXM3V8M6Y6x7uOpL8ZuPg", "alias": "meadowview-tavern-uxbridge", "name": "Meadowview Tavern", "image_url": "", "is_closed": false, "url": "https://www.yelp.com/biz/meadowview-tavern-uxbridge?adjust_creative=pzvBKuEUl0Vl1jtHQqJaog&utm_campaign=yelp_api_v3&utm_medium=api_v3_business_search&utm_source=pzvBKuEUl0Vl1jtHQqJaog", "review_count": 1, "categories": [{"alias": "bars", "title": "Bars"}, {"alias": "tradamerican", "title": "American (Traditional)"}], "rating": 5.0, "coordinates": {"latitude": 42.0323216443049, "longitude": -71.6799625670525}, "transactions": [], "location": {"address1": "801 Chocolog Rd", "address2": "", "address3": null, "city": "Uxbridge", "zip_code": "01569", "country": "US", "state": "MA", "display_address": ["801 Chocolog Rd", "Uxbridge, MA 01569"]}, "phone": "+15082786110", "display_phone": "(508) 278-6110", "distance": 7498.931361443132}, {"id": "JhunCX-OMD1BJSCBMr9IDw", "alias": "chepachet-deli-chepachet", "name": "Chepachet Deli", "image_url": "https://s3-media2.fl.yelpcdn.com/bphoto/b3VA04BkmI1Q6CMhJvW78g/o.jpg", "is_closed": false, "url": "https://www.yelp.com/biz/chepachet-deli-chepachet?adjust_creative=pzvBKuEUl0Vl1jtHQqJaog&utm_campaign=yelp_api_v3&utm_medium=api_v3_business_search&utm_source=pzvBKuEUl0Vl1jtHQqJaog", "review_count": 7, "categories": [{"alias": "delis", "title": "Delis"}, {"alias": "pizza", "title": "Pizza"}, {"alias": "wraps", "title": "Wraps"}], "rating": 4.0, "coordinates": {"latitude": 41.9048152, "longitude": -71.6466435}, "transactions": [], "location": {"address1": "842 Putnam Pike", "address2": "", "address3": "", "city": "Chepachet", "zip_code": "02814", "country": "US", "state": "RI", "display_address": ["842 Putnam Pike", "Chepachet, RI 02814"]}, "phone": "+14015678979", "display_phone": "(401) 567-8979", "distance": 7580.856346152536}, {"id": "RZBnFrMvsC2j1nyx25Y0DQ", "alias": "quaker-deli-and-variety-uxbridge", "name": "Quaker Deli & Variety", "image_url": "https://s3-media2.fl.yelpcdn.com/bphoto/z7RODcKDAqtkscJONyO4Og/o.jpg", "is_closed": false, "url": "https://www.yelp.com/biz/quaker-deli-and-variety-uxbridge?adjust_creative=pzvBKuEUl0Vl1jtHQqJaog&utm_campaign=yelp_api_v3&utm_medium=api_v3_business_search&utm_source=pzvBKuEUl0Vl1jtHQqJaog", "review_count": 6, "categories": [{"alias": "catering", "title": "Caterers"}, {"alias": "delis", "title": "Delis"}], "rating": 3.5, "coordinates": {"latitude": 42.0357551574707, "longitude": -71.6185455322266}, "transactions": [], "price": "$", "location": {"address1": "544 Quaker Hwy", "address2": "", "address3": "", "city": "Uxbridge", "zip_code": "01569", "country": "US", "state": "MA", "display_address": ["544 Quaker Hwy", "Uxbridge, MA 01569"]}, "phone": "+15082786845", "display_phone": "(508) 278-6845", "distance": 7241.742993528539}, {"id": "4ZCcTX58BljqNPiKwV47xg", "alias": "crystal-lake-golf-club-mapleville", "name": "Crystal Lake Golf Club", "image_url": "https://s3-media2.fl.yelpcdn.com/bphoto/mqZOr4KcCv1_uTzrTbyznA/o.jpg", "is_closed": false, "url": "https://www.yelp.com/biz/crystal-lake-golf-club-mapleville?adjust_creative=pzvBKuEUl0Vl1jtHQqJaog&utm_campaign=yelp_api_v3&utm_medium=api_v3_business_search&utm_source=pzvBKuEUl0Vl1jtHQqJaog", "review_count": 29, "categories": [{"alias": "golf", "title": "Golf"}, {"alias": "venues", "title": "Venues & Event Spaces"}, {"alias": "tradamerican", "title": "American (Traditional)"}], "rating": 3.5, "coordinates": {"latitude": 41.933115, "longitude": -71.667117}, "transactions": [], "location": {"address1": "100 Broncos Hwy", "address2": "", "address3": "", "city": "Mapleville", "zip_code": "02839", "country": "US", "state": "RI", "display_address": ["100 Broncos Hwy", "Mapleville, RI 02839"]}, "phone": "+14015674500", "display_phone": "(401) 567-4500", "distance": 4994.700346863944}, {"id": "AEKnUyUi44vnSj2FIYFbfQ", "alias": "aegean-pizza-chepachet", "name": "Aegean Pizza", "image_url": "https://s3-media2.fl.yelpcdn.com/bphoto/OgBSqRME8eE3BVUvLdGE8g/o.jpg", "is_closed": false, "url": "https://www.yelp.com/biz/aegean-pizza-chepachet?adjust_creative=pzvBKuEUl0Vl1jtHQqJaog&utm_campaign=yelp_api_v3&utm_medium=api_v3_business_search&utm_source=pzvBKuEUl0Vl1jtHQqJaog", "review_count": 28, "categories": [{"alias": "pizza", "title": "Pizza"}, {"alias": "sandwiches", "title": "Sandwiches"}, {"alias": "salad", "title": "Salad"}], "rating": 2.5, "coordinates": {"latitude": 41.915359, "longitude": -71.6711823}, "transactions": [], "price": "$", "location": {"address1": "1195 Putnam Pike", "address2": "", "address3": "", "city": "Chepachet", "zip_code": "02814", "country": "US", "state": "RI", "display_address": ["1195 Putnam Pike", "Chepachet, RI 02814"]}, "phone": "+14015682725", "display_phone": "(401) 568-2725", "distance": 6918.635229101982}, {"id": "4X-uFp0rPXtxltaDZ39SCw", "alias": "olympia-famous-pizza-pascoag", "name": "Olympia Famous Pizza", "image_url": "https://s3-media4.fl.yelpcdn.com/bphoto/SI9-v5JUPTHSEVu48t7-Eg/o.jpg", "is_closed": false, "url": "https://www.yelp.com/biz/olympia-famous-pizza-pascoag?adjust_creative=pzvBKuEUl0Vl1jtHQqJaog&utm_campaign=yelp_api_v3&utm_medium=api_v3_business_search&utm_source=pzvBKuEUl0Vl1jtHQqJaog", "review_count": 7, "categories": [{"alias": "pizza", "title": "Pizza"}], "rating": 2.0, "coordinates": {"latitude": 41.9578895568848, "longitude": -71.701774597168}, "transactions": [], "price": "$$", "location": {"address1": "140 Pascoag Main St", "address2": "", "address3": "", "city": "Pascoag", "zip_code": "02859", "country": "US", "state": "RI", "display_address": ["140 Pascoag Main St", "Pascoag, RI 02859"]}, "phone": "+14015681100", "display_phone": "(401) 568-1100", "distance": 5511.2859062664475}, {"id": "xSuPdhkcXrSOGW0baJH6WQ", "alias": "quik-stop-deli-north-smithfield", "name": "Quik Stop Deli", "image_url": "https://s3-media3.fl.yelpcdn.com/bphoto/sXXpgxFE1R4mf0Ef2-Q_BQ/o.jpg", "is_closed": false, "url": "https://www.yelp.com/biz/quik-stop-deli-north-smithfield?adjust_creative=pzvBKuEUl0Vl1jtHQqJaog&utm_campaign=yelp_api_v3&utm_medium=api_v3_business_search&utm_source=pzvBKuEUl0Vl1jtHQqJaog", "review_count": 16, "categories": [{"alias": "delis", "title": "Delis"}], "rating": 4.5, "coordinates": {"latitude": 42.0006, "longitude": -71.57955}, "transactions": [], "price": "$", "location": {"address1": "11 Main St", "address2": "", "address3": "", "city": "North Smithfield", "zip_code": "02896", "country": "US", "state": "RI", "display_address": ["11 Main St", "North Smithfield, RI 02896"]}, "phone": "+14017653227", "display_phone": "(401) 765-3227", "distance": 5664.224823737808}, {"id": "Y28Jxm3fl0O__uK90Jzj4A", "alias": "hercules-beef-wings-and-pizza-north-smithfield", "name": "Hercules Beef, Wings & Pizza", "image_url": "https://s3-media1.fl.yelpcdn.com/bphoto/KGlnJkfJ_eysQgKjf6JVKg/o.jpg", "is_closed": false, "url": "https://www.yelp.com/biz/hercules-beef-wings-and-pizza-north-smithfield?adjust_creative=pzvBKuEUl0Vl1jtHQqJaog&utm_campaign=yelp_api_v3&utm_medium=api_v3_business_search&utm_source=pzvBKuEUl0Vl1jtHQqJaog", "review_count": 4, "categories": [{"alias": "pizza", "title": "Pizza"}, {"alias": "chicken_wings", "title": "Chicken Wings"}, {"alias": "sandwiches", "title": "Sandwiches"}], "rating": 3.5, "coordinates": {"latitude": 42.000133, "longitude": -71.579853}, "transactions": [], "location": {"address1": "7 Main St", "address2": null, "address3": "", "city": "North Smithfield", "zip_code": "02896", "country": "US", "state": "RI", "display_address": ["7 Main St", "North Smithfield, RI 02896"]}, "phone": "+14017661111", "display_phone": "(401) 766-1111", "distance": 5709.189711743622}, {"id": "1mwKhiPdBxOxBUnKkTw03w", "alias": "village-bean-chepachet-2", "name": "Village Bean", "image_url": "https://s3-media1.fl.yelpcdn.com/bphoto/9wD8mtlGniUkYsJ9_-c4Qw/o.jpg", "is_closed": false, "url": "https://www.yelp.com/biz/village-bean-chepachet-2?adjust_creative=pzvBKuEUl0Vl1jtHQqJaog&utm_campaign=yelp_api_v3&utm_medium=api_v3_business_search&utm_source=pzvBKuEUl0Vl1jtHQqJaog", "review_count": 40, "categories": [{"alias": "breakfast_brunch", "title": "Breakfast & Brunch"}, {"alias": "delis", "title": "Delis"}, {"alias": "sandwiches", "title": "Sandwiches"}], "rating": 3.5, "coordinates": {"latitude": 41.91636, "longitude": -71.671193}, "transactions": [], "price": "$", "location": {"address1": "15 Money Hill Rd", "address2": "Ste 2", "address3": "", "city": "Chepachet", "zip_code": "02814", "country": "US", "state": "RI", "display_address": ["15 Money Hill Rd", "Ste 2", "Chepachet, RI 02814"]}, "phone": "+14017109470", "display_phone": "(401) 710-9470", "distance": 6816.910137059086}, {"id": "EeGiDYnY0MKAdrkYKteCTg", "alias": "mill-tavern-pizza-millville", "name": "Mill Tavern Pizza", "image_url": "https://s3-media1.fl.yelpcdn.com/bphoto/MPYWO_2hNrwuXrxpgzhNdQ/o.jpg", "is_closed": false, "url": "https://www.yelp.com/biz/mill-tavern-pizza-millville?adjust_creative=pzvBKuEUl0Vl1jtHQqJaog&utm_campaign=yelp_api_v3&utm_medium=api_v3_business_search&utm_source=pzvBKuEUl0Vl1jtHQqJaog", "review_count": 13, "categories": [{"alias": "pizza", "title": "Pizza"}, {"alias": "salad", "title": "Salad"}, {"alias": "sandwiches", "title": "Sandwiches"}], "rating": 4.0, "coordinates": {"latitude": 42.026018, "longitude": -71.575881}, "transactions": [], "price": "$", "location": {"address1": "187 Main St", "address2": "", "address3": "", "city": "Millville", "zip_code": "01529", "country": "US", "state": "MA", "display_address": ["187 Main St", "Millville, MA 01529"]}, "phone": "+15088831650", "display_phone": "(508) 883-1650", "distance": 7862.887803669227}, {"id": "Gtm0C6N_VhD9-3-GT2sY-Q", "alias": "subway-restaurants-pascoag", "name": "Subway Restaurants", "image_url": "https://s3-media2.fl.yelpcdn.com/bphoto/RNuBB27eA8woUsbnEYcFeg/o.jpg", "is_closed": false, "url": "https://www.yelp.com/biz/subway-restaurants-pascoag?adjust_creative=pzvBKuEUl0Vl1jtHQqJaog&utm_campaign=yelp_api_v3&utm_medium=api_v3_business_search&utm_source=pzvBKuEUl0Vl1jtHQqJaog", "review_count": 9, "categories": [{"alias": "sandwiches", "title": "Sandwiches"}], "rating": 1.5, "coordinates": {"latitude": 41.957585, "longitude": -71.701607}, "transactions": [], "price": "$", "location": {"address1": "130 Main St", "address2": null, "address3": null, "city": "PasCoag", "zip_code": "02859", "country": "US", "state": "RI", "display_address": ["130 Main St", "PasCoag, RI 02859"]}, "phone": "+14015683077", "display_phone": "(401) 568-3077", "distance": 5510.073597134938}, {"id": "d6ITMCwsvtz9S5R2qGs8hw", "alias": "pascoag-cafe-pascoag", "name": "Pascoag Cafe", "image_url": "", "is_closed": false, "url": "https://www.yelp.com/biz/pascoag-cafe-pascoag?adjust_creative=pzvBKuEUl0Vl1jtHQqJaog&utm_campaign=yelp_api_v3&utm_medium=api_v3_business_search&utm_source=pzvBKuEUl0Vl1jtHQqJaog", "review_count": 2, "categories": [{"alias": "burgers", "title": "Burgers"}, {"alias": "beerbar", "title": "Beer Bar"}, {"alias": "karaoke", "title": "Karaoke"}], "rating": 3.5, "coordinates": {"latitude": 41.95816, "longitude": -71.7016699}, "transactions": [], "location": {"address1": "150 Pascoag Main St", "address2": "", "address3": null, "city": "Pascoag", "zip_code": "02859", "country": "US", "state": "RI", "display_address": ["150 Pascoag Main St", "Pascoag, RI 02859"]}, "phone": "+14015683609", "display_phone": "(401) 568-3609", "distance": 5491.59116109517}, {"id": "-T8evaY6qmBXeRZvlu9l4g", "alias": "hideaway-pizza-uxbridge", "name": "Hideaway Pizza", "image_url": "https://s3-media1.fl.yelpcdn.com/bphoto/V_amlJ5BJqZI-lmTy01ibQ/o.jpg", "is_closed": false, "url": "https://www.yelp.com/biz/hideaway-pizza-uxbridge?adjust_creative=pzvBKuEUl0Vl1jtHQqJaog&utm_campaign=yelp_api_v3&utm_medium=api_v3_business_search&utm_source=pzvBKuEUl0Vl1jtHQqJaog", "review_count": 3, "categories": [{"alias": "pizza", "title": "Pizza"}], "rating": 3.5, "coordinates": {"latitude": 42.036511, "longitude": -71.619545}, "transactions": [], "price": "$$", "location": {"address1": "535 Quaker Hwy", "address2": "", "address3": "", "city": "Uxbridge", "zip_code": "01569", "country": "US", "state": "MA", "display_address": ["535 Quaker Hwy", "Uxbridge, MA 01569"]}, "phone": "+15082783700", "display_phone": "(508) 278-3700", "distance": 7280.665102151958}, {"id": "bZhm2e7qrEhwFReVO-EudA", "alias": "georges-pizza-n-pub-pascoag-3", "name": "George's Pizza 'N Pub", "image_url": "https://s3-media2.fl.yelpcdn.com/bphoto/oIGtSj4cP_q6TbpYEzGQ6Q/o.jpg", "is_closed": false, "url": "https://www.yelp.com/biz/georges-pizza-n-pub-pascoag-3?adjust_creative=pzvBKuEUl0Vl1jtHQqJaog&utm_campaign=yelp_api_v3&utm_medium=api_v3_business_search&utm_source=pzvBKuEUl0Vl1jtHQqJaog", "review_count": 44, "categories": [{"alias": "pizza", "title": "Pizza"}], "rating": 3.5, "coordinates": {"latitude": 41.95614, "longitude": -71.70232}, "transactions": [], "price": "$$", "location": {"address1": "60 Pascoag Main St", "address2": "", "address3": "", "city": "Pascoag", "zip_code": "02859", "country": "US", "state": "RI", "display_address": ["60 Pascoag Main St", "Pascoag, RI 02859"]}, "phone": "+14015688877", "display_phone": "(401) 568-8877", "distance": 5615.646565633094}, {"id": "tbAvoK7WPaivrHbiXxbDIQ", "alias": "stewarts-diner-blackstone", "name": "Stewart's Diner", "image_url": "https://s3-media2.fl.yelpcdn.com/bphoto/dIXhurw5OzixwIlxbNUHmw/o.jpg", "is_closed": false, "url": "https://www.yelp.com/biz/stewarts-diner-blackstone?adjust_creative=pzvBKuEUl0Vl1jtHQqJaog&utm_campaign=yelp_api_v3&utm_medium=api_v3_business_search&utm_source=pzvBKuEUl0Vl1jtHQqJaog", "review_count": 14, "categories": [{"alias": "diners", "title": "Diners"}, {"alias": "catering", "title": "Caterers"}], "rating": 4.0, "coordinates": {"latitude": 42.018219, "longitude": -71.539957}, "transactions": [], "price": "$", "location": {"address1": "148 Main St", "address2": "", "address3": "", "city": "Blackstone", "zip_code": "01504", "country": "US", "state": "MA", "display_address": ["148 Main St", "Blackstone, MA 01504"]}, "phone": "+15088834855", "display_phone": "(508) 883-4855", "distance": 9570.063470541536}, {"id": "reApOpm5y34rl_ycGtwckA", "alias": "firehouse-pizza-shop-ii-north-smithfield", "name": "Firehouse Pizza Shop II", "image_url": "https://s3-media2.fl.yelpcdn.com/bphoto/dUwegvBm80C-cKfRvTmtEw/o.jpg", "is_closed": false, "url": "https://www.yelp.com/biz/firehouse-pizza-shop-ii-north-smithfield?adjust_creative=pzvBKuEUl0Vl1jtHQqJaog&utm_campaign=yelp_api_v3&utm_medium=api_v3_business_search&utm_source=pzvBKuEUl0Vl1jtHQqJaog", "review_count": 15, "categories": [{"alias": "pizza", "title": "Pizza"}, {"alias": "sandwiches", "title": "Sandwiches"}], "rating": 3.0, "coordinates": {"latitude": 41.99982, "longitude": -71.55062}, "transactions": ["delivery"], "price": "$", "location": {"address1": "639 Great Rd", "address2": "", "address3": "", "city": "North Smithfield", "zip_code": "02896", "country": "US", "state": "RI", "display_address": ["639 Great Rd", "North Smithfield, RI 02896"]}, "phone": "+14017667171", "display_phone": "(401) 766-7171", "distance": 7849.693199209982}, {"id": "5rGouNNMCXi2lvBpLIeZvA", "alias": "martys-liquors-millville", "name": "Marty's Liquors", "image_url": "", "is_closed": false, "url": "https://www.yelp.com/biz/martys-liquors-millville?adjust_creative=pzvBKuEUl0Vl1jtHQqJaog&utm_campaign=yelp_api_v3&utm_medium=api_v3_business_search&utm_source=pzvBKuEUl0Vl1jtHQqJaog", "review_count": 6, "categories": [{"alias": "beer_and_wine", "title": "Beer, Wine & Spirits"}, {"alias": "delis", "title": "Delis"}, {"alias": "sandwiches", "title": "Sandwiches"}], "rating": 4.0, "coordinates": {"latitude": 42.0139304, "longitude": -71.5943051}, "transactions": [], "price": "$$", "location": {"address1": "1 Buxton St", "address2": "", "address3": null, "city": "Millville", "zip_code": "01529", "country": "US", "state": "MA", "display_address": ["1 Buxton St", "Millville, MA 01529"]}, "phone": "+15088831880", "display_phone": "(508) 883-1880", "distance": 6048.884115976171}, {"id": "ZgIAsJyFP5MhOJp-cLV-HA", "alias": "subway-smithfield-18", "name": "Subway", "image_url": "https://s3-media3.fl.yelpcdn.com/bphoto/0IXPBaAIZBdNGTtpPTssnw/o.jpg", "is_closed": false, "url": "https://www.yelp.com/biz/subway-smithfield-18?adjust_creative=pzvBKuEUl0Vl1jtHQqJaog&utm_campaign=yelp_api_v3&utm_medium=api_v3_business_search&utm_source=pzvBKuEUl0Vl1jtHQqJaog", "review_count": 3, "categories": [{"alias": "sandwiches", "title": "Sandwiches"}], "rating": 3.0, "coordinates": {"latitude": 41.920136, "longitude": -71.537065}, "transactions": ["delivery", "pickup"], "price": "$", "location": {"address1": "1150 Douglas Pike", "address2": "", "address3": null, "city": "Smithfield", "zip_code": "02917", "country": "US", "state": "RI", "display_address": ["1150 Douglas Pike", "Smithfield, RI 02917"]}, "phone": "+14012326310", "display_phone": "(401) 232-6310", "distance": 10182.282372904338}, {"id": "YlWNPu9beZhqqPcUo-outQ", "alias": "berts-breakfast-and-lunch-uxbridge", "name": "Bert's Breakfast & Lunch", "image_url": "https://s3-media1.fl.yelpcdn.com/bphoto/S8Flm8zx-lkSikNj-i80_A/o.jpg", "is_closed": false, "url": "https://www.yelp.com/biz/berts-breakfast-and-lunch-uxbridge?adjust_creative=pzvBKuEUl0Vl1jtHQqJaog&utm_campaign=yelp_api_v3&utm_medium=api_v3_business_search&utm_source=pzvBKuEUl0Vl1jtHQqJaog", "review_count": 25, "categories": [{"alias": "sandwiches", "title": "Sandwiches"}, {"alias": "breakfast_brunch", "title": "Breakfast & Brunch"}], "rating": 3.5, "coordinates": {"latitude": 42.038839, "longitude": -71.619727}, "transactions": [], "price": "$", "location": {"address1": "492 Quaker Hwy", "address2": "", "address3": "", "city": "Uxbridge", "zip_code": "01569", "country": "US", "state": "MA", "display_address": ["492 Quaker Hwy", "Uxbridge, MA 01569"]}, "phone": "+15082782130", "display_phone": "(508) 278-2130", "distance": 7530.891709829145}, {"id": "a-Bj8NJQ_yvMG7vPe4HX1A", "alias": "coffee-and-cream-north-smithfield-3", "name": "Coffee & Cream", "image_url": "https://s3-media1.fl.yelpcdn.com/bphoto/VvoVaUe4zoI6y3wKtLkqXw/o.jpg", "is_closed": false, "url": "https://www.yelp.com/biz/coffee-and-cream-north-smithfield-3?adjust_creative=pzvBKuEUl0Vl1jtHQqJaog&utm_campaign=yelp_api_v3&utm_medium=api_v3_business_search&utm_source=pzvBKuEUl0Vl1jtHQqJaog", "review_count": 8, "categories": [{"alias": "breakfast_brunch", "title": "Breakfast & Brunch"}, {"alias": "coffee", "title": "Coffee & Tea"}], "rating": 3.5, "coordinates": {"latitude": 42.0051, "longitude": -71.5856228}, "transactions": [], "location": {"address1": "900 Victory Hwy", "address2": "", "address3": null, "city": "North Smithfield", "zip_code": "02876", "country": "US", "state": "RI", "display_address": ["900 Victory Hwy", "North Smithfield, RI 02876"]}, "phone": "+14014884448", "display_phone": "(401) 488-4448", "distance": 5650.752785511256}, {"id": "lmR1VA37su-6bf_ROcNTMA", "alias": "depetrillos-pizza-and-bakery-of-glocester-chepachet", "name": "DePetrillo's Pizza and Bakery of Glocester", "image_url": "https://s3-media2.fl.yelpcdn.com/bphoto/l6gsyMDS5x-SSdLCZiJbXg/o.jpg", "is_closed": false, "url": "https://www.yelp.com/biz/depetrillos-pizza-and-bakery-of-glocester-chepachet?adjust_creative=pzvBKuEUl0Vl1jtHQqJaog&utm_campaign=yelp_api_v3&utm_medium=api_v3_business_search&utm_source=pzvBKuEUl0Vl1jtHQqJaog", "review_count": 13, "categories": [{"alias": "bakeries", "title": "Bakeries"}, {"alias": "pizza", "title": "Pizza"}], "rating": 3.5, "coordinates": {"latitude": 41.9130828, "longitude": -71.6691469}, "transactions": [], "price": "$", "location": {"address1": "1153 Putnam Pike", "address2": "", "address3": "", "city": "Chepachet", "zip_code": "02814", "country": "US", "state": "RI", "display_address": ["1153 Putnam Pike", "Chepachet, RI 02814"]}, "phone": "+14015684700", "display_phone": "(401) 568-4700", "distance": 7073.591710659982}, {"id": "rB4A8Dls1dmgLUAwR90I4g", "alias": "tonys-pizza-palace-smithfield", "name": "Tony's Pizza Palace", "image_url": "https://s3-media4.fl.yelpcdn.com/bphoto/eDaMacMDhuyiU5fR77pkug/o.jpg", "is_closed": false, "url": "https://www.yelp.com/biz/tonys-pizza-palace-smithfield?adjust_creative=pzvBKuEUl0Vl1jtHQqJaog&utm_campaign=yelp_api_v3&utm_medium=api_v3_business_search&utm_source=pzvBKuEUl0Vl1jtHQqJaog", "review_count": 42, "categories": [{"alias": "pizza", "title": "Pizza"}], "rating": 3.0, "coordinates": {"latitude": 41.89724, "longitude": -71.54482}, "transactions": ["pickup", "delivery"], "price": "$$", "location": {"address1": "200 Pleasant View Ave", "address2": "", "address3": "", "city": "Smithfield", "zip_code": "02917", "country": "US", "state": "RI", "display_address": ["200 Pleasant View Ave", "Smithfield, RI 02917"]}, "phone": "+14012311010", "display_phone": "(401) 231-1010", "distance": 11377.452660892755}, {"id": "uvRX-9ZVB0QDz_geOtG1jw", "alias": "mcdonalds-uxbridge", "name": "McDonald's", "image_url": "https://s3-media2.fl.yelpcdn.com/bphoto/HB1umlj_wluZbTwRy1zgzw/o.jpg", "is_closed": false, "url": "https://www.yelp.com/biz/mcdonalds-uxbridge?adjust_creative=pzvBKuEUl0Vl1jtHQqJaog&utm_campaign=yelp_api_v3&utm_medium=api_v3_business_search&utm_source=pzvBKuEUl0Vl1jtHQqJaog", "review_count": 16, "categories": [{"alias": "hotdogs", "title": "Fast Food"}, {"alias": "burgers", "title": "Burgers"}, {"alias": "coffee", "title": "Coffee & Tea"}], "rating": 2.5, "coordinates": {"latitude": 42.0245784448752, "longitude": -71.6028525}, "transactions": [], "price": "$", "location": {"address1": "200 Quaker Hwy", "address2": "", "address3": "", "city": "Uxbridge", "zip_code": "01569", "country": "US", "state": "MA", "display_address": ["200 Quaker Hwy", "Uxbridge, MA 01569"]}, "phone": "+15082789431", "display_phone": "(508) 278-9431", "distance": 6481.207413990497}, {"id": "YOB6sad0NztJdjK9mfSPSQ", "alias": "subway-north-smithfield-5", "name": "Subway", "image_url": "https://s3-media2.fl.yelpcdn.com/bphoto/_x6M3LTScaNbFBUf7idiiw/o.jpg", "is_closed": false, "url": "https://www.yelp.com/biz/subway-north-smithfield-5?adjust_creative=pzvBKuEUl0Vl1jtHQqJaog&utm_campaign=yelp_api_v3&utm_medium=api_v3_business_search&utm_source=pzvBKuEUl0Vl1jtHQqJaog", "review_count": 5, "categories": [{"alias": "sandwiches", "title": "Sandwiches"}], "rating": 4.5, "coordinates": {"latitude": 42.0050210413264, "longitude": -71.585678046627}, "transactions": [], "price": "$", "location": {"address1": "900 Victory Hwy", "address2": null, "address3": null, "city": "North Smithfield", "zip_code": "02896", "country": "US", "state": "RI", "display_address": ["900 Victory Hwy", "North Smithfield, RI 02896"]}, "phone": "+14017656400", "display_phone": "(401) 765-6400", "distance": 5641.620947973554}, {"id": "JIhRVJ4BAWPH9NZ0u-7Wzw", "alias": "flip-n-roll-fall-river", "name": "Flip N Roll", "image_url": "https://s3-media1.fl.yelpcdn.com/bphoto/A3l1k85peGnmCC17j-Bmhg/o.jpg", "is_closed": false, "url": "https://www.yelp.com/biz/flip-n-roll-fall-river?adjust_creative=pzvBKuEUl0Vl1jtHQqJaog&utm_campaign=yelp_api_v3&utm_medium=api_v3_business_search&utm_source=pzvBKuEUl0Vl1jtHQqJaog", "review_count": 1, "categories": [{"alias": "foodtrucks", "title": "Food Trucks"}, {"alias": "tradamerican", "title": "American (Traditional)"}, {"alias": "portuguese", "title": "Portuguese"}], "rating": 1.0, "coordinates": {"latitude": 41.68687, "longitude": -71.17062}, "transactions": [], "price": "$$", "location": {"address1": "", "address2": "", "address3": "", "city": "Fall River", "zip_code": "02724", "country": "US", "state": "MA", "display_address": ["Fall River, MA 02724"]}, "phone": "", "display_phone": "", "distance": 49733.268884549754}, {"id": "-wCzkyEMTbkaSYo372BvVw", "alias": "subway-smithfield-4", "name": "Subway", "image_url": "", "is_closed": false, "url": "https://www.yelp.com/biz/subway-smithfield-4?adjust_creative=pzvBKuEUl0Vl1jtHQqJaog&utm_campaign=yelp_api_v3&utm_medium=api_v3_business_search&utm_source=pzvBKuEUl0Vl1jtHQqJaog", "review_count": 1, "categories": [{"alias": "hotdogs", "title": "Fast Food"}, {"alias": "sandwiches", "title": "Sandwiches"}], "rating": 4.0, "coordinates": {"latitude": 41.92159, "longitude": -71.53404}, "transactions": [], "price": "$", "location": {"address1": "1150 Douglas Pike", "address2": null, "address3": "", "city": "Smithfield", "zip_code": "02917", "country": "US", "state": "RI", "display_address": ["1150 Douglas Pike", "Smithfield, RI 02917"]}, "phone": "+14012326310", "display_phone": "(401) 232-6310", "distance": 10139.391885438312}, {"id": "Io4C5tUwnb_YzeaMXHBqBA", "alias": "shuckin-truck-narragansett-2", "name": "Shuckin Truck", "image_url": "https://s3-media2.fl.yelpcdn.com/bphoto/r7QRORfe9UYVS7GGzUm9DQ/o.jpg", "is_closed": false, "url": "https://www.yelp.com/biz/shuckin-truck-narragansett-2?adjust_creative=pzvBKuEUl0Vl1jtHQqJaog&utm_campaign=yelp_api_v3&utm_medium=api_v3_business_search&utm_source=pzvBKuEUl0Vl1jtHQqJaog", "review_count": 24, "categories": [{"alias": "foodtrucks", "title": "Food Trucks"}, {"alias": "seafood", "title": "Seafood"}], "rating": 4.5, "coordinates": {"latitude": 41.4274482727051, "longitude": -71.4597778320313}, "transactions": [], "price": "$$", "location": {"address1": "", "address2": "", "address3": "", "city": "Narragansett", "zip_code": "02882", "country": "US", "state": "RI", "display_address": ["Narragansett, RI 02882"]}, "phone": "+14017415953", "display_phone": "(401) 741-5953", "distance": 65027.54236949211}, {"id": "usP9czUkDGcyC7CSseiMdw", "alias": "shuck-food-truck-boston-2", "name": "Shuck Food Truck", "image_url": "https://s3-media2.fl.yelpcdn.com/bphoto/vh62vEgAkPe1IC7D00fF2A/o.jpg", "is_closed": false, "url": "https://www.yelp.com/biz/shuck-food-truck-boston-2?adjust_creative=pzvBKuEUl0Vl1jtHQqJaog&utm_campaign=yelp_api_v3&utm_medium=api_v3_business_search&utm_source=pzvBKuEUl0Vl1jtHQqJaog", "review_count": 27, "categories": [{"alias": "foodtrucks", "title": "Food Trucks"}, {"alias": "seafood", "title": "Seafood"}, {"alias": "tradamerican", "title": "American (Traditional)"}], "rating": 4.5, "coordinates": {"latitude": 42.64758, "longitude": -71.32212}, "transactions": [], "location": {"address1": "", "address2": "", "address3": null, "city": "Boston", "zip_code": "01854", "country": "US", "state": "MA", "display_address": ["Boston, MA 01854"]}, "phone": "+19789446618", "display_phone": "(978) 944-6618", "distance": 78195.70420142304}, {"id": "324pp6avrBFbzw059DoHsA", "alias": "roadies-raleigh", "name": "Roadies", "image_url": "https://s3-media2.fl.yelpcdn.com/bphoto/3zJZmmgIOYrfKoAOp9Du1w/o.jpg", "is_closed": false, "url": "https://www.yelp.com/biz/roadies-raleigh?adjust_creative=pzvBKuEUl0Vl1jtHQqJaog&utm_campaign=yelp_api_v3&utm_medium=api_v3_business_search&utm_source=pzvBKuEUl0Vl1jtHQqJaog", "review_count": 10, "categories": [{"alias": "foodtrucks", "title": "Food Trucks"}, {"alias": "seafood", "title": "Seafood"}], "rating": 4.5, "coordinates": {"latitude": 35.67575, "longitude": -78.66424}, "transactions": [], "price": "$", "location": {"address1": "", "address2": null, "address3": "", "city": "Raleigh", "zip_code": "27603", "country": "US", "state": "NC", "display_address": ["Raleigh, NC 27603"]}, "phone": "+13476136489", "display_phone": "(347) 613-6489", "distance": 929018.4874253417}]